~Version
 VERS              .         2.0                           : CWLS LOG ASCII STANDARD - VERSION 2.0
 WRAP              .         NO                            : ONE LINE PER DEPTH STEP
 DLM               .         SPACE                         : DELIMITING CHARACTER(SPACE TAB OR COMMA)
~Well Information
#_______________________________________________________________________________
#
#PARAMETER_NAME    .UNIT     VALUE                         : DESCRIPTION
#_______________________________________________________________________________
STRT               .M        2645.2                        : First reference value
STOP               .M        2778.800134                   : Last reference value
STEP               .M        0.1000001                     : Step increment
NULL               .         -9999                         : Missing value
COMP               .                                       : Company
WELL               .         616                           : Well name
FLD                .                                       : Field
LOC                .                                       : Location
CNTY               .                                       : County
STAT               .                                       : State
CTRY               .                                       : Country
SRVC               .                                       : Service Company
DATE               .                                       : Date
API                .                                       : API number
PROJECT_UPGRADE_TIME .         2021-03-18T21_24_50           : 
group              .         Good                          : 
~Parameter Information Block
#_______________________________________________________________________________
#
#PARAMETER_NAME    .UNIT     VALUE                         : DESCRIPTION
#_______________________________________________________________________________
SET                .         ResolutionTest                : 
TLFamily_GK_2_D1800_D .         Gamma Ray                     : 
TLFamily_GK_2_D1801_D .         Gamma Ray                     : 
TLFamily_GK_2_D1803_D .         Gamma Ray                     : 
TLFamily_GK_2_D1805_D .         Gamma Ray                     : 
TLFamily_GK_2_D1809_D .         Gamma Ray                     : 
TLFamily_GK_2_D1812_D .         Gamma Ray                     : 
TLFamily_GK_D0400_D .         Gamma Ray                     : 
TLFamily_GK_D0401_D .         Gamma Ray                     : 
TLFamily_GK_D0402_D .         Gamma Ray                     : 
TLFamily_GK_D0403_D .         Gamma Ray                     : 
TLFamily_GK_D1161_D .         Gamma Ray                     : 
TLFamily_GK_D1166_D .         Gamma Ray                     : 
TLFamily_GK_D1169_D .         Gamma Ray                     : 
TLFamily_GK_D1171_D .         Gamma Ray                     : 
TLFamily_GK_D1800_D .         Gamma Ray                     : 
TLFamily_GK_D1800_D_2 .         Gamma Ray                     : 
TLFamily_GK_D1801_D .         Gamma Ray                     : 
TLFamily_GK_D1803_D .         Gamma Ray                     : 
TLFamily_GK_D1805_D .         Gamma Ray                     : 
TLFamily_GK_D1809_D .         Gamma Ray                     : 
TLFamily_GK_D1812_D .         Gamma Ray                     : 
TLFamily_GK_D4391_D .         Gamma Ray                     : 
TLFamily_GK_D4391_D_2 .         Russian Gamma Ray             : 
TLFamily_GK_D4404_D .         Gamma Ray                     : 
TLFamily_GK_D4405_D .         Gamma Ray                     : 
TLFamily_GK_D4405_D_2 .         Russian Gamma Ray             : 
TLFamily_GK_D4407_D .         Gamma Ray                     : 
TLFamily_GK_D4410_D .         Gamma Ray                     : 
TLFamily_GK_D4412_D .         Gamma Ray                     : 
TLFamily_GK_D4415_D .         Gamma Ray                     : 
TLFamily_GK_D4417_D .         Gamma Ray                     : 
TLFamily_GK_D7017_D .         Gamma Ray                     : 
TLFamily_GK_D7017_D_2 .         Gamma Ray                     : 
TLFamily_GK_D7018_D .         Gamma Ray                     : 
TLFamily_GK_D7019_D .         Gamma Ray                     : 
TLFamily_GK_D7020_D .         Gamma Ray                     : 
TLFamily_GK_D7022_D .         Gamma Ray                     : 
TLFamily_GK_D7023_D .         Gamma Ray                     : 
TLFamily_GK_D7024_D .         Gamma Ray                     : 
TLFamily_GK_D7026_D .         Gamma Ray                     : 
TLFamily_GK_D7027_D .         Gamma Ray                     : 
TLFamily_GK_D8102_D_2 .         Russian Gamma Ray             : 
TLFamily_GK_D8103_D .         Gamma Ray                     : 
TLFamily_GK_D8103_D_2 .         Russian Gamma Ray             : 
TLFamily_GK_D8106_D .         Gamma Ray                     : 
TLFamily_GK_D8106_D_2 .         Russian Gamma Ray             : 
TLFamily_GK_D8107_D .         Gamma Ray                     : 
TLFamily_GK_D8107_D_2 .         Russian Gamma Ray             : 
TLFamily_GR_D4391_D .         Gamma Ray                     : 
TLFamily_GR_D4404_D .         Gamma Ray                     : 
TLFamily_GR_D4405_D .         Gamma Ray                     : 
TLFamily_GR_D4407_D .         Gamma Ray                     : 
TLFamily_GR_D4410_D .         Gamma Ray                     : 
TLFamily_GR_D4412_D .         Gamma Ray                     : 
TLFamily_GR_D4415_D .         Gamma Ray                     : 
TLFamily_GR_D4417_D .         Gamma Ray                     : 
TLFamily_MD        .         Measured Depth                : 
~Curve Information
#_______________________________________________________________________________
#
#LOGNAME           .UNIT     LOG_ID                        : DESCRIPTION
#_______________________________________________________________________________
MD                 .M                                      :  
GK_2_D1800_D       .FLT                                    : 14 Гамма-активность фильтрованная, мкр./ч -  110.0 см 
GK_2_D1801_D       .FLT                                    : 14 Гамма-активность фильтрованная, мкр./ч -  110.0 см 
GK_2_D1803_D       .FLT                                    : 14 Гамма-активность фильтрованная, мкр./ч -  110.0 см 
GK_2_D1805_D       .FLT                                    : 14 Гамма-активность фильтрованная, мкр./ч -  110.0 см 
GK_2_D1809_D       .FLT                                    : 14 Гамма-активность фильтрованная, мкр./ч -  110.0 см 
GK_2_D1812_D       .FLT                                    : 14 Гамма-активность фильтрованная, мкр./ч -  110.0 см 
GK_D0400_D         .MKR/H                                  : 12 Гамма-активность, мкр./ч -   65.0 см 
GK_D0401_D         .MKR/H                                  : 12 Гамма-активность, мкр./ч -   65.0 см 
GK_D0402_D         .MKR/H                                  : 12 Гамма-активность, мкр./ч -   65.0 см 
GK_D0403_D         .MKR/H                                  : 12 Гамма-активность, мкр./ч -   65.0 см 
GK_D1161_D         .MKR/H                                  : 15 Гамма-активность, мкр./ч -  110.0 см 
GK_D1166_D         .MKR/H                                  : 15 Гамма-активность, мкр./ч -  110.0 см 
GK_D1169_D         .MKR/H                                  : 15 Гамма-активность, мкр./ч -  110.0 см 
GK_D1171_D         .MKR/H                                  : 15 Гамма-активность, мкр./ч -  110.0 см 
GK_D1800_D         .MKR/H                                  : 13 Гамма-активность, мкр./ч -  110.0 см 
GK_D1800_D_2       .мкР/час                                : Естественная гамма-активность,мкР/ч 
GK_D1801_D         .MKR/H                                  : 13 Гамма-активность, мкр./ч -  110.0 см 
GK_D1803_D         .MKR/H                                  : 13 Гамма-активность, мкр./ч -  110.0 см 
GK_D1805_D         .MKR/H                                  : 13 Гамма-активность, мкр./ч -  110.0 см 
GK_D1809_D         .MKR/H                                  : 13 Гамма-активность, мкр./ч -  110.0 см 
GK_D1812_D         .MKR/H                                  : 13 Гамма-активность, мкр./ч -  110.0 см 
GK_D4391_D         .FLT                                    : 14 Гамма-активность фильтрованная, мкр./ч -  110.0 см 
GK_D4391_D_2       .мкР/ч                                  : Естественная гамма-активность,мкР/ч 
GK_D4404_D         .FLT                                    : 14 Гамма-активность фильтрованная, мкр./ч -  110.0 см 
GK_D4405_D         .FLT                                    : 14 Гамма-активность фильтрованная, мкр./ч -  110.0 см 
GK_D4405_D_2       .мкР/ч                                  : Естественная гамма-активность,мкР/ч 
GK_D4407_D         .FLT                                    : 14 Гамма-активность фильтрованная, мкр./ч -  110.0 см 
GK_D4410_D         .FLT                                    : 14 Гамма-активность фильтрованная, мкр./ч -  110.0 см 
GK_D4412_D         .FLT                                    : 14 Гамма-активность фильтрованная, мкр./ч -  110.0 см 
GK_D4415_D         .FLT                                    : 14 Гамма-активность фильтрованная, мкр./ч -  110.0 см 
GK_D4417_D         .FLT                                    : 14 Гамма-активность фильтрованная, мкр./ч -  110.0 см 
GK_D7017_D         .MKR/H                                  : 16 Гамма-активность, мкр./ч -  106.0 см 
GK_D7017_D_2       .мкР/час                                : Гамма каротаж, мкр/час 
GK_D7018_D         .MKR/H                                  : 16 Гамма-активность, мкр./ч -  106.0 см 
GK_D7019_D         .MKR/H                                  : 16 Гамма-активность, мкр./ч -  106.0 см 
GK_D7020_D         .MKR/H                                  : 16 Гамма-активность, мкр./ч -  106.0 см 
GK_D7022_D         .MKR/H                                  : 16 Гамма-активность, мкр./ч -  106.0 см 
GK_D7023_D         .MKR/H                                  : 16 Гамма-активность, мкр./ч -  106.0 см 
GK_D7024_D         .MKR/H                                  : 16 Гамма-активность, мкр./ч -  106.0 см 
GK_D7026_D         .MKR/H                                  : 16 Гамма-активность, мкр./ч -  106.0 см 
GK_D7027_D         .MKR/H                                  : 16 Гамма-активность, мкр./ч -  106.0 см 
GK_D8102_D_2       .мкР/ч                                  : Естественная гамма-активность,мкР/ч 
GK_D8103_D         .MKR/H                                  : 13 Гамма-активность, мкр./ч -   65.0 см 
GK_D8103_D_2       .мкР/ч                                  : Естественная гамма-активность,мкР/ч 
GK_D8106_D         .MKR/H                                  : 13 Гамма-активность, мкр./ч -   65.0 см 
GK_D8106_D_2       .мкР/ч                                  : Естественная гамма-активность,мкР/ч 
GK_D8107_D         .MKR/H                                  : 13 Гамма-активность, мкр./ч -   65.0 см 
GK_D8107_D_2       .мкР/ч                                  : Естественная гамма-активность,мкР/ч 
GR_D4391_D         .UR/H                                   : 13 Гамма-активность, мкр./ч -  110.0 см 
GR_D4404_D         .UR/H                                   : 13 Гамма-активность, мкр./ч -  110.0 см 
GR_D4405_D         .UR/H                                   : 13 Гамма-активность, мкр./ч -  110.0 см 
GR_D4407_D         .UR/H                                   : 13 Гамма-активность, мкр./ч -  110.0 см 
GR_D4410_D         .UR/H                                   : 13 Гамма-активность, мкр./ч -  110.0 см 
GR_D4412_D         .UR/H                                   : 13 Гамма-активность, мкр./ч -  110.0 см 
GR_D4415_D         .UR/H                                   : 13 Гамма-активность, мкр./ч -  110.0 см 
GR_D4417_D         .UR/H                                   : 13 Гамма-активность, мкр./ч -  110.0 см 
~Ascii
# ...
2667.300022 -9999      -9999      -9999      -9999      -9999      -9999      -9999      -9999      -9999      -9999      6.180305   7.044994   6.139866   6.339939   -9999      -9999      -9999      -9999      -9999      -9999      -9999      6.86453    6.86453    6.73442    -9999      -9999      6.484493   5.804725   5.999866   5.91       6.524872   6.920232   8.264969   -9999      7.425079   6.355006   6.864811   6.600061   6.975238   7.135055   7.194969   6.250293   4.395079   6.374969   4.570074   5.225092   4.520037   5.334994   6.86453    6.73442    -9999      6.484493   5.804725   5.999866   5.91       6.524872  
2667.400022 -9999      -9999      -9999      -9999      -9999      -9999      4.64       -9999      -9999      -9999      6.43       7.04       6.03       6.29       -9999      -9999      -9999      -9999      -9999      -9999      -9999      6.48       6.48       6.26       -9999      -9999      6.07       5.58       5.89       5.91       6.42       7.11       8.24       -9999      7.49       6.36       6.71       6.65       7.17       7.18       7.17       6.49       4.46       6.35       4.63       5.3        4.55       5.33       6.48       6.26       -9999      6.07       5.58       5.89       5.91       6.42      
2667.500022 -9999      -9999      -9999      -9999      -9999      -9999      4.55       -9999      -9999      -9999      6.63       6.865      5.995      6.195      -9999      -9999      -9999      -9999      -9999      -9999      -9999      6.56       6.56       6.26       -9999      -9999      6.065      5.58       5.89       5.89       6.145      7.05       8.57       -9999      7.61       6.365      6.63       6.7        7.29       7.145      7.095      6.1        4.25       6.17       4.785      5.375      4.57       5.215      6.56       6.26       -9999      6.065      5.58       5.89       5.89       6.145     
2667.600022 -9999      -9999      -9999      -9999      -9999      -9999      4.460219   -9999      -9999      -9999      6.829512   6.690427   5.960085   6.100232   -9999      -9999      -9999      -9999      -9999      -9999      -9999      6.639805   6.639805   6.26       -9999      -9999      6.060012   5.58       5.89       5.870049   5.870671   6.990146   8.899195   -9999      7.729707   6.369987   6.550195   6.749878   7.409707   7.110085   7.020183   5.710951   4.040512   5.990439   4.939622   5.449817   4.589952   5.10028    6.639805   6.26       -9999      6.060012   5.58       5.89       5.870049   5.870671  
2667.700022 -9999      -9999      -9999      -9999      -9999      -9999      4.559878   -9999      -9999      -9999      6.800036   6.51022    6.034908   6.060049   -9999      -9999      -9999      -9999      -9999      -9999      -9999      6.769841   6.769841   6.434786   -9999      -9999      6.279731   5.909597   6.20961    5.87       5.87       7.019963   8.974908   -9999      7.839866   6.394969   6.619915   6.824908   7.484908   7.075043   6.965067   5.794896   4.179829   5.840183   4.959976   5.939402   4.724835   5.085018   6.769841   6.434786   -9999      6.279731   5.909597   6.20961    5.87       5.87      
2667.800023 -9999      -9999      -9999      -9999      -9999      -9999      4.66       -9999      -9999      -9999      6.77       6.33       6.11       6.02       -9999      9.77       -9999      -9999      -9999      -9999      -9999      6.9        6.9        6.61       -9999      -9999      6.5        6.24       6.53       5.87       5.87       7.05       9.05       -9999      7.95       6.42       6.69       6.9        7.56       7.04       6.91       5.88       4.32       5.69       4.98       6.43       4.86       5.07       6.9        6.61       -9999      6.5        6.24       6.53       5.87       5.87      
2667.900023 -9999      -9999      -9999      -9999      -9999      -9999      4.709939   -9999      -9999      -9999      6.789976   6.195165   6.149951   6.015006   -9999      9.655141   -9999      -9999      -9999      -9999      -9999      6.845067   6.845067   6.61       -9999      -9999      6.5        6.24       6.53       5.845031   5.954896   7.239768   8.78033    -9999      7.900061   6.434982   6.724957   6.909988   7.56       7.144872   6.944957   6.044798   4.324994   5.799866   4.905092   6.594799   4.884969   4.815311   6.845067   6.61       -9999      6.5        6.24       6.53       5.845031   5.954896  
2668.000023 -9999      -9999      -9999      -9999      -9999      -9999      4.76       -9999      -9999      -9999      6.81       6.06       6.19       6.01       -9999      9.54       -9999      -9999      -9999      -9999      -9999      6.79       6.79       6.61       -9999      -9999      6.5        6.24       6.53       5.82       6.04       7.43       8.51       -9999      7.85       6.45       6.76       6.92       7.56       7.25       6.98       6.21       4.33       5.91       4.83       6.76       4.91       4.56       6.79       6.61       -9999      6.5        6.24       6.53       5.82       6.04      
2668.100023 -9999      -9999      -9999      -9999      -9999      -9999      4.904823   -9999      -9999      -9999      7.034725   5.990086   6.199988   6.01       -9999      9.210403   -9999      -9999      -9999      -9999      -9999      7.009731   7.009731   6.644957   -9999      -9999      6.360171   6.394811   6.320257   5.82       6.079951   7.614774   8.819622   -9999      7.690196   6.494945   6.799952   6.80514    7.350256   7.289951   7.024945   6.110122   4.320012   5.954945   4.909902   6.789964   4.815116   4.564994   7.009731   6.644957   -9999      6.360171   6.394811   6.320257   5.82       6.079951  
2668.200023 -9999      -9999      -9999      -9999      -9999      -9999      5.05       -9999      -9999      -9999      7.26       5.92       6.21       6.01       -9999      8.88       -9999      -9999      -9999      -9999      -9999      7.23       7.23       6.68       -9999      -9999      6.22       6.55       6.11       5.82       6.12       7.8        9.13       -9999      7.53       6.54       6.84       6.69       7.14       7.33       7.07       6.01       4.31       6          4.99       6.82       4.72       4.57       7.23       6.68       -9999      6.22       6.55       6.11       5.82       6.12      
2668.300023 -9999      -9999      -9999      -9999      -9999      -9999      5.210196   -9999      -9999      -9999      7.520318   5.925006   6.215006   5.999988   -9999      9.030184   -9999      -9999      -9999      -9999      -9999      6.939646   6.939646   6.68       -9999      -9999      6.22       6.55       6.11       5.789964   6.180073   8.055311   9.530489   -9999      7.349781   6.575043   6.784933   6.614908   7.034872   7.254908   7.145092   5.954933   4.320012   5.974969   5.035055   6.52464    4.484713   4.670122   6.939646   6.68       -9999      6.22       6.55       6.11       5.789964   6.180073  
2668.400023 -9999      -9999      -9999      -9999      -9999      -9999      5.37       -9999      -9999      -9999      7.78       5.93       6.22       5.99       -9999      9.18       -9999      -9999      -9999      -9999      -9999      6.65       6.65       6.68       -9999      -9999      6.22       6.55       6.11       5.76       6.24       8.31       9.93       -9999      7.17       6.61       6.73       6.54       6.93       7.18       7.22       5.9        4.33       5.95       5.08       6.23       4.25       4.77       6.65       6.68       -9999      6.22       6.55       6.11       5.76       6.24      
2668.500023 -9999      -9999      -9999      -9999      -9999      -9999      5.51       -9999      -9999      -9999      7.725      5.965      6.22       5.98       -9999      8.7095     -9999      -9999      -9999      -9999      -9999      5.895      5.8955     6.59       -9999      -9999      6.57       6.515      6.295      5.76       6.45       8.285      9.809999   -9999      7.025      6.685      6.615      6.475      6.8        7.06       7.27       5.58       4.445      5.52       4.96       6.215      4.24       4.955      5.895      6.59       -9999      6.57       6.515      6.295      5.76       6.45      
