~Version
 VERS              .         2.0                           : CWLS LOG ASCII STANDARD - VERSION 2.0
 WRAP              .         NO                            : ONE LINE PER DEPTH STEP
 DLM               .         SPACE                         : DELIMITING CHARACTER(SPACE TAB OR COMMA)
~Well Information
#_______________________________________________________________________________
#
#PARAMETER_NAME    .UNIT     VALUE                         : DESCRIPTION
#_______________________________________________________________________________
STRT               .M        2645.2                        : First reference value
STOP               .M        2778.800134                   : Last reference value
STEP               .M        0.1000001                     : Step increment
NULL               .         -9999                         : Missing value
COMP               .                                       : Company
WELL               .         616                           : Well name
FLD                .                                       : Field
LOC                .                                       : Location
CNTY               .                                       : County
STAT               .                                       : State
CTRY               .                                       : Country
SRVC               .                                       : Service Company
DATE               .                                       : Date
API                .                                       : API number
PROJECT_UPGRADE_TIME .         2021-03-18T21_24_50           : 
group              .         Good                          : 
~Parameter Information Block
#_______________________________________________________________________________
#
#PARAMETER_NAME    .UNIT     VALUE                         : DESCRIPTION
#_______________________________________________________________________________
SET                .         ResolutionTest                : 
TLFamily_GK_2_D1800_D .         Gamma Ray                     : 
TLFamily_GK_2_D1801_D .         Gamma Ray                     : 
TLFamily_GK_2_D1803_D .         Gamma Ray                     : 
TLFamily_GK_2_D1805_D .         Gamma Ray                     : 
TLFamily_GK_2_D1809_D .         Gamma Ray                     : 
TLFamily_GK_2_D1812_D .         Gamma Ray                     : 
TLFamily_GK_D0400_D .         Gamma Ray                     : 
TLFamily_GK_D0401_D .         Gamma Ray                     : 
TLFamily_GK_D0402_D .         Gamma Ray                     : 
TLFamily_GK_D0403_D .         Gamma Ray                     : 
TLFamily_GK_D1161_D .         Gamma Ray                     : 
TLFamily_GK_D1166_D .         Gamma Ray                     : 
TLFamily_GK_D1169_D .         Gamma Ray                     : 
TLFamily_GK_D1171_D .         Gamma Ray                     : 
TLFamily_GK_D1800_D .         Gamma Ray                     : 
TLFamily_GK_D1800_D_2 .         Gamma Ray                     : 
TLFamily_GK_D1801_D .         Gamma Ray                     : 
TLFamily_GK_D1803_D .         Gamma Ray                     : 
TLFamily_GK_D1805_D .         Gamma Ray                     : 
TLFamily_GK_D1809_D .         Gamma Ray                     : 
TLFamily_GK_D1812_D .         Gamma Ray                     : 
TLFamily_GK_D4391_D .         Gamma Ray                     : 
TLFamily_GK_D4391_D_2 .         Russian Gamma Ray             : 
TLFamily_GK_D4404_D .         Gamma Ray                     : 
TLFamily_GK_D4405_D .         Gamma Ray                     : 
TLFamily_GK_D4405_D_2 .         Russian Gamma Ray             : 
TLFamily_GK_D4407_D .         Gamma Ray                     : 
TLFamily_GK_D4410_D .         Gamma Ray                     : 
TLFamily_GK_D4412_D .         Gamma Ray                     : 
TLFamily_GK_D4415_D .         Gamma Ray                     : 
TLFamily_GK_D4417_D .         Gamma Ray                     : 
TLFamily_GK_D7017_D .         Gamma Ray                     : 
TLFamily_GK_D7017_D_2 .         Gamma Ray                     : 
TLFamily_GK_D7018_D .         Gamma Ray                     : 
TLFamily_GK_D7019_D .         Gamma Ray                     : 
TLFamily_GK_D7020_D .         Gamma Ray                     : 
TLFamily_GK_D7022_D .         Gamma Ray                     : 
TLFamily_GK_D7023_D .         Gamma Ray                     : 
TLFamily_GK_D7024_D .         Gamma Ray                     : 
TLFamily_GK_D7026_D .         Gamma Ray                     : 
TLFamily_GK_D7027_D .         Gamma Ray                     : 
TLFamily_GK_D8102_D_2 .         Russian Gamma Ray             : 
TLFamily_GK_D8103_D .         Gamma Ray                     : 
TLFamily_GK_D8103_D_2 .         Russian Gamma Ray             : 
TLFamily_GK_D8106_D .         Gamma Ray                     : 
TLFamily_GK_D8106_D_2 .         Russian Gamma Ray             : 
TLFamily_GK_D8107_D .         Gamma Ray                     : 
TLFamily_GK_D8107_D_2 .         Russian Gamma Ray             : 
TLFamily_GR_D4391_D .         Gamma Ray                     : 
TLFamily_GR_D4404_D .         Gamma Ray                     : 
TLFamily_GR_D4405_D .         Gamma Ray                     : 
TLFamily_GR_D4407_D .         Gamma Ray                     : 
TLFamily_GR_D4410_D .         Gamma Ray                     : 
TLFamily_GR_D4412_D .         Gamma Ray                     : 
TLFamily_GR_D4415_D .         Gamma Ray                     : 
TLFamily_GR_D4417_D .         Gamma Ray                     : 
TLFamily_MD        .         Measured Depth                : 
~Curve Information
#_______________________________________________________________________________
#
#LOGNAME           .UNIT     LOG_ID                        : DESCRIPTION
#_______________________________________________________________________________
MD                 .M                                      :  
GK_2_D1800_D       .FLT                                    : 14 Гамма-активность фильтрованная, мкр./ч -  110.0 см 
GK_2_D1801_D       .FLT                                    : 14 Гамма-активность фильтрованная, мкр./ч -  110.0 см 
GK_2_D1803_D       .FLT                                    : 14 Гамма-активность фильтрованная, мкр./ч -  110.0 см 
GK_2_D1805_D       .FLT                                    : 14 Гамма-активность фильтрованная, мкр./ч -  110.0 см 
GK_2_D1809_D       .FLT                                    : 14 Гамма-активность фильтрованная, мкр./ч -  110.0 см 
GK_2_D1812_D       .FLT                                    : 14 Гамма-активность фильтрованная, мкр./ч -  110.0 см 
GK_D0400_D         .MKR/H                                  : 12 Гамма-активность, мкр./ч -   65.0 см 
GK_D0401_D         .MKR/H                                  : 12 Гамма-активность, мкр./ч -   65.0 см 
GK_D0402_D         .MKR/H                                  : 12 Гамма-активность, мкр./ч -   65.0 см 
GK_D0403_D         .MKR/H                                  : 12 Гамма-активность, мкр./ч -   65.0 см 
GK_D1161_D         .MKR/H                                  : 15 Гамма-активность, мкр./ч -  110.0 см 
GK_D1166_D         .MKR/H                                  : 15 Гамма-активность, мкр./ч -  110.0 см 
GK_D1169_D         .MKR/H                                  : 15 Гамма-активность, мкр./ч -  110.0 см 
GK_D1171_D         .MKR/H                                  : 15 Гамма-активность, мкр./ч -  110.0 см 
GK_D1800_D         .MKR/H                                  : 13 Гамма-активность, мкр./ч -  110.0 см 
GK_D1800_D_2       .мкР/час                                : Естественная гамма-активность,мкР/ч 
GK_D1801_D         .MKR/H                                  : 13 Гамма-активность, мкр./ч -  110.0 см 
GK_D1803_D         .MKR/H                                  : 13 Гамма-активность, мкр./ч -  110.0 см 
GK_D1805_D         .MKR/H                                  : 13 Гамма-активность, мкр./ч -  110.0 см 
GK_D1809_D         .MKR/H                                  : 13 Гамма-активность, мкр./ч -  110.0 см 
GK_D1812_D         .MKR/H                                  : 13 Гамма-активность, мкр./ч -  110.0 см 
GK_D4391_D         .FLT                                    : 14 Гамма-активность фильтрованная, мкр./ч -  110.0 см 
GK_D4391_D_2       .мкР/ч                                  : Естественная гамма-активность,мкР/ч 
GK_D4404_D         .FLT                                    : 14 Гамма-активность фильтрованная, мкр./ч -  110.0 см 
GK_D4405_D         .FLT                                    : 14 Гамма-активность фильтрованная, мкр./ч -  110.0 см 
GK_D4405_D_2       .мкР/ч                                  : Естественная гамма-активность,мкР/ч 
GK_D4407_D         .FLT                                    : 14 Гамма-активность фильтрованная, мкр./ч -  110.0 см 
GK_D4410_D         .FLT                                    : 14 Гамма-активность фильтрованная, мкр./ч -  110.0 см 
GK_D4412_D         .FLT                                    : 14 Гамма-активность фильтрованная, мкр./ч -  110.0 см 
GK_D4415_D         .FLT                                    : 14 Гамма-активность фильтрованная, мкр./ч -  110.0 см 
GK_D4417_D         .FLT                                    : 14 Гамма-активность фильтрованная, мкр./ч -  110.0 см 
GK_D7017_D         .MKR/H                                  : 16 Гамма-активность, мкр./ч -  106.0 см 
GK_D7017_D_2       .мкР/час                                : Гамма каротаж, мкр/час 
GK_D7018_D         .MKR/H                                  : 16 Гамма-активность, мкр./ч -  106.0 см 
GK_D7019_D         .MKR/H                                  : 16 Гамма-активность, мкр./ч -  106.0 см 
GK_D7020_D         .MKR/H                                  : 16 Гамма-активность, мкр./ч -  106.0 см 
GK_D7022_D         .MKR/H                                  : 16 Гамма-активность, мкр./ч -  106.0 см 
GK_D7023_D         .MKR/H                                  : 16 Гамма-активность, мкр./ч -  106.0 см 
GK_D7024_D         .MKR/H                                  : 16 Гамма-активность, мкр./ч -  106.0 см 
GK_D7026_D         .MKR/H                                  : 16 Гамма-активность, мкр./ч -  106.0 см 
GK_D7027_D         .MKR/H                                  : 16 Гамма-активность, мкр./ч -  106.0 см 
GK_D8102_D_2       .мкР/ч                                  : Естественная гамма-активность,мкР/ч 
GK_D8103_D         .MKR/H                                  : 13 Гамма-активность, мкр./ч -   65.0 см 
GK_D8103_D_2       .мкР/ч                                  : Естественная гамма-активность,мкР/ч 
GK_D8106_D         .MKR/H                                  : 13 Гамма-активность, мкр./ч -   65.0 см 
GK_D8106_D_2       .мкР/ч                                  : Естественная гамма-активность,мкР/ч 
GK_D8107_D         .MKR/H                                  : 13 Гамма-активность, мкр./ч -   65.0 см 
GK_D8107_D_2       .мкР/ч                                  : Естественная гамма-активность,мкР/ч 
GR_D4391_D         .UR/H                                   : 13 Гамма-активность, мкр./ч -  110.0 см 
GR_D4404_D         .UR/H                                   : 13 Гамма-активность, мкр./ч -  110.0 см 
GR_D4405_D         .UR/H                                   : 13 Гамма-активность, мкр./ч -  110.0 см 
GR_D4407_D         .UR/H                                   : 13 Гамма-активность, мкр./ч -  110.0 см 
GR_D4410_D         .UR/H                                   : 13 Гамма-активность, мкр./ч -  110.0 см 
GR_D4412_D         .UR/H                                   : 13 Гамма-активность, мкр./ч -  110.0 см 
GR_D4415_D         .UR/H                                   : 13 Гамма-активность, мкр./ч -  110.0 см 
GR_D4417_D         .UR/H                                   : 13 Гамма-активность, мкр./ч -  110.0 см 
~Ascii
# ...
2727.100082 7.695262   8.174701   8.954933   8.859976   7.83475    7.825006   5.255128   5.484945   5.434957   4.560024   6.190232   5.119976   5.514908   5.769963   7.700256   10.62984   8.194689   9.02       8.859976   7.984921   7.82       11.65488   11.65488   8.045055   10.81      10.81      8.124994   8.304762   7.084823   7.660281   7.549878   9.084261   9.704249   9.763907   6.69514    7.084884   7.974921   8.439732   8.634933   8.224701   7.709963   7.279414   4.309976   7.325018   5.369915   5.009853   5.164847   5.655079   11.65488   8.045055   10.81      8.124994   8.304762   7.084823   7.660281   7.549878  
2727.200082 7.48       8.42       9.01       8.88       8.04       7.82       5.15       5.53       5.47       4.54       6          5.14       5.59       5.8        7.49       10.76      8.45       9.02       8.88       8.05       7.82       11.75      11.75      8          10.81      10.81      8.13       8.5        7.23       7.43       7.65       9.69       10.32      10.66      6.58       7.18       8.04       8.66       8.69       8.47       7.74       7.76       4.33       7.31       5.44       5.13       5.29       5.59       11.75      8          10.81      8.13       8.5        7.23       7.43       7.65      
2727.300082 7.329817   8.435019   8.884848   8.849963   8.050013   7.754921   5.054884   5.469927   5.510049   4.585055   5.864835   5.150012   5.615031   5.805006   7.30978    11.02032   8.45       8.854798   8.834945   8.055006   7.749915   11.68492   11.68492   8          10.82001   10.82001   8.029878   8.5        7.23       7.43       7.65       10.56607   10.52024   11.34584   6.549963   7.235067   8.085055   8.830208   8.720037   8.580134   7.835116   8.025324   4.475177   7.224896   5.53011    5.155031   5.295006   4.994274   11.68492   8          10.82001   8.029878   8.5        7.23       7.43       7.65      
2727.400082 7.18       8.45       8.76       8.82       8.06       7.69       4.96       5.41       5.55       4.63       5.73       5.16       5.64       5.81       7.13       11.28      8.45       8.69       8.79       8.06       7.68       11.62      11.62      8          10.83      10.83      7.93       8.5        7.23       7.43       7.65       11.44      10.72      12.03      6.52       7.29       8.13       9          8.75       8.69       7.93       8.29       4.62       7.14       5.62       5.18       5.3        4.4        11.62      8          10.83      7.93       8.5        7.23       7.43       7.65      
2727.500082 7.62       8.085      8.725      8.605      8.07       7.685      4.96       5.315      5.625      4.745      6.1        5.37       5.625      5.76       7.36       11.5495    8.05       8.69       8.585      8.07       7.68       11.535     11.535     7.68       10.975     10.975     7.91       8.555      7.495      7.295      7.65       11.495     10.755     12.32      6.655      7.345      8.32       9.335      8.965      8.74       8.075      7.8        4.46       6.915      5.63       5.7895     5.41       4.4        11.535     7.68       10.975     7.91       8.555      7.495      7.295      7.65      
2727.600082 8.058928   7.72089    8.690085   8.390525   8.079975   7.680012   4.96       5.220232   5.699817   4.85972    6.469097   5.579488   5.610037   5.710122   7.589439   11.81834   7.650976   8.69       8.3805     8.079975   7.68       11.45021   11.45021   7.360781   11.11965   11.11965   7.890049   8.609865   7.759354   7.160329   7.65       11.54987   10.78991   12.60929   6.78967    7.399866   8.509537   9.669183   9.179476   8.789878   8.219646   7.311195   4.30039    6.690549   5.639976   6.397513   5.519732   4.4        11.45021   7.360781   11.11965   7.890049   8.609865   7.759354   7.160329   7.65      
2727.700083 9.278511   7.685043   8.21558    8.370025   8.055031   7.485238   5.044896   5.234982   5.754933   4.884969   6.714701   5.734811   5.605006   5.690024   9.043223   11.14033   7.65       8.15066    8.360024   8.045043   7.480244   11.00055   11.00055   7.36       10.89028   10.89028   7.875018   8.61       7.76       7.16       7.405299   11.4651    10.69012   12.52011   6.984762   7.464921   8.644835   9.844787   9.299853   8.710097   8.374811   6.970415   4.3        6.425323   5.380317   6.574286   5.549963   4.370037   11.00055   7.36       10.89028   7.875018   8.61       7.76       7.16       7.405299  
2727.800083 10.5       7.65       7.74       8.35       8.03       7.29       5.13       5.25       5.81       4.91       6.96       5.89       5.6        5.67       10.5       10.46      7.65       7.61       8.34       8.01       7.28       10.55      10.55      7.36       10.66      10.66      7.86       8.61       7.76       7.16       7.16       11.38      10.59      12.43      7.18       7.53       8.78       10.02      9.42       8.63       8.53       6.63       4.3        6.16       5.12       6.75       5.58       4.34       10.55      7.36       10.66      7.86       8.61       7.76       7.16       7.16      
2727.900083 10.63484   7.255482   7.675079   8.345006   7.85022    7.195116   5.085055   5.299939   5.785031   4.900012   6.925043   5.994872   5.739829   5.630049   10.62984   10.54989   7.2405     7.61       8.34       7.83022    7.135177   9.910782   9.911281   7.185214   10.80982   10.80982   7.850012   8.974554   8.229426   7.304823   7.16       11.8694    10.59      12.64973   7.469646   7.70978    8.989743   10.16482   9.509891   8.570073   8.669829   6.550097   4.419854   6.060122   4.950208   6.92978    5.510086   4.34       9.910782   7.185214   10.80982   7.850012   8.974554   8.229426   7.304823   7.16      
2728.000083 10.77      6.86       7.61       8.34       7.67       7.1        5.04       5.35       5.76       4.89       6.89       6.1        5.88       5.59       10.76      10.64      6.83       7.61       8.34       7.65       6.99       9.27       9.271      7.01       10.96      10.96      7.84       9.34       8.7        7.45       7.16       12.36      10.59      12.87      7.76       7.89       9.2        10.31      9.6        8.51       8.81       6.47       4.54       5.96       4.78       7.11       5.44       4.34       9.27       7.01       10.96      7.84       9.34       8.7        7.45       7.16      
2728.100083 11.03967   6.845018   7.540085   8.180196   7.635043   6.955177   4.95011    5.394945   5.715055   4.944933   6.949927   6.18989    5.934933   5.575018   11.01968   10.25497   6.83       7.525104   8.100293   7.610049   6.90011    8.426032   8.427032   7.01       9.986191   9.98669    7.84       9.34       8.7        7.45       7.294835   12.62468   10.21496   13.45429   7.914811   8.064786   9.309866   10.39989   9.659927   8.704762   8.904884   6.080476   4.609914   5.330769   4.705092   6.950195   5.420024   4.369964   8.426032   7.01       9.986191   7.84       9.34       8.7        7.45       7.294835  
2728.200083 11.31      6.83       7.47       8.02       7.6        6.81       4.86       5.44       5.67       5          7.01       6.28       5.99       5.56       11.28      9.869      6.83       7.44       7.86       7.57       6.81       7.58       7.581      7.01       9.01       9.011      7.84       9.34       8.7        7.45       7.43       12.89      9.839      14.04      8.07       8.24       9.42       10.49      9.72       8.9        9          5.69       4.68       4.7        4.63       6.79       5.4        4.4        7.58       7.01       9.01       7.84       9.34       8.7        7.45       7.43      
2728.300083 11.53528   6.985189   7.454982   7.944909   7.579976   6.890098   4.885031   5.485055   5.609927   5.035043   7.085092   6.224933   6.085116   5.620073   11.55033   8.992932   6.995202   7.44       7.86       7.564994   6.935153   7.590012   7.590511   7.55066    8.219035   8.220036   7.84       9.510208   9.350794   8.010683   7.715348   13.33054   8.7732     14.5356    8.16011    8.260024   9.440024   10.43493   9.790086   9.090232   9.085104   5.479743   4.700024   4.654945   4.609976   6.729927   5.274848   4.455067   7.590012   7.55066    8.219035   7.84       9.510208   9.350794   8.010683   7.715348  
