~Version
 VERS              .         2.0                           : CWLS LOG ASCII STANDARD - VERSION 2.0
 WRAP              .         NO                            : ONE LINE PER DEPTH STEP
 DLM               .         SPACE                         : DELIMITING CHARACTER(SPACE TAB OR COMMA)
~Well Information
#_______________________________________________________________________________
#
#PARAMETER_NAME    .UNIT     VALUE                         : DESCRIPTION
#_______________________________________________________________________________
STRT               .M        2645.2                        : First reference value
STOP               .M        2778.800134                   : Last reference value
STEP               .M        0.1000001                     : Step increment
NULL               .         -9999                         : Missing value
COMP               .                                       : Company
WELL               .         616                           : Well name
FLD                .                                       : Field
LOC                .                                       : Location
CNTY               .                                       : County
STAT               .                                       : State
CTRY               .                                       : Country
SRVC               .                                       : Service Company
DATE               .                                       : Date
API                .                                       : API number
PROJECT_UPGRADE_TIME .         2021-03-18T21_24_50           : 
group              .         Good                          : 
~Parameter Information Block
#_______________________________________________________________________________
#
#PARAMETER_NAME    .UNIT     VALUE                         : DESCRIPTION
#_______________________________________________________________________________
SET                .         ResolutionTest                : 
TLFamily_GK_2_D1800_D .         Gamma Ray                     : 
TLFamily_GK_2_D1801_D .         Gamma Ray                     : 
TLFamily_GK_2_D1803_D .         Gamma Ray                     : 
TLFamily_GK_2_D1805_D .         Gamma Ray                     : 
TLFamily_GK_2_D1809_D .         Gamma Ray                     : 
TLFamily_GK_2_D1812_D .         Gamma Ray                     : 
TLFamily_GK_D0400_D .         Gamma Ray                     : 
TLFamily_GK_D0401_D .         Gamma Ray                     : 
TLFamily_GK_D0402_D .         Gamma Ray                     : 
TLFamily_GK_D0403_D .         Gamma Ray                     : 
TLFamily_GK_D1161_D .         Gamma Ray                     : 
TLFamily_GK_D1166_D .         Gamma Ray                     : 
TLFamily_GK_D1169_D .         Gamma Ray                     : 
TLFamily_GK_D1171_D .         Gamma Ray                     : 
TLFamily_GK_D1800_D .         Gamma Ray                     : 
TLFamily_GK_D1800_D_2 .         Gamma Ray                     : 
TLFamily_GK_D1801_D .         Gamma Ray                     : 
TLFamily_GK_D1803_D .         Gamma Ray                     : 
TLFamily_GK_D1805_D .         Gamma Ray                     : 
TLFamily_GK_D1809_D .         Gamma Ray                     : 
TLFamily_GK_D1812_D .         Gamma Ray                     : 
TLFamily_GK_D4391_D .         Gamma Ray                     : 
TLFamily_GK_D4391_D_2 .         Russian Gamma Ray             : 
TLFamily_GK_D4404_D .         Gamma Ray                     : 
TLFamily_GK_D4405_D .         Gamma Ray                     : 
TLFamily_GK_D4405_D_2 .         Russian Gamma Ray             : 
TLFamily_GK_D4407_D .         Gamma Ray                     : 
TLFamily_GK_D4410_D .         Gamma Ray                     : 
TLFamily_GK_D4412_D .         Gamma Ray                     : 
TLFamily_GK_D4415_D .         Gamma Ray                     : 
TLFamily_GK_D4417_D .         Gamma Ray                     : 
TLFamily_GK_D7017_D .         Gamma Ray                     : 
TLFamily_GK_D7017_D_2 .         Gamma Ray                     : 
TLFamily_GK_D7018_D .         Gamma Ray                     : 
TLFamily_GK_D7019_D .         Gamma Ray                     : 
TLFamily_GK_D7020_D .         Gamma Ray                     : 
TLFamily_GK_D7022_D .         Gamma Ray                     : 
TLFamily_GK_D7023_D .         Gamma Ray                     : 
TLFamily_GK_D7024_D .         Gamma Ray                     : 
TLFamily_GK_D7026_D .         Gamma Ray                     : 
TLFamily_GK_D7027_D .         Gamma Ray                     : 
TLFamily_GK_D8102_D_2 .         Russian Gamma Ray             : 
TLFamily_GK_D8103_D .         Gamma Ray                     : 
TLFamily_GK_D8103_D_2 .         Russian Gamma Ray             : 
TLFamily_GK_D8106_D .         Gamma Ray                     : 
TLFamily_GK_D8106_D_2 .         Russian Gamma Ray             : 
TLFamily_GK_D8107_D .         Gamma Ray                     : 
TLFamily_GK_D8107_D_2 .         Russian Gamma Ray             : 
TLFamily_GR_D4391_D .         Gamma Ray                     : 
TLFamily_GR_D4404_D .         Gamma Ray                     : 
TLFamily_GR_D4405_D .         Gamma Ray                     : 
TLFamily_GR_D4407_D .         Gamma Ray                     : 
TLFamily_GR_D4410_D .         Gamma Ray                     : 
TLFamily_GR_D4412_D .         Gamma Ray                     : 
TLFamily_GR_D4415_D .         Gamma Ray                     : 
TLFamily_GR_D4417_D .         Gamma Ray                     : 
TLFamily_MD        .         Measured Depth                : 
~Curve Information
#_______________________________________________________________________________
#
#LOGNAME           .UNIT     LOG_ID                        : DESCRIPTION
#_______________________________________________________________________________
MD                 .M                                      :  
GK_2_D1800_D       .FLT                                    : 14 Гамма-активность фильтрованная, мкр./ч -  110.0 см 
GK_2_D1801_D       .FLT                                    : 14 Гамма-активность фильтрованная, мкр./ч -  110.0 см 
GK_2_D1803_D       .FLT                                    : 14 Гамма-активность фильтрованная, мкр./ч -  110.0 см 
GK_2_D1805_D       .FLT                                    : 14 Гамма-активность фильтрованная, мкр./ч -  110.0 см 
GK_2_D1809_D       .FLT                                    : 14 Гамма-активность фильтрованная, мкр./ч -  110.0 см 
GK_2_D1812_D       .FLT                                    : 14 Гамма-активность фильтрованная, мкр./ч -  110.0 см 
GK_D0400_D         .MKR/H                                  : 12 Гамма-активность, мкр./ч -   65.0 см 
GK_D0401_D         .MKR/H                                  : 12 Гамма-активность, мкр./ч -   65.0 см 
GK_D0402_D         .MKR/H                                  : 12 Гамма-активность, мкр./ч -   65.0 см 
GK_D0403_D         .MKR/H                                  : 12 Гамма-активность, мкр./ч -   65.0 см 
GK_D1161_D         .MKR/H                                  : 15 Гамма-активность, мкр./ч -  110.0 см 
GK_D1166_D         .MKR/H                                  : 15 Гамма-активность, мкр./ч -  110.0 см 
GK_D1169_D         .MKR/H                                  : 15 Гамма-активность, мкр./ч -  110.0 см 
GK_D1171_D         .MKR/H                                  : 15 Гамма-активность, мкр./ч -  110.0 см 
GK_D1800_D         .MKR/H                                  : 13 Гамма-активность, мкр./ч -  110.0 см 
GK_D1800_D_2       .мкР/час                                : Естественная гамма-активность,мкР/ч 
GK_D1801_D         .MKR/H                                  : 13 Гамма-активность, мкр./ч -  110.0 см 
GK_D1803_D         .MKR/H                                  : 13 Гамма-активность, мкр./ч -  110.0 см 
GK_D1805_D         .MKR/H                                  : 13 Гамма-активность, мкр./ч -  110.0 см 
GK_D1809_D         .MKR/H                                  : 13 Гамма-активность, мкр./ч -  110.0 см 
GK_D1812_D         .MKR/H                                  : 13 Гамма-активность, мкр./ч -  110.0 см 
GK_D4391_D         .FLT                                    : 14 Гамма-активность фильтрованная, мкр./ч -  110.0 см 
GK_D4391_D_2       .мкР/ч                                  : Естественная гамма-активность,мкР/ч 
GK_D4404_D         .FLT                                    : 14 Гамма-активность фильтрованная, мкр./ч -  110.0 см 
GK_D4405_D         .FLT                                    : 14 Гамма-активность фильтрованная, мкр./ч -  110.0 см 
GK_D4405_D_2       .мкР/ч                                  : Естественная гамма-активность,мкР/ч 
GK_D4407_D         .FLT                                    : 14 Гамма-активность фильтрованная, мкр./ч -  110.0 см 
GK_D4410_D         .FLT                                    : 14 Гамма-активность фильтрованная, мкр./ч -  110.0 см 
GK_D4412_D         .FLT                                    : 14 Гамма-активность фильтрованная, мкр./ч -  110.0 см 
GK_D4415_D         .FLT                                    : 14 Гамма-активность фильтрованная, мкр./ч -  110.0 см 
GK_D4417_D         .FLT                                    : 14 Гамма-активность фильтрованная, мкр./ч -  110.0 см 
GK_D7017_D         .MKR/H                                  : 16 Гамма-активность, мкр./ч -  106.0 см 
GK_D7017_D_2       .мкР/час                                : Гамма каротаж, мкр/час 
GK_D7018_D         .MKR/H                                  : 16 Гамма-активность, мкр./ч -  106.0 см 
GK_D7019_D         .MKR/H                                  : 16 Гамма-активность, мкр./ч -  106.0 см 
GK_D7020_D         .MKR/H                                  : 16 Гамма-активность, мкр./ч -  106.0 см 
GK_D7022_D         .MKR/H                                  : 16 Гамма-активность, мкр./ч -  106.0 см 
GK_D7023_D         .MKR/H                                  : 16 Гамма-активность, мкр./ч -  106.0 см 
GK_D7024_D         .MKR/H                                  : 16 Гамма-активность, мкр./ч -  106.0 см 
GK_D7026_D         .MKR/H                                  : 16 Гамма-активность, мкр./ч -  106.0 см 
GK_D7027_D         .MKR/H                                  : 16 Гамма-активность, мкр./ч -  106.0 см 
GK_D8102_D_2       .мкР/ч                                  : Естественная гамма-активность,мкР/ч 
GK_D8103_D         .MKR/H                                  : 13 Гамма-активность, мкр./ч -   65.0 см 
GK_D8103_D_2       .мкР/ч                                  : Естественная гамма-активность,мкР/ч 
GK_D8106_D         .MKR/H                                  : 13 Гамма-активность, мкр./ч -   65.0 см 
GK_D8106_D_2       .мкР/ч                                  : Естественная гамма-активность,мкР/ч 
GK_D8107_D         .MKR/H                                  : 13 Гамма-активность, мкр./ч -   65.0 см 
GK_D8107_D_2       .мкР/ч                                  : Естественная гамма-активность,мкР/ч 
GR_D4391_D         .UR/H                                   : 13 Гамма-активность, мкр./ч -  110.0 см 
GR_D4404_D         .UR/H                                   : 13 Гамма-активность, мкр./ч -  110.0 см 
GR_D4405_D         .UR/H                                   : 13 Гамма-активность, мкр./ч -  110.0 см 
GR_D4407_D         .UR/H                                   : 13 Гамма-активность, мкр./ч -  110.0 см 
GR_D4410_D         .UR/H                                   : 13 Гамма-активность, мкр./ч -  110.0 см 
GR_D4412_D         .UR/H                                   : 13 Гамма-активность, мкр./ч -  110.0 см 
GR_D4415_D         .UR/H                                   : 13 Гамма-активность, мкр./ч -  110.0 см 
GR_D4417_D         .UR/H                                   : 13 Гамма-активность, мкр./ч -  110.0 см 
~Ascii
# ...
2660.800016 -9999      -9999      -9999      -9999      -9999      -9999      -9999      -9999      -9999      -9999      -9999      8.87       -9999      9.07       -9999      -9999      -9999      -9999      -9999      -9999      -9999      7.71       7.71       7.17       -9999      -9999      7.49       7.69       7.49       7.98       7.43       8.09       9.61       -9999      8.14       7.97       8.48       8.26       8.55       8.1        8.09       -9999      4.84       -9999      6.23       6.96       5.33       -9999      7.71       7.17       -9999      7.49       7.69       7.49       7.98       7.43      
2660.900016 -9999      -9999      -9999      -9999      -9999      -9999      -9999      -9999      -9999      -9999      -9999      8.785104   -9999      9.030048   -9999      -9999      -9999      -9999      -9999      -9999      -9999      8.349218   8.34872    7.165006   -9999      -9999      7.425079   7.480257   7.260281   7.68536    7.43       7.610586   9.714871   -9999      8.259853   7.900085   8.739682   8.34989    8.614921   8.109988   8.060037   -9999      5.039756   -9999      6.215018   6.800195   5.589683   -9999      8.349218   7.165006   -9999      7.425079   7.480257   7.260281   7.68536    7.43      
2661.000016 -9999      -9999      -9999      -9999      -9999      -9999      -9999      -9999      -9999      -9999      -9999      8.7        8.79       8.99       -9999      -9999      -9999      -9999      -9999      -9999      -9999      8.99       8.989      7.16       -9999      -9999      7.36       7.27       7.03       7.39       7.43       7.13       9.82       -9999      8.38       7.83       9          8.44       8.68       8.12       8.03       -9999      5.24       -9999      6.2        6.64       5.85       -9999      8.99       7.16       -9999      7.36       7.27       7.03       7.39       7.43      
2661.100016 -9999      -9999      -9999      -9999      -9999      -9999      -9999      -9999      -9999      -9999      -9999      8.675031   8.814969   8.87514    -9999      -9999      -9999      -9999      -9999      -9999      -9999      8.440671   8.44067    6.985214   -9999      -9999      7.230159   7.27       7.03       7.245177   7.320134   7.154969   9.765067   -9999      8.554786   7.994798   9.284652   8.629767   8.824823   8.284799   8.224762   -9999      5.439755   -9999      6.229963   6.620024   5.879963   -9999      8.440671   6.985214   -9999      7.230159   7.27       7.03       7.245177   7.320134  
2661.200016 -9999      -9999      -9999      -9999      -9999      -9999      -9999      -9999      -9999      -9999      -9999      8.65       8.84       8.76       -9999      -9999      -9999      -9999      -9999      -9999      -9999      7.89       7.891      6.81       -9999      -9999      7.1        7.27       7.03       7.1        7.21       7.18       9.71       -9999      8.73       8.16       9.57       8.82       8.97       8.45       8.42       -9999      5.64       -9999      6.26       6.6        5.91       -9999      7.89       6.81       -9999      7.1        7.27       7.03       7.1        7.21      
2661.300016 -9999      -9999      -9999      -9999      -9999      -9999      -9999      -9999      -9999      -9999      -9999      8.715079   8.970159   8.654872   -9999      -9999      -9999      -9999      -9999      -9999      -9999      7.524554   7.525054   6.81       -9999      -9999      7.46044    7.305043   6.954908   7.470452   7.320134   7.064859   9.654933   -9999      8.820109   8.425323   9.685141   8.925128   9.080134   8.690293   8.520123   -9999      5.484811   -9999      6.184908   6.730159   6.00011    -9999      7.524554   6.81       -9999      7.46044    7.305043   6.954908   7.470452   7.320134  
2661.400016 -9999      -9999      -9999      -9999      -9999      -9999      -9999      -9999      -9999      -9999      -9999      8.78       9.1        8.55       -9999      -9999      -9999      -9999      -9999      -9999      -9999      7.16       7.16       6.81       -9999      -9999      7.82       7.34       6.88       7.84       7.43       6.95       9.6        -9999      8.91       8.69       9.8        9.03       9.19       8.93       8.62       -9999      5.33       -9999      6.11       6.86       6.09       -9999      7.16       6.81       -9999      7.82       7.34       6.88       7.84       7.43      
2661.500016 -9999      -9999      -9999      -9999      -9999      -9999      -9999      -9999      -9999      -9999      -9999      8.83       9.1        8.575001   -9999      -9999      -9999      -9999      -9999      -9999      -9999      7.58       7.58       7.03       -9999      -9999      7.82       7.34       6.88       7.84       7.54       6.77       9.57       -9999      9.205      8.889999   9.88       9.23       9.165      9.13       8.75       -9999      5.285      -9999      6.075      6.865      6.09       -9999      7.58       7.03       -9999      7.82       7.34       6.88       7.84       7.54      
2661.600016 -9999      -9999      -9999      -9999      -9999      -9999      -9999      -9999      -9999      -9999      -9999      8.879878   9.1        8.599939   -9999      -9999      -9999      -9999      -9999      -9999      -9999      7.998976   7.998976   7.249464   -9999      -9999      7.82       7.34       6.88       7.84       7.649732   6.590439   9.540073   -9999      9.499281   9.089512   9.959805   9.429512   9.140061   9.329512   8.879683   -9999      5.240109   -9999      6.040085   6.869987   6.09       -9999      7.998976   7.249464   -9999      7.82       7.34       6.88       7.84       7.649732  
2661.700016 -9999      -9999      -9999      -9999      -9999      -9999      -9999      -9999      -9999      -9999      -9999      8.889988   8.980146   8.674909   -9999      -9999      -9999      -9999      -9999      -9999      -9999      8.054933   8.054933   7.294945   -9999      -9999      7.979805   7.514786   7.26453    8.01978    7.65       6.659914   9.584945   -9999      9.669792   9.219842   9.999951   9.529878   9.110037   9.449853   8.929938   -9999      5.220024   -9999      5.535617   6.805079   6.060037   -9999      8.054933   7.294945   -9999      7.979805   7.514786   7.26453    8.01978    7.65      
2661.800017 -9999      -9999      -9999      -9999      -9999      -9999      -9999      -9999      -9999      -9999      -9999      8.9        8.86       8.75       -9999      -9999      -9999      -9999      -9999      -9999      -9999      8.11       8.11       7.34       -9999      -9999      8.14       7.69       7.65       8.2        7.65       6.73       9.63       -9999      9.84       9.35       10.04      9.63       9.08       9.57       8.98       -9999      5.2        -9999      5.03       6.74       6.03       -9999      8.11       7.34       -9999      8.14       7.69       7.65       8.2        7.65      
2661.900017 -9999      -9999      -9999      -9999      -9999      -9999      -9999      -9999      -9999      -9999      -9999      8.895006   8.820048   8.725031   -9999      -9999      -9999      -9999      -9999      -9999      -9999      7.855311   7.855311   7.72453    -9999      -9999      8.199927   7.69       7.804811   8.2        7.525153   6.560207   9.679938   -9999      9.944872   9.320037   9.890183   9.654969   9.189866   9.63492    8.994982   -9999      5.474664   -9999      4.925128   6.680073   5.995043   -9999      7.855311   7.72453    -9999      8.199927   7.69       7.804811   8.2        7.525153  
2662.000017 -9999      -9999      -9999      -9999      -9999      -9999      -9999      -9999      -9999      -9999      -9999      8.89       8.78       8.7        -9999      -9999      -9999      -9999      -9999      -9999      -9999      7.6        7.6        8.11       -9999      -9999      8.26       7.69       7.96       8.2        7.4        6.39       9.73       -9999      10.05      9.29       9.74       9.68       9.3        9.7        9.01       -9999      5.75       -9999      4.82       6.62       5.96       -9999      7.6        8.11       -9999      8.26       7.69       7.96       8.2        7.4       
