~Version
 VERS              .         2.0                           : CWLS LOG ASCII STANDARD - VERSION 2.0
 WRAP              .         NO                            : ONE LINE PER DEPTH STEP
 DLM               .         SPACE                         : DELIMITING CHARACTER(SPACE TAB OR COMMA)
~Well Information
#_______________________________________________________________________________
#
#PARAMETER_NAME    .UNIT     VALUE                         : DESCRIPTION
#_______________________________________________________________________________
STRT               .M        2645.2                        : First reference value
STOP               .M        2778.800134                   : Last reference value
STEP               .M        0.1000001                     : Step increment
NULL               .         -9999                         : Missing value
COMP               .                                       : Company
WELL               .         616                           : Well name
FLD                .                                       : Field
LOC                .                                       : Location
CNTY               .                                       : County
STAT               .                                       : State
CTRY               .                                       : Country
SRVC               .                                       : Service Company
DATE               .                                       : Date
API                .                                       : API number
PROJECT_UPGRADE_TIME .         2021-03-18T21_24_50           : 
group              .         Good                          : 
~Parameter Information Block
#_______________________________________________________________________________
#
#PARAMETER_NAME    .UNIT     VALUE                         : DESCRIPTION
#_______________________________________________________________________________
SET                .         ResolutionTest                : 
TLFamily_GK_2_D1800_D .         Gamma Ray                     : 
TLFamily_GK_2_D1801_D .         Gamma Ray                     : 
TLFamily_GK_2_D1803_D .         Gamma Ray                     : 
TLFamily_GK_2_D1805_D .         Gamma Ray                     : 
TLFamily_GK_2_D1809_D .         Gamma Ray                     : 
TLFamily_GK_2_D1812_D .         Gamma Ray                     : 
TLFamily_GK_D0400_D .         Gamma Ray                     : 
TLFamily_GK_D0401_D .         Gamma Ray                     : 
TLFamily_GK_D0402_D .         Gamma Ray                     : 
TLFamily_GK_D0403_D .         Gamma Ray                     : 
TLFamily_GK_D1161_D .         Gamma Ray                     : 
TLFamily_GK_D1166_D .         Gamma Ray                     : 
TLFamily_GK_D1169_D .         Gamma Ray                     : 
TLFamily_GK_D1171_D .         Gamma Ray                     : 
TLFamily_GK_D1800_D .         Gamma Ray                     : 
TLFamily_GK_D1800_D_2 .         Gamma Ray                     : 
TLFamily_GK_D1801_D .         Gamma Ray                     : 
TLFamily_GK_D1803_D .         Gamma Ray                     : 
TLFamily_GK_D1805_D .         Gamma Ray                     : 
TLFamily_GK_D1809_D .         Gamma Ray                     : 
TLFamily_GK_D1812_D .         Gamma Ray                     : 
TLFamily_GK_D4391_D .         Gamma Ray                     : 
TLFamily_GK_D4391_D_2 .         Russian Gamma Ray             : 
TLFamily_GK_D4404_D .         Gamma Ray                     : 
TLFamily_GK_D4405_D .         Gamma Ray                     : 
TLFamily_GK_D4405_D_2 .         Russian Gamma Ray             : 
TLFamily_GK_D4407_D .         Gamma Ray                     : 
TLFamily_GK_D4410_D .         Gamma Ray                     : 
TLFamily_GK_D4412_D .         Gamma Ray                     : 
TLFamily_GK_D4415_D .         Gamma Ray                     : 
TLFamily_GK_D4417_D .         Gamma Ray                     : 
TLFamily_GK_D7017_D .         Gamma Ray                     : 
TLFamily_GK_D7017_D_2 .         Gamma Ray                     : 
TLFamily_GK_D7018_D .         Gamma Ray                     : 
TLFamily_GK_D7019_D .         Gamma Ray                     : 
TLFamily_GK_D7020_D .         Gamma Ray                     : 
TLFamily_GK_D7022_D .         Gamma Ray                     : 
TLFamily_GK_D7023_D .         Gamma Ray                     : 
TLFamily_GK_D7024_D .         Gamma Ray                     : 
TLFamily_GK_D7026_D .         Gamma Ray                     : 
TLFamily_GK_D7027_D .         Gamma Ray                     : 
TLFamily_GK_D8102_D_2 .         Russian Gamma Ray             : 
TLFamily_GK_D8103_D .         Gamma Ray                     : 
TLFamily_GK_D8103_D_2 .         Russian Gamma Ray             : 
TLFamily_GK_D8106_D .         Gamma Ray                     : 
TLFamily_GK_D8106_D_2 .         Russian Gamma Ray             : 
TLFamily_GK_D8107_D .         Gamma Ray                     : 
TLFamily_GK_D8107_D_2 .         Russian Gamma Ray             : 
TLFamily_GR_D4391_D .         Gamma Ray                     : 
TLFamily_GR_D4404_D .         Gamma Ray                     : 
TLFamily_GR_D4405_D .         Gamma Ray                     : 
TLFamily_GR_D4407_D .         Gamma Ray                     : 
TLFamily_GR_D4410_D .         Gamma Ray                     : 
TLFamily_GR_D4412_D .         Gamma Ray                     : 
TLFamily_GR_D4415_D .         Gamma Ray                     : 
TLFamily_GR_D4417_D .         Gamma Ray                     : 
TLFamily_MD        .         Measured Depth                : 
~Curve Information
#_______________________________________________________________________________
#
#LOGNAME           .UNIT     LOG_ID                        : DESCRIPTION
#_______________________________________________________________________________
MD                 .M                                      :  
GK_2_D1800_D       .FLT                                    : 14 Гамма-активность фильтрованная, мкр./ч -  110.0 см 
GK_2_D1801_D       .FLT                                    : 14 Гамма-активность фильтрованная, мкр./ч -  110.0 см 
GK_2_D1803_D       .FLT                                    : 14 Гамма-активность фильтрованная, мкр./ч -  110.0 см 
GK_2_D1805_D       .FLT                                    : 14 Гамма-активность фильтрованная, мкр./ч -  110.0 см 
GK_2_D1809_D       .FLT                                    : 14 Гамма-активность фильтрованная, мкр./ч -  110.0 см 
GK_2_D1812_D       .FLT                                    : 14 Гамма-активность фильтрованная, мкр./ч -  110.0 см 
GK_D0400_D         .MKR/H                                  : 12 Гамма-активность, мкр./ч -   65.0 см 
GK_D0401_D         .MKR/H                                  : 12 Гамма-активность, мкр./ч -   65.0 см 
GK_D0402_D         .MKR/H                                  : 12 Гамма-активность, мкр./ч -   65.0 см 
GK_D0403_D         .MKR/H                                  : 12 Гамма-активность, мкр./ч -   65.0 см 
GK_D1161_D         .MKR/H                                  : 15 Гамма-активность, мкр./ч -  110.0 см 
GK_D1166_D         .MKR/H                                  : 15 Гамма-активность, мкр./ч -  110.0 см 
GK_D1169_D         .MKR/H                                  : 15 Гамма-активность, мкр./ч -  110.0 см 
GK_D1171_D         .MKR/H                                  : 15 Гамма-активность, мкр./ч -  110.0 см 
GK_D1800_D         .MKR/H                                  : 13 Гамма-активность, мкр./ч -  110.0 см 
GK_D1800_D_2       .мкР/час                                : Естественная гамма-активность,мкР/ч 
GK_D1801_D         .MKR/H                                  : 13 Гамма-активность, мкр./ч -  110.0 см 
GK_D1803_D         .MKR/H                                  : 13 Гамма-активность, мкр./ч -  110.0 см 
GK_D1805_D         .MKR/H                                  : 13 Гамма-активность, мкр./ч -  110.0 см 
GK_D1809_D         .MKR/H                                  : 13 Гамма-активность, мкр./ч -  110.0 см 
GK_D1812_D         .MKR/H                                  : 13 Гамма-активность, мкр./ч -  110.0 см 
GK_D4391_D         .FLT                                    : 14 Гамма-активность фильтрованная, мкр./ч -  110.0 см 
GK_D4391_D_2       .мкР/ч                                  : Естественная гамма-активность,мкР/ч 
GK_D4404_D         .FLT                                    : 14 Гамма-активность фильтрованная, мкр./ч -  110.0 см 
GK_D4405_D         .FLT                                    : 14 Гамма-активность фильтрованная, мкр./ч -  110.0 см 
GK_D4405_D_2       .мкР/ч                                  : Естественная гамма-активность,мкР/ч 
GK_D4407_D         .FLT                                    : 14 Гамма-активность фильтрованная, мкр./ч -  110.0 см 
GK_D4410_D         .FLT                                    : 14 Гамма-активность фильтрованная, мкр./ч -  110.0 см 
GK_D4412_D         .FLT                                    : 14 Гамма-активность фильтрованная, мкр./ч -  110.0 см 
GK_D4415_D         .FLT                                    : 14 Гамма-активность фильтрованная, мкр./ч -  110.0 см 
GK_D4417_D         .FLT                                    : 14 Гамма-активность фильтрованная, мкр./ч -  110.0 см 
GK_D7017_D         .MKR/H                                  : 16 Гамма-активность, мкр./ч -  106.0 см 
GK_D7017_D_2       .мкР/час                                : Гамма каротаж, мкр/час 
GK_D7018_D         .MKR/H                                  : 16 Гамма-активность, мкр./ч -  106.0 см 
GK_D7019_D         .MKR/H                                  : 16 Гамма-активность, мкр./ч -  106.0 см 
GK_D7020_D         .MKR/H                                  : 16 Гамма-активность, мкр./ч -  106.0 см 
GK_D7022_D         .MKR/H                                  : 16 Гамма-активность, мкр./ч -  106.0 см 
GK_D7023_D         .MKR/H                                  : 16 Гамма-активность, мкр./ч -  106.0 см 
GK_D7024_D         .MKR/H                                  : 16 Гамма-активность, мкр./ч -  106.0 см 
GK_D7026_D         .MKR/H                                  : 16 Гамма-активность, мкр./ч -  106.0 см 
GK_D7027_D         .MKR/H                                  : 16 Гамма-активность, мкр./ч -  106.0 см 
GK_D8102_D_2       .мкР/ч                                  : Естественная гамма-активность,мкР/ч 
GK_D8103_D         .MKR/H                                  : 13 Гамма-активность, мкр./ч -   65.0 см 
GK_D8103_D_2       .мкР/ч                                  : Естественная гамма-активность,мкР/ч 
GK_D8106_D         .MKR/H                                  : 13 Гамма-активность, мкр./ч -   65.0 см 
GK_D8106_D_2       .мкР/ч                                  : Естественная гамма-активность,мкР/ч 
GK_D8107_D         .MKR/H                                  : 13 Гамма-активность, мкр./ч -   65.0 см 
GK_D8107_D_2       .мкР/ч                                  : Естественная гамма-активность,мкР/ч 
GR_D4391_D         .UR/H                                   : 13 Гамма-активность, мкр./ч -  110.0 см 
GR_D4404_D         .UR/H                                   : 13 Гамма-активность, мкр./ч -  110.0 см 
GR_D4405_D         .UR/H                                   : 13 Гамма-активность, мкр./ч -  110.0 см 
GR_D4407_D         .UR/H                                   : 13 Гамма-активность, мкр./ч -  110.0 см 
GR_D4410_D         .UR/H                                   : 13 Гамма-активность, мкр./ч -  110.0 см 
GR_D4412_D         .UR/H                                   : 13 Гамма-активность, мкр./ч -  110.0 см 
GR_D4415_D         .UR/H                                   : 13 Гамма-активность, мкр./ч -  110.0 см 
GR_D4417_D         .UR/H                                   : 13 Гамма-активность, мкр./ч -  110.0 см 
~Ascii
# ...
2706.300061 10.7949    10.81526   10.77558   11.57989   10.71502   11.32506   5.994798   6.004872   6.214896   6.04475    7.874798   7.05011    6.434982   6.095092   10.83984   10.77464   10.85523   10.92044   11.52982   10.72502   11.37      10.04921   10.04971   10.72      10.84549   10.84549   10.73455   11.13004   10.41      10.08463   10.50498   9.874701   10.36984   10.40465   12.83496   12.50464   11.98935   11.91941   11.88919   13.14944   13.18985   7.289463   6.215666   6.969939   5.154957   7.619939   7.008901   7.195006   10.04921   10.72      10.84549   10.73455   11.13004   10.41      10.08463   10.50498  
2706.400061 10.71      11.03      11.25      11.49      10.73      11.37      5.83       5.9        6.13       5.84       7.71       7.14       6.42       6.17       10.71      10.48      11.04      11.28      11.38      10.74      11.37      9.4        9.401      10.72      11.25      11.25      10.37      11.16      10.41      9.78       10.49      9.63       10.24      10.12      12.8       12.21      11.46      11.44      11.23      12.69      13.07      6.85       6.76       6.92       5.12       7.57       6.11       7.2        9.4        10.72      11.25      10.37      11.16      10.41      9.78       10.49     
2706.500061 10.915     11.035     11.455     11.4       10.735     10.985     5.69       5.67       5.97       5.67       7.65       7.43       6.77       6.55       10.91      10.445     11.04      11.56      11.34      10.74      10.95      9.555      9.5555     10.73      11.195     11.195     10.37      11.315     10.225     9.78       10.465     9.700001   10.025     10.055     12.01      11.82      11.1       10.96      10.89      12.245     12.64      6.975      7.89       6.8        5.195      7.56       6.11       7.315      9.555      10.73      11.195     10.37      11.315     10.225     9.78       10.465    
2706.600061 11.1195    11.03999   11.6595    11.31022   10.73999   10.60094   5.550342   5.440561   5.81039    5.500415   7.590147   7.719293   7.119146   6.929073   11.10951   10.41009   11.04      11.83932   11.3001    10.74      10.53102   9.709622   9.709623   10.73997   11.14013   11.14013   10.37      11.46962   10.04045   9.78       10.44006   9.76983    9.810525   9.990158   11.22193   11.43095   10.74088   10.48117   10.55083   11.80109   12.21105   7.099695   9.017244   6.680293   5.269817   7.550025   6.11       7.429719   9.709622   10.73997   11.14013   10.37      11.46962   10.04045   9.78       10.44006  
2706.700061 11.25484   11.03001   11.74989   11.1502    10.89481   10.56504   5.614921   5.345116   5.785031   5.519976   7.764786   7.919755   7.244847   7.079817   11.25482   10.87943   11.03001   11.84      11.10024   10.92477   10.53      10.13947   10.13947   10.78994   11.06509   11.06509   10.32506   11.47      10.00504   9.84492    10.9294    9.854897   10.08466   9.815214   10.84046   10.86569   10.42538   10.16538   10.37022   11.3905    11.86043   7.239829   9.649231   6.689988   5.284982   7.510049   6.090024   7.454969   10.13947   10.78994   11.06509   10.32506   11.47      10.00504   9.84492    10.9294   
2706.800062 11.39      11.02      11.84      10.99      11.05      10.53      5.68       5.25       5.76       5.54       7.94       8.12       7.37       7.23       11.4       11.35      11.02      11.84      10.9       11.11      10.53      10.57      10.57      10.84      10.99      10.99      10.28      11.47      9.97       9.91       11.42      9.94       10.36      9.64       10.46      10.3       10.11      9.85       10.19      10.98      11.51      7.38       10.28      6.7        5.3        7.47       6.07       7.48       10.57      10.84      10.99      10.28      11.47      9.97       9.91       11.42     
2706.900062 11.21022   11.02      11.70516   10.94506   11.07996   10.37519   5.804847   5.384835   5.93978    5.609914   8.084823   8.239853   7.554774   7.464713   11.2352    11.30555   11.02      11.62027   10.9       11.11      10.3652    10.70983   10.70983   10.93488   10.95504   10.95504   10.28      11.34016   9.984982   9.91       11.42      9.815152   10.62967   9.644994   10.19532   10.03532   9.915238   9.775092   10.19499   10.62543   11.05556   7.285116   9.391087   6.819853   5.304994   7.275238   6.065006   7.48       10.70983   10.93488   10.95504   10.28      11.34016   9.984982   9.91       11.42     
2707.000062 11.03      11.02      11.57      10.9       11.11      10.22      5.93       5.52       6.12       5.68       8.23       8.36       7.74       7.7        11.07      11.261     11.02      11.4       10.9       11.11      10.2       10.85      10.85      11.03      10.92      10.92      10.28      11.21      10         9.91       11.42      9.69       10.9       9.65       9.93       9.77       9.72       9.7        10.2       10.27      10.6       7.19       8.5        6.94       5.31       7.08       6.06       7.48       10.85      11.03      10.92      10.28      11.21      10         9.91       11.42     
2707.100062 10.73037   10.97506   11.38523   10.9       11.35969   10.31488   6.084811   5.554957   6.329743   5.640049   8.220012   8.444896   7.814908   7.824847   10.77536   11.80983   10.97506   11.29013   10.9       11.45458   10.3648    10.34562   10.34562   11.03      10.70027   10.70027   10.8493    11.21      10         10.10476   11.3351    9.929707   10.87004   9.724908   9.805153   9.670122   9.540219   9.675031   10.21998   10.23504   10.36529   7.359793   7.870769   6.994933   5.409878   6.970134   6.114933   7.48       10.34562   11.03      10.70027   10.8493    11.21      10         10.10476   11.3351   
2707.200062 10.43      10.93      11.2       10.9       11.61      10.41      6.24       5.59       6.54       5.6        8.21       8.53       7.89       7.95       10.48      12.36      10.93      11.18      10.9       11.8       10.53      9.84       9.84       11.03      10.48      10.48      11.42      11.21      10         10.3       11.25      10.17      10.84      9.8        9.68       9.57       9.36       9.65       10.24      10.2       10.13      7.53       7.24       7.05       5.51       6.86       6.17       7.48       9.84       11.03      10.48      11.42      11.21      10         10.3       11.25     
2707.300062 10.41999   11.05015   11.15494   10.9       11.70011   10.78546   6.174921   5.574982   6.615092   5.469841   8.30011    8.540012   7.779866   7.849878   10.44496   11.93448   11.12023   11.11993   10.9       11.8       10.8554    10.16039   10.16039   10.88482   10.86547   10.86547   11.42      10.97471   10.07509   10.3       11.25      10.34021   10.91009   9.880097   9.690012   9.524944   9.254871   9.705067   10.01973   10.22002   10.01486   7.434884   6.694335   7.14011    5.89547    6.799927   6.175006   7.469988   10.16039   10.88482   10.86547   11.42      10.97471   10.07509   10.3       11.25     
2707.400062 10.41      11.17      11.11      10.9       11.79      11.16      6.11       5.56       6.69       5.34       8.39       8.55       7.67       7.75       10.41      11.51      11.31      11.06      10.9       11.8       11.18      10.48      10.48      10.74      11.25      11.25      11.42      10.74      10.15      10.3       11.25      10.51      10.98      9.96       9.7        9.48       9.15       9.76       9.8        10.24      9.9        7.34       6.15       7.23       6.28       6.74       6.18       7.46       10.48      10.74      11.25      11.42      10.74      10.15      10.3       11.25     
2707.500062 10.88      11.61      10.945     10.94      11.62      11.305     5.95       5.51       6.575      5.36       8.245001   8.530001   7.615      7.705      10.88      11.065     11.695     10.91      10.95      11.6       11.39      10.405     10.405     10.74      11.515     11.515     11.315     10.74      10.15      10.425     11.27      10.22      11.075     10.16      9.639999   9.459999   9.085      9.809999   9.675      10.09      9.825      7.245      6          7.275      6.875      6.735      6.215      7.45       10.405     10.74      11.515     11.315     10.74      10.15      10.425     11.27     
