~Version
 VERS              .         2.0                           : CWLS LOG ASCII STANDARD - VERSION 2.0
 WRAP              .         NO                            : ONE LINE PER DEPTH STEP
 DLM               .         SPACE                         : DELIMITING CHARACTER(SPACE TAB OR COMMA)
~Well Information
#_______________________________________________________________________________
#
#PARAMETER_NAME    .UNIT     VALUE                         : DESCRIPTION
#_______________________________________________________________________________
STRT               .M        2645.2                        : First reference value
STOP               .M        2778.800134                   : Last reference value
STEP               .M        0.1000001                     : Step increment
NULL               .         -9999                         : Missing value
COMP               .                                       : Company
WELL               .         616                           : Well name
FLD                .                                       : Field
LOC                .                                       : Location
CNTY               .                                       : County
STAT               .                                       : State
CTRY               .                                       : Country
SRVC               .                                       : Service Company
DATE               .                                       : Date
API                .                                       : API number
PROJECT_UPGRADE_TIME .         2021-03-18T21_24_50           : 
group              .         Good                          : 
~Parameter Information Block
#_______________________________________________________________________________
#
#PARAMETER_NAME    .UNIT     VALUE                         : DESCRIPTION
#_______________________________________________________________________________
SET                .         ResolutionTest                : 
TLFamily_GK_2_D1800_D .         Gamma Ray                     : 
TLFamily_GK_2_D1801_D .         Gamma Ray                     : 
TLFamily_GK_2_D1803_D .         Gamma Ray                     : 
TLFamily_GK_2_D1805_D .         Gamma Ray                     : 
TLFamily_GK_2_D1809_D .         Gamma Ray                     : 
TLFamily_GK_2_D1812_D .         Gamma Ray                     : 
TLFamily_GK_D0400_D .         Gamma Ray                     : 
TLFamily_GK_D0401_D .         Gamma Ray                     : 
TLFamily_GK_D0402_D .         Gamma Ray                     : 
TLFamily_GK_D0403_D .         Gamma Ray                     : 
TLFamily_GK_D1161_D .         Gamma Ray                     : 
TLFamily_GK_D1166_D .         Gamma Ray                     : 
TLFamily_GK_D1169_D .         Gamma Ray                     : 
TLFamily_GK_D1171_D .         Gamma Ray                     : 
TLFamily_GK_D1800_D .         Gamma Ray                     : 
TLFamily_GK_D1800_D_2 .         Gamma Ray                     : 
TLFamily_GK_D1801_D .         Gamma Ray                     : 
TLFamily_GK_D1803_D .         Gamma Ray                     : 
TLFamily_GK_D1805_D .         Gamma Ray                     : 
TLFamily_GK_D1809_D .         Gamma Ray                     : 
TLFamily_GK_D1812_D .         Gamma Ray                     : 
TLFamily_GK_D4391_D .         Gamma Ray                     : 
TLFamily_GK_D4391_D_2 .         Russian Gamma Ray             : 
TLFamily_GK_D4404_D .         Gamma Ray                     : 
TLFamily_GK_D4405_D .         Gamma Ray                     : 
TLFamily_GK_D4405_D_2 .         Russian Gamma Ray             : 
TLFamily_GK_D4407_D .         Gamma Ray                     : 
TLFamily_GK_D4410_D .         Gamma Ray                     : 
TLFamily_GK_D4412_D .         Gamma Ray                     : 
TLFamily_GK_D4415_D .         Gamma Ray                     : 
TLFamily_GK_D4417_D .         Gamma Ray                     : 
TLFamily_GK_D7017_D .         Gamma Ray                     : 
TLFamily_GK_D7017_D_2 .         Gamma Ray                     : 
TLFamily_GK_D7018_D .         Gamma Ray                     : 
TLFamily_GK_D7019_D .         Gamma Ray                     : 
TLFamily_GK_D7020_D .         Gamma Ray                     : 
TLFamily_GK_D7022_D .         Gamma Ray                     : 
TLFamily_GK_D7023_D .         Gamma Ray                     : 
TLFamily_GK_D7024_D .         Gamma Ray                     : 
TLFamily_GK_D7026_D .         Gamma Ray                     : 
TLFamily_GK_D7027_D .         Gamma Ray                     : 
TLFamily_GK_D8102_D_2 .         Russian Gamma Ray             : 
TLFamily_GK_D8103_D .         Gamma Ray                     : 
TLFamily_GK_D8103_D_2 .         Russian Gamma Ray             : 
TLFamily_GK_D8106_D .         Gamma Ray                     : 
TLFamily_GK_D8106_D_2 .         Russian Gamma Ray             : 
TLFamily_GK_D8107_D .         Gamma Ray                     : 
TLFamily_GK_D8107_D_2 .         Russian Gamma Ray             : 
TLFamily_GR_D4391_D .         Gamma Ray                     : 
TLFamily_GR_D4404_D .         Gamma Ray                     : 
TLFamily_GR_D4405_D .         Gamma Ray                     : 
TLFamily_GR_D4407_D .         Gamma Ray                     : 
TLFamily_GR_D4410_D .         Gamma Ray                     : 
TLFamily_GR_D4412_D .         Gamma Ray                     : 
TLFamily_GR_D4415_D .         Gamma Ray                     : 
TLFamily_GR_D4417_D .         Gamma Ray                     : 
TLFamily_MD        .         Measured Depth                : 
~Curve Information
#_______________________________________________________________________________
#
#LOGNAME           .UNIT     LOG_ID                        : DESCRIPTION
#_______________________________________________________________________________
MD                 .M                                      :  
GK_2_D1800_D       .FLT                                    : 14 Гамма-активность фильтрованная, мкр./ч -  110.0 см 
GK_2_D1801_D       .FLT                                    : 14 Гамма-активность фильтрованная, мкр./ч -  110.0 см 
GK_2_D1803_D       .FLT                                    : 14 Гамма-активность фильтрованная, мкр./ч -  110.0 см 
GK_2_D1805_D       .FLT                                    : 14 Гамма-активность фильтрованная, мкр./ч -  110.0 см 
GK_2_D1809_D       .FLT                                    : 14 Гамма-активность фильтрованная, мкр./ч -  110.0 см 
GK_2_D1812_D       .FLT                                    : 14 Гамма-активность фильтрованная, мкр./ч -  110.0 см 
GK_D0400_D         .MKR/H                                  : 12 Гамма-активность, мкр./ч -   65.0 см 
GK_D0401_D         .MKR/H                                  : 12 Гамма-активность, мкр./ч -   65.0 см 
GK_D0402_D         .MKR/H                                  : 12 Гамма-активность, мкр./ч -   65.0 см 
GK_D0403_D         .MKR/H                                  : 12 Гамма-активность, мкр./ч -   65.0 см 
GK_D1161_D         .MKR/H                                  : 15 Гамма-активность, мкр./ч -  110.0 см 
GK_D1166_D         .MKR/H                                  : 15 Гамма-активность, мкр./ч -  110.0 см 
GK_D1169_D         .MKR/H                                  : 15 Гамма-активность, мкр./ч -  110.0 см 
GK_D1171_D         .MKR/H                                  : 15 Гамма-активность, мкр./ч -  110.0 см 
GK_D1800_D         .MKR/H                                  : 13 Гамма-активность, мкр./ч -  110.0 см 
GK_D1800_D_2       .мкР/час                                : Естественная гамма-активность,мкР/ч 
GK_D1801_D         .MKR/H                                  : 13 Гамма-активность, мкр./ч -  110.0 см 
GK_D1803_D         .MKR/H                                  : 13 Гамма-активность, мкр./ч -  110.0 см 
GK_D1805_D         .MKR/H                                  : 13 Гамма-активность, мкр./ч -  110.0 см 
GK_D1809_D         .MKR/H                                  : 13 Гамма-активность, мкр./ч -  110.0 см 
GK_D1812_D         .MKR/H                                  : 13 Гамма-активность, мкр./ч -  110.0 см 
GK_D4391_D         .FLT                                    : 14 Гамма-активность фильтрованная, мкр./ч -  110.0 см 
GK_D4391_D_2       .мкР/ч                                  : Естественная гамма-активность,мкР/ч 
GK_D4404_D         .FLT                                    : 14 Гамма-активность фильтрованная, мкр./ч -  110.0 см 
GK_D4405_D         .FLT                                    : 14 Гамма-активность фильтрованная, мкр./ч -  110.0 см 
GK_D4405_D_2       .мкР/ч                                  : Естественная гамма-активность,мкР/ч 
GK_D4407_D         .FLT                                    : 14 Гамма-активность фильтрованная, мкр./ч -  110.0 см 
GK_D4410_D         .FLT                                    : 14 Гамма-активность фильтрованная, мкр./ч -  110.0 см 
GK_D4412_D         .FLT                                    : 14 Гамма-активность фильтрованная, мкр./ч -  110.0 см 
GK_D4415_D         .FLT                                    : 14 Гамма-активность фильтрованная, мкр./ч -  110.0 см 
GK_D4417_D         .FLT                                    : 14 Гамма-активность фильтрованная, мкр./ч -  110.0 см 
GK_D7017_D         .MKR/H                                  : 16 Гамма-активность, мкр./ч -  106.0 см 
GK_D7017_D_2       .мкР/час                                : Гамма каротаж, мкр/час 
GK_D7018_D         .MKR/H                                  : 16 Гамма-активность, мкр./ч -  106.0 см 
GK_D7019_D         .MKR/H                                  : 16 Гамма-активность, мкр./ч -  106.0 см 
GK_D7020_D         .MKR/H                                  : 16 Гамма-активность, мкр./ч -  106.0 см 
GK_D7022_D         .MKR/H                                  : 16 Гамма-активность, мкр./ч -  106.0 см 
GK_D7023_D         .MKR/H                                  : 16 Гамма-активность, мкр./ч -  106.0 см 
GK_D7024_D         .MKR/H                                  : 16 Гамма-активность, мкр./ч -  106.0 см 
GK_D7026_D         .MKR/H                                  : 16 Гамма-активность, мкр./ч -  106.0 см 
GK_D7027_D         .MKR/H                                  : 16 Гамма-активность, мкр./ч -  106.0 см 
GK_D8102_D_2       .мкР/ч                                  : Естественная гамма-активность,мкР/ч 
GK_D8103_D         .MKR/H                                  : 13 Гамма-активность, мкр./ч -   65.0 см 
GK_D8103_D_2       .мкР/ч                                  : Естественная гамма-активность,мкР/ч 
GK_D8106_D         .MKR/H                                  : 13 Гамма-активность, мкр./ч -   65.0 см 
GK_D8106_D_2       .мкР/ч                                  : Естественная гамма-активность,мкР/ч 
GK_D8107_D         .MKR/H                                  : 13 Гамма-активность, мкр./ч -   65.0 см 
GK_D8107_D_2       .мкР/ч                                  : Естественная гамма-активность,мкР/ч 
GR_D4391_D         .UR/H                                   : 13 Гамма-активность, мкр./ч -  110.0 см 
GR_D4404_D         .UR/H                                   : 13 Гамма-активность, мкр./ч -  110.0 см 
GR_D4405_D         .UR/H                                   : 13 Гамма-активность, мкр./ч -  110.0 см 
GR_D4407_D         .UR/H                                   : 13 Гамма-активность, мкр./ч -  110.0 см 
GR_D4410_D         .UR/H                                   : 13 Гамма-активность, мкр./ч -  110.0 см 
GR_D4412_D         .UR/H                                   : 13 Гамма-активность, мкр./ч -  110.0 см 
GR_D4415_D         .UR/H                                   : 13 Гамма-активность, мкр./ч -  110.0 см 
GR_D4417_D         .UR/H                                   : 13 Гамма-активность, мкр./ч -  110.0 см 
~Ascii
# ...
2693.300048 10.65999   10.69491   9.649976   10.04001   10.27486   9.914945   6.07011    6.135128   6.530171   5.779927   9.459768   8.755006   8.405165   8.609963   10.75985   10.54998   10.65485   9.63       10.04001   10.2349    9.87       9.43558    9.43608    9.380158   -9999      -9999      9.584701   9.3505     10.68      9.090013   9.34       10.55011   10.92998   10.27009   8.819963   9.34492    8.889988   9.809877   10.06018   9.489951   9.615055   6.659964   6.465006   6.47536    6.27514    6.98497    5.975226   7.030025   9.43558    9.380158   -9999      9.584701   9.3505     10.68      9.090013   9.34      
2693.400048 10.65      10.62      9.63       10.05      10.16      9.87       6.16       6.24       6.67       5.72       9.27       8.76       8.54       8.58       10.64      10.53      10.53      9.63       10.05      10.15      9.87       9.91       9.91       9.51       -9999      -9999      9.34       9.76       10.68      9.1        9.34       10.64      10.91      10.34      8.79       9.28       8.88       9.71       10.21      9.45       9.66       6.63       6.47       6.77       6.39       6.96       6.16       7.05       9.91       9.51       -9999      9.34       9.76       10.68      9.1        9.34      
2693.500048 10.895     10.395     9.675      10.245     10.085     9.565001   6.31       6.305      6.825      5.7        9.265      8.96       8.639999   8.75       10.89      10.655     10.34      9.68       10.355     10.045     9.54       9.995      9.995      9.51       -9999      -9999      9.34       10.065     10.545     9.17       9.780001   10.615     10.85      10.395     9.165      9.28       8.925      9.63       10.22      9.485001   9.755      6.74       6.185      6.75       6.405      6.865      6.165      7.285      9.995      9.51       -9999      9.34       10.065     10.545     9.17       9.780001  
2693.600048 11.1394    10.17055   9.719891   10.43952   10.01018   9.260744   6.459634   6.369842   6.979622   5.680048   9.260013   9.159512   8.739756   8.919585   11.13939   10.77969   10.15046   9.729877   10.65926   9.940256   9.210805   10.07979   10.07979   9.51       -9999      -9999      9.34       10.36926   10.41033   9.239829   10.21893   10.59006   10.79015   10.44987   9.539085   9.28       8.969891   9.550196   10.22997   9.519915   9.849769   6.849731   5.900695   6.730049   6.419963   6.770232   6.169988   7.519427   10.07979   9.51       -9999      9.34       10.36926   10.41033   9.239829   10.21893  
2693.700048 11.19993   10.22493   9.724994   10.61978   9.975042   9.235031   6.57486    6.489853   7.159781   5.76989    9.105189   9.234908   8.959731   8.984921   11.23488   10.72507   10.25487   9.73       10.73491   9.94       9.21       9.765385   9.765385   9.949463   -9999      -9999      9.624652   10.38498   10.41      9.419781   10.22      10.37526   11.10961   10.28021   9.779707   9.334933   8.999964   9.500061   10.21502   9.719756   9.854994   6.994823   5.830086   6.734994   6.479927   6.735043   6.249902   7.52       9.765385   9.949463   -9999      9.624652   10.38498   10.41      9.419781   10.22     
2693.800049 11.26      10.28      9.73       10.8       9.94       9.21       6.69       6.61       7.34       5.86       8.95       9.31       9.18       9.05       11.33      10.67      10.36      9.73       10.81      9.94       9.21       9.45       9.45       10.39      -9999      -9999      9.91       10.4       10.41      9.6        10.22      10.16      11.43      10.11      10.02      9.39       9.03       9.45       10.2       9.92       9.86       7.14       5.76       6.74       6.54       6.7        6.33       7.52       9.45       10.39      -9999      9.91       10.4       10.41      9.6        10.22     
2693.900049 10.87547   10.31995   10.04461   10.60024   10.38945   9.904152   6.819841   6.714872   7.444872   6.034786   8.994945   9.075287   9.219952   9.010049   10.95046   10.46525   10.36      10.0546    10.49039   10.65413   9.959085   10.31394   10.31344   10.39      -9999      -9999      10.07979   10.41998   10.15032   9.784775   10.02024   10.14002   11.47495   10.33972   10.11988   9.365031   9.124884   9.494945   10.09513   10.0848    9.795079   7.224896   5.740025   6.74       6.535006   6.784896   6.374945   7.584921   10.31394   10.39      -9999      10.07979   10.41998   10.15032   9.784775   10.02024  
2694.000049 10.49      10.36      10.36      10.4       10.84      10.6       6.95       6.82       7.55       6.21       9.04       8.84       9.26       8.97       10.57      10.26      10.36      10.38      10.17      11.37      10.71      11.18      11.179     10.39      -9999      -9999      10.25      10.44      9.89       9.97       9.82       10.12      11.52      10.57      10.22      9.34       9.22       9.54       9.99       10.25      9.73       7.31       5.72       6.74       6.53       6.87       6.42       7.65       11.18      10.39      -9999      10.25      10.44      9.89       9.97       9.82      
2694.100049 10.50998   10.32504   10.36999   10.21023   11.26448   10.6799    7.099817   6.959829   7.559988   6.32486    9.2847     8.720147   9.245018   8.945031   10.55002   10.56962   10.30507   10.38      10.0901    11.54978   10.74995   11.0152    11.0147    10.41497   -9999      -9999      10.41979   10.44      9.89       10.00496   9.650208   10.30977   11.30027   10.79972   10.19503   9.280073   9.299903   9.569963   9.885128   10.28995   9.655091   7.260061   5.984676   6.710036   6.500037   6.879988   6.365067   7.684957   11.0152    10.41497   -9999      10.41979   10.44      9.89       10.00496   9.650208  
2694.200049 10.53      10.29      10.38      10.02      11.69      10.76      7.25       7.1        7.57       6.44       9.53       8.6        9.23       8.92       10.53      10.88      10.25      10.38      10.01      11.73      10.79      10.85      10.85      10.44      -9999      -9999      10.59      10.44      9.89       10.04      9.48       10.5       11.08      11.03      10.17      9.22       9.38       9.6        9.78       10.33      9.58       7.21       6.25       6.68       6.47       6.89       6.31       7.72       10.85      10.44      -9999      10.59      10.44      9.89       10.04      9.48      
2694.300049 10.65515   10.21991   10.64032   9.934896   11.74006   10.91018   7.255006   7.19011    7.575006   6.545128   9.755275   8.349695   9.174932   8.729768   10.65515   10.95009   10.19994   10.65534   9.914884   11.78006   10.93017   10.5196    10.5196    10.44      -9999      -9999      10.60001   10.33988   9.769854   10.06503   9.309793   10.6602    11.26022   11.06504   9.959743   9.179952   9.570232   9.705129   9.704908   10.32499   9.424811   7.134908   6.350122   6.790134   6.685263   7.130293   6.284969   7.815116   10.5196    10.44      -9999      10.60001   10.33988   9.769854   10.06503   9.309793  
2694.400049 10.78      10.15      10.9       9.85       11.79      11.06      7.26       7.28       7.58       6.65       9.98       8.1        9.12       8.54       10.78      11.02      10.15      10.93      9.82       11.83      11.07      10.19      10.19      10.44      -9999      -9999      10.61      10.24      9.65       10.09      9.14       10.82      11.44      11.1       9.75       9.14       9.76       9.81       9.63       10.32      9.27       7.06       6.45       6.9        6.9        7.37       6.26       7.91       10.19      10.44      -9999      10.61      10.24      9.65       10.09      9.14      
2694.500049 10.69      10.08      10.96      9.835      11.86      11.095     7.175      7.255      7.6        6.775      9.78       8.030001   9.045      8.469999   10.725     11.16      10.04      11.005     9.82       11.885     11.12      10.465     10.465     10.44      -9999      -9999      10.69      10.24      9.65       10.25      9.085      10.81      11.545     10.94      9.645      9.110001   9.875      9.88       9.59       10.165     9.200001   7.03       6.4        7.375      6.93       7.48       6.23       8.145      10.465     10.44      -9999      10.69      10.24      9.65       10.25      9.085     
