~Version
 VERS              .         2.0                           : CWLS LOG ASCII STANDARD - VERSION 2.0
 WRAP              .         NO                            : ONE LINE PER DEPTH STEP
 DLM               .         SPACE                         : DELIMITING CHARACTER(SPACE TAB OR COMMA)
~Well Information
#_______________________________________________________________________________
#
#PARAMETER_NAME    .UNIT     VALUE                         : DESCRIPTION
#_______________________________________________________________________________
STRT               .M        2645.2                        : First reference value
STOP               .M        2778.800134                   : Last reference value
STEP               .M        0.1000001                     : Step increment
NULL               .         -9999                         : Missing value
COMP               .                                       : Company
WELL               .         616                           : Well name
FLD                .                                       : Field
LOC                .                                       : Location
CNTY               .                                       : County
STAT               .                                       : State
CTRY               .                                       : Country
SRVC               .                                       : Service Company
DATE               .                                       : Date
API                .                                       : API number
PROJECT_UPGRADE_TIME .         2021-03-18T21_24_50           : 
group              .         Good                          : 
~Parameter Information Block
#_______________________________________________________________________________
#
#PARAMETER_NAME    .UNIT     VALUE                         : DESCRIPTION
#_______________________________________________________________________________
SET                .         ResolutionTest                : 
TLFamily_GK_2_D1800_D .         Gamma Ray                     : 
TLFamily_GK_2_D1801_D .         Gamma Ray                     : 
TLFamily_GK_2_D1803_D .         Gamma Ray                     : 
TLFamily_GK_2_D1805_D .         Gamma Ray                     : 
TLFamily_GK_2_D1809_D .         Gamma Ray                     : 
TLFamily_GK_2_D1812_D .         Gamma Ray                     : 
TLFamily_GK_D0400_D .         Gamma Ray                     : 
TLFamily_GK_D0401_D .         Gamma Ray                     : 
TLFamily_GK_D0402_D .         Gamma Ray                     : 
TLFamily_GK_D0403_D .         Gamma Ray                     : 
TLFamily_GK_D1161_D .         Gamma Ray                     : 
TLFamily_GK_D1166_D .         Gamma Ray                     : 
TLFamily_GK_D1169_D .         Gamma Ray                     : 
TLFamily_GK_D1171_D .         Gamma Ray                     : 
TLFamily_GK_D1800_D .         Gamma Ray                     : 
TLFamily_GK_D1800_D_2 .         Gamma Ray                     : 
TLFamily_GK_D1801_D .         Gamma Ray                     : 
TLFamily_GK_D1803_D .         Gamma Ray                     : 
TLFamily_GK_D1805_D .         Gamma Ray                     : 
TLFamily_GK_D1809_D .         Gamma Ray                     : 
TLFamily_GK_D1812_D .         Gamma Ray                     : 
TLFamily_GK_D4391_D .         Gamma Ray                     : 
TLFamily_GK_D4391_D_2 .         Russian Gamma Ray             : 
TLFamily_GK_D4404_D .         Gamma Ray                     : 
TLFamily_GK_D4405_D .         Gamma Ray                     : 
TLFamily_GK_D4405_D_2 .         Russian Gamma Ray             : 
TLFamily_GK_D4407_D .         Gamma Ray                     : 
TLFamily_GK_D4410_D .         Gamma Ray                     : 
TLFamily_GK_D4412_D .         Gamma Ray                     : 
TLFamily_GK_D4415_D .         Gamma Ray                     : 
TLFamily_GK_D4417_D .         Gamma Ray                     : 
TLFamily_GK_D7017_D .         Gamma Ray                     : 
TLFamily_GK_D7017_D_2 .         Gamma Ray                     : 
TLFamily_GK_D7018_D .         Gamma Ray                     : 
TLFamily_GK_D7019_D .         Gamma Ray                     : 
TLFamily_GK_D7020_D .         Gamma Ray                     : 
TLFamily_GK_D7022_D .         Gamma Ray                     : 
TLFamily_GK_D7023_D .         Gamma Ray                     : 
TLFamily_GK_D7024_D .         Gamma Ray                     : 
TLFamily_GK_D7026_D .         Gamma Ray                     : 
TLFamily_GK_D7027_D .         Gamma Ray                     : 
TLFamily_GK_D8102_D_2 .         Russian Gamma Ray             : 
TLFamily_GK_D8103_D .         Gamma Ray                     : 
TLFamily_GK_D8103_D_2 .         Russian Gamma Ray             : 
TLFamily_GK_D8106_D .         Gamma Ray                     : 
TLFamily_GK_D8106_D_2 .         Russian Gamma Ray             : 
TLFamily_GK_D8107_D .         Gamma Ray                     : 
TLFamily_GK_D8107_D_2 .         Russian Gamma Ray             : 
TLFamily_GR_D4391_D .         Gamma Ray                     : 
TLFamily_GR_D4404_D .         Gamma Ray                     : 
TLFamily_GR_D4405_D .         Gamma Ray                     : 
TLFamily_GR_D4407_D .         Gamma Ray                     : 
TLFamily_GR_D4410_D .         Gamma Ray                     : 
TLFamily_GR_D4412_D .         Gamma Ray                     : 
TLFamily_GR_D4415_D .         Gamma Ray                     : 
TLFamily_GR_D4417_D .         Gamma Ray                     : 
TLFamily_MD        .         Measured Depth                : 
~Curve Information
#_______________________________________________________________________________
#
#LOGNAME           .UNIT     LOG_ID                        : DESCRIPTION
#_______________________________________________________________________________
MD                 .M                                      :  
GK_2_D1800_D       .FLT                                    : 14 Гамма-активность фильтрованная, мкр./ч -  110.0 см 
GK_2_D1801_D       .FLT                                    : 14 Гамма-активность фильтрованная, мкр./ч -  110.0 см 
GK_2_D1803_D       .FLT                                    : 14 Гамма-активность фильтрованная, мкр./ч -  110.0 см 
GK_2_D1805_D       .FLT                                    : 14 Гамма-активность фильтрованная, мкр./ч -  110.0 см 
GK_2_D1809_D       .FLT                                    : 14 Гамма-активность фильтрованная, мкр./ч -  110.0 см 
GK_2_D1812_D       .FLT                                    : 14 Гамма-активность фильтрованная, мкр./ч -  110.0 см 
GK_D0400_D         .MKR/H                                  : 12 Гамма-активность, мкр./ч -   65.0 см 
GK_D0401_D         .MKR/H                                  : 12 Гамма-активность, мкр./ч -   65.0 см 
GK_D0402_D         .MKR/H                                  : 12 Гамма-активность, мкр./ч -   65.0 см 
GK_D0403_D         .MKR/H                                  : 12 Гамма-активность, мкр./ч -   65.0 см 
GK_D1161_D         .MKR/H                                  : 15 Гамма-активность, мкр./ч -  110.0 см 
GK_D1166_D         .MKR/H                                  : 15 Гамма-активность, мкр./ч -  110.0 см 
GK_D1169_D         .MKR/H                                  : 15 Гамма-активность, мкр./ч -  110.0 см 
GK_D1171_D         .MKR/H                                  : 15 Гамма-активность, мкр./ч -  110.0 см 
GK_D1800_D         .MKR/H                                  : 13 Гамма-активность, мкр./ч -  110.0 см 
GK_D1800_D_2       .мкР/час                                : Естественная гамма-активность,мкР/ч 
GK_D1801_D         .MKR/H                                  : 13 Гамма-активность, мкр./ч -  110.0 см 
GK_D1803_D         .MKR/H                                  : 13 Гамма-активность, мкр./ч -  110.0 см 
GK_D1805_D         .MKR/H                                  : 13 Гамма-активность, мкр./ч -  110.0 см 
GK_D1809_D         .MKR/H                                  : 13 Гамма-активность, мкр./ч -  110.0 см 
GK_D1812_D         .MKR/H                                  : 13 Гамма-активность, мкр./ч -  110.0 см 
GK_D4391_D         .FLT                                    : 14 Гамма-активность фильтрованная, мкр./ч -  110.0 см 
GK_D4391_D_2       .мкР/ч                                  : Естественная гамма-активность,мкР/ч 
GK_D4404_D         .FLT                                    : 14 Гамма-активность фильтрованная, мкр./ч -  110.0 см 
GK_D4405_D         .FLT                                    : 14 Гамма-активность фильтрованная, мкр./ч -  110.0 см 
GK_D4405_D_2       .мкР/ч                                  : Естественная гамма-активность,мкР/ч 
GK_D4407_D         .FLT                                    : 14 Гамма-активность фильтрованная, мкр./ч -  110.0 см 
GK_D4410_D         .FLT                                    : 14 Гамма-активность фильтрованная, мкр./ч -  110.0 см 
GK_D4412_D         .FLT                                    : 14 Гамма-активность фильтрованная, мкр./ч -  110.0 см 
GK_D4415_D         .FLT                                    : 14 Гамма-активность фильтрованная, мкр./ч -  110.0 см 
GK_D4417_D         .FLT                                    : 14 Гамма-активность фильтрованная, мкр./ч -  110.0 см 
GK_D7017_D         .MKR/H                                  : 16 Гамма-активность, мкр./ч -  106.0 см 
GK_D7017_D_2       .мкР/час                                : Гамма каротаж, мкр/час 
GK_D7018_D         .MKR/H                                  : 16 Гамма-активность, мкр./ч -  106.0 см 
GK_D7019_D         .MKR/H                                  : 16 Гамма-активность, мкр./ч -  106.0 см 
GK_D7020_D         .MKR/H                                  : 16 Гамма-активность, мкр./ч -  106.0 см 
GK_D7022_D         .MKR/H                                  : 16 Гамма-активность, мкр./ч -  106.0 см 
GK_D7023_D         .MKR/H                                  : 16 Гамма-активность, мкр./ч -  106.0 см 
GK_D7024_D         .MKR/H                                  : 16 Гамма-активность, мкр./ч -  106.0 см 
GK_D7026_D         .MKR/H                                  : 16 Гамма-активность, мкр./ч -  106.0 см 
GK_D7027_D         .MKR/H                                  : 16 Гамма-активность, мкр./ч -  106.0 см 
GK_D8102_D_2       .мкР/ч                                  : Естественная гамма-активность,мкР/ч 
GK_D8103_D         .MKR/H                                  : 13 Гамма-активность, мкр./ч -   65.0 см 
GK_D8103_D_2       .мкР/ч                                  : Естественная гамма-активность,мкР/ч 
GK_D8106_D         .MKR/H                                  : 13 Гамма-активность, мкр./ч -   65.0 см 
GK_D8106_D_2       .мкР/ч                                  : Естественная гамма-активность,мкР/ч 
GK_D8107_D         .MKR/H                                  : 13 Гамма-активность, мкр./ч -   65.0 см 
GK_D8107_D_2       .мкР/ч                                  : Естественная гамма-активность,мкР/ч 
GR_D4391_D         .UR/H                                   : 13 Гамма-активность, мкр./ч -  110.0 см 
GR_D4404_D         .UR/H                                   : 13 Гамма-активность, мкр./ч -  110.0 см 
GR_D4405_D         .UR/H                                   : 13 Гамма-активность, мкр./ч -  110.0 см 
GR_D4407_D         .UR/H                                   : 13 Гамма-активность, мкр./ч -  110.0 см 
GR_D4410_D         .UR/H                                   : 13 Гамма-активность, мкр./ч -  110.0 см 
GR_D4412_D         .UR/H                                   : 13 Гамма-активность, мкр./ч -  110.0 см 
GR_D4415_D         .UR/H                                   : 13 Гамма-активность, мкр./ч -  110.0 см 
GR_D4417_D         .UR/H                                   : 13 Гамма-активность, мкр./ч -  110.0 см 
~Ascii
# ...
2680.300035 7.860464   6.825372   6.764969   7.420024   7.300134   7.145104   7.25011    7.625189   7.775067   6.770073   9.240097   9.22022    9.094969   9.330208   7.765397   8.371232   6.840391   6.73       7.44       7.42       7.190159   6.909634   6.909634   5.43       -9999      -9999      5.43       6.02       5.435311   5.1        5.385482   9.60022    7.705275   -9999      10.60985   11.06496   10.32017   10.53488   10.54486   10.32987   10.81482   5.465336   6.400159   5.000024   6.335189   5.454994   6.969817   5.36       6.909634   5.43       -9999      5.43       6.02       5.435311   5.1        5.385482  
2680.400035 8.24       7.13       6.74       7.44       7.41       7.23       7.34       7.78       7.83       6.83       9.32       9.4        9.07       9.5        8.09       8.97       7.16       6.73       7.44       7.42       7.32       6.61       6.61       5.43       -9999      -9999      5.43       6.02       5.69       5.1        5.78       9.78       7.93       -9999      10.49      11.03      10.46      10.44      10.43      10.22      10.67      5.74       6.53       5.02       6.49       5.45       6.82       5.36       6.61       5.43       -9999      5.43       6.02       5.69       5.1        5.78      
2680.500035 8.46       7.175      6.76       7.64       7.69       7.46       7.35       7.765      7.81       6.945      9.37       9.6        9.275      9.635      8.389999   9.22       7.205      6.77       7.65       7.805      7.51       6.8        6.8        5.735      -9999      -9999      5.525      5.71       5.84       5.395      5.81       10.145     8.225      -9999      10.43      11.005     10.53      10.395     10.39      10.155     10.545     5.635      6.695      5.02       6.53       5.34       6.785      5.35       6.8        5.735      -9999      5.525      5.71       5.84       5.395      5.81      
2680.600035 8.679463   7.21989    6.779952   7.839512   7.969317   7.689439   7.359976   7.750037   7.790049   7.05972    9.419878   9.799512   9.4795     9.769671   8.689268   9.469391   7.24989    6.809902   7.859488   8.18906    7.699536   6.989536   6.989536   6.039256   -9999      -9999      5.619768   5.400756   5.989634   5.689281   5.839927   10.50911   8.519281   -9999      10.37015   10.98006   10.59983   10.35011   10.3501    10.09016   10.42031   5.530256   6.859598   5.02       6.569902   5.230268   6.750085   5.340024   6.989536   6.039256   -9999      5.619768   5.400756   5.989634   5.689281   5.839927  
2680.700036 8.120684   7.414762   6.804969   7.849988   8.079865   7.709976   7.255128   7.690073   7.710098   7.234786   9.295153   9.934835   9.604847   9.725056   8.12569    9.105946   7.439768   6.819988   7.86       8.19       7.724969   6.999988   6.999988   6.04       -9999      -9999      5.62       5.4        6.049927   5.69       5.864969   10.51      8.69978    -9999      10.34503   10.92007   10.65993   10.33502   10.40993   10.07002   10.3351    5.564957   6.94989    5.254713   6.674872   5.215018   6.735018   5.354982   6.999988   6.04       -9999      5.62       5.4        6.049927   5.69       5.864969  
2680.800036 7.56       7.61       6.83       7.86       8.19       7.73       7.15       7.63       7.63       7.41       9.17       10.07      9.73       9.68       7.56       8.741      7.63       6.83       7.86       8.19       7.75       7.01       7.01       6.04       -9999      -9999      5.62       5.4        6.11       5.69       5.89       10.51      8.88       -9999      10.32      10.86      10.72      10.32      10.47      10.05      10.25      5.6        7.04       5.49       6.78       5.2        6.72       5.37       7.01       6.04       -9999      5.62       5.4        6.11       5.69       5.89      
2680.900036 7.724798   7.619988   6.94486    7.850012   7.970268   7.759964   7.249878   7.654969   7.679939   7.340086   9.095092   10.09996   9.625128   9.595104   7.664872   9.469609   7.63       7.014774   7.850012   7.935311   7.769976   6.810245   6.810245   6.204798   -9999      -9999      5.545092   5.589768   6.080037   5.974652   5.845055   10.44508   9.009842   -9999      10.33998   10.81006   10.73998   10.31001   10.49996   10.12491   10.23002   5.719853   6.785311   5.604859   6.919829   5.185018   6.724994   5.624689   6.810245   6.204798   -9999      5.545092   5.589768   6.080037   5.974652   5.845055  
2681.000036 7.89       7.63       7.06       7.84       7.75       7.79       7.35       7.68       7.73       7.27       9.02       10.13      9.52       9.51       7.77       10.2       7.63       7.2        7.84       7.68       7.79       6.61       6.61       6.37       -9999      -9999      5.47       5.78       6.05       6.26       5.8        10.38      9.14       -9999      10.36      10.76      10.76      10.3       10.53      10.2       10.21      5.84       6.53       5.72       7.06       5.17       6.73       5.88       6.61       6.37       -9999      5.47       5.78       6.05       6.26       5.8       
2681.100036 8.42934    7.560085   8.018827   7.889939   7.715043   7.710098   7.310049   7.729939   7.849854   7.230049   9.49442    10.12001   9.400146   9.524981   8.369267   10.09013   7.560085   8.143847   7.909914   7.68       7.67514    6.894652   6.894652   6.37       -9999      -9999      5.47       5.78       5.905177   6.26       5.8        10.68962   9.14       -9999      10.42991   10.66012   10.74002   10.27503   10.58993   10.22497   10.26493   5.919902   6.53       5.600146   7.079976   5.179988   6.849854   5.875006   6.894652   6.37       -9999      5.47       5.78       5.905177   6.26       5.8       
2681.200036 8.97       7.49       8.98       7.94       7.68       7.63       7.27       7.78       7.97       7.19       9.97       10.11      9.28       9.54       8.97       9.98       7.49       9.09       7.98       7.68       7.56       7.18       7.18       6.37       -9999      -9999      5.47       5.78       5.76       6.26       5.8        11         9.14       -9999      10.5       10.56      10.72      10.25      10.65      10.25      10.32      6          6.53       5.48       7.1        5.19       6.97       5.87       7.18       6.37       -9999      5.47       5.78       5.76       6.26       5.8       
2681.300036 9.180257   7.665214   9.030061   7.960024   7.429695   7.594957   7.259988   7.855092   8.050097   7.215031   10.19528   10.0299    9.320048   9.63011    9.220305   9.59453    7.765336   9.09       7.98       7.404664   7.56       7.094896   7.094896   6.339963   -9999      -9999      5.384896   5.875116   5.749988   6.149866   5.900122   10.93492   9.460391   -9999      10.62515   10.50994   10.64491   10.39017   10.65      10.23999   10.42513   5.879854   6.805336   5.630183   7.089988   5.195006   7.115177   5.804921   7.094896   6.339963   -9999      5.384896   5.875116   5.749988   6.149866   5.900122  
2681.400036 9.39       7.84       9.08       7.98       7.18       7.56       7.25       7.93       8.13       7.24       10.42      9.95       9.36       9.72       9.47       9.21       8.04       9.09       7.98       7.13       7.56       7.01       7.01       6.31       -9999      -9999      5.3        5.97       5.74       6.04       6          10.87      9.78       -9999      10.75      10.46      10.57      10.53      10.65      10.23      10.53      5.76       7.08       5.78       7.08       5.2        7.26       5.74       7.01       6.31       -9999      5.3        5.97       5.74       6.04       6         
2681.500036 9.09       8.07       8.99       8.185      7.16       7.825      7.38       7.895      8.27       7.315      10.22      9.695      9.385      9.74       9.105      9.4095     8.175      8.985001   8.25       7.13       7.935      7.12       7.12       6.31       -9999      -9999      5.3        6.215      5.735      6.04       6          10.845     9.934999   -9999      10.81      10.415     10.515     10.63      10.645     10.195     10.585     5.775      7.265      5.945      7.145      5.435      7.255      5.655      7.12       6.31       -9999      5.3        6.215      5.735      6.04       6         
