~Version
 VERS              .         2.0                           : CWLS LOG ASCII STANDARD - VERSION 2.0
 WRAP              .         NO                            : ONE LINE PER DEPTH STEP
 DLM               .         SPACE                         : DELIMITING CHARACTER(SPACE TAB OR COMMA)
~Well Information
#_______________________________________________________________________________
#
#PARAMETER_NAME    .UNIT     VALUE                         : DESCRIPTION
#_______________________________________________________________________________
STRT               .M        2645.2                        : First reference value
STOP               .M        2778.800134                   : Last reference value
STEP               .M        0.1000001                     : Step increment
NULL               .         -9999                         : Missing value
COMP               .                                       : Company
WELL               .         616                           : Well name
FLD                .                                       : Field
LOC                .                                       : Location
CNTY               .                                       : County
STAT               .                                       : State
CTRY               .                                       : Country
SRVC               .                                       : Service Company
DATE               .                                       : Date
API                .                                       : API number
PROJECT_UPGRADE_TIME .         2021-03-18T21_24_50           : 
group              .         Good                          : 
~Parameter Information Block
#_______________________________________________________________________________
#
#PARAMETER_NAME    .UNIT     VALUE                         : DESCRIPTION
#_______________________________________________________________________________
SET                .         ResolutionTest                : 
TLFamily_GK_2_D1800_D .         Gamma Ray                     : 
TLFamily_GK_2_D1801_D .         Gamma Ray                     : 
TLFamily_GK_2_D1803_D .         Gamma Ray                     : 
TLFamily_GK_2_D1805_D .         Gamma Ray                     : 
TLFamily_GK_2_D1809_D .         Gamma Ray                     : 
TLFamily_GK_2_D1812_D .         Gamma Ray                     : 
TLFamily_GK_D0400_D .         Gamma Ray                     : 
TLFamily_GK_D0401_D .         Gamma Ray                     : 
TLFamily_GK_D0402_D .         Gamma Ray                     : 
TLFamily_GK_D0403_D .         Gamma Ray                     : 
TLFamily_GK_D1161_D .         Gamma Ray                     : 
TLFamily_GK_D1166_D .         Gamma Ray                     : 
TLFamily_GK_D1169_D .         Gamma Ray                     : 
TLFamily_GK_D1171_D .         Gamma Ray                     : 
TLFamily_GK_D1800_D .         Gamma Ray                     : 
TLFamily_GK_D1800_D_2 .         Gamma Ray                     : 
TLFamily_GK_D1801_D .         Gamma Ray                     : 
TLFamily_GK_D1803_D .         Gamma Ray                     : 
TLFamily_GK_D1805_D .         Gamma Ray                     : 
TLFamily_GK_D1809_D .         Gamma Ray                     : 
TLFamily_GK_D1812_D .         Gamma Ray                     : 
TLFamily_GK_D4391_D .         Gamma Ray                     : 
TLFamily_GK_D4391_D_2 .         Russian Gamma Ray             : 
TLFamily_GK_D4404_D .         Gamma Ray                     : 
TLFamily_GK_D4405_D .         Gamma Ray                     : 
TLFamily_GK_D4405_D_2 .         Russian Gamma Ray             : 
TLFamily_GK_D4407_D .         Gamma Ray                     : 
TLFamily_GK_D4410_D .         Gamma Ray                     : 
TLFamily_GK_D4412_D .         Gamma Ray                     : 
TLFamily_GK_D4415_D .         Gamma Ray                     : 
TLFamily_GK_D4417_D .         Gamma Ray                     : 
TLFamily_GK_D7017_D .         Gamma Ray                     : 
TLFamily_GK_D7017_D_2 .         Gamma Ray                     : 
TLFamily_GK_D7018_D .         Gamma Ray                     : 
TLFamily_GK_D7019_D .         Gamma Ray                     : 
TLFamily_GK_D7020_D .         Gamma Ray                     : 
TLFamily_GK_D7022_D .         Gamma Ray                     : 
TLFamily_GK_D7023_D .         Gamma Ray                     : 
TLFamily_GK_D7024_D .         Gamma Ray                     : 
TLFamily_GK_D7026_D .         Gamma Ray                     : 
TLFamily_GK_D7027_D .         Gamma Ray                     : 
TLFamily_GK_D8102_D_2 .         Russian Gamma Ray             : 
TLFamily_GK_D8103_D .         Gamma Ray                     : 
TLFamily_GK_D8103_D_2 .         Russian Gamma Ray             : 
TLFamily_GK_D8106_D .         Gamma Ray                     : 
TLFamily_GK_D8106_D_2 .         Russian Gamma Ray             : 
TLFamily_GK_D8107_D .         Gamma Ray                     : 
TLFamily_GK_D8107_D_2 .         Russian Gamma Ray             : 
TLFamily_GR_D4391_D .         Gamma Ray                     : 
TLFamily_GR_D4404_D .         Gamma Ray                     : 
TLFamily_GR_D4405_D .         Gamma Ray                     : 
TLFamily_GR_D4407_D .         Gamma Ray                     : 
TLFamily_GR_D4410_D .         Gamma Ray                     : 
TLFamily_GR_D4412_D .         Gamma Ray                     : 
TLFamily_GR_D4415_D .         Gamma Ray                     : 
TLFamily_GR_D4417_D .         Gamma Ray                     : 
TLFamily_MD        .         Measured Depth                : 
~Curve Information
#_______________________________________________________________________________
#
#LOGNAME           .UNIT     LOG_ID                        : DESCRIPTION
#_______________________________________________________________________________
MD                 .M                                      :  
GK_2_D1800_D       .FLT                                    : 14 Гамма-активность фильтрованная, мкр./ч -  110.0 см 
GK_2_D1801_D       .FLT                                    : 14 Гамма-активность фильтрованная, мкр./ч -  110.0 см 
GK_2_D1803_D       .FLT                                    : 14 Гамма-активность фильтрованная, мкр./ч -  110.0 см 
GK_2_D1805_D       .FLT                                    : 14 Гамма-активность фильтрованная, мкр./ч -  110.0 см 
GK_2_D1809_D       .FLT                                    : 14 Гамма-активность фильтрованная, мкр./ч -  110.0 см 
GK_2_D1812_D       .FLT                                    : 14 Гамма-активность фильтрованная, мкр./ч -  110.0 см 
GK_D0400_D         .MKR/H                                  : 12 Гамма-активность, мкр./ч -   65.0 см 
GK_D0401_D         .MKR/H                                  : 12 Гамма-активность, мкр./ч -   65.0 см 
GK_D0402_D         .MKR/H                                  : 12 Гамма-активность, мкр./ч -   65.0 см 
GK_D0403_D         .MKR/H                                  : 12 Гамма-активность, мкр./ч -   65.0 см 
GK_D1161_D         .MKR/H                                  : 15 Гамма-активность, мкр./ч -  110.0 см 
GK_D1166_D         .MKR/H                                  : 15 Гамма-активность, мкр./ч -  110.0 см 
GK_D1169_D         .MKR/H                                  : 15 Гамма-активность, мкр./ч -  110.0 см 
GK_D1171_D         .MKR/H                                  : 15 Гамма-активность, мкр./ч -  110.0 см 
GK_D1800_D         .MKR/H                                  : 13 Гамма-активность, мкр./ч -  110.0 см 
GK_D1800_D_2       .мкР/час                                : Естественная гамма-активность,мкР/ч 
GK_D1801_D         .MKR/H                                  : 13 Гамма-активность, мкр./ч -  110.0 см 
GK_D1803_D         .MKR/H                                  : 13 Гамма-активность, мкр./ч -  110.0 см 
GK_D1805_D         .MKR/H                                  : 13 Гамма-активность, мкр./ч -  110.0 см 
GK_D1809_D         .MKR/H                                  : 13 Гамма-активность, мкр./ч -  110.0 см 
GK_D1812_D         .MKR/H                                  : 13 Гамма-активность, мкр./ч -  110.0 см 
GK_D4391_D         .FLT                                    : 14 Гамма-активность фильтрованная, мкр./ч -  110.0 см 
GK_D4391_D_2       .мкР/ч                                  : Естественная гамма-активность,мкР/ч 
GK_D4404_D         .FLT                                    : 14 Гамма-активность фильтрованная, мкр./ч -  110.0 см 
GK_D4405_D         .FLT                                    : 14 Гамма-активность фильтрованная, мкр./ч -  110.0 см 
GK_D4405_D_2       .мкР/ч                                  : Естественная гамма-активность,мкР/ч 
GK_D4407_D         .FLT                                    : 14 Гамма-активность фильтрованная, мкр./ч -  110.0 см 
GK_D4410_D         .FLT                                    : 14 Гамма-активность фильтрованная, мкр./ч -  110.0 см 
GK_D4412_D         .FLT                                    : 14 Гамма-активность фильтрованная, мкр./ч -  110.0 см 
GK_D4415_D         .FLT                                    : 14 Гамма-активность фильтрованная, мкр./ч -  110.0 см 
GK_D4417_D         .FLT                                    : 14 Гамма-активность фильтрованная, мкр./ч -  110.0 см 
GK_D7017_D         .MKR/H                                  : 16 Гамма-активность, мкр./ч -  106.0 см 
GK_D7017_D_2       .мкР/час                                : Гамма каротаж, мкр/час 
GK_D7018_D         .MKR/H                                  : 16 Гамма-активность, мкр./ч -  106.0 см 
GK_D7019_D         .MKR/H                                  : 16 Гамма-активность, мкр./ч -  106.0 см 
GK_D7020_D         .MKR/H                                  : 16 Гамма-активность, мкр./ч -  106.0 см 
GK_D7022_D         .MKR/H                                  : 16 Гамма-активность, мкр./ч -  106.0 см 
GK_D7023_D         .MKR/H                                  : 16 Гамма-активность, мкр./ч -  106.0 см 
GK_D7024_D         .MKR/H                                  : 16 Гамма-активность, мкр./ч -  106.0 см 
GK_D7026_D         .MKR/H                                  : 16 Гамма-активность, мкр./ч -  106.0 см 
GK_D7027_D         .MKR/H                                  : 16 Гамма-активность, мкр./ч -  106.0 см 
GK_D8102_D_2       .мкР/ч                                  : Естественная гамма-активность,мкР/ч 
GK_D8103_D         .MKR/H                                  : 13 Гамма-активность, мкр./ч -   65.0 см 
GK_D8103_D_2       .мкР/ч                                  : Естественная гамма-активность,мкР/ч 
GK_D8106_D         .MKR/H                                  : 13 Гамма-активность, мкр./ч -   65.0 см 
GK_D8106_D_2       .мкР/ч                                  : Естественная гамма-активность,мкР/ч 
GK_D8107_D         .MKR/H                                  : 13 Гамма-активность, мкр./ч -   65.0 см 
GK_D8107_D_2       .мкР/ч                                  : Естественная гамма-активность,мкР/ч 
GR_D4391_D         .UR/H                                   : 13 Гамма-активность, мкр./ч -  110.0 см 
GR_D4404_D         .UR/H                                   : 13 Гамма-активность, мкр./ч -  110.0 см 
GR_D4405_D         .UR/H                                   : 13 Гамма-активность, мкр./ч -  110.0 см 
GR_D4407_D         .UR/H                                   : 13 Гамма-активность, мкр./ч -  110.0 см 
GR_D4410_D         .UR/H                                   : 13 Гамма-активность, мкр./ч -  110.0 см 
GR_D4412_D         .UR/H                                   : 13 Гамма-активность, мкр./ч -  110.0 см 
GR_D4415_D         .UR/H                                   : 13 Гамма-активность, мкр./ч -  110.0 см 
GR_D4417_D         .UR/H                                   : 13 Гамма-активность, мкр./ч -  110.0 см 
~Ascii
# ...
2714.100069 7.934945   12.62969   13.11516   13.38494   13.55504   12.64007   6.854774   7.390086   7.354994   6.305006   6.904774   5.370134   5.960207   5.365226   7.940085   8.309597   12.76448   13.08018   13.39484   13.52      12.57      7.240391   7.240391   13.89      7.789878   7.789878   12.03471   11.8       11.69096   13.64      12.90037   7.150195   7.984921   7.180195   7.955238   8.470366   7.520232   7.269963   8.355103   8.115238   8.195421   5.165689   7.130195   5.48978    6.429768   5.194908   4.91503    8.005116   7.240391   13.89      7.789878   12.03471   11.8       11.69096   13.64      12.90037  
2714.200069 7.98       12.88      12.98      13.43      13.52      12.58      7.04       7.32       7.36       6.3        7.09       5.26       5.79       5.18       7.87       8.64       13.19      12.93      13.53      13.52      12.57      6.92       6.92       13.89      7.89       7.89       12.27      11.8       10.9       13.64      12.6       6.99       8.05       7.02       7.76       8.17       7.33       7.3        8.27       7.92       7.85       5.011      6.97       5.67       6.62       5.27       4.89       7.91       6.92       13.89      7.89       12.27      11.8       10.9       13.64      12.6      
2714.300069 8.100146   13.23543   12.95497   14.09581   13.53001   13.06059   6.989939   7.214872   7.194798   6.330037   6.784628   5.079781   5.649829   5.099902   8.045214   8.980916   13.40026   12.93      14.17078   13.53001   13.09063   9.022564   9.021563   13.13908   8.075226   8.075226   12.33007   10.36825   10.9       12.52864   12.30965   7.030049   8.50105    6.884835   7.664884   7.954737   7.169805   7.335043   8.214933   7.764811   7.684798   5.912099   6.234102   6.215666   6.675067   5.285018   4.879988   7.008901   9.022564   13.13908   8.075226   12.33007   10.36825   10.9       12.52864   12.30965  
2714.400069 8.22       13.59      12.93      14.76      13.54      13.54      6.94       7.11       7.03       6.36       6.48       4.9        5.51       5.02       8.22       9.321      13.61      12.93      14.81      13.54      13.61      11.12      11.118     12.39      8.26       8.26       12.39      8.94       10.9       11.42      12.02      7.07       8.951      6.75       7.57       7.74       7.01       7.37       8.16       7.61       7.52       6.811      5.5        6.76       6.73       5.3        4.87       6.11       11.12      12.39      8.26       12.39      8.94       10.9       11.42      12.02     
2714.500069 8.125      13.69      13.06      14.785     13.54      13.575     6.895      7          6.82       6.375      6.34       4.715      5.27       4.97       8.125      10.3365    13.75      13.105     14.81      13.54      13.61      12.56      12.5585    12.39      9.26       9.259501   11.105     8.94       9.504999   11.42      10.175     7.16       10.311     6.78       7.315      7.605      6.86       7.38       8.035      7.5        7.475      8.0955     4.99       7.89       6.975      5.305      4.74       6.11       12.56      12.39      9.26       11.105     8.94       9.504999   11.42      10.175    
2714.600069 8.030231   13.78976   13.18968   14.80994   13.54      13.60991   6.85011    6.890268   6.610512   6.389963   6.200341   4.530451   5.030586   4.920122   8.030231   11.34952   13.88966   13.27957   14.81      13.54      13.61      13.99649   13.99549   12.39      10.25756   10.25656   9.823133   8.94       8.113402   11.42      8.3345     7.249781   11.66768   6.809927   7.060622   7.470329   6.710366   7.389976   7.910305   7.390268   7.43011    9.376867   4.481244   9.017244   7.219402   5.309988   4.610317   6.11       13.99649   12.39      10.25756   9.823133   8.94       8.113402   11.42      8.3345    
2714.700069 8.005031   14.17952   13.23494   13.86615   13.3802    13.8547    6.840012   6.825079   6.649951   6.494872   6.344823   4.460085   4.890171   4.92       8.005031   13.25418   14.24457   13.28      13.83619   13.3752    13.86968   14.72411   14.72311   10.39244   12.67205   12.67055   9.490403   7.921245   8.065055   9.447412   8.33       7.444762   13.32847   6.844957   6.925165   7.375116   6.615116   7.399988   7.800134   7.394994   7.439988   9.789499   4.604847   9.649231   7.329865   5.409878   4.619988   6.090024   14.72411   10.39244   12.67205   9.490403   7.921245   8.065055   9.447412   8.33      
2714.80007 7.98       14.57      13.28      12.92      13.22      14.1       6.83       6.76       6.69       6.6        6.49       4.39       4.75       4.92       7.98       15.161     14.6       13.28      12.86      13.21      14.13      15.45      15.449     8.39       15.09      15.088     9.16       6.9        8.02       7.47       8.33       7.64       14.99      6.88       6.79       7.28       6.52       7.41       7.69       7.4        7.45       10.2       4.73       10.28      7.44       5.51       4.63       6.07       15.45      8.39       15.09      9.16       6.9        8.02       7.47       8.33      
2714.90007 8.309597   14.58498   11.89669   12.89004   13.21501   13.48575   7.039743   6.859878   7.054554   6.859683   6.559915   4.370024   4.66011    5.079804   8.309597   15.8192    14.6       11.70692   12.86      13.21      13.13122   14.56109   14.56109   8.39       14.99512   14.99411   8.590696   6.9        7.790281   7.47       7.321233   7.590061   14.94006   7.214591   6.725079   7.200098   6.729743   7.519866   7.69       7.419976   7.489951   9.790001   4.774945   9.391087   7.649744   5.89453    4.829756   6.065006   14.56109   8.39       14.99512   8.590696   6.9        7.790281   7.47       7.321233  
2715.00007 8.64       14.6       10.51      12.86      13.21      12.87      7.25       6.96       7.42       7.12       6.63       4.35       4.57       5.24       8.64       16.479     14.6       10.13      12.86      13.21      12.13      13.67      13.671     8.39       14.9       14.9       8.02       6.9        7.56       7.47       6.31       7.54       14.89      7.55       6.66       7.12       6.94       7.63       7.69       7.44       7.53       9.379      4.82       8.5        7.86       6.28       5.03       6.06       13.67      8.39       14.9       8.02       6.9        7.56       7.47       6.31      
2715.10007 8.984579   12.60244   10.32523   10.96232   11.4072    11.54162   7.444762   7.204701   7.754591   7.234859   6.510147   4.549756   4.525055   5.289939   8.979585   15.21055   12.51755   10.13      10.88242   11.28236   11.14121   12.35161   12.35261   8.085373   14.58538   14.58538   8.02       7.304505   7.56       7.030537   6.324982   7.370207   14.08598   7.744762   6.724921   7.070061   7.069841   7.709902   7.699988   7.624774   7.609902   8.694837   4.555324   7.870769   7.725165   6.873774   5.124884   6.114933   12.35161   8.085373   14.58538   8.02       7.304505   7.56       7.030537   6.324982  
2715.20007 9.33       10.6       10.14      9.06       9.6        10.21      7.64       7.45       8.09       7.35       6.39       4.75       4.48       5.34       9.32       13.939     10.43      10.13      8.9        9.35       10.15      11.03      11.031     7.78       14.27      14.27      8.02       7.71       7.56       6.59       6.34       7.2        13.28      7.94       6.79       7.02       7.2        7.79       7.71       7.81       7.69       8.009      4.29       7.24       7.59       7.469      5.22       6.17       11.03      7.78       14.27      8.02       7.71       7.56       6.59       6.34      
2715.30007 10.37628   9.829061   9.359048   8.664518   9.479854   9.534176   7.685055   7.610195   8.240184   7.264896   6.139695   4.980281   4.530061   5.43011    10.33624   12.83265   9.338669   9.08873    8.399389   9.35       9.128755   10.26907   10.27007   7.78       12.5479    12.5489    8.030012   7.71       7.549988   6.59       6.400074   7.320147   12.42896   7.749768   6.980232   7.125128   7.40525    7.925165   7.875202   7.92514    7.755079   7.438805   4.209902   6.694335   7.529927   8.405142   5.250037   6.175006   10.26907   7.78       12.5479    8.030012   7.71       7.549988   6.59       6.400074  
