~Version
 VERS              .         2.0                           : CWLS LOG ASCII STANDARD - VERSION 2.0
 WRAP              .         NO                            : ONE LINE PER DEPTH STEP
 DLM               .         SPACE                         : DELIMITING CHARACTER(SPACE TAB OR COMMA)
~Well Information
#_______________________________________________________________________________
#
#PARAMETER_NAME    .UNIT     VALUE                         : DESCRIPTION
#_______________________________________________________________________________
STRT               .M        2645.2                        : First reference value
STOP               .M        2778.800134                   : Last reference value
STEP               .M        0.1000001                     : Step increment
NULL               .         -9999                         : Missing value
COMP               .                                       : Company
WELL               .         616                           : Well name
FLD                .                                       : Field
LOC                .                                       : Location
CNTY               .                                       : County
STAT               .                                       : State
CTRY               .                                       : Country
SRVC               .                                       : Service Company
DATE               .                                       : Date
API                .                                       : API number
PROJECT_UPGRADE_TIME .         2021-03-18T21_24_50           : 
group              .         Good                          : 
~Parameter Information Block
#_______________________________________________________________________________
#
#PARAMETER_NAME    .UNIT     VALUE                         : DESCRIPTION
#_______________________________________________________________________________
SET                .         ResolutionTest                : 
TLFamily_GK_2_D1800_D .         Gamma Ray                     : 
TLFamily_GK_2_D1801_D .         Gamma Ray                     : 
TLFamily_GK_2_D1803_D .         Gamma Ray                     : 
TLFamily_GK_2_D1805_D .         Gamma Ray                     : 
TLFamily_GK_2_D1809_D .         Gamma Ray                     : 
TLFamily_GK_2_D1812_D .         Gamma Ray                     : 
TLFamily_GK_D0400_D .         Gamma Ray                     : 
TLFamily_GK_D0401_D .         Gamma Ray                     : 
TLFamily_GK_D0402_D .         Gamma Ray                     : 
TLFamily_GK_D0403_D .         Gamma Ray                     : 
TLFamily_GK_D1161_D .         Gamma Ray                     : 
TLFamily_GK_D1166_D .         Gamma Ray                     : 
TLFamily_GK_D1169_D .         Gamma Ray                     : 
TLFamily_GK_D1171_D .         Gamma Ray                     : 
TLFamily_GK_D1800_D .         Gamma Ray                     : 
TLFamily_GK_D1800_D_2 .         Gamma Ray                     : 
TLFamily_GK_D1801_D .         Gamma Ray                     : 
TLFamily_GK_D1803_D .         Gamma Ray                     : 
TLFamily_GK_D1805_D .         Gamma Ray                     : 
TLFamily_GK_D1809_D .         Gamma Ray                     : 
TLFamily_GK_D1812_D .         Gamma Ray                     : 
TLFamily_GK_D4391_D .         Gamma Ray                     : 
TLFamily_GK_D4391_D_2 .         Russian Gamma Ray             : 
TLFamily_GK_D4404_D .         Gamma Ray                     : 
TLFamily_GK_D4405_D .         Gamma Ray                     : 
TLFamily_GK_D4405_D_2 .         Russian Gamma Ray             : 
TLFamily_GK_D4407_D .         Gamma Ray                     : 
TLFamily_GK_D4410_D .         Gamma Ray                     : 
TLFamily_GK_D4412_D .         Gamma Ray                     : 
TLFamily_GK_D4415_D .         Gamma Ray                     : 
TLFamily_GK_D4417_D .         Gamma Ray                     : 
TLFamily_GK_D7017_D .         Gamma Ray                     : 
TLFamily_GK_D7017_D_2 .         Gamma Ray                     : 
TLFamily_GK_D7018_D .         Gamma Ray                     : 
TLFamily_GK_D7019_D .         Gamma Ray                     : 
TLFamily_GK_D7020_D .         Gamma Ray                     : 
TLFamily_GK_D7022_D .         Gamma Ray                     : 
TLFamily_GK_D7023_D .         Gamma Ray                     : 
TLFamily_GK_D7024_D .         Gamma Ray                     : 
TLFamily_GK_D7026_D .         Gamma Ray                     : 
TLFamily_GK_D7027_D .         Gamma Ray                     : 
TLFamily_GK_D8102_D_2 .         Russian Gamma Ray             : 
TLFamily_GK_D8103_D .         Gamma Ray                     : 
TLFamily_GK_D8103_D_2 .         Russian Gamma Ray             : 
TLFamily_GK_D8106_D .         Gamma Ray                     : 
TLFamily_GK_D8106_D_2 .         Russian Gamma Ray             : 
TLFamily_GK_D8107_D .         Gamma Ray                     : 
TLFamily_GK_D8107_D_2 .         Russian Gamma Ray             : 
TLFamily_GR_D4391_D .         Gamma Ray                     : 
TLFamily_GR_D4404_D .         Gamma Ray                     : 
TLFamily_GR_D4405_D .         Gamma Ray                     : 
TLFamily_GR_D4407_D .         Gamma Ray                     : 
TLFamily_GR_D4410_D .         Gamma Ray                     : 
TLFamily_GR_D4412_D .         Gamma Ray                     : 
TLFamily_GR_D4415_D .         Gamma Ray                     : 
TLFamily_GR_D4417_D .         Gamma Ray                     : 
TLFamily_MD        .         Measured Depth                : 
~Curve Information
#_______________________________________________________________________________
#
#LOGNAME           .UNIT     LOG_ID                        : DESCRIPTION
#_______________________________________________________________________________
MD                 .M                                      :  
GK_2_D1800_D       .FLT                                    : 14 Гамма-активность фильтрованная, мкр./ч -  110.0 см 
GK_2_D1801_D       .FLT                                    : 14 Гамма-активность фильтрованная, мкр./ч -  110.0 см 
GK_2_D1803_D       .FLT                                    : 14 Гамма-активность фильтрованная, мкр./ч -  110.0 см 
GK_2_D1805_D       .FLT                                    : 14 Гамма-активность фильтрованная, мкр./ч -  110.0 см 
GK_2_D1809_D       .FLT                                    : 14 Гамма-активность фильтрованная, мкр./ч -  110.0 см 
GK_2_D1812_D       .FLT                                    : 14 Гамма-активность фильтрованная, мкр./ч -  110.0 см 
GK_D0400_D         .MKR/H                                  : 12 Гамма-активность, мкр./ч -   65.0 см 
GK_D0401_D         .MKR/H                                  : 12 Гамма-активность, мкр./ч -   65.0 см 
GK_D0402_D         .MKR/H                                  : 12 Гамма-активность, мкр./ч -   65.0 см 
GK_D0403_D         .MKR/H                                  : 12 Гамма-активность, мкр./ч -   65.0 см 
GK_D1161_D         .MKR/H                                  : 15 Гамма-активность, мкр./ч -  110.0 см 
GK_D1166_D         .MKR/H                                  : 15 Гамма-активность, мкр./ч -  110.0 см 
GK_D1169_D         .MKR/H                                  : 15 Гамма-активность, мкр./ч -  110.0 см 
GK_D1171_D         .MKR/H                                  : 15 Гамма-активность, мкр./ч -  110.0 см 
GK_D1800_D         .MKR/H                                  : 13 Гамма-активность, мкр./ч -  110.0 см 
GK_D1800_D_2       .мкР/час                                : Естественная гамма-активность,мкР/ч 
GK_D1801_D         .MKR/H                                  : 13 Гамма-активность, мкр./ч -  110.0 см 
GK_D1803_D         .MKR/H                                  : 13 Гамма-активность, мкр./ч -  110.0 см 
GK_D1805_D         .MKR/H                                  : 13 Гамма-активность, мкр./ч -  110.0 см 
GK_D1809_D         .MKR/H                                  : 13 Гамма-активность, мкр./ч -  110.0 см 
GK_D1812_D         .MKR/H                                  : 13 Гамма-активность, мкр./ч -  110.0 см 
GK_D4391_D         .FLT                                    : 14 Гамма-активность фильтрованная, мкр./ч -  110.0 см 
GK_D4391_D_2       .мкР/ч                                  : Естественная гамма-активность,мкР/ч 
GK_D4404_D         .FLT                                    : 14 Гамма-активность фильтрованная, мкр./ч -  110.0 см 
GK_D4405_D         .FLT                                    : 14 Гамма-активность фильтрованная, мкр./ч -  110.0 см 
GK_D4405_D_2       .мкР/ч                                  : Естественная гамма-активность,мкР/ч 
GK_D4407_D         .FLT                                    : 14 Гамма-активность фильтрованная, мкр./ч -  110.0 см 
GK_D4410_D         .FLT                                    : 14 Гамма-активность фильтрованная, мкр./ч -  110.0 см 
GK_D4412_D         .FLT                                    : 14 Гамма-активность фильтрованная, мкр./ч -  110.0 см 
GK_D4415_D         .FLT                                    : 14 Гамма-активность фильтрованная, мкр./ч -  110.0 см 
GK_D4417_D         .FLT                                    : 14 Гамма-активность фильтрованная, мкр./ч -  110.0 см 
GK_D7017_D         .MKR/H                                  : 16 Гамма-активность, мкр./ч -  106.0 см 
GK_D7017_D_2       .мкР/час                                : Гамма каротаж, мкр/час 
GK_D7018_D         .MKR/H                                  : 16 Гамма-активность, мкр./ч -  106.0 см 
GK_D7019_D         .MKR/H                                  : 16 Гамма-активность, мкр./ч -  106.0 см 
GK_D7020_D         .MKR/H                                  : 16 Гамма-активность, мкр./ч -  106.0 см 
GK_D7022_D         .MKR/H                                  : 16 Гамма-активность, мкр./ч -  106.0 см 
GK_D7023_D         .MKR/H                                  : 16 Гамма-активность, мкр./ч -  106.0 см 
GK_D7024_D         .MKR/H                                  : 16 Гамма-активность, мкр./ч -  106.0 см 
GK_D7026_D         .MKR/H                                  : 16 Гамма-активность, мкр./ч -  106.0 см 
GK_D7027_D         .MKR/H                                  : 16 Гамма-активность, мкр./ч -  106.0 см 
GK_D8102_D_2       .мкР/ч                                  : Естественная гамма-активность,мкР/ч 
GK_D8103_D         .MKR/H                                  : 13 Гамма-активность, мкр./ч -   65.0 см 
GK_D8103_D_2       .мкР/ч                                  : Естественная гамма-активность,мкР/ч 
GK_D8106_D         .MKR/H                                  : 13 Гамма-активность, мкр./ч -   65.0 см 
GK_D8106_D_2       .мкР/ч                                  : Естественная гамма-активность,мкР/ч 
GK_D8107_D         .MKR/H                                  : 13 Гамма-активность, мкр./ч -   65.0 см 
GK_D8107_D_2       .мкР/ч                                  : Естественная гамма-активность,мкР/ч 
GR_D4391_D         .UR/H                                   : 13 Гамма-активность, мкр./ч -  110.0 см 
GR_D4404_D         .UR/H                                   : 13 Гамма-активность, мкр./ч -  110.0 см 
GR_D4405_D         .UR/H                                   : 13 Гамма-активность, мкр./ч -  110.0 см 
GR_D4407_D         .UR/H                                   : 13 Гамма-активность, мкр./ч -  110.0 см 
GR_D4410_D         .UR/H                                   : 13 Гамма-активность, мкр./ч -  110.0 см 
GR_D4412_D         .UR/H                                   : 13 Гамма-активность, мкр./ч -  110.0 см 
GR_D4415_D         .UR/H                                   : 13 Гамма-активность, мкр./ч -  110.0 см 
GR_D4417_D         .UR/H                                   : 13 Гамма-активность, мкр./ч -  110.0 см 
~Ascii
# ...
2733.600088 7.979915   7.520305   7.419976   7.709439   7.529768   7.619976   5.540427   5.750049   5.960305   5.479988   8.33989    8.569902   8.949402   7.549756   7.959939   8.49911    7.510317   7.42       7.719805   7.539988   7.629976   8.479683   8.479683   8.309488   8.479219   8.479219   7.919805   7.6        8.308818   7.839525   8.898524   10.10994   8.019452   9.330036   10.34004   9.990207   10.08026   9.570024   11.1005    10.54013   10.83084   6.31961    7.34967    5.079536   10.17982   4.62028    6.820244   4.880013   8.479683   8.309488   8.479219   7.919805   7.6        8.308818   7.839525   8.898524  
2733.700088 8.13481    7.515006   7.569817   7.879793   7.724762   7.624994   5.574957   5.72503    5.825165   5.395104   8.384945   8.39022    9.079842   7.510049   8.124799   8.534957   7.51       7.584798   7.909768   7.839634   7.63       8.56989    8.56989    8.31       8.534933   8.534933   8.089792   7.864676   8.31       7.84       8.9        9.99514    8.194786   9.285055   10.34      9.835189   9.995104   9.619939   10.92022   10.55998   10.63024   6.210135   7.14525    5.174884   9.935299   4.600024   6.770061   4.765141   8.56989    8.31       8.534933   8.089792   7.864676   8.31       7.84       8.9       
2733.800089 8.29       7.51       7.72       8.05       7.92       7.63       5.61       5.7        5.69       5.31       8.43       8.21       9.21       7.47       8.29       8.57       7.51       7.75       8.1        8.14       7.63       8.66       8.66       8.31       8.59       8.59       8.26       8.13       8.31       7.84       8.9        9.88       8.37       9.24       10.34      9.68       9.91       9.67       10.74      10.58      10.43      6.1        6.94       5.27       9.69       4.58       6.72       4.65       8.66       8.31       8.59       8.26       8.13       8.31       7.84       8.9       
2733.900089 8.205104   7.534969   7.734982   8.074969   8.084799   7.83475    5.565055   5.630085   5.640061   5.275043   8.315141   8.115116   9.015238   7.425055   8.205104   8.629927   7.534969   7.75       8.1        8.204921   7.889682   8.779853   8.779853   8.51475    8.50011    8.50011    8.479732   8.13       8.120233   7.720147   9.194639   9.755153   8.330049   9.155104   10.46984   9.545165   9.815116   9.739915   10.6551    10.63493   10.31015   5.980146   6.770207   5.314945   9.455287   4.619951   6.700024   4.550122   8.779853   8.51475    8.50011    8.479732   8.13       8.120233   7.720147   9.194639  
2734.000089 8.12       7.56       7.75       8.1        8.25       8.04       5.52       5.56       5.59       5.24       8.2        8.02       8.82       7.38       8.12       8.69       7.56       7.75       8.1        8.27       8.15       8.9        8.9        8.72       8.41       8.41       8.7        8.13       7.93       7.6        9.49       9.63       8.29       9.07       10.6       9.41       9.72       9.81       10.57      10.69      10.19      5.86       6.6        5.36       9.22       4.66       6.68       4.45       8.9        8.72       8.41       8.7        8.13       7.93       7.6        9.49      
2734.100089 7.950208   7.56       7.86486    8.39464    8.419792   8.089939   5.330232   5.500073   5.624957   5.309915   7.865409   7.965067   8.635225   7.399976   7.945214   8.819841   7.56       7.879841   8.439585   8.489732   8.15       8.875031   8.875031   8.72       8.105372   8.105372   8.7        8.020134   7.810146   7.6        9.49       9.545104   8.115213   8.89022    10.68989   9.215239   9.65508    9.894897   10.53005   10.70998   10.12508   5.645263   6.380269   5.399951   8.780538   4.66       6.625067   4.45       8.875031   8.72       8.105372   8.7        8.020134   7.810146   7.6        9.49      
2734.200089 7.78       7.56       7.98       8.69       8.59       8.14       5.14       5.44       5.66       5.38       7.53       7.91       8.45       7.42       7.77       8.95       7.56       8.01       8.78       8.71       8.15       8.85       8.85       8.72       7.8        7.8        8.7        7.91       7.69       7.6        9.49       9.46       7.94       8.71       10.78      9.02       9.59       9.98       10.49      10.73      10.06      5.43       6.16       5.44       8.34       4.66       6.57       4.45       8.85       8.72       7.8        8.7        7.91       7.69       7.6        9.49      
2734.300089 8.145446   7.645104   7.990012   8.735055   8.650073   8.605568   5.170036   5.455018   5.690036   5.490134   7.189585   7.874957   8.354884   7.450037   8.135446   9.38553    7.655116   8.01       8.78       8.71       8.645604   9.215446   9.215446   8.634896   7.534677   7.534677   8.524786   7.91       7.449707   7.720147   9.304774   9.470012   7.894945   8.750049   10.6198    9.004982   9.645067   10.00503   10.50001   10.74001   9.834725   5.409976   6.54547    5.535116   7.97956    4.785152   6.655104   4.439988   9.215446   8.634896   7.534677   8.524786   7.91       7.449707   7.720147   9.304774  
2734.400089 8.51       7.73       8          8.78       8.71       9.07       5.2        5.47       5.72       5.6        6.85       7.84       8.26       7.48       8.5        9.82       7.75       8.01       8.78       8.71       9.14       9.58       9.58       8.55       7.27       7.27       8.35       7.91       7.21       7.84       9.12       9.48       7.85       8.79       10.46      8.99       9.7        10.03      10.51      10.75      9.61       5.39       6.93       5.63       7.62       4.91       6.74       4.43       9.58       8.55       7.27       8.35       7.91       7.21       7.84       9.12      
2734.500089 8.440001   7.74       7.905      9.115      8.88       9.1        5.31       5.635      5.695      5.73       6.75       7.905      8.195      7.58       8.535      9.62       7.75       7.9        9.135      8.98       9.14       9.415      9.415      8.55       8.15       8.1495     8.35       7.37       7.21       7.84       8.57       9.629999   7.855      8.96       10.355     9.059999   9.775      10.035     10.525     10.795     9.535      5.4        7.035      5.38       7.495      5.105      6.955      4.505      9.415      8.55       8.15       8.35       7.37       7.21       7.84       8.57      
2734.600089 8.370171   7.749976   7.810232   9.449183   9.049585   9.129927   5.419732   5.799598   5.670061   5.859683   6.650244   7.969841   8.130158   7.679756   8.569914   9.420488   7.75       7.790268   9.489134   9.249341   9.14       9.250402   9.250402   8.55       9.027853   9.026855   8.35       6.831317   7.21       7.84       8.021342   9.779634   7.859988   9.129585   10.25026   9.129829   9.849817   10.03999   10.53996   10.83989   9.460183   5.409976   7.139744   5.13061    7.370305   5.299525   7.169476   4.579817   9.250402   8.55       9.027853   8.35       6.831317   7.21       7.84       8.021342  
2734.700089 8.529804   7.690073   7.800012   9.469975   9.149878   9.045104   5.474933   5.924848   5.704957   5.894957   6.919671   8.089853   8.125006   7.954664   8.629927   9.209757   7.690073   7.79       9.49       9.25       9.045116   8.011514   8.012013   8.375214   8.600525   8.600024   8.414921   6.83       7.459695   8.104676   8.02       9.675128   7.810061   9.169951   10.11017   9.249853   9.879964   9.970085   10.54499   10.88994   9.559877   5.095385   6.800415   4.905275   7.295092   5.369915   7.130049   4.794737   8.011514   8.375214   8.600525   8.414921   6.83       7.459695   8.104676   8.02      
2734.80009 8.69       7.63       7.79       9.49       9.25       8.96       5.53       6.05       5.74       5.93       7.19       8.21       8.12       8.23       8.69       8.999      7.63       7.79       9.49       9.25       8.95       6.77       6.771      8.2        8.17       8.17       8.48       6.83       7.71       8.37       8.02       9.57       7.76       9.21       9.97       9.37       9.91       9.9        10.55      10.94      9.66       4.78       6.46       4.68       7.22       5.44       7.09       5.01       6.77       8.2        8.17       8.48       6.83       7.71       8.37       8.02      
