~Version
 VERS              .         2.0                           : CWLS LOG ASCII STANDARD - VERSION 2.0
 WRAP              .         NO                            : ONE LINE PER DEPTH STEP
 DLM               .         SPACE                         : DELIMITING CHARACTER(SPACE TAB OR COMMA)
~Well Information
#_______________________________________________________________________________
#
#PARAMETER_NAME    .UNIT     VALUE                         : DESCRIPTION
#_______________________________________________________________________________
STRT               .M        2645.2                        : First reference value
STOP               .M        2778.800134                   : Last reference value
STEP               .M        0.1000001                     : Step increment
NULL               .         -9999                         : Missing value
COMP               .                                       : Company
WELL               .         616                           : Well name
FLD                .                                       : Field
LOC                .                                       : Location
CNTY               .                                       : County
STAT               .                                       : State
CTRY               .                                       : Country
SRVC               .                                       : Service Company
DATE               .                                       : Date
API                .                                       : API number
PROJECT_UPGRADE_TIME .         2021-03-18T21_24_50           : 
group              .         Good                          : 
~Parameter Information Block
#_______________________________________________________________________________
#
#PARAMETER_NAME    .UNIT     VALUE                         : DESCRIPTION
#_______________________________________________________________________________
SET                .         ResolutionTest                : 
TLFamily_GK_2_D1800_D .         Gamma Ray                     : 
TLFamily_GK_2_D1801_D .         Gamma Ray                     : 
TLFamily_GK_2_D1803_D .         Gamma Ray                     : 
TLFamily_GK_2_D1805_D .         Gamma Ray                     : 
TLFamily_GK_2_D1809_D .         Gamma Ray                     : 
TLFamily_GK_2_D1812_D .         Gamma Ray                     : 
TLFamily_GK_D0400_D .         Gamma Ray                     : 
TLFamily_GK_D0401_D .         Gamma Ray                     : 
TLFamily_GK_D0402_D .         Gamma Ray                     : 
TLFamily_GK_D0403_D .         Gamma Ray                     : 
TLFamily_GK_D1161_D .         Gamma Ray                     : 
TLFamily_GK_D1166_D .         Gamma Ray                     : 
TLFamily_GK_D1169_D .         Gamma Ray                     : 
TLFamily_GK_D1171_D .         Gamma Ray                     : 
TLFamily_GK_D1800_D .         Gamma Ray                     : 
TLFamily_GK_D1800_D_2 .         Gamma Ray                     : 
TLFamily_GK_D1801_D .         Gamma Ray                     : 
TLFamily_GK_D1803_D .         Gamma Ray                     : 
TLFamily_GK_D1805_D .         Gamma Ray                     : 
TLFamily_GK_D1809_D .         Gamma Ray                     : 
TLFamily_GK_D1812_D .         Gamma Ray                     : 
TLFamily_GK_D4391_D .         Gamma Ray                     : 
TLFamily_GK_D4391_D_2 .         Russian Gamma Ray             : 
TLFamily_GK_D4404_D .         Gamma Ray                     : 
TLFamily_GK_D4405_D .         Gamma Ray                     : 
TLFamily_GK_D4405_D_2 .         Russian Gamma Ray             : 
TLFamily_GK_D4407_D .         Gamma Ray                     : 
TLFamily_GK_D4410_D .         Gamma Ray                     : 
TLFamily_GK_D4412_D .         Gamma Ray                     : 
TLFamily_GK_D4415_D .         Gamma Ray                     : 
TLFamily_GK_D4417_D .         Gamma Ray                     : 
TLFamily_GK_D7017_D .         Gamma Ray                     : 
TLFamily_GK_D7017_D_2 .         Gamma Ray                     : 
TLFamily_GK_D7018_D .         Gamma Ray                     : 
TLFamily_GK_D7019_D .         Gamma Ray                     : 
TLFamily_GK_D7020_D .         Gamma Ray                     : 
TLFamily_GK_D7022_D .         Gamma Ray                     : 
TLFamily_GK_D7023_D .         Gamma Ray                     : 
TLFamily_GK_D7024_D .         Gamma Ray                     : 
TLFamily_GK_D7026_D .         Gamma Ray                     : 
TLFamily_GK_D7027_D .         Gamma Ray                     : 
TLFamily_GK_D8102_D_2 .         Russian Gamma Ray             : 
TLFamily_GK_D8103_D .         Gamma Ray                     : 
TLFamily_GK_D8103_D_2 .         Russian Gamma Ray             : 
TLFamily_GK_D8106_D .         Gamma Ray                     : 
TLFamily_GK_D8106_D_2 .         Russian Gamma Ray             : 
TLFamily_GK_D8107_D .         Gamma Ray                     : 
TLFamily_GK_D8107_D_2 .         Russian Gamma Ray             : 
TLFamily_GR_D4391_D .         Gamma Ray                     : 
TLFamily_GR_D4404_D .         Gamma Ray                     : 
TLFamily_GR_D4405_D .         Gamma Ray                     : 
TLFamily_GR_D4407_D .         Gamma Ray                     : 
TLFamily_GR_D4410_D .         Gamma Ray                     : 
TLFamily_GR_D4412_D .         Gamma Ray                     : 
TLFamily_GR_D4415_D .         Gamma Ray                     : 
TLFamily_GR_D4417_D .         Gamma Ray                     : 
TLFamily_MD        .         Measured Depth                : 
~Curve Information
#_______________________________________________________________________________
#
#LOGNAME           .UNIT     LOG_ID                        : DESCRIPTION
#_______________________________________________________________________________
MD                 .M                                      :  
GK_2_D1800_D       .FLT                                    : 14 Гамма-активность фильтрованная, мкр./ч -  110.0 см 
GK_2_D1801_D       .FLT                                    : 14 Гамма-активность фильтрованная, мкр./ч -  110.0 см 
GK_2_D1803_D       .FLT                                    : 14 Гамма-активность фильтрованная, мкр./ч -  110.0 см 
GK_2_D1805_D       .FLT                                    : 14 Гамма-активность фильтрованная, мкр./ч -  110.0 см 
GK_2_D1809_D       .FLT                                    : 14 Гамма-активность фильтрованная, мкр./ч -  110.0 см 
GK_2_D1812_D       .FLT                                    : 14 Гамма-активность фильтрованная, мкр./ч -  110.0 см 
GK_D0400_D         .MKR/H                                  : 12 Гамма-активность, мкр./ч -   65.0 см 
GK_D0401_D         .MKR/H                                  : 12 Гамма-активность, мкр./ч -   65.0 см 
GK_D0402_D         .MKR/H                                  : 12 Гамма-активность, мкр./ч -   65.0 см 
GK_D0403_D         .MKR/H                                  : 12 Гамма-активность, мкр./ч -   65.0 см 
GK_D1161_D         .MKR/H                                  : 15 Гамма-активность, мкр./ч -  110.0 см 
GK_D1166_D         .MKR/H                                  : 15 Гамма-активность, мкр./ч -  110.0 см 
GK_D1169_D         .MKR/H                                  : 15 Гамма-активность, мкр./ч -  110.0 см 
GK_D1171_D         .MKR/H                                  : 15 Гамма-активность, мкр./ч -  110.0 см 
GK_D1800_D         .MKR/H                                  : 13 Гамма-активность, мкр./ч -  110.0 см 
GK_D1800_D_2       .мкР/час                                : Естественная гамма-активность,мкР/ч 
GK_D1801_D         .MKR/H                                  : 13 Гамма-активность, мкр./ч -  110.0 см 
GK_D1803_D         .MKR/H                                  : 13 Гамма-активность, мкр./ч -  110.0 см 
GK_D1805_D         .MKR/H                                  : 13 Гамма-активность, мкр./ч -  110.0 см 
GK_D1809_D         .MKR/H                                  : 13 Гамма-активность, мкр./ч -  110.0 см 
GK_D1812_D         .MKR/H                                  : 13 Гамма-активность, мкр./ч -  110.0 см 
GK_D4391_D         .FLT                                    : 14 Гамма-активность фильтрованная, мкр./ч -  110.0 см 
GK_D4391_D_2       .мкР/ч                                  : Естественная гамма-активность,мкР/ч 
GK_D4404_D         .FLT                                    : 14 Гамма-активность фильтрованная, мкр./ч -  110.0 см 
GK_D4405_D         .FLT                                    : 14 Гамма-активность фильтрованная, мкр./ч -  110.0 см 
GK_D4405_D_2       .мкР/ч                                  : Естественная гамма-активность,мкР/ч 
GK_D4407_D         .FLT                                    : 14 Гамма-активность фильтрованная, мкр./ч -  110.0 см 
GK_D4410_D         .FLT                                    : 14 Гамма-активность фильтрованная, мкр./ч -  110.0 см 
GK_D4412_D         .FLT                                    : 14 Гамма-активность фильтрованная, мкр./ч -  110.0 см 
GK_D4415_D         .FLT                                    : 14 Гамма-активность фильтрованная, мкр./ч -  110.0 см 
GK_D4417_D         .FLT                                    : 14 Гамма-активность фильтрованная, мкр./ч -  110.0 см 
GK_D7017_D         .MKR/H                                  : 16 Гамма-активность, мкр./ч -  106.0 см 
GK_D7017_D_2       .мкР/час                                : Гамма каротаж, мкр/час 
GK_D7018_D         .MKR/H                                  : 16 Гамма-активность, мкр./ч -  106.0 см 
GK_D7019_D         .MKR/H                                  : 16 Гамма-активность, мкр./ч -  106.0 см 
GK_D7020_D         .MKR/H                                  : 16 Гамма-активность, мкр./ч -  106.0 см 
GK_D7022_D         .MKR/H                                  : 16 Гамма-активность, мкр./ч -  106.0 см 
GK_D7023_D         .MKR/H                                  : 16 Гамма-активность, мкр./ч -  106.0 см 
GK_D7024_D         .MKR/H                                  : 16 Гамма-активность, мкр./ч -  106.0 см 
GK_D7026_D         .MKR/H                                  : 16 Гамма-активность, мкр./ч -  106.0 см 
GK_D7027_D         .MKR/H                                  : 16 Гамма-активность, мкр./ч -  106.0 см 
GK_D8102_D_2       .мкР/ч                                  : Естественная гамма-активность,мкР/ч 
GK_D8103_D         .MKR/H                                  : 13 Гамма-активность, мкр./ч -   65.0 см 
GK_D8103_D_2       .мкР/ч                                  : Естественная гамма-активность,мкР/ч 
GK_D8106_D         .MKR/H                                  : 13 Гамма-активность, мкр./ч -   65.0 см 
GK_D8106_D_2       .мкР/ч                                  : Естественная гамма-активность,мкР/ч 
GK_D8107_D         .MKR/H                                  : 13 Гамма-активность, мкр./ч -   65.0 см 
GK_D8107_D_2       .мкР/ч                                  : Естественная гамма-активность,мкР/ч 
GR_D4391_D         .UR/H                                   : 13 Гамма-активность, мкр./ч -  110.0 см 
GR_D4404_D         .UR/H                                   : 13 Гамма-активность, мкр./ч -  110.0 см 
GR_D4405_D         .UR/H                                   : 13 Гамма-активность, мкр./ч -  110.0 см 
GR_D4407_D         .UR/H                                   : 13 Гамма-активность, мкр./ч -  110.0 см 
GR_D4410_D         .UR/H                                   : 13 Гамма-активность, мкр./ч -  110.0 см 
GR_D4412_D         .UR/H                                   : 13 Гамма-активность, мкр./ч -  110.0 см 
GR_D4415_D         .UR/H                                   : 13 Гамма-активность, мкр./ч -  110.0 см 
GR_D4417_D         .UR/H                                   : 13 Гамма-активность, мкр./ч -  110.0 см 
~Ascii
# ...
2753.100108 11.07081   11.11508   11.08502   11.0102    11.13005   10.17991   7.069914   7.204945   7.865055   6.260061   7.95486    7.800195   8.415311   7.655262   11.31065   10.29029   11.11009   11.07      10.9153    11.09      10.21484   11.52464   11.52464   10.63517   10.60044   10.60044   -9999      -9999      9.45       -9999      10.45989   11.07482   9.990097   -9999      11.87507   8.250171   8.440024   8.505055   8.820134   -9999      -9999      6.95503    5.56939    6.639842   5.625018   6.68       5.36       6.625043   11.52464   10.63517   10.60044   -9999      -9999      9.45       -9999      10.45989  
2753.200108 10.41      11.05      11.07      10.85      11.09      10.25      7.14       7.25       7.82       6.21       8.07       7.64       8.16       7.44       10.78      10.05      11.04      11.07      10.67      11.09      10.35      11.82      11.82      10.5       10.24      10.24      -9999      -9999      9.45       -9999      10.55      11.22      9.91       -9999      11.82      8.11       8.42       8.46       8.71       -9999      -9999      6.93       6.07       6.77       5.61       6.68       5.36       6.59       11.82      10.5       10.24      -9999      -9999      9.45       -9999      10.55     
2753.300108 10.62026   11.04499   10.79967   10.75989   10.72956   10.43022   7.270159   7.255006   7.759927   6.305116   8.200158   7.619976   8.170012   7.374921   10.80503   10.16013   11.04      10.78465   10.67      10.6795    10.48516   11.77494   11.77494   10.5       10.8107    10.81019   -9999      -9999      10.07576   -9999      10.55      11.16493   9.81989    -9999      -9999      8.079964   8.430012   8.490037   8.699987   -9999      -9999      7.155275   6.105043   7.260598   5.49486    6.890256   5.370012   6.219548   11.77494   10.5       10.8107    -9999      -9999      10.07576   -9999      10.55     
2753.400108 10.83      11.04      10.53      10.67      10.37      10.61      7.4        7.26       7.7        6.4        8.33       7.6        8.18       7.31       10.83      10.27      11.04      10.5       10.67      10.27      10.62      11.73      11.73      10.5       11.38      11.379     -9999      -9999      10.7       -9999      10.55      11.11      9.73       -9999      -9999      8.05       8.44       8.52       8.69       -9999      -9999      7.38       6.14       7.75       5.38       7.1        5.38       5.85       11.73      10.5       11.38      -9999      -9999      10.7       -9999      10.55     
2753.500108 10.85      10.56      10.49      10.53      10.32      10.615     7.42       7.355      7.635      6.445      8.175      7.705      8.285      7.36       10.855     10.645     10.5       10.455     10.505     10.27      10.62      11.685     11.685     10.555     10.885     10.8845    -9999      -9999      10.7       -9999      10.495     10.77      10.08      -9999      -9999      8.035      8.475      8.65       -9999      -9999      -9999      7.64       6.13       7.655      5.365      7.17       5.385      5.85       11.685     10.555     10.885     -9999      -9999      10.7       -9999      10.495    
2753.600108 10.86995   10.08117   10.4501    10.39034   10.27012   10.61999   7.439951   7.449768   7.570158   6.48989    8.020378   7.809744   8.389744   7.409878   10.87994   11.01909   9.961317   10.41011   10.3404    10.27      10.62      11.64011   11.64011   10.60987   10.39121   10.39121   -9999      -9999      10.7       -9999      10.44013   10.43083   10.42915   -9999      -9999      8.020037   8.509914   8.779683   -9999      -9999      -9999      7.899366   6.120024   7.560232   5.350037   7.239829   5.389987   5.85       11.64011   10.60987   10.39121   -9999      -9999      10.7       -9999      10.44013  
2753.700108 10.68523   10.02007   10.22528   10.36503   10.16013   10.62      7.305165   7.33514    7.475116   6.49       8.114884   7.884908   8.419964   7.429976   10.70521   11.45447   9.96       10.19526   10.34      10.15015   10.62      11.05571   11.05621   10.61999   10.45492   10.45492   -9999      -9999      10.82984   -9999      10.55486   10.31514   10.46995   -9999      -9999      8.005018   -9999      8.824944   -9999      -9999      -9999      7.855055   5.895275   7.045629   5.345006   7.274957   5.524835   5.899939   11.05571   10.61999   10.45492   -9999      -9999      10.82984   -9999      10.55486  
2753.800109 10.5       9.96       10         10.34      10.05      10.62      7.17       7.22       7.38       6.49       8.21       7.96       8.45       7.45       10.53      11.89      9.96       9.98       10.34      10.03      10.62      10.47      10.471     10.63      10.52      10.52      -9999      -9999      10.96      -9999      10.67      10.2       10.51      -9999      -9999      7.99       -9999      8.87       -9999      -9999      -9999      7.81       5.67       6.53       5.34       7.31       5.66       5.95       10.47      10.63      10.52      -9999      -9999      10.96      -9999      10.67     
2753.900109 10.28027   10.05988   9.990012   10.2601    10.04001   10.7848    7.130049   7.055202   7.345043   6.49       8.229976   8.034908   8.45       7.734652   10.29029   11.7252    10.06487   9.98       10.24512   10.03      10.81976   10.64978   10.65028   10.71989   10.40015   10.40015   -9999      -9999      10.80519   -9999      10.83979   10.38477   10.51999   -9999      -9999      8.034945   -9999      -9999      -9999      -9999      -9999      7.620232   5.879744   6.520012   5.609671   7.280036   5.899707   5.984957   10.64978   10.71989   10.40015   -9999      -9999      10.80519   -9999      10.83979  
2754.000109 10.06      10.16      9.98       10.18      10.03      10.95      7.09       6.89       7.31       6.49       8.25       8.11       8.45       8.02       10.05      11.56      10.17      9.98       10.15      10.03      11.02      10.83      10.83      10.81      10.28      10.28      -9999      -9999      10.65      -9999      11.01      10.57      10.53      -9999      -9999      8.08       -9999      -9999      -9999      -9999      -9999      7.43       6.09       6.51       5.88       7.25       6.14       6.02       10.83      10.81      10.28      -9999      -9999      10.65      -9999      11.01     
2754.100109 10.16487   10.16499   10.62921   10.16502   10.37957   10.98496   7.154921   6.989878   7.374921   6.435067   8.165104   8.144958   8.445005   8.139853   10.15987   11.21043   10.17      10.66416   10.15      10.41952   11.02      10.9099    10.9099    10.87492   10.51971   10.51971   -9999      -9999      10.34537   -9999      11.28466   10.51507   10.30028   -9999      -9999      8.209842   -9999      -9999      -9999      -9999      -9999      7.355092   6.099988   6.574921   5.909964   7.245006   6.154982   6.059951   10.9099    10.87492   10.51971   -9999      -9999      10.34537   -9999      11.28466  
2754.200109 10.27      10.17      11.28      10.15      10.73      11.02      7.22       7.09       7.44       6.38       8.08       8.18       8.44       8.26       10.27      10.86      10.17      11.35      10.15      10.81      11.02      10.99      10.99      10.94      10.76      10.76      -9999      -9999      10.04      -9999      11.56      10.46      10.07      -9999      -9999      8.34       -9999      -9999      -9999      -9999      -9999      7.28       6.11       6.64       5.94       7.24       6.17       6.1        10.99      10.94      10.76      -9999      -9999      10.04      -9999      11.56     
2754.300109 10.66048   10.79076   11.31504   10.57552   10.77005   11.3504    7.235018   7.110024   7.455018   6.390012   8.215165   8.230062   8.109597   8.254994   10.64546   10.84498   10.85584   11.35      10.59554   10.81      11.42049   11.01002   11.01002   11.25038   10.70994   10.70994   -9999      -9999      10.04      -9999      11.56      10.47001   9.784652   -9999      -9999      8.415092   -9999      -9999      -9999      -9999      -9999      7.124811   5.764579   6.614969   6.065153   7.310085   6.200037   6.250183   11.01002   11.25038   10.70994   -9999      -9999      10.04      -9999      11.56     
