~Version
 VERS              .         2.0                           : CWLS LOG ASCII STANDARD - VERSION 2.0
 WRAP              .         NO                            : ONE LINE PER DEPTH STEP
 DLM               .         SPACE                         : DELIMITING CHARACTER(SPACE TAB OR COMMA)
~Well Information
#_______________________________________________________________________________
#
#PARAMETER_NAME    .UNIT     VALUE                         : DESCRIPTION
#_______________________________________________________________________________
STRT               .M        2645.2                        : First reference value
STOP               .M        2778.800134                   : Last reference value
STEP               .M        0.1000001                     : Step increment
NULL               .         -9999                         : Missing value
COMP               .                                       : Company
WELL               .         616                           : Well name
FLD                .                                       : Field
LOC                .                                       : Location
CNTY               .                                       : County
STAT               .                                       : State
CTRY               .                                       : Country
SRVC               .                                       : Service Company
DATE               .                                       : Date
API                .                                       : API number
PROJECT_UPGRADE_TIME .         2021-03-18T21_24_50           : 
group              .         Good                          : 
~Parameter Information Block
#_______________________________________________________________________________
#
#PARAMETER_NAME    .UNIT     VALUE                         : DESCRIPTION
#_______________________________________________________________________________
SET                .         ResolutionTest                : 
TLFamily_GK_2_D1800_D .         Gamma Ray                     : 
TLFamily_GK_2_D1801_D .         Gamma Ray                     : 
TLFamily_GK_2_D1803_D .         Gamma Ray                     : 
TLFamily_GK_2_D1805_D .         Gamma Ray                     : 
TLFamily_GK_2_D1809_D .         Gamma Ray                     : 
TLFamily_GK_2_D1812_D .         Gamma Ray                     : 
TLFamily_GK_D0400_D .         Gamma Ray                     : 
TLFamily_GK_D0401_D .         Gamma Ray                     : 
TLFamily_GK_D0402_D .         Gamma Ray                     : 
TLFamily_GK_D0403_D .         Gamma Ray                     : 
TLFamily_GK_D1161_D .         Gamma Ray                     : 
TLFamily_GK_D1166_D .         Gamma Ray                     : 
TLFamily_GK_D1169_D .         Gamma Ray                     : 
TLFamily_GK_D1171_D .         Gamma Ray                     : 
TLFamily_GK_D1800_D .         Gamma Ray                     : 
TLFamily_GK_D1800_D_2 .         Gamma Ray                     : 
TLFamily_GK_D1801_D .         Gamma Ray                     : 
TLFamily_GK_D1803_D .         Gamma Ray                     : 
TLFamily_GK_D1805_D .         Gamma Ray                     : 
TLFamily_GK_D1809_D .         Gamma Ray                     : 
TLFamily_GK_D1812_D .         Gamma Ray                     : 
TLFamily_GK_D4391_D .         Gamma Ray                     : 
TLFamily_GK_D4391_D_2 .         Russian Gamma Ray             : 
TLFamily_GK_D4404_D .         Gamma Ray                     : 
TLFamily_GK_D4405_D .         Gamma Ray                     : 
TLFamily_GK_D4405_D_2 .         Russian Gamma Ray             : 
TLFamily_GK_D4407_D .         Gamma Ray                     : 
TLFamily_GK_D4410_D .         Gamma Ray                     : 
TLFamily_GK_D4412_D .         Gamma Ray                     : 
TLFamily_GK_D4415_D .         Gamma Ray                     : 
TLFamily_GK_D4417_D .         Gamma Ray                     : 
TLFamily_GK_D7017_D .         Gamma Ray                     : 
TLFamily_GK_D7017_D_2 .         Gamma Ray                     : 
TLFamily_GK_D7018_D .         Gamma Ray                     : 
TLFamily_GK_D7019_D .         Gamma Ray                     : 
TLFamily_GK_D7020_D .         Gamma Ray                     : 
TLFamily_GK_D7022_D .         Gamma Ray                     : 
TLFamily_GK_D7023_D .         Gamma Ray                     : 
TLFamily_GK_D7024_D .         Gamma Ray                     : 
TLFamily_GK_D7026_D .         Gamma Ray                     : 
TLFamily_GK_D7027_D .         Gamma Ray                     : 
TLFamily_GK_D8102_D_2 .         Russian Gamma Ray             : 
TLFamily_GK_D8103_D .         Gamma Ray                     : 
TLFamily_GK_D8103_D_2 .         Russian Gamma Ray             : 
TLFamily_GK_D8106_D .         Gamma Ray                     : 
TLFamily_GK_D8106_D_2 .         Russian Gamma Ray             : 
TLFamily_GK_D8107_D .         Gamma Ray                     : 
TLFamily_GK_D8107_D_2 .         Russian Gamma Ray             : 
TLFamily_GR_D4391_D .         Gamma Ray                     : 
TLFamily_GR_D4404_D .         Gamma Ray                     : 
TLFamily_GR_D4405_D .         Gamma Ray                     : 
TLFamily_GR_D4407_D .         Gamma Ray                     : 
TLFamily_GR_D4410_D .         Gamma Ray                     : 
TLFamily_GR_D4412_D .         Gamma Ray                     : 
TLFamily_GR_D4415_D .         Gamma Ray                     : 
TLFamily_GR_D4417_D .         Gamma Ray                     : 
TLFamily_MD        .         Measured Depth                : 
~Curve Information
#_______________________________________________________________________________
#
#LOGNAME           .UNIT     LOG_ID                        : DESCRIPTION
#_______________________________________________________________________________
MD                 .M                                      :  
GK_2_D1800_D       .FLT                                    : 14 Гамма-активность фильтрованная, мкр./ч -  110.0 см 
GK_2_D1801_D       .FLT                                    : 14 Гамма-активность фильтрованная, мкр./ч -  110.0 см 
GK_2_D1803_D       .FLT                                    : 14 Гамма-активность фильтрованная, мкр./ч -  110.0 см 
GK_2_D1805_D       .FLT                                    : 14 Гамма-активность фильтрованная, мкр./ч -  110.0 см 
GK_2_D1809_D       .FLT                                    : 14 Гамма-активность фильтрованная, мкр./ч -  110.0 см 
GK_2_D1812_D       .FLT                                    : 14 Гамма-активность фильтрованная, мкр./ч -  110.0 см 
GK_D0400_D         .MKR/H                                  : 12 Гамма-активность, мкр./ч -   65.0 см 
GK_D0401_D         .MKR/H                                  : 12 Гамма-активность, мкр./ч -   65.0 см 
GK_D0402_D         .MKR/H                                  : 12 Гамма-активность, мкр./ч -   65.0 см 
GK_D0403_D         .MKR/H                                  : 12 Гамма-активность, мкр./ч -   65.0 см 
GK_D1161_D         .MKR/H                                  : 15 Гамма-активность, мкр./ч -  110.0 см 
GK_D1166_D         .MKR/H                                  : 15 Гамма-активность, мкр./ч -  110.0 см 
GK_D1169_D         .MKR/H                                  : 15 Гамма-активность, мкр./ч -  110.0 см 
GK_D1171_D         .MKR/H                                  : 15 Гамма-активность, мкр./ч -  110.0 см 
GK_D1800_D         .MKR/H                                  : 13 Гамма-активность, мкр./ч -  110.0 см 
GK_D1800_D_2       .мкР/час                                : Естественная гамма-активность,мкР/ч 
GK_D1801_D         .MKR/H                                  : 13 Гамма-активность, мкр./ч -  110.0 см 
GK_D1803_D         .MKR/H                                  : 13 Гамма-активность, мкр./ч -  110.0 см 
GK_D1805_D         .MKR/H                                  : 13 Гамма-активность, мкр./ч -  110.0 см 
GK_D1809_D         .MKR/H                                  : 13 Гамма-активность, мкр./ч -  110.0 см 
GK_D1812_D         .MKR/H                                  : 13 Гамма-активность, мкр./ч -  110.0 см 
GK_D4391_D         .FLT                                    : 14 Гамма-активность фильтрованная, мкр./ч -  110.0 см 
GK_D4391_D_2       .мкР/ч                                  : Естественная гамма-активность,мкР/ч 
GK_D4404_D         .FLT                                    : 14 Гамма-активность фильтрованная, мкр./ч -  110.0 см 
GK_D4405_D         .FLT                                    : 14 Гамма-активность фильтрованная, мкр./ч -  110.0 см 
GK_D4405_D_2       .мкР/ч                                  : Естественная гамма-активность,мкР/ч 
GK_D4407_D         .FLT                                    : 14 Гамма-активность фильтрованная, мкр./ч -  110.0 см 
GK_D4410_D         .FLT                                    : 14 Гамма-активность фильтрованная, мкр./ч -  110.0 см 
GK_D4412_D         .FLT                                    : 14 Гамма-активность фильтрованная, мкр./ч -  110.0 см 
GK_D4415_D         .FLT                                    : 14 Гамма-активность фильтрованная, мкр./ч -  110.0 см 
GK_D4417_D         .FLT                                    : 14 Гамма-активность фильтрованная, мкр./ч -  110.0 см 
GK_D7017_D         .MKR/H                                  : 16 Гамма-активность, мкр./ч -  106.0 см 
GK_D7017_D_2       .мкР/час                                : Гамма каротаж, мкр/час 
GK_D7018_D         .MKR/H                                  : 16 Гамма-активность, мкр./ч -  106.0 см 
GK_D7019_D         .MKR/H                                  : 16 Гамма-активность, мкр./ч -  106.0 см 
GK_D7020_D         .MKR/H                                  : 16 Гамма-активность, мкр./ч -  106.0 см 
GK_D7022_D         .MKR/H                                  : 16 Гамма-активность, мкр./ч -  106.0 см 
GK_D7023_D         .MKR/H                                  : 16 Гамма-активность, мкр./ч -  106.0 см 
GK_D7024_D         .MKR/H                                  : 16 Гамма-активность, мкр./ч -  106.0 см 
GK_D7026_D         .MKR/H                                  : 16 Гамма-активность, мкр./ч -  106.0 см 
GK_D7027_D         .MKR/H                                  : 16 Гамма-активность, мкр./ч -  106.0 см 
GK_D8102_D_2       .мкР/ч                                  : Естественная гамма-активность,мкР/ч 
GK_D8103_D         .MKR/H                                  : 13 Гамма-активность, мкр./ч -   65.0 см 
GK_D8103_D_2       .мкР/ч                                  : Естественная гамма-активность,мкР/ч 
GK_D8106_D         .MKR/H                                  : 13 Гамма-активность, мкр./ч -   65.0 см 
GK_D8106_D_2       .мкР/ч                                  : Естественная гамма-активность,мкР/ч 
GK_D8107_D         .MKR/H                                  : 13 Гамма-активность, мкр./ч -   65.0 см 
GK_D8107_D_2       .мкР/ч                                  : Естественная гамма-активность,мкР/ч 
GR_D4391_D         .UR/H                                   : 13 Гамма-активность, мкр./ч -  110.0 см 
GR_D4404_D         .UR/H                                   : 13 Гамма-активность, мкр./ч -  110.0 см 
GR_D4405_D         .UR/H                                   : 13 Гамма-активность, мкр./ч -  110.0 см 
GR_D4407_D         .UR/H                                   : 13 Гамма-активность, мкр./ч -  110.0 см 
GR_D4410_D         .UR/H                                   : 13 Гамма-активность, мкр./ч -  110.0 см 
GR_D4412_D         .UR/H                                   : 13 Гамма-активность, мкр./ч -  110.0 см 
GR_D4415_D         .UR/H                                   : 13 Гамма-активность, мкр./ч -  110.0 см 
GR_D4417_D         .UR/H                                   : 13 Гамма-активность, мкр./ч -  110.0 см 
~Ascii
# ...
2759.600114 8.831768   7.380537   7.890037   7.510073   7.679987   7.290305   7.519683   7.559683   7.380244   6.609805   8.109829   6.48028    7.190366   7.020525   8.83178    8.999768   7.210744   7.89       7.490085   7.68       7.210402   -9999      -9999      -9999      -9999      -9999      -9999      -9999      -9999      -9999      9.969793   -9999      8.919427   -9999      -9999      -9999      -9999      -9999      -9999      -9999      -9999      5.800122   6.398415   5.550086   4.960037   6.469829   5.739622   5.829683   -9999      -9999      -9999      -9999      -9999      -9999      -9999      9.969793  
2759.700114 8.745104   7.295104   8.089756   7.500012   8.174396   7.250049   7.400146   7.500073   7.429939   6.61       7.825348   6.509964   7.130074   7.139853   8.700158   8.870158   7.21       8.114725   7.49       8.24431    7.21       -9999      -9999      -9999      -9999      -9999      -9999      -9999      -9999      -9999      -9999      -9999      8.790158   -9999      -9999      -9999      -9999      -9999      -9999      -9999      -9999      5.71011    6.464921   5.579964   4.895079   6.450024   5.725018   5.94486    -9999      -9999      -9999      -9999      -9999      -9999      -9999      -9999     
2759.800115 8.66       7.21       8.29       7.49       8.67       7.21       7.28       7.44       7.48       6.61       7.54       6.54       7.07       7.26       8.57       8.74       7.21       8.34       7.49       8.81       7.21       -9999      -9999      -9999      -9999      -9999      -9999      -9999      -9999      -9999      -9999      -9999      8.66       -9999      -9999      -9999      -9999      -9999      -9999      -9999      -9999      5.62       6.53       5.61       4.83       6.43       5.71       6.06       -9999      -9999      -9999      -9999      -9999      -9999      -9999      -9999     
2759.900115 8.874738   7.59453    8.309976   7.979402   30.90781   7.469683   7.005336   7.250232   7.45503    6.545079   7.470086   6.589939   7.359646   7.449768   8.829682   8.949743   7.679426   8.34       8.184152   36.26643   7.489658   -9999      -9999      -9999      -9999      -9999      -9999      -9999      -9999      -9999      -9999      -9999      8.615055   -9999      -9999      -9999      -9999      -9999      -9999      -9999      -9999      5.605018   6.010635   5.580037   4.755092   6.240232   5.68503    6.064994   -9999      -9999      -9999      -9999      -9999      -9999      -9999      -9999     
2760.000115 9.09       7.98       8.33       8.47       53.2       7.73       6.73       7.06       7.43       6.48       7.4        6.64       7.65       7.64       9.09       9.16       8.15       8.34       8.88       63.79      7.77       -9999      -9999      -9999      -9999      -9999      -9999      -9999      -9999      -9999      -9999      -9999      8.57       -9999      -9999      -9999      -9999      -9999      -9999      -9999      -9999      5.59       5.49       5.55       4.68       6.05       5.66       6.07       -9999      -9999      -9999      -9999      -9999      -9999      -9999      -9999     
2760.100115 8.950171   8.059902   8.609658   8.669756   32.27059   7.749976   6.665079   6.910183   7.325128   6.330183   7.699634   6.704921   7.824786   7.754859   8.950171   9.45414    8.15       8.629646   8.88       36.793     7.77       -9999      -9999      -9999      -9999      -9999      -9999      -9999      -9999      -9999      -9999      -9999      8.744786   -9999      -9999      -9999      -9999      -9999      -9999      -9999      -9999      5.654921   5.305226   5.505055   4.759902   5.96011    5.759878   6.104957   -9999      -9999      -9999      -9999      -9999      -9999      -9999      -9999     
2760.200115 8.81       8.14       8.89       8.87       11.29      7.77       6.6        6.76       7.22       6.18       8          6.77       8          7.87       8.81       9.749      8.15       8.92       8.88       9.73       7.77       -9999      -9999      -9999      -9999      -9999      -9999      -9999      -9999      -9999      -9999      -9999      8.92       -9999      -9999      -9999      -9999      -9999      -9999      -9999      -9999      5.72       5.12       5.46       4.84       5.87       5.86       6.14       -9999      -9999      -9999      -9999      -9999      -9999      -9999      -9999     
2760.300115 8.890098   8.605568   8.905019   9.290513   10.52907   8.510903   6.620024   6.679903   7.074823   5.994774   8.330403   6.815055   8.09011    8.000158   8.905116   9.063664   8.810806   8.92       9.340562   9.73       8.570976   -9999      -9999      -9999      -9999      -9999      -9999      -9999      -9999      -9999      -9999      -9999      9.090208   -9999      -9999      -9999      -9999      -9999      -9999      -9999      -9999      5.704982   5.370305   5.269768   4.855018   5.834957   5.870012   6.124982   -9999      -9999      -9999      -9999      -9999      -9999      -9999      -9999     
2760.400115 8.97       9.07       8.92       9.71       9.77       9.25       6.64       6.6        6.93       5.81       8.66       6.86       8.18       8.13       9          8.38       9.47       8.92       9.8        9.73       9.37       -9999      -9999      -9999      -9999      -9999      -9999      -9999      -9999      -9999      -9999      -9999      9.26       -9999      -9999      -9999      -9999      -9999      -9999      -9999      -9999      5.69       5.62       5.08       4.87       5.8        5.88       6.11       -9999      -9999      -9999      -9999      -9999      -9999      -9999      -9999     
2760.500115 8.915      9.26       9.280001   9.75       9.81       9.309999   6.515      6.485      6.755      5.585      8.58       6.94       8.23       8.05       8.87       8.51       9.47       9.325      9.8        9.799999   9.37       -9999      -9999      -9999      -9999      -9999      -9999      -9999      -9999      -9999      -9999      -9999      9.23       -9999      -9999      -9999      -9999      -9999      -9999      -9999      -9999      5.775      5.815      5.025      5.145      5.72       5.935      6.02       -9999      -9999      -9999      -9999      -9999      -9999      -9999      -9999     
2760.600115 8.860134   9.449536   9.639122   9.789903   9.849903   9.369854   6.390305   6.37028    6.580427   5.360549   8.500196   7.019805   8.279878   7.970195   8.740316   8.639684   9.47       9.729012   9.8        9.869829   9.37       -9999      -9999      -9999      -9999      -9999      -9999      -9999      -9999      -9999      -9999      -9999      9.200073   -9999      -9999      -9999      -9999      -9999      -9999      -9999      -9999      5.859793   6.009525   4.970134   5.419329   5.640195   5.989866   5.930219   -9999      -9999      -9999      -9999      -9999      -9999      -9999      -9999     
2760.700115 9.014811   9.554872   9.679952   9.385494   9.859988   9.404957   6.190244   6.100329   6.335299   5.200195   8.270281   7.114884   8.175128   7.835165   8.949743   8.674957   9.58486    9.73       9.340562   9.87       9.404957   -9999      -9999      -9999      -9999      -9999      -9999      -9999      -9999      -9999      -9999      -9999      9.8542     -9999      -9999      -9999      -9999      -9999      -9999      -9999      -9999      5.645263   5.840208   5.069878   5.459951   5.625018   5.675385   5.920012   -9999      -9999      -9999      -9999      -9999      -9999      -9999      -9999     
2760.800116 9.17       9.66       9.72       8.98       9.87       9.44       5.99       5.83       6.09       5.04       8.04       7.21       8.07       7.7        9.16       8.71       9.7        9.73       8.88       9.87       9.44       -9999      -9999      -9999      -9999      -9999      -9999      -9999      -9999      -9999      -9999      -9999      10.51      -9999      -9999      -9999      -9999      -9999      -9999      -9999      -9999      5.43       5.67       5.17       5.5        5.61       5.36       5.91       -9999      -9999      -9999      -9999      -9999      -9999      -9999      -9999     
