~Version
 VERS              .         2.0                           : CWLS LOG ASCII STANDARD - VERSION 2.0
 WRAP              .         NO                            : ONE LINE PER DEPTH STEP
 DLM               .         SPACE                         : DELIMITING CHARACTER(SPACE TAB OR COMMA)
~Well Information
#_______________________________________________________________________________
#
#PARAMETER_NAME    .UNIT     VALUE                         : DESCRIPTION
#_______________________________________________________________________________
STRT               .M        2645.2                        : First reference value
STOP               .M        2778.800134                   : Last reference value
STEP               .M        0.1000001                     : Step increment
NULL               .         -9999                         : Missing value
COMP               .                                       : Company
WELL               .         616                           : Well name
FLD                .                                       : Field
LOC                .                                       : Location
CNTY               .                                       : County
STAT               .                                       : State
CTRY               .                                       : Country
SRVC               .                                       : Service Company
DATE               .                                       : Date
API                .                                       : API number
PROJECT_UPGRADE_TIME .         2021-03-18T21_24_50           : 
group              .         Good                          : 
~Parameter Information Block
#_______________________________________________________________________________
#
#PARAMETER_NAME    .UNIT     VALUE                         : DESCRIPTION
#_______________________________________________________________________________
SET                .         ResolutionTest                : 
TLFamily_GK_2_D1800_D .         Gamma Ray                     : 
TLFamily_GK_2_D1801_D .         Gamma Ray                     : 
TLFamily_GK_2_D1803_D .         Gamma Ray                     : 
TLFamily_GK_2_D1805_D .         Gamma Ray                     : 
TLFamily_GK_2_D1809_D .         Gamma Ray                     : 
TLFamily_GK_2_D1812_D .         Gamma Ray                     : 
TLFamily_GK_D0400_D .         Gamma Ray                     : 
TLFamily_GK_D0401_D .         Gamma Ray                     : 
TLFamily_GK_D0402_D .         Gamma Ray                     : 
TLFamily_GK_D0403_D .         Gamma Ray                     : 
TLFamily_GK_D1161_D .         Gamma Ray                     : 
TLFamily_GK_D1166_D .         Gamma Ray                     : 
TLFamily_GK_D1169_D .         Gamma Ray                     : 
TLFamily_GK_D1171_D .         Gamma Ray                     : 
TLFamily_GK_D1800_D .         Gamma Ray                     : 
TLFamily_GK_D1800_D_2 .         Gamma Ray                     : 
TLFamily_GK_D1801_D .         Gamma Ray                     : 
TLFamily_GK_D1803_D .         Gamma Ray                     : 
TLFamily_GK_D1805_D .         Gamma Ray                     : 
TLFamily_GK_D1809_D .         Gamma Ray                     : 
TLFamily_GK_D1812_D .         Gamma Ray                     : 
TLFamily_GK_D4391_D .         Gamma Ray                     : 
TLFamily_GK_D4391_D_2 .         Russian Gamma Ray             : 
TLFamily_GK_D4404_D .         Gamma Ray                     : 
TLFamily_GK_D4405_D .         Gamma Ray                     : 
TLFamily_GK_D4405_D_2 .         Russian Gamma Ray             : 
TLFamily_GK_D4407_D .         Gamma Ray                     : 
TLFamily_GK_D4410_D .         Gamma Ray                     : 
TLFamily_GK_D4412_D .         Gamma Ray                     : 
TLFamily_GK_D4415_D .         Gamma Ray                     : 
TLFamily_GK_D4417_D .         Gamma Ray                     : 
TLFamily_GK_D7017_D .         Gamma Ray                     : 
TLFamily_GK_D7017_D_2 .         Gamma Ray                     : 
TLFamily_GK_D7018_D .         Gamma Ray                     : 
TLFamily_GK_D7019_D .         Gamma Ray                     : 
TLFamily_GK_D7020_D .         Gamma Ray                     : 
TLFamily_GK_D7022_D .         Gamma Ray                     : 
TLFamily_GK_D7023_D .         Gamma Ray                     : 
TLFamily_GK_D7024_D .         Gamma Ray                     : 
TLFamily_GK_D7026_D .         Gamma Ray                     : 
TLFamily_GK_D7027_D .         Gamma Ray                     : 
TLFamily_GK_D8102_D_2 .         Russian Gamma Ray             : 
TLFamily_GK_D8103_D .         Gamma Ray                     : 
TLFamily_GK_D8103_D_2 .         Russian Gamma Ray             : 
TLFamily_GK_D8106_D .         Gamma Ray                     : 
TLFamily_GK_D8106_D_2 .         Russian Gamma Ray             : 
TLFamily_GK_D8107_D .         Gamma Ray                     : 
TLFamily_GK_D8107_D_2 .         Russian Gamma Ray             : 
TLFamily_GR_D4391_D .         Gamma Ray                     : 
TLFamily_GR_D4404_D .         Gamma Ray                     : 
TLFamily_GR_D4405_D .         Gamma Ray                     : 
TLFamily_GR_D4407_D .         Gamma Ray                     : 
TLFamily_GR_D4410_D .         Gamma Ray                     : 
TLFamily_GR_D4412_D .         Gamma Ray                     : 
TLFamily_GR_D4415_D .         Gamma Ray                     : 
TLFamily_GR_D4417_D .         Gamma Ray                     : 
TLFamily_MD        .         Measured Depth                : 
~Curve Information
#_______________________________________________________________________________
#
#LOGNAME           .UNIT     LOG_ID                        : DESCRIPTION
#_______________________________________________________________________________
MD                 .M                                      :  
GK_2_D1800_D       .FLT                                    : 14 Гамма-активность фильтрованная, мкр./ч -  110.0 см 
GK_2_D1801_D       .FLT                                    : 14 Гамма-активность фильтрованная, мкр./ч -  110.0 см 
GK_2_D1803_D       .FLT                                    : 14 Гамма-активность фильтрованная, мкр./ч -  110.0 см 
GK_2_D1805_D       .FLT                                    : 14 Гамма-активность фильтрованная, мкр./ч -  110.0 см 
GK_2_D1809_D       .FLT                                    : 14 Гамма-активность фильтрованная, мкр./ч -  110.0 см 
GK_2_D1812_D       .FLT                                    : 14 Гамма-активность фильтрованная, мкр./ч -  110.0 см 
GK_D0400_D         .MKR/H                                  : 12 Гамма-активность, мкр./ч -   65.0 см 
GK_D0401_D         .MKR/H                                  : 12 Гамма-активность, мкр./ч -   65.0 см 
GK_D0402_D         .MKR/H                                  : 12 Гамма-активность, мкр./ч -   65.0 см 
GK_D0403_D         .MKR/H                                  : 12 Гамма-активность, мкр./ч -   65.0 см 
GK_D1161_D         .MKR/H                                  : 15 Гамма-активность, мкр./ч -  110.0 см 
GK_D1166_D         .MKR/H                                  : 15 Гамма-активность, мкр./ч -  110.0 см 
GK_D1169_D         .MKR/H                                  : 15 Гамма-активность, мкр./ч -  110.0 см 
GK_D1171_D         .MKR/H                                  : 15 Гамма-активность, мкр./ч -  110.0 см 
GK_D1800_D         .MKR/H                                  : 13 Гамма-активность, мкр./ч -  110.0 см 
GK_D1800_D_2       .мкР/час                                : Естественная гамма-активность,мкР/ч 
GK_D1801_D         .MKR/H                                  : 13 Гамма-активность, мкр./ч -  110.0 см 
GK_D1803_D         .MKR/H                                  : 13 Гамма-активность, мкр./ч -  110.0 см 
GK_D1805_D         .MKR/H                                  : 13 Гамма-активность, мкр./ч -  110.0 см 
GK_D1809_D         .MKR/H                                  : 13 Гамма-активность, мкр./ч -  110.0 см 
GK_D1812_D         .MKR/H                                  : 13 Гамма-активность, мкр./ч -  110.0 см 
GK_D4391_D         .FLT                                    : 14 Гамма-активность фильтрованная, мкр./ч -  110.0 см 
GK_D4391_D_2       .мкР/ч                                  : Естественная гамма-активность,мкР/ч 
GK_D4404_D         .FLT                                    : 14 Гамма-активность фильтрованная, мкр./ч -  110.0 см 
GK_D4405_D         .FLT                                    : 14 Гамма-активность фильтрованная, мкр./ч -  110.0 см 
GK_D4405_D_2       .мкР/ч                                  : Естественная гамма-активность,мкР/ч 
GK_D4407_D         .FLT                                    : 14 Гамма-активность фильтрованная, мкр./ч -  110.0 см 
GK_D4410_D         .FLT                                    : 14 Гамма-активность фильтрованная, мкр./ч -  110.0 см 
GK_D4412_D         .FLT                                    : 14 Гамма-активность фильтрованная, мкр./ч -  110.0 см 
GK_D4415_D         .FLT                                    : 14 Гамма-активность фильтрованная, мкр./ч -  110.0 см 
GK_D4417_D         .FLT                                    : 14 Гамма-активность фильтрованная, мкр./ч -  110.0 см 
GK_D7017_D         .MKR/H                                  : 16 Гамма-активность, мкр./ч -  106.0 см 
GK_D7017_D_2       .мкР/час                                : Гамма каротаж, мкр/час 
GK_D7018_D         .MKR/H                                  : 16 Гамма-активность, мкр./ч -  106.0 см 
GK_D7019_D         .MKR/H                                  : 16 Гамма-активность, мкр./ч -  106.0 см 
GK_D7020_D         .MKR/H                                  : 16 Гамма-активность, мкр./ч -  106.0 см 
GK_D7022_D         .MKR/H                                  : 16 Гамма-активность, мкр./ч -  106.0 см 
GK_D7023_D         .MKR/H                                  : 16 Гамма-активность, мкр./ч -  106.0 см 
GK_D7024_D         .MKR/H                                  : 16 Гамма-активность, мкр./ч -  106.0 см 
GK_D7026_D         .MKR/H                                  : 16 Гамма-активность, мкр./ч -  106.0 см 
GK_D7027_D         .MKR/H                                  : 16 Гамма-активность, мкр./ч -  106.0 см 
GK_D8102_D_2       .мкР/ч                                  : Естественная гамма-активность,мкР/ч 
GK_D8103_D         .MKR/H                                  : 13 Гамма-активность, мкр./ч -   65.0 см 
GK_D8103_D_2       .мкР/ч                                  : Естественная гамма-активность,мкР/ч 
GK_D8106_D         .MKR/H                                  : 13 Гамма-активность, мкр./ч -   65.0 см 
GK_D8106_D_2       .мкР/ч                                  : Естественная гамма-активность,мкР/ч 
GK_D8107_D         .MKR/H                                  : 13 Гамма-активность, мкр./ч -   65.0 см 
GK_D8107_D_2       .мкР/ч                                  : Естественная гамма-активность,мкР/ч 
GR_D4391_D         .UR/H                                   : 13 Гамма-активность, мкр./ч -  110.0 см 
GR_D4404_D         .UR/H                                   : 13 Гамма-активность, мкр./ч -  110.0 см 
GR_D4405_D         .UR/H                                   : 13 Гамма-активность, мкр./ч -  110.0 см 
GR_D4407_D         .UR/H                                   : 13 Гамма-активность, мкр./ч -  110.0 см 
GR_D4410_D         .UR/H                                   : 13 Гамма-активность, мкр./ч -  110.0 см 
GR_D4412_D         .UR/H                                   : 13 Гамма-активность, мкр./ч -  110.0 см 
GR_D4415_D         .UR/H                                   : 13 Гамма-активность, мкр./ч -  110.0 см 
GR_D4417_D         .UR/H                                   : 13 Гамма-активность, мкр./ч -  110.0 см 
~Ascii
# ...
2746.600101 10.37923   10.34005   10.09084   10.4998    10.69017   10.89977   8.55983    8.269744   8.259903   7.589976   6.300732   8.199914   8.279768   7.210366   10.37926   10.76753   10.34      10.05089   10.4998    10.62026   10.94971   13.1174    13.1164    9.47       12.03799   12.03699   9.34       9.320719   8.630487   10.08      9.78       7.888854   11.21819   8.178757   9.130183   8.440036   9.290134   9.330134   9.380196   9.060098   9.030183   7.558805   6.1805     6.919512   7.240012   7.119902   6.280147   6.789842   13.1174    9.47       12.03799   9.34       9.320719   8.630487   10.08      9.78      
2746.700101 10.50984   10.44987   10.07502   10.5       10.65504   10.92497   8.465117   8.309952   8.264995   7.624957   6.679536   8.120097   8.354908   7.165055   10.50984   11.22444   10.46984   10.05      10.5       10.62      10.95      12.64558   12.64508   9.519938   11.26095   11.26095   9.439878   9.32       8.63       10.18987   9.799975   8.36442    11.5496    8.74431    9.070073   8.614786   9.245055   9.315019   9.295104   9.114933   8.985055   7.614933   6.030183   7.244603   7.309915   6.835348   6.020318   6.809976   12.64558   9.519938   11.26095   9.439878   9.32       8.63       10.18987   9.799975  
2746.800102 10.64      10.56      10.06      10.5       10.62      10.95      8.37       8.35       8.27       7.66       7.06       8.04       8.43       7.12       10.64      11.68      10.6       10.05      10.5       10.62      10.95      12.17      12.17      9.57       10.48      10.481     9.54       9.32       8.63       10.3       9.82       8.84       11.88      9.31       9.01       8.79       9.2        9.3        9.21       9.17       8.94       7.67       5.88       7.57       7.38       6.55       5.76       6.83       12.17      9.57       10.48      9.54       9.32       8.63       10.3       9.82      
2746.900102 10.11564   10.57998   9.900195   10.52497   10.75484   10.81017   8.275116   8.210171   8.299964   7.595079   7.878999   8.010036   8.370073   7.110012   10.13562   12.07951   10.6       9.875214   10.52497   10.7848    10.77521   11.14126   11.14176   9.594969   10.62482   10.62532   9.54       9.404896   9.299182   10.3       9.795031   9.009792   11.64029   9.53972    8.830219   8.909853   9.115104   9.145189   8.910366   9.269877   8.770207   7.889731   5.894982   7.550025   7.125311   6.689829   5.740025   6.844982   11.14126   9.594969   10.62482   9.54       9.404896   9.299182   10.3       9.795031  
2747.000102 9.59       10.6       9.74       10.55      10.89      10.67      8.18       8.07       8.33       7.53       8.7        7.98       8.31       7.1        9.63       12.48      10.6       9.7        10.55      10.95      10.6       10.11      10.111     9.62       10.77      10.77      9.54       9.49       9.97       10.3       9.77       9.18       11.4       9.77       8.65       9.03       9.03       8.99       8.61       9.37       8.6        8.11       5.91       7.53       6.87       6.83       5.72       6.86       10.11      9.62       10.77      9.54       9.49       9.97       10.3       9.77      
2747.100102 9.280378   10.69488   9.720024   10.55      10.91996   10.63504   8.060146   7.975116   8.280061   7.35022    8.939707   7.925067   8.24508    7.1        9.185543   12.51446   10.70487   9.7        10.55      10.95      10.6       10.35969   10.3602    9.994542   10.87987   10.87987   9.854615   9.49       9.97       10.16017   9.630171   9.469646   11.2402    9.610195   8.53514    8.990048   8.955091   8.725324   8.370293   9.37       8.470159   8.169927   5.800134   7.155458   6.725177   6.904908   5.380415   6.884969   10.35969   9.994542   10.87987   9.854615   9.49       9.97       10.16017   9.630171  
2747.200102 8.97       10.79      9.7        10.55      10.95      10.6       7.94       7.88       8.23       7.17       9.18       7.87       8.18       7.1        8.74       12.549     10.81      9.7        10.55      10.95      10.6       10.61      10.61      10.37      10.99      10.99      10.17      9.49       9.97       10.02      9.49       9.76       11.08      9.45       8.42       8.95       8.88       8.46       8.13       9.37       8.34       8.23       5.69       6.78       6.58       6.98       5.04       6.91       10.61      10.37      10.99      10.17      9.49       9.97       10.02      9.49      
2747.300102 9.971221   10.80001   9.815141   10.51496   10.7047    10.25959   7.799829   7.940073   8.13989    7.089902   9.044835   7.844969   7.759488   7.110012   9.75624    11.84364   10.81      9.820147   10.51496   10.6196    10.23455   10.62001   10.62001   10.37      10.75471   10.75471   10.49039   9.349829   9.699671   10.02      9.349829   9.509695   11.00491   9.229732   8.259805   8.929976   8.729816   8.294799   7.959793   9.334957   8.149768   8.019743   5.584872   6.594774   6.534945   7.475605   5.029988   7.00011    10.62001   10.37      10.75471   10.49039   9.349829   9.699671   10.02      9.349829  
2747.400102 10.97      10.81      9.93       10.48      10.46      9.92       7.66       8          8.05       7.01       8.91       7.82       7.34       7.12       10.77      11.14      10.81      9.94       10.48      10.29      9.87       10.63      10.63      10.37      10.52      10.52      10.81      9.21       9.43       10.02      9.21       9.26       10.93      9.01       8.1        8.91       8.58       8.13       7.79       9.3        7.96       7.81       5.48       6.41       6.49       7.97       5.02       7.09       10.63      10.37      10.52      10.81      9.21       9.43       10.02      9.21      
2747.500102 11.325     10.46      9.934999   10.23      10.38      9.895      7.74       8.05       8.085      7.075      8.514999   7.53       7.125      6.96       11.225     11.28      10.42      9.94       10.085     10.29      9.87       10.92      10.92      9.965      10.49      10.49      10.12      9.21       9.43       9.82       9.21       8.8        10.85      8.985001   8.015      8.695      8.48       8.015      7.7        9.01       7.865      7.5        5.71       6.51       6.51       8.045      4.78       7.115      10.92      9.965      10.49      10.12      9.21       9.43       9.82       9.21      
2747.600102 11.67913   10.11085   9.939987   9.980609   10.3002    9.870061   7.819805   8.099878   8.119914   7.139842   8.120963   7.240707   6.910524   6.80039    11.67889   11.41966   10.03095   9.94       9.690963   10.29      9.87       11.20929   11.20929   9.560988   10.46007   10.46007   9.431684   9.21       9.43       9.620488   9.21       8.341122   10.7702    8.960061   7.930207   8.480524   8.380244   7.90028    7.610219   8.720708   7.770232   7.190756   5.939439   6.609756   6.529952   8.119817   4.540586   7.139939   11.20929   9.560988   10.46007   9.431684   9.21       9.43       9.620488   9.21      
2747.700102 12.07951   10.07005   10.19469   9.765263   10.30499   9.710196   7.944847   8.050061   8.159951   7.349743   7.835348   7.115152   6.875043   6.635201   12.07951   11.36007   10.03      10.21966   9.615091   10.29999   9.705201   11.35982   11.35982   9.56       10.2952    10.2952    9.43       9.879182   9.854481   9.62       9.165055   8.225141   10.55526   8.905067   7.805152   8.325189   8.230184   7.904994   7.619988   8.490281   7.730049   6.995238   6.199683   6.52011    6.714774   8.070062   4.544994   7.399683   11.35982   9.56       10.2952    9.43       9.879182   9.854481   9.62       9.165055  
2747.800103 12.48      10.03      10.45      9.55       10.31      9.55       8.07       8          8.2        7.56       7.55       6.99       6.84       6.47       12.48      11.3       10.03      10.5       9.54       10.31      9.54       11.51      11.51      9.56       10.13      10.13      9.43       10.55      10.28      9.62       9.12       8.11       10.34      8.85       7.68       8.17       8.08       7.91       7.63       8.26       7.69       6.8        6.46       6.43       6.9        8.02       4.55       7.66       11.51      9.56       10.13      9.43       10.55      10.28      9.62       9.12      
