~Version
 VERS              .         2.0                           : CWLS LOG ASCII STANDARD - VERSION 2.0
 WRAP              .         NO                            : ONE LINE PER DEPTH STEP
 DLM               .         SPACE                         : DELIMITING CHARACTER(SPACE TAB OR COMMA)
~Well Information
#_______________________________________________________________________________
#
#PARAMETER_NAME    .UNIT     VALUE                         : DESCRIPTION
#_______________________________________________________________________________
STRT               .M        2645.2                        : First reference value
STOP               .M        2778.800134                   : Last reference value
STEP               .M        0.1000001                     : Step increment
NULL               .         -9999                         : Missing value
COMP               .                                       : Company
WELL               .         616                           : Well name
FLD                .                                       : Field
LOC                .                                       : Location
CNTY               .                                       : County
STAT               .                                       : State
CTRY               .                                       : Country
SRVC               .                                       : Service Company
DATE               .                                       : Date
API                .                                       : API number
PROJECT_UPGRADE_TIME .         2021-03-18T21_24_50           : 
group              .         Good                          : 
~Parameter Information Block
#_______________________________________________________________________________
#
#PARAMETER_NAME    .UNIT     VALUE                         : DESCRIPTION
#_______________________________________________________________________________
SET                .         ResolutionTest                : 
TLFamily_GK_2_D1800_D .         Gamma Ray                     : 
TLFamily_GK_2_D1801_D .         Gamma Ray                     : 
TLFamily_GK_2_D1803_D .         Gamma Ray                     : 
TLFamily_GK_2_D1805_D .         Gamma Ray                     : 
TLFamily_GK_2_D1809_D .         Gamma Ray                     : 
TLFamily_GK_2_D1812_D .         Gamma Ray                     : 
TLFamily_GK_D0400_D .         Gamma Ray                     : 
TLFamily_GK_D0401_D .         Gamma Ray                     : 
TLFamily_GK_D0402_D .         Gamma Ray                     : 
TLFamily_GK_D0403_D .         Gamma Ray                     : 
TLFamily_GK_D1161_D .         Gamma Ray                     : 
TLFamily_GK_D1166_D .         Gamma Ray                     : 
TLFamily_GK_D1169_D .         Gamma Ray                     : 
TLFamily_GK_D1171_D .         Gamma Ray                     : 
TLFamily_GK_D1800_D .         Gamma Ray                     : 
TLFamily_GK_D1800_D_2 .         Gamma Ray                     : 
TLFamily_GK_D1801_D .         Gamma Ray                     : 
TLFamily_GK_D1803_D .         Gamma Ray                     : 
TLFamily_GK_D1805_D .         Gamma Ray                     : 
TLFamily_GK_D1809_D .         Gamma Ray                     : 
TLFamily_GK_D1812_D .         Gamma Ray                     : 
TLFamily_GK_D4391_D .         Gamma Ray                     : 
TLFamily_GK_D4391_D_2 .         Russian Gamma Ray             : 
TLFamily_GK_D4404_D .         Gamma Ray                     : 
TLFamily_GK_D4405_D .         Gamma Ray                     : 
TLFamily_GK_D4405_D_2 .         Russian Gamma Ray             : 
TLFamily_GK_D4407_D .         Gamma Ray                     : 
TLFamily_GK_D4410_D .         Gamma Ray                     : 
TLFamily_GK_D4412_D .         Gamma Ray                     : 
TLFamily_GK_D4415_D .         Gamma Ray                     : 
TLFamily_GK_D4417_D .         Gamma Ray                     : 
TLFamily_GK_D7017_D .         Gamma Ray                     : 
TLFamily_GK_D7017_D_2 .         Gamma Ray                     : 
TLFamily_GK_D7018_D .         Gamma Ray                     : 
TLFamily_GK_D7019_D .         Gamma Ray                     : 
TLFamily_GK_D7020_D .         Gamma Ray                     : 
TLFamily_GK_D7022_D .         Gamma Ray                     : 
TLFamily_GK_D7023_D .         Gamma Ray                     : 
TLFamily_GK_D7024_D .         Gamma Ray                     : 
TLFamily_GK_D7026_D .         Gamma Ray                     : 
TLFamily_GK_D7027_D .         Gamma Ray                     : 
TLFamily_GK_D8102_D_2 .         Russian Gamma Ray             : 
TLFamily_GK_D8103_D .         Gamma Ray                     : 
TLFamily_GK_D8103_D_2 .         Russian Gamma Ray             : 
TLFamily_GK_D8106_D .         Gamma Ray                     : 
TLFamily_GK_D8106_D_2 .         Russian Gamma Ray             : 
TLFamily_GK_D8107_D .         Gamma Ray                     : 
TLFamily_GK_D8107_D_2 .         Russian Gamma Ray             : 
TLFamily_GR_D4391_D .         Gamma Ray                     : 
TLFamily_GR_D4404_D .         Gamma Ray                     : 
TLFamily_GR_D4405_D .         Gamma Ray                     : 
TLFamily_GR_D4407_D .         Gamma Ray                     : 
TLFamily_GR_D4410_D .         Gamma Ray                     : 
TLFamily_GR_D4412_D .         Gamma Ray                     : 
TLFamily_GR_D4415_D .         Gamma Ray                     : 
TLFamily_GR_D4417_D .         Gamma Ray                     : 
TLFamily_MD        .         Measured Depth                : 
~Curve Information
#_______________________________________________________________________________
#
#LOGNAME           .UNIT     LOG_ID                        : DESCRIPTION
#_______________________________________________________________________________
MD                 .M                                      :  
GK_2_D1800_D       .FLT                                    : 14 Гамма-активность фильтрованная, мкр./ч -  110.0 см 
GK_2_D1801_D       .FLT                                    : 14 Гамма-активность фильтрованная, мкр./ч -  110.0 см 
GK_2_D1803_D       .FLT                                    : 14 Гамма-активность фильтрованная, мкр./ч -  110.0 см 
GK_2_D1805_D       .FLT                                    : 14 Гамма-активность фильтрованная, мкр./ч -  110.0 см 
GK_2_D1809_D       .FLT                                    : 14 Гамма-активность фильтрованная, мкр./ч -  110.0 см 
GK_2_D1812_D       .FLT                                    : 14 Гамма-активность фильтрованная, мкр./ч -  110.0 см 
GK_D0400_D         .MKR/H                                  : 12 Гамма-активность, мкр./ч -   65.0 см 
GK_D0401_D         .MKR/H                                  : 12 Гамма-активность, мкр./ч -   65.0 см 
GK_D0402_D         .MKR/H                                  : 12 Гамма-активность, мкр./ч -   65.0 см 
GK_D0403_D         .MKR/H                                  : 12 Гамма-активность, мкр./ч -   65.0 см 
GK_D1161_D         .MKR/H                                  : 15 Гамма-активность, мкр./ч -  110.0 см 
GK_D1166_D         .MKR/H                                  : 15 Гамма-активность, мкр./ч -  110.0 см 
GK_D1169_D         .MKR/H                                  : 15 Гамма-активность, мкр./ч -  110.0 см 
GK_D1171_D         .MKR/H                                  : 15 Гамма-активность, мкр./ч -  110.0 см 
GK_D1800_D         .MKR/H                                  : 13 Гамма-активность, мкр./ч -  110.0 см 
GK_D1800_D_2       .мкР/час                                : Естественная гамма-активность,мкР/ч 
GK_D1801_D         .MKR/H                                  : 13 Гамма-активность, мкр./ч -  110.0 см 
GK_D1803_D         .MKR/H                                  : 13 Гамма-активность, мкр./ч -  110.0 см 
GK_D1805_D         .MKR/H                                  : 13 Гамма-активность, мкр./ч -  110.0 см 
GK_D1809_D         .MKR/H                                  : 13 Гамма-активность, мкр./ч -  110.0 см 
GK_D1812_D         .MKR/H                                  : 13 Гамма-активность, мкр./ч -  110.0 см 
GK_D4391_D         .FLT                                    : 14 Гамма-активность фильтрованная, мкр./ч -  110.0 см 
GK_D4391_D_2       .мкР/ч                                  : Естественная гамма-активность,мкР/ч 
GK_D4404_D         .FLT                                    : 14 Гамма-активность фильтрованная, мкр./ч -  110.0 см 
GK_D4405_D         .FLT                                    : 14 Гамма-активность фильтрованная, мкр./ч -  110.0 см 
GK_D4405_D_2       .мкР/ч                                  : Естественная гамма-активность,мкР/ч 
GK_D4407_D         .FLT                                    : 14 Гамма-активность фильтрованная, мкр./ч -  110.0 см 
GK_D4410_D         .FLT                                    : 14 Гамма-активность фильтрованная, мкр./ч -  110.0 см 
GK_D4412_D         .FLT                                    : 14 Гамма-активность фильтрованная, мкр./ч -  110.0 см 
GK_D4415_D         .FLT                                    : 14 Гамма-активность фильтрованная, мкр./ч -  110.0 см 
GK_D4417_D         .FLT                                    : 14 Гамма-активность фильтрованная, мкр./ч -  110.0 см 
GK_D7017_D         .MKR/H                                  : 16 Гамма-активность, мкр./ч -  106.0 см 
GK_D7017_D_2       .мкР/час                                : Гамма каротаж, мкр/час 
GK_D7018_D         .MKR/H                                  : 16 Гамма-активность, мкр./ч -  106.0 см 
GK_D7019_D         .MKR/H                                  : 16 Гамма-активность, мкр./ч -  106.0 см 
GK_D7020_D         .MKR/H                                  : 16 Гамма-активность, мкр./ч -  106.0 см 
GK_D7022_D         .MKR/H                                  : 16 Гамма-активность, мкр./ч -  106.0 см 
GK_D7023_D         .MKR/H                                  : 16 Гамма-активность, мкр./ч -  106.0 см 
GK_D7024_D         .MKR/H                                  : 16 Гамма-активность, мкр./ч -  106.0 см 
GK_D7026_D         .MKR/H                                  : 16 Гамма-активность, мкр./ч -  106.0 см 
GK_D7027_D         .MKR/H                                  : 16 Гамма-активность, мкр./ч -  106.0 см 
GK_D8102_D_2       .мкР/ч                                  : Естественная гамма-активность,мкР/ч 
GK_D8103_D         .MKR/H                                  : 13 Гамма-активность, мкр./ч -   65.0 см 
GK_D8103_D_2       .мкР/ч                                  : Естественная гамма-активность,мкР/ч 
GK_D8106_D         .MKR/H                                  : 13 Гамма-активность, мкр./ч -   65.0 см 
GK_D8106_D_2       .мкР/ч                                  : Естественная гамма-активность,мкР/ч 
GK_D8107_D         .MKR/H                                  : 13 Гамма-активность, мкр./ч -   65.0 см 
GK_D8107_D_2       .мкР/ч                                  : Естественная гамма-активность,мкР/ч 
GR_D4391_D         .UR/H                                   : 13 Гамма-активность, мкр./ч -  110.0 см 
GR_D4404_D         .UR/H                                   : 13 Гамма-активность, мкр./ч -  110.0 см 
GR_D4405_D         .UR/H                                   : 13 Гамма-активность, мкр./ч -  110.0 см 
GR_D4407_D         .UR/H                                   : 13 Гамма-активность, мкр./ч -  110.0 см 
GR_D4410_D         .UR/H                                   : 13 Гамма-активность, мкр./ч -  110.0 см 
GR_D4412_D         .UR/H                                   : 13 Гамма-активность, мкр./ч -  110.0 см 
GR_D4415_D         .UR/H                                   : 13 Гамма-активность, мкр./ч -  110.0 см 
GR_D4417_D         .UR/H                                   : 13 Гамма-активность, мкр./ч -  110.0 см 
~Ascii
# ...
2740.100095 13.80941   7.720024   8.754835   8.989756   9.200036   8.180037   6.389829   6.329683   6.944848   5.669621   7.450171   9.185116   8.819878   8.540012   13.79937   16.39002   7.7        8.769816   9.039682   9.185055   8.15       13.51441   13.51491   10.24449   13.84438   13.84438   10.61329   11.32      11.16      9.49       10.12979   9.714945   14.91032   9.809805   10.54974   10.2499    11.57498   11.70976   11.18476   11.62492   11.20514   10.45475   6.464933   9.204835   8.070062   9.449939   7.625031   8.245116   13.51441   10.24449   13.84438   10.61329   11.32      11.16      9.49       10.12979  
2740.200095 14.29      7.7        8.89       9.19       9.17       8.15       6.53       6.59       7.07       5.98       7.31       9.09       8.92       8.53       14.32      16.37      7.7        8.92       9.3        9.14       8.15       14         14         10.66      14.35      14.35      12.02      11.32      11.16      9.49       10.3       9.76       14.65      9.97       10.76      10.33      11.59      11.91      11.38      11.69      11.09      10.66      6.52       9.34       8.02       9.5        7.6        8.15       14         10.66      14.35      12.02      11.32      11.16      9.49       10.3      
2740.300095 14.40514   8.190598   8.905019   9.245067   9.154982   8.370269   6.555031   6.715153   7.004921   6.090134   7.435153   9.039939   8.995091   8.535006   14.36506   16.32995   8.255678   8.92       9.3        9.14       8.385286   14.76593   14.76543   11.50603   14.7555    14.7555    12.02      11.8907    12.09614   10.73151   11.06093   9.955238   14.67002   9.76475    10.86513   10.4902    11.59501   12.03015   11.48012   11.70502   11.04494   10.83521   6.790329   9.184811   7.894847   9.459951   7.6        7.659401   14.76593   11.50603   14.7555    12.02      11.8907    12.09614   10.73151   11.06093  
2740.400095 14.52      8.68       8.92       9.3        9.14       8.59       6.58       6.84       6.94       6.2        7.56       8.99       9.07       8.54       14.41      16.29      8.81       8.92       9.3        9.14       8.62       15.53      15.529     12.35      15.16      15.16      12.02      12.46      13.03      11.97      11.82      10.15      14.69      9.56       10.97      10.65      11.6       12.15      11.58      11.72      11         11.01      7.06       9.03       7.77       9.42       7.6        7.17       15.53      12.35      15.16      12.02      12.46      13.03      11.97      11.82     
2740.500095 15.09      8.74       9.825      10.495     9.360001   8.780001   6.495      6.69       6.855      6.23       7.9        8.924999   9.26       8.655001   15.035     16.4095    8.81       10.015     10.595     9.49       8.9        15.105     15.1045    12.35      14.92      14.92      12.405     12.46      13.065     11.97      11.82      10.07      14.725     9.3        11.04      10.675     11.38      12.13      11.59      11.725     10.98      10.5945    7.14       8.945      7.655      9.415      7.495      7.17       15.105     12.35      14.92      12.405     12.46      13.065     11.97      11.82     
2740.600095 15.65861   8.799854   10.72779   11.68709   9.579463   8.969537   6.410207   6.540366   6.770207   6.259927   8.23917    8.860158   9.449536   8.76972    15.65848   16.52871   8.81       11.10733   11.88684   9.839147   9.179317   14.68104   14.68104   12.35      14.68059   14.68059   12.78906   12.46      13.09991   11.97      11.82      9.990195   14.75991   9.040634   11.10983   10.69994   11.16054   12.11005   11.59998   11.72999   10.96005   10.18001   7.219805   8.860207   7.54028    9.410012   7.390256   7.17       14.68104   12.35      14.68059   12.78906   12.46      13.09991   11.97      11.82     
2740.700095 16.03454   9.579047   10.91477   11.78988   10.04943   10.14856   6.58978    6.71978    7.059646   6.529671   8.464725   8.835031   9.504933   8.809952   16.03454   15.56018   9.748853   11.11      11.89      10.19457   10.28864   14.20558   14.20558   12.06535   13.56137   13.56187   12.79      12.66974   13.11998   12.11482   11.85496   10.1548    14.34551   9.389572   11.11499   10.65506   11.00519   12.07504   11.60499   11.73999   10.96      9.515311   7.254957   8.690207   7.06558    9.405005   7.365031   7.194969   14.20558   12.06535   13.56137   12.79      12.66974   13.11998   12.11482   11.85496  
2740.800096 16.41      10.36      11.1       11.89      10.52      11.33      6.77       6.9        7.35       6.8        8.69       8.81       9.56       8.85       16.41      14.589     10.69      11.11      11.89      10.55      11.4       13.73      13.73      11.78      12.44      12.441     12.79      12.88      13.14      12.26      11.89      10.32      13.93      9.74       11.12      10.61      10.85      12.04      11.61      11.75      10.96      8.85       7.29       8.52       6.59       9.4        7.34       7.22       13.73      11.78      12.44      12.79      12.88      13.14      12.26      11.89     
2740.900096 16.3301    10.5198    11.87405   12.48927   11.11927   11.47982   7.049658   7.129719   7.684591   6.929842   8.694994   8.685153   9.410184   8.815042   16.39002   14.0202    10.69      11.96895   12.54919   11.41894   11.58977   12.98591   12.98641   11.78      12.64475   12.64525   12.74506   12.88      13.21491   12.26      12.0548    10.54972   13.41063   9.964725   11.04509   10.60001   10.70018   11.64548   11.34033   11.75499   10.96999   8.750122   7.309976   8.43011    6.565031   9.714615   6.960464   7.22       12.98591   11.78      12.64475   12.74506   12.88      13.21491   12.26      12.0548   
2741.000096 16.25      10.68      12.65      13.09      11.72      11.63      7.33       7.36       8.02       7.06       8.7        8.56       9.26       8.78       16.37      13.45      10.69      12.83      13.21      12.29      11.78      12.24      12.241     11.78      12.85      12.85      12.7       12.88      13.29      12.26      12.22      10.78      12.89      10.19      10.97      10.59      10.55      11.25      11.07      11.76      10.98      8.65       7.33       8.34       6.54       10.03      6.58       7.22       12.24      11.78      12.85      12.7       12.88      13.29      12.26      12.22     
2741.100096 16.27497   11.55393   12.73989   13.28976   12.00465   11.97957   7.434872   7.534786   8.239732   7.099951   8.914738   8.49508    9.210061   8.760024   16.33005   13.33015   11.58391   12.83      13.41974   12.29      12.05966   11.62076   11.62176   12.594     11.83125   11.83175   12.7       13.38438   13.57465   12.78436   12.32987   10.55527   12.34067   10.30486   10.91007   10.59      10.4651    10.91041   10.86026   11.61518   10.77525   8.300427   7.369951   7.935495   6.584945   10.10491   6.58       7.160073   11.62076   12.594     11.83125   12.7       13.38438   13.57465   12.78436   12.32987  
2741.200096 16.3       12.43      12.83      13.49      12.29      12.33      7.54       7.71       8.46       7.14       9.13       8.43       9.16       8.74       16.29      13.21      12.48      12.83      13.63      12.29      12.34      11         11.001     13.41      10.81      10.811     12.7       13.89      13.86      13.31      12.44      10.33      11.79      10.42      10.85      10.59      10.38      10.57      10.65      11.47      10.57      7.95       7.41       7.53       6.63       10.18      6.58       7.1        11         13.41      10.81      12.7       13.89      13.86      13.31      12.44     
2741.300096 16.32503   12.53513   13.53085   13.56009   12.90074   12.30497   7.600073   7.870195   8.620195   7.245128   9.255153   8.369927   9.099927   8.64989    16.41015   12.80901   12.61016   13.56089   13.63      12.99586   12.30496   10.82979   10.83029   14.02074   10.53466   10.53516   13.41587   13.89      13.84999   13.31      13.19592   10.18983   11.18927   10.49509   10.82998   10.73017   10.36498   10.44985   10.58492   11.32983   10.49991   7.67967    7.289854   7.304725   6.855275   9.934701   6.650085   7.059951   10.82979   14.02074   10.53466   13.41587   13.89      13.84999   13.31      13.19592  
