~Version
 VERS              .         2.0                           : CWLS LOG ASCII STANDARD - VERSION 2.0
 WRAP              .         NO                            : ONE LINE PER DEPTH STEP
 DLM               .         SPACE                         : DELIMITING CHARACTER(SPACE TAB OR COMMA)
~Well Information
#_______________________________________________________________________________
#
#PARAMETER_NAME    .UNIT     VALUE                         : DESCRIPTION
#_______________________________________________________________________________
STRT               .M        2645.2                        : First reference value
STOP               .M        2778.800134                   : Last reference value
STEP               .M        0.1000001                     : Step increment
NULL               .         -9999                         : Missing value
COMP               .                                       : Company
WELL               .         616                           : Well name
FLD                .                                       : Field
LOC                .                                       : Location
CNTY               .                                       : County
STAT               .                                       : State
CTRY               .                                       : Country
SRVC               .                                       : Service Company
DATE               .                                       : Date
API                .                                       : API number
PROJECT_UPGRADE_TIME .         2021-03-18T21_24_50           : 
group              .         Good                          : 
~Parameter Information Block
#_______________________________________________________________________________
#
#PARAMETER_NAME    .UNIT     VALUE                         : DESCRIPTION
#_______________________________________________________________________________
SET                .         ResolutionTest                : 
TLFamily_GK_2_D1800_D .         Gamma Ray                     : 
TLFamily_GK_2_D1801_D .         Gamma Ray                     : 
TLFamily_GK_2_D1803_D .         Gamma Ray                     : 
TLFamily_GK_2_D1805_D .         Gamma Ray                     : 
TLFamily_GK_2_D1809_D .         Gamma Ray                     : 
TLFamily_GK_2_D1812_D .         Gamma Ray                     : 
TLFamily_GK_D0400_D .         Gamma Ray                     : 
TLFamily_GK_D0401_D .         Gamma Ray                     : 
TLFamily_GK_D0402_D .         Gamma Ray                     : 
TLFamily_GK_D0403_D .         Gamma Ray                     : 
TLFamily_GK_D1161_D .         Gamma Ray                     : 
TLFamily_GK_D1166_D .         Gamma Ray                     : 
TLFamily_GK_D1169_D .         Gamma Ray                     : 
TLFamily_GK_D1171_D .         Gamma Ray                     : 
TLFamily_GK_D1800_D .         Gamma Ray                     : 
TLFamily_GK_D1800_D_2 .         Gamma Ray                     : 
TLFamily_GK_D1801_D .         Gamma Ray                     : 
TLFamily_GK_D1803_D .         Gamma Ray                     : 
TLFamily_GK_D1805_D .         Gamma Ray                     : 
TLFamily_GK_D1809_D .         Gamma Ray                     : 
TLFamily_GK_D1812_D .         Gamma Ray                     : 
TLFamily_GK_D4391_D .         Gamma Ray                     : 
TLFamily_GK_D4391_D_2 .         Russian Gamma Ray             : 
TLFamily_GK_D4404_D .         Gamma Ray                     : 
TLFamily_GK_D4405_D .         Gamma Ray                     : 
TLFamily_GK_D4405_D_2 .         Russian Gamma Ray             : 
TLFamily_GK_D4407_D .         Gamma Ray                     : 
TLFamily_GK_D4410_D .         Gamma Ray                     : 
TLFamily_GK_D4412_D .         Gamma Ray                     : 
TLFamily_GK_D4415_D .         Gamma Ray                     : 
TLFamily_GK_D4417_D .         Gamma Ray                     : 
TLFamily_GK_D7017_D .         Gamma Ray                     : 
TLFamily_GK_D7017_D_2 .         Gamma Ray                     : 
TLFamily_GK_D7018_D .         Gamma Ray                     : 
TLFamily_GK_D7019_D .         Gamma Ray                     : 
TLFamily_GK_D7020_D .         Gamma Ray                     : 
TLFamily_GK_D7022_D .         Gamma Ray                     : 
TLFamily_GK_D7023_D .         Gamma Ray                     : 
TLFamily_GK_D7024_D .         Gamma Ray                     : 
TLFamily_GK_D7026_D .         Gamma Ray                     : 
TLFamily_GK_D7027_D .         Gamma Ray                     : 
TLFamily_GK_D8102_D_2 .         Russian Gamma Ray             : 
TLFamily_GK_D8103_D .         Gamma Ray                     : 
TLFamily_GK_D8103_D_2 .         Russian Gamma Ray             : 
TLFamily_GK_D8106_D .         Gamma Ray                     : 
TLFamily_GK_D8106_D_2 .         Russian Gamma Ray             : 
TLFamily_GK_D8107_D .         Gamma Ray                     : 
TLFamily_GK_D8107_D_2 .         Russian Gamma Ray             : 
TLFamily_GR_D4391_D .         Gamma Ray                     : 
TLFamily_GR_D4404_D .         Gamma Ray                     : 
TLFamily_GR_D4405_D .         Gamma Ray                     : 
TLFamily_GR_D4407_D .         Gamma Ray                     : 
TLFamily_GR_D4410_D .         Gamma Ray                     : 
TLFamily_GR_D4412_D .         Gamma Ray                     : 
TLFamily_GR_D4415_D .         Gamma Ray                     : 
TLFamily_GR_D4417_D .         Gamma Ray                     : 
TLFamily_MD        .         Measured Depth                : 
~Curve Information
#_______________________________________________________________________________
#
#LOGNAME           .UNIT     LOG_ID                        : DESCRIPTION
#_______________________________________________________________________________
MD                 .M                                      :  
GK_2_D1800_D       .FLT                                    : 14 Гамма-активность фильтрованная, мкр./ч -  110.0 см 
GK_2_D1801_D       .FLT                                    : 14 Гамма-активность фильтрованная, мкр./ч -  110.0 см 
GK_2_D1803_D       .FLT                                    : 14 Гамма-активность фильтрованная, мкр./ч -  110.0 см 
GK_2_D1805_D       .FLT                                    : 14 Гамма-активность фильтрованная, мкр./ч -  110.0 см 
GK_2_D1809_D       .FLT                                    : 14 Гамма-активность фильтрованная, мкр./ч -  110.0 см 
GK_2_D1812_D       .FLT                                    : 14 Гамма-активность фильтрованная, мкр./ч -  110.0 см 
GK_D0400_D         .MKR/H                                  : 12 Гамма-активность, мкр./ч -   65.0 см 
GK_D0401_D         .MKR/H                                  : 12 Гамма-активность, мкр./ч -   65.0 см 
GK_D0402_D         .MKR/H                                  : 12 Гамма-активность, мкр./ч -   65.0 см 
GK_D0403_D         .MKR/H                                  : 12 Гамма-активность, мкр./ч -   65.0 см 
GK_D1161_D         .MKR/H                                  : 15 Гамма-активность, мкр./ч -  110.0 см 
GK_D1166_D         .MKR/H                                  : 15 Гамма-активность, мкр./ч -  110.0 см 
GK_D1169_D         .MKR/H                                  : 15 Гамма-активность, мкр./ч -  110.0 см 
GK_D1171_D         .MKR/H                                  : 15 Гамма-активность, мкр./ч -  110.0 см 
GK_D1800_D         .MKR/H                                  : 13 Гамма-активность, мкр./ч -  110.0 см 
GK_D1800_D_2       .мкР/час                                : Естественная гамма-активность,мкР/ч 
GK_D1801_D         .MKR/H                                  : 13 Гамма-активность, мкр./ч -  110.0 см 
GK_D1803_D         .MKR/H                                  : 13 Гамма-активность, мкр./ч -  110.0 см 
GK_D1805_D         .MKR/H                                  : 13 Гамма-активность, мкр./ч -  110.0 см 
GK_D1809_D         .MKR/H                                  : 13 Гамма-активность, мкр./ч -  110.0 см 
GK_D1812_D         .MKR/H                                  : 13 Гамма-активность, мкр./ч -  110.0 см 
GK_D4391_D         .FLT                                    : 14 Гамма-активность фильтрованная, мкр./ч -  110.0 см 
GK_D4391_D_2       .мкР/ч                                  : Естественная гамма-активность,мкР/ч 
GK_D4404_D         .FLT                                    : 14 Гамма-активность фильтрованная, мкр./ч -  110.0 см 
GK_D4405_D         .FLT                                    : 14 Гамма-активность фильтрованная, мкр./ч -  110.0 см 
GK_D4405_D_2       .мкР/ч                                  : Естественная гамма-активность,мкР/ч 
GK_D4407_D         .FLT                                    : 14 Гамма-активность фильтрованная, мкр./ч -  110.0 см 
GK_D4410_D         .FLT                                    : 14 Гамма-активность фильтрованная, мкр./ч -  110.0 см 
GK_D4412_D         .FLT                                    : 14 Гамма-активность фильтрованная, мкр./ч -  110.0 см 
GK_D4415_D         .FLT                                    : 14 Гамма-активность фильтрованная, мкр./ч -  110.0 см 
GK_D4417_D         .FLT                                    : 14 Гамма-активность фильтрованная, мкр./ч -  110.0 см 
GK_D7017_D         .MKR/H                                  : 16 Гамма-активность, мкр./ч -  106.0 см 
GK_D7017_D_2       .мкР/час                                : Гамма каротаж, мкр/час 
GK_D7018_D         .MKR/H                                  : 16 Гамма-активность, мкр./ч -  106.0 см 
GK_D7019_D         .MKR/H                                  : 16 Гамма-активность, мкр./ч -  106.0 см 
GK_D7020_D         .MKR/H                                  : 16 Гамма-активность, мкр./ч -  106.0 см 
GK_D7022_D         .MKR/H                                  : 16 Гамма-активность, мкр./ч -  106.0 см 
GK_D7023_D         .MKR/H                                  : 16 Гамма-активность, мкр./ч -  106.0 см 
GK_D7024_D         .MKR/H                                  : 16 Гамма-активность, мкр./ч -  106.0 см 
GK_D7026_D         .MKR/H                                  : 16 Гамма-активность, мкр./ч -  106.0 см 
GK_D7027_D         .MKR/H                                  : 16 Гамма-активность, мкр./ч -  106.0 см 
GK_D8102_D_2       .мкР/ч                                  : Естественная гамма-активность,мкР/ч 
GK_D8103_D         .MKR/H                                  : 13 Гамма-активность, мкр./ч -   65.0 см 
GK_D8103_D_2       .мкР/ч                                  : Естественная гамма-активность,мкР/ч 
GK_D8106_D         .MKR/H                                  : 13 Гамма-активность, мкр./ч -   65.0 см 
GK_D8106_D_2       .мкР/ч                                  : Естественная гамма-активность,мкР/ч 
GK_D8107_D         .MKR/H                                  : 13 Гамма-активность, мкр./ч -   65.0 см 
GK_D8107_D_2       .мкР/ч                                  : Естественная гамма-активность,мкР/ч 
GR_D4391_D         .UR/H                                   : 13 Гамма-активность, мкр./ч -  110.0 см 
GR_D4404_D         .UR/H                                   : 13 Гамма-активность, мкр./ч -  110.0 см 
GR_D4405_D         .UR/H                                   : 13 Гамма-активность, мкр./ч -  110.0 см 
GR_D4407_D         .UR/H                                   : 13 Гамма-активность, мкр./ч -  110.0 см 
GR_D4410_D         .UR/H                                   : 13 Гамма-активность, мкр./ч -  110.0 см 
GR_D4412_D         .UR/H                                   : 13 Гамма-активность, мкр./ч -  110.0 см 
GR_D4415_D         .UR/H                                   : 13 Гамма-активность, мкр./ч -  110.0 см 
GR_D4417_D         .UR/H                                   : 13 Гамма-активность, мкр./ч -  110.0 см 
~Ascii
# ...
2686.800042 9.67       9.3        10.45      9.33       8.6        10.02      8.64       8.88       9.21       7.87       6.88       10.39      11.38      10.8       9.68       10.55      9.3        10.53      9.33       8.59       9.94       8.88       8.88       7.54       -9999      -9999      7.84       8.44       7.84       7.84       7.8        8.53       9.16       -9999      12.69      11.86      13.43      13.77      12.88      12.27      11.93      7.27       8.09       5.64       7.37       6.16       8.2        6.2        8.88       7.54       -9999      7.84       8.44       7.84       7.84       7.8       
2686.900042 9.525177   9.329964   10.48496   9.814408   8.989524   9.925117   8.605042   8.870012   9.085153   7.795092   6.944921   10.8794    11.52982   11.06967   9.540171   10.74976   9.349938   10.53      9.834383   9.004494   9.880073   9.064775   9.064775   8.064359   -9999      -9999      8.114664   8.44       7.84       8.054738   8.269426   8.629877   9.194957   -9999      12.81485   12.16463   13.5948    13.94978   13.24455   12.41982   12.07982   7.080232   7.915214   5.689939   7.479866   6.329792   8.005238   6.209988   9.064775   8.064359   -9999      8.114664   8.44       7.84       8.054738   8.269426  
2687.000042 9.38       9.36       10.52      10.3       9.38       9.83       8.57       8.86       8.96       7.72       7.01       11.37      11.68      11.34      9.4        10.95      9.4        10.53      10.34      9.42       9.82       9.25       9.25       8.59       -9999      -9999      8.39       8.44       7.84       8.27       8.74       8.73       9.23       -9999      12.94      12.47      13.76      14.13      13.61      12.57      12.23      6.89       7.74       5.74       7.59       6.5        7.81       6.22       9.25       8.59       -9999      8.39       8.44       7.84       8.27       8.74      
2687.100042 9.220196   9.604701   10.29028   10.31998   9.399976   9.750097   8.540036   8.889963   8.915055   7.72       7.074921   11.57974   11.68499   11.46984   9.22022    10.85512   9.634713   10.27032   10.34      9.42       9.700147   9.359866   9.359866   8.59       -9999      -9999      8.39       8.634762   8.31442    8.804347   8.834884   8.88481    9.329878   -9999      12.98994   12.78961   13.69009   13.99017   13.59002   12.70483   12.53962   6.490489   7.744994   5.974713   7.67989    6.480024   7.730098   6.269939   9.359866   8.59       -9999      8.39       8.634762   8.31442    8.804347   8.834884  
2687.200042 9.06       9.85       10.06      10.34      9.42       9.67       8.51       8.92       8.87       7.72       7.14       11.79      11.69      11.6       9.04       10.76      9.87       10.01      10.34      9.42       9.58       9.47       9.47       8.59       -9999      -9999      8.39       8.83       8.79       9.34       8.93       9.04       9.43       -9999      13.04      13.11      13.62      13.85      13.57      12.84      12.85      6.09       7.75       6.21       7.77       6.46       7.65       6.32       9.47       8.59       -9999      8.39       8.83       8.79       9.34       8.93      
2687.300042 9.595654   9.975153   10.03497   10.39507   9.605226   9.60492    8.520012   8.729768   8.875006   7.735018   7.145006   11.56973   11.67498   11.77021   9.585666   10.39455   10.05523   10.01      10.40007   9.620244   9.559976   9.159622   9.159622   9.350928   -9999      -9999      8.580233   8.865043   8.79       9.380049   9.11022    8.809719   9.680305   -9999      12.91485   13.33527   13.44979   13.74487   13.55498   12.73988   12.87503   6.255202   7.935226   6.565434   7.875128   6.339853   7.064286   6.335018   9.159622   9.350928   -9999      8.580233   8.865043   8.79       9.380049   9.11022   
2687.400042 10.13      10.1       10.01      10.45      9.79       9.54       8.53       8.54       8.88       7.75       7.15       11.35      11.66      11.94      10.13      10.03      10.24      10.01      10.46      9.82       9.54       8.85       8.85       10.11      -9999      -9999      8.77       8.9        8.79       9.42       9.29       8.58       9.93       -9999      12.79      13.56      13.28      13.64      13.54      12.64      12.9       6.42       8.12       6.92       7.98       6.22       6.48       6.35       8.85       10.11      -9999      8.77       8.9        8.79       9.42       9.29      
2687.500042 10.345     10.215     9.665      10.395     9.805      9.525      8.424999   8.465      8.889999   7.755      6.975      11.155     11.185     11.565     10.34      10.125     10.29      9.62       10.365     9.82       9.52       9.205      9.205      10.11      -9999      -9999      8.77       9.09       8.92       9.63       9.235001   8.325      10.105     -9999      12.53      13.125     12.66      12.69      12.845     12.56      12.805     6.57       8.190001   6.86       8          6.2        6.39       6.525      9.205      10.11      -9999      8.77       9.09       8.92       9.63       9.235001  
2687.600042 10.55948   10.32972   9.320841   10.34013   9.819963   9.510036   8.320256   8.390183   8.899975   7.759988   6.800427   10.96048   10.71116   11.19091   10.54949   10.21977   10.33988   9.23095    10.27023   9.82       9.500049   9.559134   9.559134   10.11      -9999      -9999      8.77       9.279536   9.049684   9.839488   9.180135   8.070621   10.27957   -9999      12.27063   12.69106   12.04151   11.74232   12.15169   12.4802    12.71023   6.719634   8.25983    6.800147   8.019952   6.180048   6.30022    6.699573   9.559134   10.11      -9999      8.77       9.279536   9.049684   9.839488   9.180135  
2687.700042 10.73978   10.23512   9.275055   10.30504   9.750086   9.500012   8.195152   8.579768   8.944944   7.834908   6.685141   10.26085   10.52023   10.64567   10.74976   10.26495   10.18519   9.23       10.27      9.750086   9.495006   9.450134   9.450134   10.08503   -9999      -9999      8.964762   9.339927   9.05       9.84       9.18       8.269755   10.05028   -9999      11.98535   12.33543   11.72039   11.14573   11.70554   11.86575   12.35543   6.680048   8.230037   6.50536    8.015006   6.18       5.820586   6.719975   9.450134   10.08503   -9999      8.964762   9.339927   9.05       9.84       9.18      
2687.800043 10.92      10.14      9.23       10.27      9.68       9.49       8.07       8.77       8.99       7.91       6.57       9.56       10.33      10.1       10.95      10.31      10.03      9.23       10.27      9.68       9.49       9.34       9.34       10.06      -9999      -9999      9.16       9.4        9.05       9.84       9.18       8.47       9.82       -9999      11.7       11.98      11.4       10.55      11.26      11.25      12         6.64       8.2        6.21       8.01       6.18       5.34       6.74       9.34       10.06      -9999      9.16       9.4        9.05       9.84       9.18      
2687.900043 10.69028   9.790427   9.429755   10.32993   9.68       9.7347     8.13492    8.979744   9.074896   8.004884   6.704835   9.210427   9.76569    9.770403   10.85512   10.08527   9.725372   9.439743   10.36488   9.68       9.769658   9.330012   9.330012   10.06      -9999      -9999      9.16       9.4        8.840257   9.510404   9.125067   8.639792   9.824994   -9999      11.21559   11.38073   10.74081   9.900794   10.56585   10.77059   11.4257    6.809793   8.629475   6.18503    7.995018   6.334811   5.344994   6.934762   9.330012   10.06      -9999      9.16       9.4        8.840257   9.510404   9.125067  
2688.000043 10.46      9.44       9.63       10.39      9.68       9.98       8.2        9.19       9.16       8.1        6.84       8.86       9.2        9.44       10.76      9.86       9.42       9.65       10.46      9.68       10.05      9.32       9.32       10.06      -9999      -9999      9.16       9.4        8.63       9.18       9.07       8.81       9.83       -9999      10.73      10.78      10.08      9.25       9.87       10.29      10.85      6.98       9.06       6.16       7.98       6.49       5.35       7.13       9.32       10.06      -9999      9.16       9.4        8.63       9.18       9.07      
