~Version
 VERS              .         2.0                           : CWLS LOG ASCII STANDARD - VERSION 2.0
 WRAP              .         NO                            : ONE LINE PER DEPTH STEP
 DLM               .         SPACE                         : DELIMITING CHARACTER(SPACE TAB OR COMMA)
~Well Information
#_______________________________________________________________________________
#
#PARAMETER_NAME    .UNIT     VALUE                         : DESCRIPTION
#_______________________________________________________________________________
STRT               .M        2645.2                        : First reference value
STOP               .M        2778.800134                   : Last reference value
STEP               .M        0.1000001                     : Step increment
NULL               .         -9999                         : Missing value
COMP               .                                       : Company
WELL               .         616                           : Well name
FLD                .                                       : Field
LOC                .                                       : Location
CNTY               .                                       : County
STAT               .                                       : State
CTRY               .                                       : Country
SRVC               .                                       : Service Company
DATE               .                                       : Date
API                .                                       : API number
PROJECT_UPGRADE_TIME .         2021-03-18T21_24_50           : 
group              .         Good                          : 
~Parameter Information Block
#_______________________________________________________________________________
#
#PARAMETER_NAME    .UNIT     VALUE                         : DESCRIPTION
#_______________________________________________________________________________
SET                .         ResolutionTest                : 
TLFamily_GK_2_D1800_D .         Gamma Ray                     : 
TLFamily_GK_2_D1801_D .         Gamma Ray                     : 
TLFamily_GK_2_D1803_D .         Gamma Ray                     : 
TLFamily_GK_2_D1805_D .         Gamma Ray                     : 
TLFamily_GK_2_D1809_D .         Gamma Ray                     : 
TLFamily_GK_2_D1812_D .         Gamma Ray                     : 
TLFamily_GK_D0400_D .         Gamma Ray                     : 
TLFamily_GK_D0401_D .         Gamma Ray                     : 
TLFamily_GK_D0402_D .         Gamma Ray                     : 
TLFamily_GK_D0403_D .         Gamma Ray                     : 
TLFamily_GK_D1161_D .         Gamma Ray                     : 
TLFamily_GK_D1166_D .         Gamma Ray                     : 
TLFamily_GK_D1169_D .         Gamma Ray                     : 
TLFamily_GK_D1171_D .         Gamma Ray                     : 
TLFamily_GK_D1800_D .         Gamma Ray                     : 
TLFamily_GK_D1800_D_2 .         Gamma Ray                     : 
TLFamily_GK_D1801_D .         Gamma Ray                     : 
TLFamily_GK_D1803_D .         Gamma Ray                     : 
TLFamily_GK_D1805_D .         Gamma Ray                     : 
TLFamily_GK_D1809_D .         Gamma Ray                     : 
TLFamily_GK_D1812_D .         Gamma Ray                     : 
TLFamily_GK_D4391_D .         Gamma Ray                     : 
TLFamily_GK_D4391_D_2 .         Russian Gamma Ray             : 
TLFamily_GK_D4404_D .         Gamma Ray                     : 
TLFamily_GK_D4405_D .         Gamma Ray                     : 
TLFamily_GK_D4405_D_2 .         Russian Gamma Ray             : 
TLFamily_GK_D4407_D .         Gamma Ray                     : 
TLFamily_GK_D4410_D .         Gamma Ray                     : 
TLFamily_GK_D4412_D .         Gamma Ray                     : 
TLFamily_GK_D4415_D .         Gamma Ray                     : 
TLFamily_GK_D4417_D .         Gamma Ray                     : 
TLFamily_GK_D7017_D .         Gamma Ray                     : 
TLFamily_GK_D7017_D_2 .         Gamma Ray                     : 
TLFamily_GK_D7018_D .         Gamma Ray                     : 
TLFamily_GK_D7019_D .         Gamma Ray                     : 
TLFamily_GK_D7020_D .         Gamma Ray                     : 
TLFamily_GK_D7022_D .         Gamma Ray                     : 
TLFamily_GK_D7023_D .         Gamma Ray                     : 
TLFamily_GK_D7024_D .         Gamma Ray                     : 
TLFamily_GK_D7026_D .         Gamma Ray                     : 
TLFamily_GK_D7027_D .         Gamma Ray                     : 
TLFamily_GK_D8102_D_2 .         Russian Gamma Ray             : 
TLFamily_GK_D8103_D .         Gamma Ray                     : 
TLFamily_GK_D8103_D_2 .         Russian Gamma Ray             : 
TLFamily_GK_D8106_D .         Gamma Ray                     : 
TLFamily_GK_D8106_D_2 .         Russian Gamma Ray             : 
TLFamily_GK_D8107_D .         Gamma Ray                     : 
TLFamily_GK_D8107_D_2 .         Russian Gamma Ray             : 
TLFamily_GR_D4391_D .         Gamma Ray                     : 
TLFamily_GR_D4404_D .         Gamma Ray                     : 
TLFamily_GR_D4405_D .         Gamma Ray                     : 
TLFamily_GR_D4407_D .         Gamma Ray                     : 
TLFamily_GR_D4410_D .         Gamma Ray                     : 
TLFamily_GR_D4412_D .         Gamma Ray                     : 
TLFamily_GR_D4415_D .         Gamma Ray                     : 
TLFamily_GR_D4417_D .         Gamma Ray                     : 
TLFamily_MD        .         Measured Depth                : 
~Curve Information
#_______________________________________________________________________________
#
#LOGNAME           .UNIT     LOG_ID                        : DESCRIPTION
#_______________________________________________________________________________
MD                 .M                                      :  
GK_2_D1800_D       .FLT                                    : 14 Гамма-активность фильтрованная, мкр./ч -  110.0 см 
GK_2_D1801_D       .FLT                                    : 14 Гамма-активность фильтрованная, мкр./ч -  110.0 см 
GK_2_D1803_D       .FLT                                    : 14 Гамма-активность фильтрованная, мкр./ч -  110.0 см 
GK_2_D1805_D       .FLT                                    : 14 Гамма-активность фильтрованная, мкр./ч -  110.0 см 
GK_2_D1809_D       .FLT                                    : 14 Гамма-активность фильтрованная, мкр./ч -  110.0 см 
GK_2_D1812_D       .FLT                                    : 14 Гамма-активность фильтрованная, мкр./ч -  110.0 см 
GK_D0400_D         .MKR/H                                  : 12 Гамма-активность, мкр./ч -   65.0 см 
GK_D0401_D         .MKR/H                                  : 12 Гамма-активность, мкр./ч -   65.0 см 
GK_D0402_D         .MKR/H                                  : 12 Гамма-активность, мкр./ч -   65.0 см 
GK_D0403_D         .MKR/H                                  : 12 Гамма-активность, мкр./ч -   65.0 см 
GK_D1161_D         .MKR/H                                  : 15 Гамма-активность, мкр./ч -  110.0 см 
GK_D1166_D         .MKR/H                                  : 15 Гамма-активность, мкр./ч -  110.0 см 
GK_D1169_D         .MKR/H                                  : 15 Гамма-активность, мкр./ч -  110.0 см 
GK_D1171_D         .MKR/H                                  : 15 Гамма-активность, мкр./ч -  110.0 см 
GK_D1800_D         .MKR/H                                  : 13 Гамма-активность, мкр./ч -  110.0 см 
GK_D1800_D_2       .мкР/час                                : Естественная гамма-активность,мкР/ч 
GK_D1801_D         .MKR/H                                  : 13 Гамма-активность, мкр./ч -  110.0 см 
GK_D1803_D         .MKR/H                                  : 13 Гамма-активность, мкр./ч -  110.0 см 
GK_D1805_D         .MKR/H                                  : 13 Гамма-активность, мкр./ч -  110.0 см 
GK_D1809_D         .MKR/H                                  : 13 Гамма-активность, мкр./ч -  110.0 см 
GK_D1812_D         .MKR/H                                  : 13 Гамма-активность, мкр./ч -  110.0 см 
GK_D4391_D         .FLT                                    : 14 Гамма-активность фильтрованная, мкр./ч -  110.0 см 
GK_D4391_D_2       .мкР/ч                                  : Естественная гамма-активность,мкР/ч 
GK_D4404_D         .FLT                                    : 14 Гамма-активность фильтрованная, мкр./ч -  110.0 см 
GK_D4405_D         .FLT                                    : 14 Гамма-активность фильтрованная, мкр./ч -  110.0 см 
GK_D4405_D_2       .мкР/ч                                  : Естественная гамма-активность,мкР/ч 
GK_D4407_D         .FLT                                    : 14 Гамма-активность фильтрованная, мкр./ч -  110.0 см 
GK_D4410_D         .FLT                                    : 14 Гамма-активность фильтрованная, мкр./ч -  110.0 см 
GK_D4412_D         .FLT                                    : 14 Гамма-активность фильтрованная, мкр./ч -  110.0 см 
GK_D4415_D         .FLT                                    : 14 Гамма-активность фильтрованная, мкр./ч -  110.0 см 
GK_D4417_D         .FLT                                    : 14 Гамма-активность фильтрованная, мкр./ч -  110.0 см 
GK_D7017_D         .MKR/H                                  : 16 Гамма-активность, мкр./ч -  106.0 см 
GK_D7017_D_2       .мкР/час                                : Гамма каротаж, мкр/час 
GK_D7018_D         .MKR/H                                  : 16 Гамма-активность, мкр./ч -  106.0 см 
GK_D7019_D         .MKR/H                                  : 16 Гамма-активность, мкр./ч -  106.0 см 
GK_D7020_D         .MKR/H                                  : 16 Гамма-активность, мкр./ч -  106.0 см 
GK_D7022_D         .MKR/H                                  : 16 Гамма-активность, мкр./ч -  106.0 см 
GK_D7023_D         .MKR/H                                  : 16 Гамма-активность, мкр./ч -  106.0 см 
GK_D7024_D         .MKR/H                                  : 16 Гамма-активность, мкр./ч -  106.0 см 
GK_D7026_D         .MKR/H                                  : 16 Гамма-активность, мкр./ч -  106.0 см 
GK_D7027_D         .MKR/H                                  : 16 Гамма-активность, мкр./ч -  106.0 см 
GK_D8102_D_2       .мкР/ч                                  : Естественная гамма-активность,мкР/ч 
GK_D8103_D         .MKR/H                                  : 13 Гамма-активность, мкр./ч -   65.0 см 
GK_D8103_D_2       .мкР/ч                                  : Естественная гамма-активность,мкР/ч 
GK_D8106_D         .MKR/H                                  : 13 Гамма-активность, мкр./ч -   65.0 см 
GK_D8106_D_2       .мкР/ч                                  : Естественная гамма-активность,мкР/ч 
GK_D8107_D         .MKR/H                                  : 13 Гамма-активность, мкр./ч -   65.0 см 
GK_D8107_D_2       .мкР/ч                                  : Естественная гамма-активность,мкР/ч 
GR_D4391_D         .UR/H                                   : 13 Гамма-активность, мкр./ч -  110.0 см 
GR_D4404_D         .UR/H                                   : 13 Гамма-активность, мкр./ч -  110.0 см 
GR_D4405_D         .UR/H                                   : 13 Гамма-активность, мкр./ч -  110.0 см 
GR_D4407_D         .UR/H                                   : 13 Гамма-активность, мкр./ч -  110.0 см 
GR_D4410_D         .UR/H                                   : 13 Гамма-активность, мкр./ч -  110.0 см 
GR_D4412_D         .UR/H                                   : 13 Гамма-активность, мкр./ч -  110.0 см 
GR_D4415_D         .UR/H                                   : 13 Гамма-активность, мкр./ч -  110.0 см 
GR_D4417_D         .UR/H                                   : 13 Гамма-активность, мкр./ч -  110.0 см 
~Ascii
# ...
2720.600075 10.49021   10.29005   10.77954   10.02999   11.17996   10.87007   5.709988   5.80967    6.199987   5.139976   5.140049   5.720122   5.259988   5.23011    10.55015   9.510169   10.29      10.85945   10.03      11.18      10.83012   10.87693   10.87593   10.79      9.909037   9.909037   10.44      10.72085   11.24928   10.72      10.37      7.349646   9.100025   7.869817   6.230256   6.230085   6.720158   7.189939   7.070354   6.960488   7.090134   6.22972    4.450195   6.079549   6.79039    6.869939   4.490024   6.979878   10.87693   10.79      9.909037   10.44      10.72085   11.24928   10.72      10.37     
2720.700075 10.52995   10.52971   10.81496   10.63426   11.56952   10.76013   5.774921   6.074677   6.229963   5.31978    5.130012   5.690036   5.269988   5.294921   10.52503   10.10977   10.55967   10.86      10.66422   11.59449   10.73512   10.81009   10.80958   10.89987   9.994896   9.994896   10.53488   10.72      11.13514   10.27055   10.02043   7.544762   9.30475    7.770122   6.095165   6.244982   6.655079   7.269902   7.060012   6.810183   7.055043   6.484689   4.395067   6.254786   6.730073   6.475482   4.49       7.019951   10.81009   10.89987   9.994896   10.53488   10.72      11.13514   10.27055   10.02043  
2720.800076 10.57      10.77      10.85      11.24      11.96      10.65      5.84       6.34       6.26       5.5        5.12       5.66       5.28       5.36       10.5       10.71      10.83      10.86      11.3       12.01      10.64      10.74      10.74      11.01      10.08      10.08      10.63      10.72      11.02      9.82       9.67       7.74       9.51       7.67       5.96       6.26       6.59       7.35       7.05       6.66       7.02       6.74       4.34       6.43       6.67       6.08       4.49       7.06       10.74      11.01      10.08      10.63      10.72      11.02      9.82       9.67      
2720.900076 10.43516   10.79996   10.76011   11.26996   11.98497   10.63502   5.969841   6.534762   6.46475    5.88453    5.179926   5.54514    5.260025   5.389964   10.40512   11.18442   10.83      10.73016   11.3       12.01      10.62502   10.64512   10.64512   11.01      10.06002   10.06002   10.63      10.44534   10.79527   9.82       9.689976   7.695055   9.71475    7.49022    5.93503    6.274982   6.555043   7.389951   7.064982   6.500196   7.064945   6.864847   3.990427   6.434994   6.570122   6.015079   4.539939   7.129914   10.64512   11.01      10.06002   10.63      10.44534   10.79527   9.82       9.689976  
2721.000076 10.3       10.83      10.67      11.3       12.01      10.62      6.1        6.73       6.67       6.27       5.24       5.43       5.24       5.42       10.31      11.66      10.83      10.6       11.3       12.01      10.61      10.55      10.55      11.01      10.04      10.04      10.63      10.17      10.57      9.82       9.71       7.65       9.92       7.31       5.91       6.29       6.52       7.43       7.08       6.34       7.11       6.99       3.64       6.44       6.47       5.95       4.59       7.2        10.55      11.01      10.04      10.63      10.17      10.57      9.82       9.71      
2721.100076 9.565898   11.31441   10.63504   11.44982   11.72535   10.58504   6.399633   6.894798   6.959646   6.584615   5.314908   5.31514    5.215031   5.444969   9.570904   11.36536   11.3244    10.6       11.45481   11.71536   10.58004   10.27534   10.27534   10.80026   10.31466   10.31466   10.81977   10.17      10.57      9.52536    9.799891   7.689951   10.15471   7.639597   5.974921   6.235067   6.500024   7.195287   7.164896   6.290061   7.184908   7.179768   3.719902   6.245238   6.400085   5.815165   4.714848   6.965287   10.27534   10.80026   10.31466   10.81977   10.17      10.57      9.52536    9.799891  
2721.200076 8.83       11.8       10.6       11.6       11.44      10.55      6.7        7.06       7.25       6.9        5.39       5.2        5.19       5.47       8.83       11.07      11.82      10.6       11.61      11.42      10.55      10         10         10.59      10.59      10.59      11.01      10.17      10.57      9.23       9.89       7.73       10.39      7.97       6.04       6.18       6.48       6.96       7.25       6.24       7.26       7.37       3.8        6.05       6.33       5.68       4.84       6.73       10         10.59      10.59      11.01      10.17      10.57      9.23       9.89      
2721.300076 9.180428   11.75995   10.46484   11.48987   11.20972   10.56001   7.030403   7.455482   7.480281   7.065202   5.41503    5.205006   5.205018   5.490025   9.170415   10.71457   11.7399    10.44481   11.46983   11.06957   10.56001   11.20647   11.20597   10.59      10.87535   10.87535   11.01      10.09491   10.43484   9.23       9.769854   8.100451   10.36497   8.29039    6.105079   6.215043   6.485006   6.849865   7.360134   6.300073   7.305055   7.740451   3.910134   6.580647   5.964554   5.820171   4.829988   6.239402   11.20647   10.59      10.87535   11.01      10.09491   10.43484   9.23       9.769854  
2721.400076 9.53       11.72      10.33      11.38      10.98      10.57      7.36       7.85       7.71       7.23       5.44       5.21       5.22       5.51       9.51       10.36      11.66      10.29      11.33      10.72      10.57      12.41      12.409     10.59      11.16      11.16      11.01      10.02      10.3       9.23       9.65       8.47       10.34      8.61       6.17       6.25       6.49       6.74       7.47       6.36       7.35       8.11       4.02       7.11       5.6        5.96       4.82       5.75       12.41      10.59      11.16      11.01      10.02      10.3       9.23       9.65      
2721.500076 10.14      11.655     10.31      11.355     10.855     10.57      7.495      7.955      7.775      7.155      5.175      5.27       5.245      5.515      10.11      10.335     11.625     10.29      11.33      10.715     10.57      12.37      12.3695    10.59      11.4       11.4       10.79      9.965      10.12      9.48       9.65       8.295      10.73      8.5        6.225      6.365      6.495      6.67       7.545      6.455      7.36       8.125      3.96       7.4        5.325      6.1        4.74       5.685      12.37      10.59      11.4       10.79      9.965      10.12      9.48       9.65      
2721.600076 10.74851   11.59016   10.29005   11.33006   10.7303    10.57      7.629671   8.059744   7.839842   7.080183   4.910646   5.329854   5.269939   5.519988   10.70854   10.31006   11.59009   10.29      11.33      10.71001   10.57      12.3301    12.3301    10.59      11.63941   11.63941   10.57054   9.910134   9.940438   9.72939    9.65       8.120427   11.11905   8.390268   6.279866   6.47972    6.499988   6.600171   7.619817   6.549768   7.369976   8.139964   3.900146   7.689293   5.050671   6.239658   4.660195   5.620158   12.3301    10.59      11.63941   10.57054   9.910134   9.940438   9.72939    9.65      
2721.700076 11.22941   11.58001   10.36491   11.32001   10.60515   10.81969   7.585055   7.840269   7.84       6.925189   4.790146   5.409902   5.235043   5.52       11.18442   10.61962   11.57002   10.3749    11.31502   10.52523   10.82968   12.35497   12.35497   10.59      11.46521   11.46521   10.57      9.790147   9.85011    9.73       9.415287   7.720489   11.12      7.945543   6.374884   6.59486    6.729719   6.679903   7.585043   6.714798   7.240159   7.84536    3.974909   7.57514    4.895189   6.429768   4.630036   5.280415   12.35497   10.59      11.46521   10.57      9.790147   9.85011    9.73       9.415287  
2721.800077 11.71      11.57      10.44      11.31      10.48      11.07      7.54       7.62       7.84       6.77       4.67       5.49       5.2        5.52       11.66      10.93      11.55      10.46      11.3       10.34      11.09      12.38      12.38      10.59      11.29      11.29      10.57      9.67       9.76       9.73       9.18       7.32       11.12      7.5        6.47       6.71       6.96       6.76       7.55       6.88       7.11       7.55       4.05       7.46       4.74       6.62       4.6        4.94       12.38      10.59      11.29      10.57      9.67       9.76       9.73       9.18      
