~Version
 VERS              .         2.0                           : CWLS LOG ASCII STANDARD - VERSION 2.0
 WRAP              .         NO                            : ONE LINE PER DEPTH STEP
 DLM               .         SPACE                         : DELIMITING CHARACTER(SPACE TAB OR COMMA)
~Well Information
#_______________________________________________________________________________
#
#PARAMETER_NAME    .UNIT     VALUE                         : DESCRIPTION
#_______________________________________________________________________________
STRT               .M        2645.2                        : First reference value
STOP               .M        2778.800134                   : Last reference value
STEP               .M        0.1000001                     : Step increment
NULL               .         -9999                         : Missing value
COMP               .                                       : Company
WELL               .         616                           : Well name
FLD                .                                       : Field
LOC                .                                       : Location
CNTY               .                                       : County
STAT               .                                       : State
CTRY               .                                       : Country
SRVC               .                                       : Service Company
DATE               .                                       : Date
API                .                                       : API number
PROJECT_UPGRADE_TIME .         2021-03-18T21_24_50           : 
group              .         Good                          : 
~Parameter Information Block
#_______________________________________________________________________________
#
#PARAMETER_NAME    .UNIT     VALUE                         : DESCRIPTION
#_______________________________________________________________________________
SET                .         ResolutionTest                : 
TLFamily_GK_2_D1800_D .         Gamma Ray                     : 
TLFamily_GK_2_D1801_D .         Gamma Ray                     : 
TLFamily_GK_2_D1803_D .         Gamma Ray                     : 
TLFamily_GK_2_D1805_D .         Gamma Ray                     : 
TLFamily_GK_2_D1809_D .         Gamma Ray                     : 
TLFamily_GK_2_D1812_D .         Gamma Ray                     : 
TLFamily_GK_D0400_D .         Gamma Ray                     : 
TLFamily_GK_D0401_D .         Gamma Ray                     : 
TLFamily_GK_D0402_D .         Gamma Ray                     : 
TLFamily_GK_D0403_D .         Gamma Ray                     : 
TLFamily_GK_D1161_D .         Gamma Ray                     : 
TLFamily_GK_D1166_D .         Gamma Ray                     : 
TLFamily_GK_D1169_D .         Gamma Ray                     : 
TLFamily_GK_D1171_D .         Gamma Ray                     : 
TLFamily_GK_D1800_D .         Gamma Ray                     : 
TLFamily_GK_D1800_D_2 .         Gamma Ray                     : 
TLFamily_GK_D1801_D .         Gamma Ray                     : 
TLFamily_GK_D1803_D .         Gamma Ray                     : 
TLFamily_GK_D1805_D .         Gamma Ray                     : 
TLFamily_GK_D1809_D .         Gamma Ray                     : 
TLFamily_GK_D1812_D .         Gamma Ray                     : 
TLFamily_GK_D4391_D .         Gamma Ray                     : 
TLFamily_GK_D4391_D_2 .         Russian Gamma Ray             : 
TLFamily_GK_D4404_D .         Gamma Ray                     : 
TLFamily_GK_D4405_D .         Gamma Ray                     : 
TLFamily_GK_D4405_D_2 .         Russian Gamma Ray             : 
TLFamily_GK_D4407_D .         Gamma Ray                     : 
TLFamily_GK_D4410_D .         Gamma Ray                     : 
TLFamily_GK_D4412_D .         Gamma Ray                     : 
TLFamily_GK_D4415_D .         Gamma Ray                     : 
TLFamily_GK_D4417_D .         Gamma Ray                     : 
TLFamily_GK_D7017_D .         Gamma Ray                     : 
TLFamily_GK_D7017_D_2 .         Gamma Ray                     : 
TLFamily_GK_D7018_D .         Gamma Ray                     : 
TLFamily_GK_D7019_D .         Gamma Ray                     : 
TLFamily_GK_D7020_D .         Gamma Ray                     : 
TLFamily_GK_D7022_D .         Gamma Ray                     : 
TLFamily_GK_D7023_D .         Gamma Ray                     : 
TLFamily_GK_D7024_D .         Gamma Ray                     : 
TLFamily_GK_D7026_D .         Gamma Ray                     : 
TLFamily_GK_D7027_D .         Gamma Ray                     : 
TLFamily_GK_D8102_D_2 .         Russian Gamma Ray             : 
TLFamily_GK_D8103_D .         Gamma Ray                     : 
TLFamily_GK_D8103_D_2 .         Russian Gamma Ray             : 
TLFamily_GK_D8106_D .         Gamma Ray                     : 
TLFamily_GK_D8106_D_2 .         Russian Gamma Ray             : 
TLFamily_GK_D8107_D .         Gamma Ray                     : 
TLFamily_GK_D8107_D_2 .         Russian Gamma Ray             : 
TLFamily_GR_D4391_D .         Gamma Ray                     : 
TLFamily_GR_D4404_D .         Gamma Ray                     : 
TLFamily_GR_D4405_D .         Gamma Ray                     : 
TLFamily_GR_D4407_D .         Gamma Ray                     : 
TLFamily_GR_D4410_D .         Gamma Ray                     : 
TLFamily_GR_D4412_D .         Gamma Ray                     : 
TLFamily_GR_D4415_D .         Gamma Ray                     : 
TLFamily_GR_D4417_D .         Gamma Ray                     : 
TLFamily_MD        .         Measured Depth                : 
~Curve Information
#_______________________________________________________________________________
#
#LOGNAME           .UNIT     LOG_ID                        : DESCRIPTION
#_______________________________________________________________________________
MD                 .M                                      :  
GK_2_D1800_D       .FLT                                    : 14 Гамма-активность фильтрованная, мкр./ч -  110.0 см 
GK_2_D1801_D       .FLT                                    : 14 Гамма-активность фильтрованная, мкр./ч -  110.0 см 
GK_2_D1803_D       .FLT                                    : 14 Гамма-активность фильтрованная, мкр./ч -  110.0 см 
GK_2_D1805_D       .FLT                                    : 14 Гамма-активность фильтрованная, мкр./ч -  110.0 см 
GK_2_D1809_D       .FLT                                    : 14 Гамма-активность фильтрованная, мкр./ч -  110.0 см 
GK_2_D1812_D       .FLT                                    : 14 Гамма-активность фильтрованная, мкр./ч -  110.0 см 
GK_D0400_D         .MKR/H                                  : 12 Гамма-активность, мкр./ч -   65.0 см 
GK_D0401_D         .MKR/H                                  : 12 Гамма-активность, мкр./ч -   65.0 см 
GK_D0402_D         .MKR/H                                  : 12 Гамма-активность, мкр./ч -   65.0 см 
GK_D0403_D         .MKR/H                                  : 12 Гамма-активность, мкр./ч -   65.0 см 
GK_D1161_D         .MKR/H                                  : 15 Гамма-активность, мкр./ч -  110.0 см 
GK_D1166_D         .MKR/H                                  : 15 Гамма-активность, мкр./ч -  110.0 см 
GK_D1169_D         .MKR/H                                  : 15 Гамма-активность, мкр./ч -  110.0 см 
GK_D1171_D         .MKR/H                                  : 15 Гамма-активность, мкр./ч -  110.0 см 
GK_D1800_D         .MKR/H                                  : 13 Гамма-активность, мкр./ч -  110.0 см 
GK_D1800_D_2       .мкР/час                                : Естественная гамма-активность,мкР/ч 
GK_D1801_D         .MKR/H                                  : 13 Гамма-активность, мкр./ч -  110.0 см 
GK_D1803_D         .MKR/H                                  : 13 Гамма-активность, мкр./ч -  110.0 см 
GK_D1805_D         .MKR/H                                  : 13 Гамма-активность, мкр./ч -  110.0 см 
GK_D1809_D         .MKR/H                                  : 13 Гамма-активность, мкр./ч -  110.0 см 
GK_D1812_D         .MKR/H                                  : 13 Гамма-активность, мкр./ч -  110.0 см 
GK_D4391_D         .FLT                                    : 14 Гамма-активность фильтрованная, мкр./ч -  110.0 см 
GK_D4391_D_2       .мкР/ч                                  : Естественная гамма-активность,мкР/ч 
GK_D4404_D         .FLT                                    : 14 Гамма-активность фильтрованная, мкр./ч -  110.0 см 
GK_D4405_D         .FLT                                    : 14 Гамма-активность фильтрованная, мкр./ч -  110.0 см 
GK_D4405_D_2       .мкР/ч                                  : Естественная гамма-активность,мкР/ч 
GK_D4407_D         .FLT                                    : 14 Гамма-активность фильтрованная, мкр./ч -  110.0 см 
GK_D4410_D         .FLT                                    : 14 Гамма-активность фильтрованная, мкр./ч -  110.0 см 
GK_D4412_D         .FLT                                    : 14 Гамма-активность фильтрованная, мкр./ч -  110.0 см 
GK_D4415_D         .FLT                                    : 14 Гамма-активность фильтрованная, мкр./ч -  110.0 см 
GK_D4417_D         .FLT                                    : 14 Гамма-активность фильтрованная, мкр./ч -  110.0 см 
GK_D7017_D         .MKR/H                                  : 16 Гамма-активность, мкр./ч -  106.0 см 
GK_D7017_D_2       .мкР/час                                : Гамма каротаж, мкр/час 
GK_D7018_D         .MKR/H                                  : 16 Гамма-активность, мкр./ч -  106.0 см 
GK_D7019_D         .MKR/H                                  : 16 Гамма-активность, мкр./ч -  106.0 см 
GK_D7020_D         .MKR/H                                  : 16 Гамма-активность, мкр./ч -  106.0 см 
GK_D7022_D         .MKR/H                                  : 16 Гамма-активность, мкр./ч -  106.0 см 
GK_D7023_D         .MKR/H                                  : 16 Гамма-активность, мкр./ч -  106.0 см 
GK_D7024_D         .MKR/H                                  : 16 Гамма-активность, мкр./ч -  106.0 см 
GK_D7026_D         .MKR/H                                  : 16 Гамма-активность, мкр./ч -  106.0 см 
GK_D7027_D         .MKR/H                                  : 16 Гамма-активность, мкр./ч -  106.0 см 
GK_D8102_D_2       .мкР/ч                                  : Естественная гамма-активность,мкР/ч 
GK_D8103_D         .MKR/H                                  : 13 Гамма-активность, мкр./ч -   65.0 см 
GK_D8103_D_2       .мкР/ч                                  : Естественная гамма-активность,мкР/ч 
GK_D8106_D         .MKR/H                                  : 13 Гамма-активность, мкр./ч -   65.0 см 
GK_D8106_D_2       .мкР/ч                                  : Естественная гамма-активность,мкР/ч 
GK_D8107_D         .MKR/H                                  : 13 Гамма-активность, мкр./ч -   65.0 см 
GK_D8107_D_2       .мкР/ч                                  : Естественная гамма-активность,мкР/ч 
GR_D4391_D         .UR/H                                   : 13 Гамма-активность, мкр./ч -  110.0 см 
GR_D4404_D         .UR/H                                   : 13 Гамма-активность, мкр./ч -  110.0 см 
GR_D4405_D         .UR/H                                   : 13 Гамма-активность, мкр./ч -  110.0 см 
GR_D4407_D         .UR/H                                   : 13 Гамма-активность, мкр./ч -  110.0 см 
GR_D4410_D         .UR/H                                   : 13 Гамма-активность, мкр./ч -  110.0 см 
GR_D4412_D         .UR/H                                   : 13 Гамма-активность, мкр./ч -  110.0 см 
GR_D4415_D         .UR/H                                   : 13 Гамма-активность, мкр./ч -  110.0 см 
GR_D4417_D         .UR/H                                   : 13 Гамма-активность, мкр./ч -  110.0 см 
~Ascii
# ...
2673.800029 5.92       8.19       9.19       9.54       8.81       8.27       6.19       6.51       6.71       6.1        8.89       8.52       8.72       7.46       5.86       5.77       7.99       9.17       9.54       8.48       8.22       5.25       5.25       6.11       -9999      -9999      6.31       5.86       5.4        6.37       6.22       10.58      6.15       -9999      9.32       8.99       8.52       8.76       8.91       9.93       8.87       4.14       6.04       3.87       5.2        3.91       5.64       4.54       5.25       6.11       -9999      6.31       5.86       5.4        6.37       6.22      
2673.900029 5.984921   7.965274   9.060159   9.06558    8.650195   8.245031   6.175018   6.500012   6.774921   6.080024   9.019841   8.500025   8.72       7.474982   5.954884   6.224444   7.855165   9.045153   8.830867   8.48       8.22       5.140134   5.140134   6.11       -9999      -9999      6.31       5.65525    5.4        6.160256   6.22       10.5001    6.434652   -9999      9.285043   9.05492    8.629866   8.755006   8.905005   9.675311   8.939915   4.224896   5.940122   4.034798   5.434713   3.885031   5.779829   4.549988   5.140134   6.11       -9999      6.31       5.65525    5.4        6.160256   6.22      
2674.000029 6.05       7.74       8.93       8.59       8.49       8.22       6.16       6.49       6.84       6.06       9.15       8.48       8.72       7.49       6.05       6.68       7.72       8.92       8.12       8.48       8.22       5.03       5.03       6.11       -9999      -9999      6.31       5.45       5.4        5.95       6.22       10.42      6.72       -9999      9.25       9.12       8.74       8.75       8.9        9.42       9.01       4.31       5.84       4.2        5.67       3.86       5.92       4.56       5.03       6.11       -9999      6.31       5.45       5.4        5.95       6.22      
2674.100029 5.78033    7.690061   8.650342   8.365275   8.385128   7.92536    6.130036   6.455043   6.914908   6.055006   9.045128   8.475006   8.729988   7.494994   5.78033    6.625067   7.660073   8.480537   8.12       8.325189   7.915372   5.164835   5.164835   5.955189   -9999      -9999      6.010366   5.45       5.424969   5.95       5.955324   10.13035   6.799902   -9999      9.090196   9.174932   8.844872   8.710049   9.054811   9.12536    9.209756   4.404884   5.695177   4.284896   5.689976   3.984847   5.964945   4.594957   5.164835   5.955189   -9999      6.010366   5.45       5.424969   5.95       5.955324  
2674.200029 5.51       7.64       8.37       8.14       8.28       7.63       6.1        6.42       6.99       6.05       8.94       8.47       8.74       7.5        5.51       6.57       7.6        8.04       8.12       8.17       7.61       5.3        5.3        5.8        -9999      -9999      5.71       5.45       5.45       5.95       5.69       9.84       6.88       -9999      8.93       9.23       8.95       8.67       9.21       8.83       9.41       4.5        5.55       4.37       5.71       4.11       6.01       4.63       5.3        5.8        -9999      5.71       5.45       5.45       5.95       5.69      
2674.300029 5.449927   7.374676   8.124701   7.684444   8.229939   7.619988   6.125031   6.435018   6.99       6.175153   8.66967    8.640208   8.845128   7.835409   5.439915   6.745214   7.344689   7.94989    7.414139   8.17       7.61       5.680464   5.680464   5.8        -9999      -9999      5.71       5.495055   5.45       5.739744   5.499768   9.719853   6.849964   -9999      8.849903   9.265042   8.995055   8.644969   9.310122   8.669805   9.565189   4.710257   5.514957   4.37       6.145531   4.115006   6.170196   4.665043   5.680464   5.8        -9999      5.71       5.495055   5.45       5.739744   5.499768  
2674.400029 5.39       7.11       7.88       7.23       8.18       7.61       6.15       6.45       6.99       6.3        8.4        8.81       8.95       8.17       5.37       6.92       7.09       7.86       6.71       8.17       7.61       6.06       6.06       5.8        -9999      -9999      5.71       5.54       5.45       5.53       5.31       9.6        6.82       -9999      8.77       9.3        9.04       8.62       9.41       8.51       9.72       4.92       5.48       4.37       6.58       4.12       6.33       4.7        6.06       5.8        -9999      5.71       5.54       5.45       5.53       5.31      
2674.500029 5.68       6.925      7.71       6.98       8.045      7.13       6.26       6.675      7.07       6.455      8.35       8.875      8.985001   8.325      5.57       6.9        6.815      7.605      6.71       7.965      7.115      6.02       6.02       5.34       -9999      -9999      5.395      5.54       5.13       5.425      5.215      9.6        6.79       -9999      8.835      9.18       9.035      8.905      9.43       8.42       9.860001   4.84       5.595      4.325      6.61       4.165      6.305      4.83       6.02       5.34       -9999      5.395      5.54       5.13       5.425      5.215     
2674.600029 5.969293   6.740451   7.540415   6.73061    7.910329   6.651171   6.369731   6.899451   7.149805   6.609622   8.300122   8.939841   9.019915   8.479622   5.769512   6.880049   6.540671   7.350622   6.71       7.7605     6.621207   5.980098   5.980098   4.881122   -9999      -9999      5.080768   5.54       4.810781   5.320256   5.120232   9.6        6.760073   -9999      8.899841   9.060293   9.030012   9.189304   9.449951   8.330219   9.999659   4.760195   5.70972    4.28011    6.639927   4.20989    6.280061   4.959683   5.980098   4.881122   -9999      5.080768   5.54       4.810781   5.320256   5.120232  
2674.700029 6.314579   6.590183   7.085556   6.660086   7.740208   6.580086   6.519817   7.124725   7.279841   6.649951   8.339952   8.949987   8.905141   8.579878   6.224444   7.044798   6.485067   6.970464   6.610122   7.660122   6.535104   5.900098   5.900098   4.88       -9999      -9999      5.08       5.330256   4.81       5.23011    5.055079   9.704872   6.615177   -9999      8.929963   8.925165   9.03       9.349805   9.459988   8.434872   10.00499   4.615177   5.949707   4.200098   6.659976   4.359817   5.940415   4.940024   5.900098   4.88       -9999      5.08       5.330256   4.81       5.23011    5.055079  
2674.80003 6.66       6.44       6.63       6.59       7.57       6.51       6.67       7.35       7.41       6.69       8.38       8.96       8.79       8.68       6.68       7.21       6.43       6.59       6.51       7.56       6.45       5.82       5.82       4.88       -9999      -9999      5.08       5.12       4.81       5.14       4.99       9.81       6.47       -9999      8.96       8.79       9.03       9.51       9.47       8.54       10.01      4.47       6.19       4.12       6.68       4.51       5.6        4.92       5.82       4.88       -9999      5.08       5.12       4.81       5.14       4.99      
2674.90003 6.615055   6.504921   6.634994   6.535067   7.250391   6.480037   6.829804   7.369976   7.449951   6.719964   8.330061   8.96       8.72508    8.734933   6.625067   7.020232   6.539865   6.624957   6.495018   7.125531   6.45       5.899902   5.899902   5.019829   -9999      -9999      4.845287   5.12       4.690146   4.790427   4.99       9.839964   6.415067   -9999      8.969988   8.655165   8.840232   9.62486    9.40508    8.599927   9.970049   4.539915   6.30486    4.115006   6.250525   4.569927   5.595006   4.705263   5.899902   5.019829   -9999      4.845287   5.12       4.690146   4.790427   4.99      
2675.00003 6.57       6.57       6.64       6.48       6.93       6.45       6.99       7.39       7.49       6.75       8.28       8.96       8.66       8.79       6.57       6.83       6.65       6.66       6.48       6.69       6.45       5.98       5.98       5.16       -9999      -9999      4.61       5.12       4.57       4.44       4.99       9.87       6.36       -9999      8.98       8.52       8.65       9.74       9.34       8.66       9.93       4.61       6.42       4.11       5.82       4.63       5.59       4.49       5.98       5.16       -9999      4.61       5.12       4.57       4.44       4.99      
