~Version
 VERS              .         2.0                           : CWLS LOG ASCII STANDARD - VERSION 2.0
 WRAP              .         NO                            : ONE LINE PER DEPTH STEP
 DLM               .         SPACE                         : DELIMITING CHARACTER(SPACE TAB OR COMMA)
~Well Information
#_______________________________________________________________________________
#
#PARAMETER_NAME    .UNIT     VALUE                         : DESCRIPTION
#_______________________________________________________________________________
STRT               .M        2645.2                        : First reference value
STOP               .M        2778.800134                   : Last reference value
STEP               .M        0.1000001                     : Step increment
NULL               .         -9999                         : Missing value
COMP               .                                       : Company
WELL               .         616                           : Well name
FLD                .                                       : Field
LOC                .                                       : Location
CNTY               .                                       : County
STAT               .                                       : State
CTRY               .                                       : Country
SRVC               .                                       : Service Company
DATE               .                                       : Date
API                .                                       : API number
PROJECT_UPGRADE_TIME .         2021-03-18T21_24_50           : 
group              .         Good                          : 
~Parameter Information Block
#_______________________________________________________________________________
#
#PARAMETER_NAME    .UNIT     VALUE                         : DESCRIPTION
#_______________________________________________________________________________
SET                .         ResolutionTest                : 
TLFamily_GK_2_D1800_D .         Gamma Ray                     : 
TLFamily_GK_2_D1801_D .         Gamma Ray                     : 
TLFamily_GK_2_D1803_D .         Gamma Ray                     : 
TLFamily_GK_2_D1805_D .         Gamma Ray                     : 
TLFamily_GK_2_D1809_D .         Gamma Ray                     : 
TLFamily_GK_2_D1812_D .         Gamma Ray                     : 
TLFamily_GK_D0400_D .         Gamma Ray                     : 
TLFamily_GK_D0401_D .         Gamma Ray                     : 
TLFamily_GK_D0402_D .         Gamma Ray                     : 
TLFamily_GK_D0403_D .         Gamma Ray                     : 
TLFamily_GK_D1161_D .         Gamma Ray                     : 
TLFamily_GK_D1166_D .         Gamma Ray                     : 
TLFamily_GK_D1169_D .         Gamma Ray                     : 
TLFamily_GK_D1171_D .         Gamma Ray                     : 
TLFamily_GK_D1800_D .         Gamma Ray                     : 
TLFamily_GK_D1800_D_2 .         Gamma Ray                     : 
TLFamily_GK_D1801_D .         Gamma Ray                     : 
TLFamily_GK_D1803_D .         Gamma Ray                     : 
TLFamily_GK_D1805_D .         Gamma Ray                     : 
TLFamily_GK_D1809_D .         Gamma Ray                     : 
TLFamily_GK_D1812_D .         Gamma Ray                     : 
TLFamily_GK_D4391_D .         Gamma Ray                     : 
TLFamily_GK_D4391_D_2 .         Russian Gamma Ray             : 
TLFamily_GK_D4404_D .         Gamma Ray                     : 
TLFamily_GK_D4405_D .         Gamma Ray                     : 
TLFamily_GK_D4405_D_2 .         Russian Gamma Ray             : 
TLFamily_GK_D4407_D .         Gamma Ray                     : 
TLFamily_GK_D4410_D .         Gamma Ray                     : 
TLFamily_GK_D4412_D .         Gamma Ray                     : 
TLFamily_GK_D4415_D .         Gamma Ray                     : 
TLFamily_GK_D4417_D .         Gamma Ray                     : 
TLFamily_GK_D7017_D .         Gamma Ray                     : 
TLFamily_GK_D7017_D_2 .         Gamma Ray                     : 
TLFamily_GK_D7018_D .         Gamma Ray                     : 
TLFamily_GK_D7019_D .         Gamma Ray                     : 
TLFamily_GK_D7020_D .         Gamma Ray                     : 
TLFamily_GK_D7022_D .         Gamma Ray                     : 
TLFamily_GK_D7023_D .         Gamma Ray                     : 
TLFamily_GK_D7024_D .         Gamma Ray                     : 
TLFamily_GK_D7026_D .         Gamma Ray                     : 
TLFamily_GK_D7027_D .         Gamma Ray                     : 
TLFamily_GK_D8102_D_2 .         Russian Gamma Ray             : 
TLFamily_GK_D8103_D .         Gamma Ray                     : 
TLFamily_GK_D8103_D_2 .         Russian Gamma Ray             : 
TLFamily_GK_D8106_D .         Gamma Ray                     : 
TLFamily_GK_D8106_D_2 .         Russian Gamma Ray             : 
TLFamily_GK_D8107_D .         Gamma Ray                     : 
TLFamily_GK_D8107_D_2 .         Russian Gamma Ray             : 
TLFamily_GR_D4391_D .         Gamma Ray                     : 
TLFamily_GR_D4404_D .         Gamma Ray                     : 
TLFamily_GR_D4405_D .         Gamma Ray                     : 
TLFamily_GR_D4407_D .         Gamma Ray                     : 
TLFamily_GR_D4410_D .         Gamma Ray                     : 
TLFamily_GR_D4412_D .         Gamma Ray                     : 
TLFamily_GR_D4415_D .         Gamma Ray                     : 
TLFamily_GR_D4417_D .         Gamma Ray                     : 
TLFamily_MD        .         Measured Depth                : 
~Curve Information
#_______________________________________________________________________________
#
#LOGNAME           .UNIT     LOG_ID                        : DESCRIPTION
#_______________________________________________________________________________
MD                 .M                                      :  
GK_2_D1800_D       .FLT                                    : 14 Гамма-активность фильтрованная, мкр./ч -  110.0 см 
GK_2_D1801_D       .FLT                                    : 14 Гамма-активность фильтрованная, мкр./ч -  110.0 см 
GK_2_D1803_D       .FLT                                    : 14 Гамма-активность фильтрованная, мкр./ч -  110.0 см 
GK_2_D1805_D       .FLT                                    : 14 Гамма-активность фильтрованная, мкр./ч -  110.0 см 
GK_2_D1809_D       .FLT                                    : 14 Гамма-активность фильтрованная, мкр./ч -  110.0 см 
GK_2_D1812_D       .FLT                                    : 14 Гамма-активность фильтрованная, мкр./ч -  110.0 см 
GK_D0400_D         .MKR/H                                  : 12 Гамма-активность, мкр./ч -   65.0 см 
GK_D0401_D         .MKR/H                                  : 12 Гамма-активность, мкр./ч -   65.0 см 
GK_D0402_D         .MKR/H                                  : 12 Гамма-активность, мкр./ч -   65.0 см 
GK_D0403_D         .MKR/H                                  : 12 Гамма-активность, мкр./ч -   65.0 см 
GK_D1161_D         .MKR/H                                  : 15 Гамма-активность, мкр./ч -  110.0 см 
GK_D1166_D         .MKR/H                                  : 15 Гамма-активность, мкр./ч -  110.0 см 
GK_D1169_D         .MKR/H                                  : 15 Гамма-активность, мкр./ч -  110.0 см 
GK_D1171_D         .MKR/H                                  : 15 Гамма-активность, мкр./ч -  110.0 см 
GK_D1800_D         .MKR/H                                  : 13 Гамма-активность, мкр./ч -  110.0 см 
GK_D1800_D_2       .мкР/час                                : Естественная гамма-активность,мкР/ч 
GK_D1801_D         .MKR/H                                  : 13 Гамма-активность, мкр./ч -  110.0 см 
GK_D1803_D         .MKR/H                                  : 13 Гамма-активность, мкр./ч -  110.0 см 
GK_D1805_D         .MKR/H                                  : 13 Гамма-активность, мкр./ч -  110.0 см 
GK_D1809_D         .MKR/H                                  : 13 Гамма-активность, мкр./ч -  110.0 см 
GK_D1812_D         .MKR/H                                  : 13 Гамма-активность, мкр./ч -  110.0 см 
GK_D4391_D         .FLT                                    : 14 Гамма-активность фильтрованная, мкр./ч -  110.0 см 
GK_D4391_D_2       .мкР/ч                                  : Естественная гамма-активность,мкР/ч 
GK_D4404_D         .FLT                                    : 14 Гамма-активность фильтрованная, мкр./ч -  110.0 см 
GK_D4405_D         .FLT                                    : 14 Гамма-активность фильтрованная, мкр./ч -  110.0 см 
GK_D4405_D_2       .мкР/ч                                  : Естественная гамма-активность,мкР/ч 
GK_D4407_D         .FLT                                    : 14 Гамма-активность фильтрованная, мкр./ч -  110.0 см 
GK_D4410_D         .FLT                                    : 14 Гамма-активность фильтрованная, мкр./ч -  110.0 см 
GK_D4412_D         .FLT                                    : 14 Гамма-активность фильтрованная, мкр./ч -  110.0 см 
GK_D4415_D         .FLT                                    : 14 Гамма-активность фильтрованная, мкр./ч -  110.0 см 
GK_D4417_D         .FLT                                    : 14 Гамма-активность фильтрованная, мкр./ч -  110.0 см 
GK_D7017_D         .MKR/H                                  : 16 Гамма-активность, мкр./ч -  106.0 см 
GK_D7017_D_2       .мкР/час                                : Гамма каротаж, мкр/час 
GK_D7018_D         .MKR/H                                  : 16 Гамма-активность, мкр./ч -  106.0 см 
GK_D7019_D         .MKR/H                                  : 16 Гамма-активность, мкр./ч -  106.0 см 
GK_D7020_D         .MKR/H                                  : 16 Гамма-активность, мкр./ч -  106.0 см 
GK_D7022_D         .MKR/H                                  : 16 Гамма-активность, мкр./ч -  106.0 см 
GK_D7023_D         .MKR/H                                  : 16 Гамма-активность, мкр./ч -  106.0 см 
GK_D7024_D         .MKR/H                                  : 16 Гамма-активность, мкр./ч -  106.0 см 
GK_D7026_D         .MKR/H                                  : 16 Гамма-активность, мкр./ч -  106.0 см 
GK_D7027_D         .MKR/H                                  : 16 Гамма-активность, мкр./ч -  106.0 см 
GK_D8102_D_2       .мкР/ч                                  : Естественная гамма-активность,мкР/ч 
GK_D8103_D         .MKR/H                                  : 13 Гамма-активность, мкр./ч -   65.0 см 
GK_D8103_D_2       .мкР/ч                                  : Естественная гамма-активность,мкР/ч 
GK_D8106_D         .MKR/H                                  : 13 Гамма-активность, мкр./ч -   65.0 см 
GK_D8106_D_2       .мкР/ч                                  : Естественная гамма-активность,мкР/ч 
GK_D8107_D         .MKR/H                                  : 13 Гамма-активность, мкр./ч -   65.0 см 
GK_D8107_D_2       .мкР/ч                                  : Естественная гамма-активность,мкР/ч 
GR_D4391_D         .UR/H                                   : 13 Гамма-активность, мкр./ч -  110.0 см 
GR_D4404_D         .UR/H                                   : 13 Гамма-активность, мкр./ч -  110.0 см 
GR_D4405_D         .UR/H                                   : 13 Гамма-активность, мкр./ч -  110.0 см 
GR_D4407_D         .UR/H                                   : 13 Гамма-активность, мкр./ч -  110.0 см 
GR_D4410_D         .UR/H                                   : 13 Гамма-активность, мкр./ч -  110.0 см 
GR_D4412_D         .UR/H                                   : 13 Гамма-активность, мкр./ч -  110.0 см 
GR_D4415_D         .UR/H                                   : 13 Гамма-активность, мкр./ч -  110.0 см 
GR_D4417_D         .UR/H                                   : 13 Гамма-активность, мкр./ч -  110.0 см 
~Ascii
# ...
2699.800055 8.32       8.22       8.41       8.31       8.19       7.51       7.42       7.67       8.26       7.83       6.05       8.88       8.52       9.9        8.31       9.8        8.22       8.41       8.34       8.17       7.51       8.85       8.851      8.09       -9999      -9999      8.94       8.48       8.63       9.03       8.44       10.47      9.74       10.49      11.15      10.5       11.12      10.96      11.51      11.51      10.77      6.21       7.41       5.88       6.74       5.18       7.7        6.64       8.85       8.09       -9999      8.94       8.48       8.63       9.03       8.44      
2699.900055 8.76945    8.554591   8.604762   8.324982   8.140061   7.51       7.504896   7.714945   8.294957   7.710146   6.094945   8.904969   8.495031   9.994884   8.769439   9.490378   8.569572   8.619743   8.34       8.110073   7.51       8.96486    8.96536    8.09       -9999      -9999      8.755225   8.48       8.63       9.03       8.230256   11.66854   9.720024   12.02313   11.25987   10.6648    11.17493   11.05488   11.71974   11.79965   10.95477   6.439719   7.439963   5.785116   6.735006   5.364774   7.929719   6.615031   8.96486    8.09       -9999      8.755225   8.48       8.63       9.03       8.230256  
2700.000055 9.22       8.89       8.8        8.34       8.09       7.51       7.59       7.76       8.33       7.59       6.14       8.93       8.47       10.09      9.23       9.18       8.92       8.83       8.34       8.05       7.51       9.08       9.08       8.09       -9999      -9999      8.57       8.48       8.63       9.03       8.02       12.87      9.7        13.56      11.37      10.83      11.23      11.15      11.93      12.09      11.14      6.67       7.47       5.69       6.73       5.55       8.16       6.59       9.08       8.09       -9999      8.57       8.48       8.63       9.03       8.02      
2700.100055 9.110134   8.904982   8.785019   8.449866   8.040061   7.524982   7.575018   7.76       8.544738   7.440183   6.324774   9.13475    8.455018   10.01509   9.150097   9.524579   8.92       8.785055   8.45486    8.015043   7.534969   9.419585   9.419585   7.780378   -9999      -9999      8.57       8.040537   8.370317   8.845225   8.064945   13.66902   9.500244   14.17425   11.46988   11.05972   11.53962   11.39969   12.08481   12.26978   11.32477   6.55514    7.47       5.944689   7.044615   5.569976   8.145019   6.540061   9.419585   7.780378   -9999      8.57       8.040537   8.370317   8.845225   8.064945  
2700.200055 9          8.92       8.77       8.56       7.99       7.54       7.56       7.76       8.76       7.29       6.51       9.34       8.44       9.94       9.07       9.87       8.92       8.74       8.57       7.98       7.56       9.76       9.76       7.47       -9999      -9999      8.57       7.6        8.11       8.66       8.11       14.47      9.3        14.79      11.57      11.29      11.85      11.65      12.24      12.45      11.51      6.44       7.47       6.2        7.36       5.59       8.13       6.49       9.76       7.47       -9999      8.57       7.6        8.11       8.66       8.11      
2700.300055 9          9.020123   8.53972    8.610062   8.340427   7.665153   7.610061   7.915189   8.840097   7.310024   6.444921   9.390061   8.475042   9.649646   8.984896   10.24546   9.030134   8.514725   8.640085   8.510647   7.67514    9.910184   9.910184   7.47       -9999      -9999      8.284652   7.534921   8.11       8.66       8.11       13.93435   9.184859   14.2143    11.58502   11.49525   12.03523   11.80018   12.30508   12.67527   11.66018   6.329865   7.555104   6.460317   7.460122   5.855324   8.024872   6.454957   9.910184   7.47       -9999      8.284652   7.534921   8.11       8.66       8.11      
2700.400055 9          9.12       8.31       8.66       8.69       7.79       7.66       8.07       8.92       7.33       6.38       9.44       8.51       9.36       8.9        10.62      9.14       8.29       8.71       9.04       7.79       10.06      10.06      7.47       -9999      -9999      8          7.47       8.11       8.66       8.11       13.4       9.07       13.64      11.6       11.7       12.22      11.95      12.37      12.9       11.81      6.22       7.64       6.72       7.56       6.12       7.92       6.42       10.06      7.47       -9999      8          7.47       8.11       8.66       8.11      
2700.500055 9.395      9.13       8.3        8.719999   8.86       7.775      7.765      8.12       8.875      7.46       6.19       9.27       8.785      9.155      9.35       10.36      9.14       8.29       8.745      9.04       7.765      10.315     10.315     7.405      -9999      -9999      8          7.955      8.24       8.43       8.504999   12.77      9.299999   13.05      11.545     11.705     12.27      11.935     12.225     13.05      11.96      6.27       7.64       6.75       7.83       6.135      7.875      6.245      10.315     7.405      -9999      8          7.955      8.24       8.43       8.504999  
2700.600055 9.789037   9.139976   8.290025   8.779854   9.029585   7.760037   7.869744   8.169878   8.83011    7.589683   6.000463   9.100415   9.05933    8.9505     9.798903   10.10063   9.14       8.29       8.779914   9.04       7.740061   10.56938   10.56938   7.340158   -9999      -9999      8          8.438817   8.369683   8.200561   8.899036   12.14154   9.529439   12.46144   11.49013   11.70999   12.31988   11.92004   12.08035   13.19963   12.10963   6.319878   7.64       6.779927   8.099341   6.149963   7.83011    6.070427   10.56938   7.340158   -9999      8          8.438817   8.369683   8.200561   8.899036  
2700.700055 9.49536    8.800415   8.334945   8.715079   9.059963   7.640147   7.999841   8.219939   8.775067   7.734823   6.149817   9.040073   9.134909   8.775214   9.490378   10.22984   8.785434   8.334945   8.680122   9.074957   7.62514    10.84466   10.84466   7.34       -9999      -9999      8.024969   8.634762   8.37       8.2        8.9        11.70553   9.599915   12.35513   11.40011   11.68503   12.2351    11.81513   12.00509   13.10512   12.08503   6.484798   7.545116   6.715079   8.114982   6.154994   7.455458   6.045031   10.84466   7.34       -9999      8.024969   8.634762   8.37       8.2        8.9       
2700.800056 9.2        8.46       8.38       8.65       9.09       7.52       8.13       8.27       8.72       7.88       6.3        8.98       9.21       8.6        9.18       10.36      8.43       8.38       8.58       9.11       7.51       11.12      11.12      7.34       -9999      -9999      8.05       8.83       8.37       8.2        8.9        11.27      9.67       12.25      11.31      11.66      12.15      11.71      11.93      13.01      12.06      6.65       7.45       6.65       8.13       6.16       7.08       6.02       11.12      7.34       -9999      8.05       8.83       8.37       8.2        8.9       
2700.900056 9.739341   8.445019   8.409964   8.565104   9.099988   7.779683   8.329756   8.374872   8.700025   7.99486    6.649573   8.355762   8.845446   8.405238   9.524579   10.61968   8.43       8.424945   8.530061   9.11       7.864567   10.93023   10.93023   8.183969   -9999      -9999      8.054995   8.83       8.774506   8.130086   8.999878   11.82432   9.839792   12.97411   11.20013   11.41031   11.79044   11.32048   11.55046   12.94009   11.98509   6.769854   7.230268   6.595067   8.13       6.274859   7.050036   5.890159   10.93023   8.183969   -9999      8.054995   8.83       8.774506   8.130086   8.999878  
2701.000056 10.28      8.43       8.44       8.48       9.11       8.04       8.53       8.48       8.68       8.11       7          7.73       8.48       8.21       9.87       10.88      8.43       8.47       8.48       9.11       8.22       10.74      10.74      9.03       -9999      -9999      8.06       8.83       9.18       8.06       9.1        12.38      10.01      13.7       11.09      11.16      11.43      10.93      11.17      12.87      11.91      6.89       7.01       6.54       8.13       6.39       7.02       5.76       10.74      9.03       -9999      8.06       8.83       9.18       8.06       9.1       
