~Version
 VERS              .         2.0                           : CWLS LOG ASCII STANDARD - VERSION 2.0
 WRAP              .         NO                            : ONE LINE PER DEPTH STEP
 DLM               .         SPACE                         : DELIMITING CHARACTER(SPACE TAB OR COMMA)
~Well Information
#_______________________________________________________________________________
#
#PARAMETER_NAME    .UNIT     VALUE                         : DESCRIPTION
#_______________________________________________________________________________
STRT               .m        3185                          : First reference value
STOP               .m        3280                          : Last reference value
STEP               .m        0.2                           : Step increment
NULL               .         -9999                         : Missing value
COMP               .                                       : Company
WELL               .         100                           : Well name
FLD                .                                       : Field
LOC                .                                       : Location
CNTY               .                                       : County
STAT               .                                       : State
CTRY               .                                       : Country
SRVC               .                                       : Service Company
DATE               .                                       : Date
API                .                                       : API number
EREF               .m        137.7                         : 
Pad                .         1                             : 
X                  .m        229503                        : 
Y                  .m        240117                        : 
group              .         Pad1                          : 
Интер-р            .                                       : 
Куст               .         1                             : 
Статус             .         Проверено                     : 
Тип                .         Нагнетательные                : 
~Parameter Information Block
#_______________________________________________________________________________
#
#PARAMETER_NAME    .UNIT     VALUE                         : DESCRIPTION
#_______________________________________________________________________________
SET                .         LQC_ELAN_crop                 : 
REAL_CREATION_DATE_ELAN .         Ср окт 3 2012-18_30_58        : 
TLFamily_GR        .         Gamma Ray                     : 
TLFamily_MD        .         Measured Depth                : 
TLFamily_RHOB      .         Bulk Density                  : 
TLFamily_TNPH      .         Neutron Porosity              : 
~Curve Information
#_______________________________________________________________________________
#
#LOGNAME           .UNIT     LOG_ID                        : DESCRIPTION
#_______________________________________________________________________________
MD                 .m                                      :  
GR                 .GAPI                                   : 5 Gamma-Ray 
RHOB               .g/cm3                                  : 4 Standart Resolution Formation Densitu 
TNPH               .v/v                                    : 4 Hydrogen Content 
~Ascii
# ...
3221.4     53.15826   2.5058     0.1909999 
3221.6     56.68835   2.5048     0.1989999 
3221.8     55.01625   2.5357     0.2079999 
3222       50.29918   2.5481     0.21      
3222.2     48.58571   2.5409     0.2050001 
3222.4     47.07871   2.5386     0.1760004 
3222.6     47.03739   2.5127     0.1490003 
3222.8     47.05804   2.465201   0.1559999 
3223       46.86193   2.4714     0.1649999 
3223.2     47.94571   2.4684     0.1779998 
3223.4     49.9275    2.477      0.1869999 
3223.6     46.81035   2.427001   0.191     
3223.8     44.56015   2.3967     0.1989999 
3224       42.599     2.433399   0.1920001 
3224.2     40.84427   2.4365     0.193     
3224.4     42.91893   2.375501   0.195     
3224.6     46.98572   2.3756     0.1890001 
3224.8     47.60509   2.358      0.1830001 
3225       45.49946   2.427999   0.182     
3225.2     41.63908   2.4256     0.185     
3225.4     32.09137   2.353101   0.1969998 
3225.6     27.35355   2.3505     0.2119998 
3225.8     28.53018   2.3767     0.1900003 
3226       27.90057   2.532798   0.1660003 
3226.2     22.02746   2.766697   0.1530002 
3226.4     20.0456    2.871199   0.1450001 
3226.6     29.87192   2.942099   0.146     
3226.8     42.43366   2.813502   0.1539999 
3227       53.56071   2.721501   0.1809997 
3227.2     57.62762   2.787799   0.2079997 
3227.4     53.2719    2.7572     0.2139999 
3227.6     55.08846   2.700401   0.2010002 
3227.8     65.28643   2.6832     0.204     
3228       80.42862   2.589901   0.2189998 
3228.2     87.93272   2.5634     0.2399997 
3228.4     84.57827   2.5682     0.2350001 
3228.6     80.25338   2.5558     0.2170002 
3228.8     81.6055    2.55       0.2289999 
3229       87.79858   2.503901   0.2479997 
3229.2     91.40096   2.4943     0.2360002 
3229.4     84.99117   2.463201   0.2210002 
3229.6     67.54728   2.4278     0.2309999 
3229.8     49.20523   2.400001   0.2489998 
3230       46.23232   2.4328     0.2330002 
3230.2     55.23289   2.4088     0.1930005 
3230.4     57.74119   2.4099     0.191     
3230.6     51.40365   2.4347     0.1780002 
3230.8     50.60878   2.4273     0.1630002 
3231       55.10908   2.4203     0.1719999 
3231.2     64.49163   2.3989     0.17      
3231.4     78.56035   2.4131     0.1630001 
3231.6     83.44274   2.3772     0.1869997 
3231.8     82.75124   2.272902   0.2269995 
3232       91.0293    2.119602   0.304999  
3232.2     100.5048   1.982002   0.4259984 
3232.4     98.47153   1.9889     0.3440011 
3232.6     88.56261   2.499693   0.268001  
3232.8     86.41555   2.528199   0.2260006 
3233       83.61831   2.569099   0.2210001 
3233.2     82.42095   2.5642     0.2379998 
3233.4     78.74638   2.5604     0.2260002 
3233.6     73.60609   2.53       0.2180001 
3233.8     69.4257    2.5145     0.2259999 
3234       69.68369   2.5042     0.2469997 
3234.2     77.28052   2.528      0.248     
3234.4     83.95882   2.481901   0.2320002 
3234.6     84.66079   2.4531     0.232     
3234.8     82.93705   2.4785     0.2280001 
3235       85.96131   2.4606     0.225     
3235.2     92.79439   2.4358     0.228     
3235.4     96.59289   2.4242     0.2409998 
3235.6     89.65669   2.378001   0.2529998 
3235.8     75.47448   2.467099   0.251     
3236       69.46702   2.704797   0.2579999 
3236.2     73.56467   2.6722     0.2719998 
3236.4     76.13485   2.606301   0.2650001 
3236.6     83.26723   2.560501   0.2550001 
3236.8     92.45371   2.5511     0.252     
3237       98.85334   2.5329     0.2430001 
3237.2     98.03801   2.5155     0.245     
3237.4     96.29362   2.469001   0.245     
3237.6     94.79694   2.4461     0.2559999 
3237.8     91.3804    2.4488     0.2669998 
3238       90.95718   2.383001   0.2739999 
3238.2     87.3239    2.274302   0.3109995 
3238.4     76.23826   2.380999   0.316     
3238.6     64.21324   2.490699   0.2670007 
3238.8     59.19669   2.536999   0.2250006 
3239       57.39031   2.5419     0.222     
3239.2     59.35141   2.5314     0.2329998 
3239.4     65.22453   2.5145     0.2509997 
3239.6     67.9186    2.415102   0.2809996 
3239.8     73.43047   2.408      0.2700002 
3240       79.0043    2.517298   0.2490003 
3240.2     88.37655   2.569399   0.2649998 
3240.4     89.89398   2.507001   0.2809998 
3240.6     89.53275   2.4929     0.281     
3240.8     92.06158   2.503      0.2630002 
3241       96.14903   2.5072     0.2570001 
3241.2     98.40956   2.5036     0.2749998 
3241.4     99.7927    2.511      0.2909998 
3241.6     102.9099   2.5239     0.2979999 
3241.8     94.99314   2.5217     0.2890001 
3242       77.72472   2.564299   0.2530005 
3242.2     61.90119   2.514001   0.2130006 
3242.4     58.35026   2.5041     0.2060001 
3242.6     60.81712   2.4819     0.2109999 
3242.8     59.25857   2.5006     0.1990002 
3243       58.47409   2.4992     0.1790003 
3243.2     62.09703   2.4898     0.1839999 
3243.4     68.72366   2.4827     0.2009998 
3243.6     72.75957   2.5037     0.203     
3243.8     77.8173    2.5063     0.2189998 
3244       75.14402   2.5159     0.2489996 
3244.2     71.19074   2.4784     0.2360002 
3244.4     70.40623   2.4888     0.2210002 
3244.6     74.68975   2.4781     0.22      
3244.8     79.2314    2.4927     0.2080002 
3245       81.08938   2.4897     0.208     
3245.2     82.12157   2.430501   0.2279997 
3245.4     80.37722   2.387501   0.2379999 
3245.6     76.83682   2.338001   0.2290001 
3245.8     76.32069   2.253101   0.2110002 
3246       69.44639   2.182801   0.2499994 
3246.2     48.80273   2.028802   0.3399987 
3246.4     21.71811   1.947701   0.4249988 
3246.6     6.224744   1.798902   0.492999  
3246.8     3.509899   1.680802   0.4770002 
3247       3.024732   1.6451     0.478     
3247.2     3.189876   1.6449     0.5069996 
3247.4     8.5572     1.6333     0.5389995 
3247.6     12.3144    1.6247     0.5579997 
3247.8     18.29076   1.627      0.5430002 
3248       26.19732   1.6361     0.5240003 
3248.2     45.623     1.6534     0.4460011 
3248.4     66.7726    1.715799   0.3670011 
3248.6     70.9429    1.865898   0.3110008 
3248.8     73.16214   2.237595   0.2590007 
3249       77.61086   2.319599   0.2290004 
3249.2     79.07661   2.2935     0.2319999 
3249.4     79.21082   2.416798   0.2609996 
3249.6     77.15678   2.166504   0.2809997 
3249.8     60.5387    2.100001   0.3109995 
3250       54.19057   2.048101   0.3439995 
3250.2     64.87352   2.233497   0.3150004 
3250.4     75.52574   2.501296   0.2360012 
3250.6     79.13853   2.4985     0.1990005 
3250.8     77.0226    2.5066     0.1940001 
3251       72.41908   2.478601   0.2119997 
3251.2     66.77299   2.437001   0.2010002 
3251.4     65.61687   2.4206     0.1870002 
3251.6     67.26833   2.4274     0.2019998 
3251.8     66.44261   2.414      0.2169998 
3252       61.29205   2.4007     0.2130001 
3252.2     49.32903   2.3904     0.1930003 
3252.4     47.80124   2.3867     0.1790002 
3252.6     46.92387   2.3723     0.178     
3252.8     42.58871   2.3788     0.1720001 
3253       43.97176   2.3673     0.171     
3253.2     42.13451   2.3801     0.1849998 
3253.4     38.4496    2.419199   0.2039997 
3253.6     38.2328    2.4204     0.202     
3253.8     38.38762   2.4202     0.1790003 
3254       39.72946   2.4265     0.181     
3254.2     40.77198   2.381101   0.1869999 
3254.4     40.78231   2.3656     0.189     
3254.6     41.83513   2.3966     0.1810001 
3254.8     51.40342   2.4122     0.1949998 
3255       76.0313    2.468699   0.2389993 
3255.2     95.88043   2.508699   0.2799994 
3255.4     103.4362   2.652298   0.2660002 
3255.6     102.0636   2.762698   0.2430003 
3255.8     84.79523   2.665201   0.2080005 
3256       74.29774   2.537502   0.2139999 
3256.2     70.79851   2.5386     0.2289998 
3256.4     70.29269   2.493201   0.2210001 
3256.6     59.87801   2.370202   0.2170001 
3256.8     60.08429   2.3813     0.2309998 
3257       78.13705   2.3471     0.2150002 
3257.2     92.73232   2.412199   0.2070001 
3257.4     88.09808   2.464199   0.2219998 
3257.6     73.38948   2.545899   0.2259999 
