~Version
 VERS              .         2.0                           : CWLS LOG ASCII STANDARD - VERSION 2.0
 WRAP              .         NO                            : ONE LINE PER DEPTH STEP
 DLM               .         SPACE                         : DELIMITING CHARACTER(SPACE TAB OR COMMA)
~Well Information
#_______________________________________________________________________________
#
#PARAMETER_NAME    .UNIT     VALUE                         : DESCRIPTION
#_______________________________________________________________________________
STRT               .m        3185                          : First reference value
STOP               .m        3280                          : Last reference value
STEP               .m        0.2                           : Step increment
NULL               .         -9999                         : Missing value
COMP               .                                       : Company
WELL               .         100                           : Well name
FLD                .                                       : Field
LOC                .                                       : Location
CNTY               .                                       : County
STAT               .                                       : State
CTRY               .                                       : Country
SRVC               .                                       : Service Company
DATE               .                                       : Date
API                .                                       : API number
EREF               .m        137.7                         : 
Pad                .         1                             : 
X                  .m        229503                        : 
Y                  .m        240117                        : 
group              .         Pad1                          : 
Интер-р            .                                       : 
Куст               .         1                             : 
Статус             .         Проверено                     : 
Тип                .         Нагнетательные                : 
~Parameter Information Block
#_______________________________________________________________________________
#
#PARAMETER_NAME    .UNIT     VALUE                         : DESCRIPTION
#_______________________________________________________________________________
SET                .         LQC_ELAN_crop                 : 
REAL_CREATION_DATE_ELAN .         Ср окт 3 2012-18_30_58        : 
TLFamily_GR        .         Gamma Ray                     : 
TLFamily_MD        .         Measured Depth                : 
TLFamily_RHOB      .         Bulk Density                  : 
TLFamily_TNPH      .         Neutron Porosity              : 
~Curve Information
#_______________________________________________________________________________
#
#LOGNAME           .UNIT     LOG_ID                        : DESCRIPTION
#_______________________________________________________________________________
MD                 .m                                      :  
GR                 .GAPI                                   : 5 Gamma-Ray 
RHOB               .g/cm3                                  : 4 Standart Resolution Formation Densitu 
TNPH               .v/v                                    : 4 Hydrogen Content 
~Ascii
# ...
3257.8     67.83615   2.5692     0.2100002 
3258       72.39828   2.5405     0.21      
3258.2     82.68916   2.581399   0.2159999 
3258.4     88.97524   2.584      0.219     
3258.6     81.843     2.5709     0.2130001 
3258.8     49.48418   2.5596     0.1800005 
3259       36.12733   2.5376     0.1590003 
3259.2     32.19454   2.5241     0.1390003 
3259.4     35.51807   2.606099   0.1270002 
3259.6     44.09552   2.669699   0.1319999 
3259.8     60.76529   2.6611     0.1479998 
3260       80.35625   2.6838     0.1679997 
3260.2     82.49316   2.6801     0.1879997 
3260.4     78.81865   2.631601   0.2249994 
3260.6     83.65948   2.550101   0.2659994 
3260.8     103.6425   2.5397     0.2799998 
3261       88.87237   2.583799   0.2350007 
3261.2     65.25594   2.676099   0.2270001 
3261.4     52.85915   2.571402   0.2180001 
3261.6     45.87112   2.412002   0.2229999 
3261.8     42.3513    2.3939     0.2359998 
3262       43.22859   2.349901   0.2260001 
3262.2     41.74227   2.3455     0.2200001 
3262.4     37.97482   2.3664     0.218     
3262.6     41.31899   2.3715     0.1930004 
3262.8     45.00393   2.3502     0.193     
3263       46.18067   2.3375     0.193     
3263.2     52.24988   2.306901   0.194     
3263.4     60.24932   2.350899   0.1720003 
3263.6     63.67628   2.447798   0.1769999 
3263.8     65.58585   2.4806     0.2129994 
3264       67.18577   2.4754     0.2359996 
3264.2     80.93436   2.432501   0.2549997 
3264.4     94.5593    2.4043     0.2480001 
3264.6     84.05197   2.4052     0.2270003 
3264.8     63.92438   2.444199   0.2100003 
3265       52.91074   2.4332     0.1890003 
3265.2     49.85533   2.481199   0.1780002 
3265.4     52.9002    2.4665     0.1720001 
3265.6     57.23538   2.4354     0.1829998 
3265.8     57.80315   2.402      0.1999997 
3266       54.61373   2.3778     0.2       
3266.2     50.8772    2.415999   0.2029999 
3266.4     46.35622   2.3867     0.203     
3266.6     46.59355   2.334301   0.2       
3266.8     50.34034   2.3314     0.1930001 
3267       49.44241   2.3255     0.1890001 
3267.2     48.5857    2.3297     0.189     
3267.4     46.49037   2.3445     0.1949999 
3267.6     42.89837   2.394499   0.2019999 
3267.8     42.00031   2.3706     0.2089999 
3268       44.30205   2.417899   0.2030001 
3268.2     44.71497   2.4117     0.1980001 
3268.4     44.34338   2.4156     0.1870002 
3268.6     45.38587   2.374801   0.1929999 
3268.8     50.08228   2.3747     0.2089998 
3269       50.85649   2.402499   0.208     
3269.2     45.48919   2.4093     0.205     
3269.4     42.36161   2.4298     0.1970001 
3269.6     43.21827   2.388401   0.2059999 
3269.8     46.4077    2.4138     0.207     
3270       48.34825   2.456099   0.1910003 
3270.2     44.86985   2.4225     0.1750003 
3270.4     43.23896   2.3869     0.175     
3270.6     43.31118   2.346001   0.1919997 
3270.8     44.56011   2.3801     0.1989999 
3271       44.70463   2.4124     0.201     
3271.2     42.53708   2.4132     0.203     
3271.4     40.24561   2.4316     0.206     
3271.6     40.34879   2.4023     0.2119999 
3271.8     40.13204   2.358001   0.2090001 
3272       40.71005   2.3446     0.1900003 
3272.2     43.09438   2.409899   0.1750002 
3272.4     42.11385   2.3859     0.1720001 
3272.6     38.84185   2.347301   0.1829998 
3272.8     37.41739   2.3118     0.182     
3273       37.37608   2.3021     0.1660003 
3273.2     35.75556   2.3232     0.1719999 
3273.4     36.57096   2.376099   0.1879997 
3273.6     39.11012   2.3723     0.191     
3273.8     40.8339    2.3526     0.1860001 
3274       37.58257   2.336      0.183     
3274.2     33.06158   2.3467     0.1969998 
3274.4     35.39423   2.3237     0.2119997 
3274.6     38.67659   2.337      0.1990002 
3274.8     35.96203   2.3172     0.1920001 
3275       33.18542   2.3231     0.1969999 
3275.2     37.74759   2.3533     0.196     
3275.4     41.61832   2.3226     0.196     
3275.6     40.32817   2.3024     0.196     
3275.8     43.02212   2.339199   0.2019999 
3276       55.09861   2.395299   0.2079999 
3276.2     68.68223   2.499698   0.2159999 
3276.4     72.40862   2.5355     0.217     
3276.6     71.62421   2.5231     0.2369997 
3276.8     74.63816   2.467501   0.2419999 
3277       78.81853   2.384601   0.239     
3277.2     83.59756   2.300701   0.2599996 
3277.4     79.48957   2.205802   0.2829996 
3277.6     73.34806   2.096402   0.282     
3277.8     71.77908   1.963602   0.3279992 
3278       50.1653    1.828002   0.446998  
3278.2     19.23065   1.705402   0.5549982 
3278.4     17.09354   1.661801   0.5629999 
3278.6     38.17051   1.838397   0.386003  
3278.8     66.34924   2.103395   0.2480023 
3279       73.1311    2.529993   0.2270004 
3279.2     73.35829   2.552099   0.2509996 
3279.4     59.69228   2.503801   0.2539999 
3279.6     53.7674    2.444501   0.2500001 
3279.8     60.73448   2.4647     0.2300003 
3280       60.82748   2.472      0.2040004 
