~Version
 VERS              .         2.0                           : CWLS LOG ASCII STANDARD - VERSION 2.0
 WRAP              .         NO                            : ONE LINE PER DEPTH STEP
 DLM               .         SPACE                         : DELIMITING CHARACTER(SPACE TAB OR COMMA)
~Well Information
#_______________________________________________________________________________
#
#PARAMETER_NAME    .UNIT     VALUE                         : DESCRIPTION
#_______________________________________________________________________________
STRT               .m        3185                          : First reference value
STOP               .m        3280                          : Last reference value
STEP               .m        0.2                           : Step increment
NULL               .         -9999                         : Missing value
COMP               .                                       : Company
WELL               .         100                           : Well name
FLD                .                                       : Field
LOC                .                                       : Location
CNTY               .                                       : County
STAT               .                                       : State
CTRY               .                                       : Country
SRVC               .                                       : Service Company
DATE               .                                       : Date
API                .                                       : API number
EREF               .m        137.7                         : 
Pad                .         1                             : 
X                  .m        229503                        : 
Y                  .m        240117                        : 
group              .         Pad1                          : 
Интер-р            .                                       : 
Куст               .         1                             : 
Статус             .         Проверено                     : 
Тип                .         Нагнетательные                : 
~Parameter Information Block
#_______________________________________________________________________________
#
#PARAMETER_NAME    .UNIT     VALUE                         : DESCRIPTION
#_______________________________________________________________________________
SET                .         LQC_ELAN_crop                 : 
REAL_CREATION_DATE_ELAN .         Ср окт 3 2012-18_30_58        : 
TLFamily_GR        .         Gamma Ray                     : 
TLFamily_MD        .         Measured Depth                : 
TLFamily_RHOB      .         Bulk Density                  : 
TLFamily_TNPH      .         Neutron Porosity              : 
~Curve Information
#_______________________________________________________________________________
#
#LOGNAME           .UNIT     LOG_ID                        : DESCRIPTION
#_______________________________________________________________________________
MD                 .m                                      :  
GR                 .GAPI                                   : 5 Gamma-Ray 
RHOB               .g/cm3                                  : 4 Standart Resolution Formation Densitu 
TNPH               .v/v                                    : 4 Hydrogen Content 
~Ascii
3185.0     136.6626   2.551201   0.2839996 
3185.2     128.5703   2.5553     0.2889999 
3185.4     117.5259   2.5773     0.293     
3185.6     116.0188   2.518501   0.2790002 
3185.8     114.295    2.420601   0.2730001 
3186       115.6059   2.3894     0.3129996 
3186.2     117.1955   2.3801     0.3329998 
3186.4     114.7492   2.458499   0.3170002 
3186.6     116.3904   2.552999   0.32      
3186.8     116.0497   2.509901   0.3150001 
3187       118.1967   2.5065     0.2970002 
3187.2     120.0134   2.4844     0.2860001 
3187.4     119.136    2.5413     0.284     
3187.6     119.0534   2.472901   0.2989998 
3187.8     116.4007   2.4897     0.302     
3188       111.2604   2.5107     0.302     
3188.2     109.5882   2.440501   0.305     
3188.4     107.9264   2.3945     0.2860002 
3188.6     109.3095   2.3796     0.288     
3188.8     115.8019   2.438499   0.3069998 
3189       118.6302   2.500399   0.2810003 
3189.2     119.105    2.5467     0.2660002 
3189.4     119.5902   2.5407     0.263     
3189.6     117.1748   2.5133     0.263     
3189.8     116.0085   2.4959     0.261     
3190       115.1105   2.4802     0.2859997 
3190.2     95.83964   2.4955     0.289     
3190.4     75.37126   2.598199   0.2440005 
3190.6     48.82335   2.716599   0.2140003 
3190.8     53.27179   2.624301   0.2050001 
3191       96.12801   2.6151     0.202     
3191.2     122.8103   2.5582     0.2329997 
3191.4     123.915    2.5705     0.2699996 
3191.6     121.8197   2.474901   0.2889998 
3191.8     115.7814   2.4567     0.3019999 
3192       109.9599   2.505399   0.3079999 
3192.2     111.1778   2.4775     0.2930002 
3192.4     111.5184   2.48       0.2989999 
3192.6     112.3855   2.4482     0.3389996 
3192.8     116.5452   2.4776     0.344     
3193       114.2641   2.4604     0.3050004 
3193.2     113.8615   2.5058     0.3199998 
3193.4     107.9265   2.4892     0.3130001 
3193.6     103.6015   2.4987     0.3189999 
3193.8     104.9021   2.4979     0.3120001 
3194       110.0114   2.5099     0.2800003 
3194.2     113.0461   2.5509     0.2730001 
3194.4     110.8269   2.5406     0.274     
3194.6     108.6903   2.587399   0.27      
3194.8     112.2409   2.5607     0.2640001 
3195       109.7844   2.465601   0.2829998 
3195.2     109.5263   2.4732     0.3209996 
3195.4     120.7358   2.4871     0.318     
3195.6     130.4281   2.4851     0.3080001 
3195.8     130.645    2.4842     0.311     
3196       132.7919   2.459      0.3189999 
3196.2     134.0408   2.4599     0.3289999 
3196.4     130.3663   2.4702     0.3389999 
3196.6     129.9431   2.4813     0.3509999 
3196.8     132.3067   2.4803     0.3370002 
3197       131.5945   2.4778     0.2950004 
3197.2     126.8775   2.4882     0.2880001 
3197.4     124.8647   2.4794     0.3259996 
3197.6     131.9351   2.4912     0.3439998 
3197.8     135.8987   2.526099   0.3170003 
3198       130.005    2.563499   0.2980002 
3198.2     121.985    2.5355     0.3049999 
3198.4     120.4056   2.5564     0.2840002 
3198.6     120.9526   2.5684     0.2640002 
3198.8     118.9915   2.477701   0.2560001 
3199       113.8616   2.4797     0.2719998 
3199.2     110.3211   2.5062     0.2899998 
3199.4     112.1687   2.5229     0.3279996 
3199.6     110.3831   2.5063     0.3180001 
3199.8     106.5227   2.5222     0.3080001 
3200       108.1741   2.5271     0.3269998 
3200.2     111.7661   2.5094     0.3120002 
3200.4     113.0357   2.549599   0.3070001 
3200.6     119.1772   2.5232     0.3299998 
3200.8     118.6406   2.5206     0.3170002 
3201       105.8828   2.5196     0.2860003 
3201.2     107.5651   2.466901   0.2760001 
3201.4     113.1699   2.4632     0.2959998 
3201.6     112.561    2.4795     0.3269997 
3201.8     111.312    2.556199   0.328     
3202       112.7158   2.501201   0.3200001 
3202.2     120.1475   2.519      0.3000002 
3202.4     123.7292   2.5458     0.3       
3202.6     115.9776   2.5386     0.303     
3202.8     110.8992   2.5031     0.301     
3203       111.023    2.4571     0.302     
3203.2     120.6429   2.415601   0.2970001 
3203.4     126.8567   2.4561     0.3649993 
3203.6     126.1859   2.4697     0.364     
3203.8     122.6249   2.4686     0.3160006 
3204       119.5283   2.4976     0.319     
3204.2     115.7608   2.4951     0.3569996 
3204.4     115.5027   2.4987     0.3510001 
3204.6     119.3321   2.4753     0.3360002 
3204.8     127.476    2.4586     0.3290001 
3205       132.2654   2.4724     0.3120002 
3205.2     130.7172   2.521899   0.2900002 
3205.4     123.5126   2.5085     0.3049998 
3205.6     125.9175   2.443301   0.3299997 
3205.8     129.7263   2.405401   0.3399999 
3206       130.294    2.4556     0.3549998 
3206.2     130.4282   2.4838     0.356     
3206.4     126.1756   2.491      0.3470001 
3206.6     121.9023   2.5031     0.3370001 
3206.8     121.83     2.4814     0.3290001 
3207       120.2095   2.4906     0.3070002 
3207.2     114.3467   2.5101     0.304     
3207.4     111.2191   2.5344     0.2820002 
3207.6     113.7892   2.462901   0.2780001 
3207.8     116.0084   2.4622     0.2899998 
3208       127.1973   2.4503     0.3099998 
3208.2     160.062    2.4452     0.3189999 
3208.4     180.6957   2.511199   0.2930003 
3208.6     150.1434   2.5273     0.2240008 
3208.8     98.11085   2.595699   0.1780005 
3209       68.09445   2.513401   0.175     
3209.2     60.66241   2.389401   0.1849999 
3209.4     58.16446   2.3981     0.1740001 
3209.6     56.451     2.471799   0.171     
3209.8     56.2239    2.397301   0.169     
3210       55.62524   2.447799   0.1759999 
3210.2     53.36475   2.4324     0.1839999 
3210.4     53.76729   2.4002     0.1939999 
3210.6     56.51289   2.436899   0.1880001 
3210.8     57.24576   2.4444     0.1760001 
3211       53.69507   2.4733     0.1420004 
3211.2     45.89175   2.602699   0.1080004 
3211.4     27.56015   2.696499   0.08700024
3211.6     20.92302   2.6882     0.08300004
3211.8     18.46635   2.589501   0.08200002
3212       26.63086   2.6329     0.1079997 
3212.2     40.36928   2.560501   0.1349997 
3212.4     53.47812   2.5431     0.1599997 
3212.6     56.59546   2.5366     0.1819997 
3212.8     45.8505    2.5388     0.1710001 
3213       37.37617   2.601199   0.1470003 
3213.2     39.39914   2.626      0.1430001 
3213.4     57.13203   2.6258     0.1539999 
3213.6     63.80011   2.5841     0.1739998 
3213.8     63.78986   2.6093     0.171     
3214       58.95927   2.5628     0.1590001 
3214.2     53.80863   2.482101   0.155     
3214.4     45.63372   2.463      0.151     
3214.6     40.88559   2.4844     0.152     
3214.8     39.874     2.5299     0.1659998 
3215       44.16785   2.5021     0.1799998 
3215.2     51.24865   2.458      0.1899999 
3215.4     58.64946   2.503799   0.1949999 
3215.6     62.96407   2.5101     0.197     
3215.8     60.29078   2.5057     0.196     
3216       57.07034   2.4749     0.1840001 
3216.2     55.98651   2.464      0.1610003 
3216.4     50.94946   2.543399   0.1520001 
3216.6     48.55475   2.5281     0.1470001 
3216.8     51.96092   2.468501   0.1559999 
3217       55.26392   2.4736     0.1859996 
3217.2     57.36962   2.518699   0.1969999 
3217.4     57.94765   2.5159     0.193     
3217.6     58.0612    2.566399   0.19      
3217.8     57.46255   2.5402     0.19      
3218       55.28463   2.443901   0.19      
3218.2     55.98649   2.390701   0.188     
3218.4     54.35566   2.436      0.1830001 
3218.6     51.94033   2.479      0.18      
3218.8     48.61668   2.529299   0.176     
3219       46.17038   2.529      0.176     
3219.2     52.74534   2.5181     0.179     
3219.4     62.46855   2.459301   0.1859999 
3219.6     63.7176    2.4686     0.182     
3219.8     62.84027   2.4626     0.1770001 
3220       65.59618   2.4808     0.1829999 
3220.2     67.12383   2.5037     0.185     
3220.4     62.89191   2.5453     0.182     
3220.6     53.44743   2.542      0.178     
3220.8     49.67986   2.5689     0.174     
3221       51.12485   2.5784     0.176     
3221.2     50.54685   2.520701   0.1859999 
