~Version
 VERS              .         2.0                           : CWLS LOG ASCII STANDARD - VERSION 2.0
 WRAP              .         NO                            : ONE LINE PER DEPTH STEP
 DLM               .         SPACE                         : DELIMITING CHARACTER(SPACE TAB OR COMMA)
~Well Information
#_______________________________________________________________________________
#
#PARAMETER_NAME    .UNIT     VALUE                         : DESCRIPTION
#_______________________________________________________________________________
STRT               .M        3500.0183                     : First reference value
STOP               .M        4094.9878                     : Last reference value
STEP               .M        0.1524                        : Step increment
NULL               .         -9999                         : Missing value
COMP               .         STATOIL PETROLEUM AS          : Company
WELL               .         15/9-19                       : Well name
FLD                .         VOLVE                         : Field
LOC                .         UNKNOWN                       : Location
CNTY               .         UNKNOWN                       : County
STAT               .         UNKNOWN                       : State
CTRY               .         NO                            : Country
SRVC               .         UNKNOWN                       : Service Company
DATE               .         UNKNOWN                       : Date
UWI                .         NO 15/9-19 SR                 : Unique Well ID
COUNTRY            .         Norway                        : COUNTRY
ELEV               .M        25.0000                       : SURFACE ELEV
ELEV_TYPE          .         KB                            : ELEV TYPE
GDAT               .                                       : Geodetic Datum
HZCS               .                                       : Horizontal Co-ordinate System
LAT                .         58.435286                     : LATITUDE
LON                .         1.928158                      : LONGITUDE
ORIGINALWELLNAME   .         15/9-19                       : 
X                  .                                       : X or East-West coordinate
XCOORD             .         1.928158                      : SURFACE X
Y                  .                                       : Y or North South coordinate
YCOORD             .         58.435286                     : SURFACE Y
~Parameter Information Block
#_______________________________________________________________________________
#
#PARAMETER_NAME    .UNIT     VALUE                         : DESCRIPTION
#_______________________________________________________________________________
SET                .         LQC                           : 
TLFamily_DEPTH     .         Measured Depth                : 
TLFamily_GR        .         Gamma Ray                     : 
TLFamily_VSH_GR_LarOlder .         Shale Volume                  : 
TLFamily_VSH_GR_LarTert .         Shale Volume                  : 
TLFamily_VSH_GR_linear .         Shale Volume                  : 
~Curve Information
#_______________________________________________________________________________
#
#LOGNAME           .UNIT     LOG_ID                        : DESCRIPTION
#_______________________________________________________________________________
DEPTH              .M                                      : Measured Depth 
GR                 .gAPI                                   : v1 
VSH_GR_LarOlder    .v/v                                    : Shale volume fraction from Gamma Ray 
VSH_GR_LarTert     .v/v                                    : Shale volume fraction from Gamma Ray 
VSH_GR_linear      .v/v                                    : Shale volume fraction from Gamma Ray 
~Ascii
# ...
3718.1028  111.72     0.5729522  0.451327   0.7260918 
3718.2551  106.65     0.527554   0.4026921  0.6888808 
3718.4075  123.328    0.6861506  0.5818133  0.8112881 
3718.5598  127.458    0.7297603  0.6355574  0.8416001 
3718.7124  124.581    0.6991882  0.5976796  0.8204845 
3718.8647  123.047    0.6832494  0.5783061  0.8092257 
3719.0171  117.479    0.6274421  0.5125051  0.7683597 
3719.1694  117.156    0.6243008  0.5088955  0.765989  
3719.322   112.286    0.5781672  0.4570501  0.7302459 
3719.4744  115.762    0.6108611  0.4935666  0.7557579 
3719.6267  101.9466   0.4874819  0.3615411  0.6543604 
3719.7791  102.672    0.4935378  0.3676526  0.6596844 
3719.9314  101.119    0.4806272  0.3546697  0.6482863 
3720.084   105.691    0.5192271  0.3940034  0.6818423 
3720.2363  111.05     0.5668177  0.4446307  0.7211744 
3720.3887  110.51     0.5619038  0.4392947  0.7172111 
3720.541   113.745    0.5917493  0.4720869  0.7409542 
3720.6936  113.944    0.5936174  0.4741701  0.7424147 
3720.8459  115.422    0.6076119  0.4898884  0.7532624 
3720.9983  115.375    0.6071636  0.4893818  0.7529175 
3721.1506  108.49     0.5437598  0.4198085  0.7023854 
3721.3032  111.151    0.5677398  0.4456347  0.7219157 
3721.4556  108.285    0.5419393  0.4178721  0.7008808 
3721.6079  104.848    0.5119743  0.3864941  0.6756551 
3721.7603  108.259    0.5417086  0.417627   0.70069   
3721.9126  101.589    0.4845129  0.3585588  0.6517358 
3722.0652  102.879    0.4952741  0.3694119  0.6612037 
3722.2175  112.125    0.5766807  0.4554159  0.7290643 
3722.3699  109.24     0.5504529  0.4269571  0.7078899 
3722.5222  104.67     0.5104508  0.3849237  0.6743487 
3722.6748  117.288    0.6255834  0.510368   0.7669579 
3722.8271  115.992    0.6130654  0.4960681  0.7574459 
3722.9795  112.255    0.5778807  0.456735   0.7300184 
3723.1318  109.65     0.5541335  0.430908   0.7108991 
3723.2844  113.342    0.5879775  0.4678921  0.7379964 
3723.4368  31.653     0.06982096 0.03538007 0.138444  
3723.5891  115.891    0.6120968  0.4949683  0.7567046 
3723.7415  114.593    0.5997366  0.4810183  0.747178  
3723.8938  117.028    0.6230588  0.5074712  0.7650496 
3724.0464  113.329    0.5878561  0.4677573  0.737901  
3724.1987  110.143    0.5585796  0.4356991  0.7145175 
3724.3511  113.502    0.5894731  0.4695537  0.7391707 
3724.5034  105.547    0.5179838  0.3927122  0.6807854 
3724.656   107.645    0.5362797  0.4118743  0.6961835 
3724.8083  109.614    0.5538097  0.4305598  0.7106349 
3724.9607  106.865    0.529432   0.4046617  0.6904587 
3725.113   104.965    0.5129772  0.3875292  0.6765138 
3725.2656  115.619    0.6094931  0.4920168  0.7547083 
3725.418   110.212    0.5592036  0.4363732  0.7150239 
3725.5703  110.24     0.5594569  0.436647   0.7152294 
3725.7227  112.024    0.5757495  0.4543933  0.728323  
3725.875   111.4781   0.5707325  0.4488996  0.7243164 
3726.0276  109.274    0.5507576  0.4272836  0.7081395 
3726.1799  108.772    0.5462705  0.4224846  0.7044551 
3726.3323  109.889    0.5562861  0.4332251  0.7126532 
3726.4846  114.205    0.5960735  0.4769141  0.7443303 
3726.6372  115.624    0.6095409  0.4920709  0.754745  
3726.7896  116.35     0.6165068  0.4999834  0.7600734 
3726.9419  117.048    0.6232527  0.5076935  0.7651963 
3727.0942  116.183    0.6148999  0.4981537  0.7588477 
3727.2468  116.807    0.6209182  0.50502    0.7634276 
3727.3992  116.989    0.6226807  0.5070379  0.7647634 
3727.5515  119.069    0.6430573  0.5305973  0.7800294 
3727.7039  112.672    0.5817409  0.4609882  0.7330789 
3727.8562  116.719    0.6200671  0.5040468  0.7627817 
3728.0088  110.568    0.5624303  0.4398652  0.7176368 
3728.1611  115.338    0.6068109  0.4889833  0.7526459 
3728.3135  111.058    0.5668907  0.4447101  0.7212331 
3728.4658  111.215    0.5683245  0.4462719  0.7223853 
3728.6184  106.839    0.5292047  0.4044231  0.6902679 
3728.7708  107.059    0.5311301  0.4064457  0.6918826 
3728.9231  110.024    0.5575044  0.4345386  0.7136441 
3729.0754  107.574    0.5356542  0.4112134  0.6956624 
3729.228   106.481    0.5260807  0.4011496  0.6876404 
3729.3804  109.908    0.5564575  0.4334097  0.7127927 
3729.5327  111.05     0.5668177  0.4446307  0.7211744 
3729.6851  108.244    0.5415756  0.4174857  0.7005799 
3729.8374  119.332    0.6456647  0.5336424  0.7819597 
3729.99    114.673    0.6004937  0.4818682  0.7477651 
3730.1423  106.75     0.528427   0.4036072  0.6896147 
3730.2947  115.722    0.6104782  0.4931327  0.7554643 
3730.447   117.605    0.6286705  0.5139192  0.7692845 
3730.5996  121.115    0.6635261  0.554689   0.7950459 
3730.752   118.776    0.6401608  0.5272225  0.7778789 
3730.9043  119.448    0.6468168  0.5349903  0.782811  
3731.0566  121.983    0.6723394  0.5651935  0.8014166 
3731.2092  115.954    0.6127009  0.4956541  0.757167  
3731.3616  118.738    0.6397858  0.5267861  0.7776    
3731.5139  114.958    0.6031958  0.4849067  0.7498569 
3731.6663  111.317    0.5692573  0.4472891  0.723134  
3731.8186  101.56     0.4842726  0.3583179  0.6515229 
3731.9712  91.714     0.4066521  0.2836594  0.5792587 
3732.1235  106.16     0.5232893  0.3982331  0.6852844 
3732.2759  106.685    0.5278594  0.4030122  0.6891376 
3732.4282  111.337    0.5694403  0.4474887  0.7232807 
3732.5808  113.717    0.5914868  0.4717945  0.7407487 
3732.7332  110.907    0.5655138  0.4432123  0.7201248 
3732.8855  110.738    0.5639753  0.441541   0.7188844 
3733.0378  119.316    0.6455058  0.5334567  0.7818422 
3733.1904  112.611    0.5811752  0.4603639  0.7326312 
3733.3428  109.314    0.5511162  0.427668   0.7084331 
3733.4951  107.447    0.5345364  0.4100334  0.6947303 
3733.6475  104.528    0.5092373  0.3836747  0.6733065 
3733.7998  106.32     0.5246795  0.3996845  0.6864588 
3733.9524  99.69499999999999 0.4689669  0.3430942  0.6378349 
3734.1047  102.797    0.4945858  0.3687142  0.6606019 
3734.2571  109.682    0.5544214  0.4312176  0.711134  
3734.4094  103.074    0.4969131  0.3710755  0.6626348 
3734.562   103.756    0.5026711  0.3769422  0.6676404 
3734.7144  97.06100000000001 0.447839   0.3224836  0.6185027 
3734.8667  106.811    0.5289599  0.4041662  0.6900624 
3735.019   108.36     0.5426049  0.4185796  0.7014312 
3735.1716  105.335    0.5161567  0.3908177  0.6792294 
3735.324   104.33     0.5075484  0.3819386  0.6718532 
3735.4763  98.08499999999999 0.4559855  0.330375   0.6260183 
3735.6287  106.038    0.5222307  0.3971292  0.6843891 
3735.781   93.633     0.4211767  0.2971458  0.5933432 
3735.9336  102.201    0.4896006  0.3636749  0.6562275 
3736.0859  103.53     0.5007586  0.3749898  0.6659817 
3736.2383  99.63800000000001 0.4685037  0.3426373  0.6374165 
3736.3906  100.617    0.4764973  0.3505535  0.6446018 
3736.5432  94.70999999999999 0.4294534  0.3049309  0.6012477 
3736.6956  97.44199999999999 0.4508602  0.325402   0.6212991 
3736.8479  97.65900000000001 0.4525861  0.3270735  0.6228917 
3737.0002  94.5256    0.4280298  0.3035868  0.5998943 
3737.1528  104.662    0.5103824  0.3848532  0.6742899 
3737.3052  102.121    0.4889338  0.3630028  0.6556404 
3737.4575  103.948    0.5042993  0.3786075  0.6690496 
3737.6099  104.505    0.509041   0.3834727  0.6731376 
3737.7622  103.015    0.4964169  0.3705716  0.6622019 
3737.9148  108.939    0.5477607  0.4240761  0.7056808 
3738.0671  112.634    0.5813885  0.4605992  0.7328001 
3738.2195  104.137    0.5059053  0.3802526  0.6704367 
3738.3718  98.961     0.4630223  0.3372477  0.6324477 
3738.5244  102.989    0.4961983  0.3703496  0.662011  
3738.6768  93.34099999999999 0.4189483  0.2950622  0.5912001 
3738.8291  99.03100000000001 0.4635873  0.3378018  0.6329615 
3738.9814  100.094    0.4722171  0.3463064  0.6407633 
3739.1338  106.423    0.5255756  0.4006212  0.6872147 
3739.2864  101.939    0.4874187  0.3614775  0.6543046 
3739.4387  100.595    0.4763168  0.350374   0.6444404 
3739.5911  110.47     0.5615409  0.4389016  0.7169175 
3739.7434  104.959    0.5129257  0.3874761  0.6764697 
3739.896   103.475    0.5002939  0.3745159  0.665578  
3740.0483  103.062    0.4968122  0.370973   0.6625468 
