~Version
 VERS              .         2.0                           : CWLS LOG ASCII STANDARD - VERSION 2.0
 WRAP              .         NO                            : ONE LINE PER DEPTH STEP
 DLM               .         SPACE                         : DELIMITING CHARACTER(SPACE TAB OR COMMA)
~Well Information
#_______________________________________________________________________________
#
#PARAMETER_NAME    .UNIT     VALUE                         : DESCRIPTION
#_______________________________________________________________________________
STRT               .M        3500.0183                     : First reference value
STOP               .M        4094.9878                     : Last reference value
STEP               .M        0.1524                        : Step increment
NULL               .         -9999                         : Missing value
COMP               .         STATOIL PETROLEUM AS          : Company
WELL               .         15/9-19                       : Well name
FLD                .         VOLVE                         : Field
LOC                .         UNKNOWN                       : Location
CNTY               .         UNKNOWN                       : County
STAT               .         UNKNOWN                       : State
CTRY               .         NO                            : Country
SRVC               .         UNKNOWN                       : Service Company
DATE               .         UNKNOWN                       : Date
UWI                .         NO 15/9-19 SR                 : Unique Well ID
COUNTRY            .         Norway                        : COUNTRY
ELEV               .M        25.0000                       : SURFACE ELEV
ELEV_TYPE          .         KB                            : ELEV TYPE
GDAT               .                                       : Geodetic Datum
HZCS               .                                       : Horizontal Co-ordinate System
LAT                .         58.435286                     : LATITUDE
LON                .         1.928158                      : LONGITUDE
ORIGINALWELLNAME   .         15/9-19                       : 
X                  .                                       : X or East-West coordinate
XCOORD             .         1.928158                      : SURFACE X
Y                  .                                       : Y or North South coordinate
YCOORD             .         58.435286                     : SURFACE Y
~Parameter Information Block
#_______________________________________________________________________________
#
#PARAMETER_NAME    .UNIT     VALUE                         : DESCRIPTION
#_______________________________________________________________________________
SET                .         LQC                           : 
TLFamily_DEPTH     .         Measured Depth                : 
TLFamily_GR        .         Gamma Ray                     : 
TLFamily_VSH_GR_LarOlder .         Shale Volume                  : 
TLFamily_VSH_GR_LarTert .         Shale Volume                  : 
TLFamily_VSH_GR_linear .         Shale Volume                  : 
~Curve Information
#_______________________________________________________________________________
#
#LOGNAME           .UNIT     LOG_ID                        : DESCRIPTION
#_______________________________________________________________________________
DEPTH              .M                                      : Measured Depth 
GR                 .gAPI                                   : v1 
VSH_GR_LarOlder    .v/v                                    : Shale volume fraction from Gamma Ray 
VSH_GR_LarTert     .v/v                                    : Shale volume fraction from Gamma Ray 
VSH_GR_linear      .v/v                                    : Shale volume fraction from Gamma Ray 
~Ascii
# ...
3915.613   32.49      0.07324045 0.03725991 0.1445872 
3915.7656  37.62      0.09484692 0.04945165 0.1822385 
3915.918   35.691     0.08658981 0.04472864 0.1680808 
3916.0703  37.03      0.09230419 0.04798883 0.1779083 
3916.2227  35.2       0.08451381 0.04355359 0.1644771 
3916.375   30.9666    0.06703839 0.03386042 0.1334063 
3916.5276  34.437     0.0813083  0.04174902 0.1588771 
3916.6799  34.677     0.0823139  0.04231384 0.1606385 
3916.8323  37.302     0.09347453 0.04866119 0.1799046 
3916.9846  38.585     0.09903883 0.05187952 0.1893211 
3917.1372  40.748     0.1085857  0.05748438 0.2051964 
3917.2896  39.134     0.1014421  0.05328058 0.1933505 
3917.4419  39.231     0.1018681  0.05352963 0.1940624 
3917.5942  39.231     0.1018681  0.05352963 0.1940624 
3917.7468  39.963     0.1050966  0.05542383 0.1994349 
3917.8992  41.023     0.1098146  0.05821345 0.2072147 
3918.0515  38.371     0.09810567 0.0513373  0.1877505 
3918.2039  42.128     0.1147873  0.06118138 0.2153248 
3918.3562  42.85      0.1180668  0.06315422 0.2206239 
3918.5088  42.35      0.1157931  0.06178514 0.2169541 
3918.6611  41.309     0.1110963  0.05897571 0.2093138 
3918.8135  42.494     0.1164467  0.06217812 0.218011  
3918.9658  38.424     0.09833659 0.05147139 0.1881395 
3919.1184  39.871     0.1046895  0.05518432 0.1987596 
3919.2708  36.704     0.09090575 0.0471875  0.1755156 
3919.4231  30.923     0.0668623  0.03376455 0.1330862 
3919.5754  30.219     0.06402975 0.03222746 0.1279193 
3919.728   38.144     0.09711805 0.05076453 0.1860844 
3919.8804  38.195     0.09733973 0.050893   0.1864587 
3920.0327  41.495     0.1119318  0.05947366 0.2106789 
3920.1851  40.2       0.1061471  0.05604272 0.2011743 
3920.3374  37.029     0.09229989 0.04798637 0.1779009 
3920.49    32.351     0.07267056 0.03694567 0.143567  
3920.6423  35.763     0.08689509 0.04490186 0.1686092 
3920.7947  32.137     0.07179475 0.03646348 0.1419963 
3920.947   34.003     0.07949604 0.04073406 0.1556917 
3921.0996  29.736     0.0620981  0.03118461 0.1243743 
3921.252   27.556     0.05349683 0.02659395 0.1083743 
3921.4043  20.564     0.02716229 0.01307904 0.05705688
3921.5566  19.57      0.02356831 0.0112981  0.04976147
3921.7092  17.016     0.01449883 0.006872047 0.03101652
3921.8616  17.758     0.01710949 0.008136069 0.03646238
3922.0139  16.875     0.01400495 0.006633837 0.02998165
3922.1663  17.107     0.01481794 0.00702612 0.03168441
3922.3186  11.058     0          0          0         
3922.4712  12.315     0          0          0         
3922.6235  12.667     0          0          0         
3922.7759  14.102     0.004434746 0.002075278 0.00962936
3922.9282  13.483     0.00233506 0.001089777 0.005086238
3923.0808  16.921     0.01416599 0.00671148 0.03031926
3923.2332  14.539     0.005925057 0.002777966 0.01283669
3923.3855  17.369     0.01573836 0.007471192 0.03360734
3923.5378  18.482     0.01967589 0.009386566 0.04177615
3923.6904  15.479     0.009153314 0.004309203 0.01973578
3923.8428  11.234     0          0          0         
3923.9951  11.101     0          0          0         
3924.1475  12.483     0          0          0         
3924.2998  12.359     0          0          0         
3924.4524  16.178     0.01157399 0.005465548 0.02486605
3924.6047  14.212     0.004809258 0.002251612 0.0104367 
3924.7571  15.126     0.00793738 0.003730996 0.01714496
3924.9094  11.564     0          0          0         
3925.062   9.364000000000001 0          0          0         
3925.2144  9.859      0          0          0         
3925.3667  10.087     0          0          0         
3925.519   11.116     0          0          0         
3925.6716  12.967     0.0005948362 0.0002769911 0.001299083
3925.824   12.935     0.0004872173 0.0002268459 0.001064224
3925.9763  13.077     0.0009650473 0.0004495975 0.00210642
3926.1287  15.521     0.009298276 0.004378254 0.02004404
3926.281   18.876     0.02108048 0.01007428 0.04466789
3926.4336  19.342     0.02274904 0.01089427 0.04808807
3926.5859  22.738     0.03515063 0.01709229 0.07301285
3926.7383  20.442     0.02671922 0.01285866 0.05616147
3926.8906  16.133     0.01141763 0.005390646 0.02453578
3927.0432  14.521     0.005863542 0.002748909 0.01270459
3927.1956  9.81       0          0          0         
3927.3479  10.556     0          0          0         
3927.5002  9.5534     0          0          0         
3927.6528  11.247     0          0          0         
3927.8052  11.69      0          0          0         
3927.9575  12.141     0          0          0         
3928.1099  13.585     0.002680141 0.001251381 0.005834863
3928.2622  13.663     0.002944269 0.00137517 0.006407341
3928.4148  19.852     0.02458424 0.01179998 0.05183119
3928.5671  22.092     0.03275843 0.01588256 0.06827156
3928.7195  23.877     0.03940695 0.01926138 0.08137248
3928.8718  20.695     0.02763867 0.01331625 0.05801835
3929.0244  22.128     0.03289133 0.01594959 0.06853578
3929.1768  23.497     0.03798144 0.01853254 0.07858349
3929.3291  27.152     0.05192368 0.02576371 0.1054092 
3929.4814  19.394     0.02293572 0.01098622 0.04846972
3929.6338  24.166     0.04049477 0.01981919 0.08349358
3929.7864  23.942     0.03965133 0.01938657 0.08184954
3929.9387  28.437     0.05694989 0.02842652 0.1148404 
3930.0911  30.554     0.0653751  0.03295635 0.130378  
3930.2434  29.482     0.06108609 0.03063999 0.1225101 
3930.396   26.486     0.0493444  0.02440874 0.1005211 
3930.5483  22.477     0.03418223 0.01660175 0.07109725
3930.7007  20.448     0.026741   0.01286949 0.05620551
3930.853   21.178     0.02940055 0.01419591 0.0615633 
3931.0056  21.044     0.02891088 0.01395106 0.06057983
3931.158   20.76      0.02787527 0.01343417 0.05849542
3931.3103  26.407     0.04903961 0.02424913 0.09994128
3931.4626  28.688     0.05793936 0.02895421 0.1166826 
3931.615   23.894     0.03947084 0.01929411 0.08149724
3931.7676  34.545     0.0817605  0.04200287 0.1596697 
3931.9199  34.056     0.07971693 0.04085756 0.1560807 
3932.0723  35.911     0.08752334 0.04525866 0.1696954 
3932.2246  38.602     0.09911305 0.05192269 0.1894459 
3932.3772  36.087     0.0882717  0.04568428 0.1709872 
3932.5295  41.492     0.1119183  0.05946561 0.2106569 
3932.6819  39.515     0.1031178  0.05426144 0.1961468 
3932.8342  36.032     0.08803769 0.04555112 0.1705835 
3932.9868  40.194     0.1061204  0.05602702 0.2011303 
3933.1392  38.52      0.09875519 0.0517146  0.1888441 
3933.2915  35.449     0.08556531 0.04414813 0.1663046 
3933.4438  39.334     0.1023209  0.05379459 0.1948184 
3933.5962  42.831     0.1179802  0.06310197 0.2204844 
3933.7488  38.944     0.1006088  0.05279406 0.191956  
3933.9011  37.724     0.09529671 0.04971119 0.1830018 
3934.0535  39.81      0.1044198  0.05502575 0.1983119 
3934.2058  42.565     0.1167694  0.06237226 0.2185321 
3934.3584  43.81      0.1224648  0.06581926 0.2276697 
3934.5107  39.77      0.104243   0.05492187 0.1980184 
3934.6631  34.981     0.08359119 0.04303297 0.1628697 
3934.8154  33.794     0.07862617 0.04024825 0.1541578 
3934.968   28.769     0.05825921 0.02912503 0.1172771 
3935.1204  22.077     0.03270307 0.01585465 0.06816147
3935.2727  22.163     0.03302059 0.0160148  0.06879266
3935.425   33.675     0.07813172 0.03997248 0.1532844 
3935.5774  36.098     0.0883185  0.04571092 0.1710679 
3935.73    33.076     0.07565188 0.03859376 0.1488881 
3935.8823  34.047     0.07967941 0.04083659 0.1560147 
3936.0347  29.004     0.05918867 0.02962211 0.1190018 
3936.187   27.186     0.05205583 0.02583334 0.1056587 
3936.3396  21.395     0.03019495 0.01459373 0.06315597
3936.4919  21.829     0.03178902 0.01539426 0.06634129
3936.6443  15.312     0.008577527 0.004035181 0.0185101 
3936.7966  22.146     0.0329578  0.01598312 0.0686679 
3936.9492  35.868     0.08734071 0.0451549  0.1693798 
3937.1016  37.961     0.09632351 0.05030455 0.1847413 
3937.2539  56.955     0.1872134  0.1075971  0.3241468 
3937.4062  58.377     0.194751   0.1127676  0.3345835 
3937.5586  52.187     0.1627209  0.09123649 0.2891523 
