~Version
 VERS              .         2.0                           : CWLS LOG ASCII STANDARD - VERSION 2.0
 WRAP              .         NO                            : ONE LINE PER DEPTH STEP
 DLM               .         SPACE                         : DELIMITING CHARACTER(SPACE TAB OR COMMA)
~Well Information
#_______________________________________________________________________________
#
#PARAMETER_NAME    .UNIT     VALUE                         : DESCRIPTION
#_______________________________________________________________________________
STRT               .M        3500.0183                     : First reference value
STOP               .M        4094.9878                     : Last reference value
STEP               .M        0.1524                        : Step increment
NULL               .         -9999                         : Missing value
COMP               .         STATOIL PETROLEUM AS          : Company
WELL               .         15/9-19                       : Well name
FLD                .         VOLVE                         : Field
LOC                .         UNKNOWN                       : Location
CNTY               .         UNKNOWN                       : County
STAT               .         UNKNOWN                       : State
CTRY               .         NO                            : Country
SRVC               .         UNKNOWN                       : Service Company
DATE               .         UNKNOWN                       : Date
UWI                .         NO 15/9-19 SR                 : Unique Well ID
COUNTRY            .         Norway                        : COUNTRY
ELEV               .M        25.0000                       : SURFACE ELEV
ELEV_TYPE          .         KB                            : ELEV TYPE
GDAT               .                                       : Geodetic Datum
HZCS               .                                       : Horizontal Co-ordinate System
LAT                .         58.435286                     : LATITUDE
LON                .         1.928158                      : LONGITUDE
ORIGINALWELLNAME   .         15/9-19                       : 
X                  .                                       : X or East-West coordinate
XCOORD             .         1.928158                      : SURFACE X
Y                  .                                       : Y or North South coordinate
YCOORD             .         58.435286                     : SURFACE Y
~Parameter Information Block
#_______________________________________________________________________________
#
#PARAMETER_NAME    .UNIT     VALUE                         : DESCRIPTION
#_______________________________________________________________________________
SET                .         LQC                           : 
TLFamily_DEPTH     .         Measured Depth                : 
TLFamily_GR        .         Gamma Ray                     : 
TLFamily_VSH_GR_LarOlder .         Shale Volume                  : 
TLFamily_VSH_GR_LarTert .         Shale Volume                  : 
TLFamily_VSH_GR_linear .         Shale Volume                  : 
~Curve Information
#_______________________________________________________________________________
#
#LOGNAME           .UNIT     LOG_ID                        : DESCRIPTION
#_______________________________________________________________________________
DEPTH              .M                                      : Measured Depth 
GR                 .gAPI                                   : v1 
VSH_GR_LarOlder    .v/v                                    : Shale volume fraction from Gamma Ray 
VSH_GR_LarTert     .v/v                                    : Shale volume fraction from Gamma Ray 
VSH_GR_linear      .v/v                                    : Shale volume fraction from Gamma Ray 
~Ascii
# ...
3871.2646  16.174     0.01156009 0.005458889 0.0248367 
3871.417   13.982     0.004026666 0.00188333 0.008748627
3871.5696  13.057     0.0008977068 0.0004181886 0.001959634
3871.7219  13.51      0.002426371 0.001132525 0.005284406
3871.8743  13.772     0.003313721 0.001548461 0.007207342
3872.0266  13.638     0.002859588 0.001335473 0.00622385
3872.1792  13.072     0.0009482101 0.0004417438 0.002069722
3872.3315  15.227     0.008284836 0.00389604 0.01788624
3872.4839  14.039     0.004220439 0.00197445 0.00916697
3872.6362  12.119     0          0          0         
3872.7888  13.59      0.002697067 0.001259311 0.005871561
3872.9412  13.495     0.00237564 0.001108773 0.005174312
3873.0935  13.29      0.001683093 0.0007848453 0.003669725
3873.2458  14.122     0.004502807 0.002107311 0.009776145
3873.3982  16.898     0.01408547 0.006672652 0.03015047
3873.5508  16.829     0.01384399 0.006556261 0.02964404
3873.7031  17.458     0.01605159 0.007622883 0.03426055
3873.8555  19.187     0.02219317 0.01062073 0.04695046
3874.0078  19.415     0.02301115 0.01102339 0.04862386
3874.1604  18.195     0.01865628 0.008888818 0.03966973
3874.3127  21.856     0.03188842 0.01544428 0.06653946
3874.4651  21.821     0.03175956 0.01537944 0.06628256
3874.6174  22.196     0.03314249 0.01607632 0.06903486
3874.77    28.203     0.05602971 0.02793681 0.1131229 
3874.9224  27.368     0.05276397 0.02620682 0.1069945 
3875.0747  26.844     0.05072869 0.02513497 0.1031486 
3875.2271  33.813     0.07870518 0.04029233 0.1542972 
3875.3794  32.391     0.07283447 0.03703601 0.1438605 
3875.532   39.769     0.1042386  0.05491927 0.198011  
3875.6843  39.971     0.105132   0.05544467 0.1994936 
3875.8367  41.32      0.1111456  0.05900512 0.2093945 
3875.989   43.531     0.1211822  0.06503976 0.225622  
3876.1416  40.443     0.1072267  0.05668017 0.2029578 
3876.2939  39.705     0.103956   0.05475323 0.1975413 
3876.4463  35.385     0.08529478 0.04399505 0.1658349 
3876.5986  35.224     0.08461504 0.04361077 0.1646532 
3876.7512  37.5359    0.09448354 0.04924215 0.1816213 
3876.9036  33.583     0.07774986 0.03975972 0.1526092 
3877.0559  33.99      0.07944189 0.04070379 0.1555963 
3877.2083  32.474     0.0731748  0.03722369 0.1444697 
3877.3606  32.778     0.07442379 0.03791361 0.1467009 
3877.5132  33.258     0.07640376 0.03901102 0.1502239 
3877.6655  32.115     0.07170483 0.03641403 0.1418349 
3877.8179  34.379     0.08106565 0.0416129  0.1584514 
3877.9702  29.53      0.06127714 0.03074271 0.1228624 
3878.1228  29.593     0.06152803 0.03087767 0.1233248 
3878.2751  33.289     0.07653197 0.03908224 0.1504514 
3878.4275  33.579     0.07773326 0.03975047 0.1525798 
3878.5798  33.216     0.07623012 0.03891461 0.1499156 
3878.7324  29.897     0.06274093 0.03153117 0.125556  
3878.8848  33.146     0.0759409  0.03875408 0.1494018 
3879.0371  32.197     0.0720401  0.03659848 0.1424367 
3879.1895  29.123     0.05966017 0.02987466 0.1198752 
3879.3418  33.817     0.07872182 0.04030162 0.1543266 
3879.4944  34.984     0.08360383 0.0430401  0.1628918 
3879.6467  31.343     0.06856186 0.03469132 0.1361688 
3879.7991  30.119     0.06362905 0.03201077 0.1271853 
3879.9514  32.876     0.07482725 0.03813686 0.1474202 
3880.104   35.223     0.08461082 0.04360839 0.1646459 
3880.2563  37.511     0.09437602 0.04918018 0.1814386 
3880.4087  41.226     0.1107239  0.05875408 0.2087046 
3880.561   42.34      0.1157477  0.06175789 0.2168807 
3880.7136  40.47      0.1073469  0.05675117 0.203156  
3880.866   38.34      0.09797066 0.05125894 0.1875229 
3881.0183  38.86      0.100241   0.05257952 0.1913395 
3881.1707  37.924     0.09616304 0.05021174 0.1844697 
3881.323   35.829     0.08717514 0.04506085 0.1690936 
3881.4756  33.739     0.07839756 0.04012071 0.1537541 
3881.6279  32.297     0.07244938 0.03682381 0.1431707 
3881.7803  36.679     0.09079871 0.04712626 0.1753321 
3881.9326  31.942     0.07099835 0.0360258  0.1405651 
3882.0852  34.885     0.08318741 0.04280543 0.1621651 
3882.2375  33.921     0.07915454 0.04054323 0.1550899 
3882.3899  32.362     0.07271563 0.03697051 0.1436477 
3882.5422  37.833     0.09576865 0.04998376 0.1838018 
3882.6948  37.475     0.09422059 0.04909064 0.1811743 
3882.8472  43.032     0.1188973  0.06365579 0.2219597 
3882.9995  43.354     0.1203704  0.06454737 0.2243229 
3883.1519  45.366     0.1296851  0.07024245 0.2390899 
3883.3042  50.698     0.1553124  0.08642087 0.2782239 
3883.4568  52.671     0.1651533  0.0928311  0.2927046 
3883.6091  50.47      0.1541879  0.08569533 0.2765505 
3883.7615  51.056     0.1570834  0.08756639 0.2808514 
3883.9138  55.331     0.1787374  0.101859   0.3122275 
3884.0664  48.893     0.1464809  0.08076137 0.2649762 
3884.2188  39.151     0.1015167  0.0533242  0.1934752 
3884.3711  38.486     0.09860688 0.05162841 0.1885945 
3884.5234  34.452     0.08137107 0.04178424 0.1589872 
3884.676   29.979     0.06306874 0.03170809 0.1261578 
3884.8284  35.115     0.08415549 0.04335127 0.1638532 
3884.9807  32.493     0.07325275 0.0372667  0.1446092 
3885.1331  34.207     0.0803469  0.04121011 0.157189  
3885.2854  33.933     0.07920449 0.04057113 0.155178  
3885.438   31.734     0.07015061 0.0355607  0.1390385 
3885.5903  33.625     0.07792415 0.03985681 0.1529174 
3885.7427  36.342     0.08935831 0.04630342 0.1728587 
3885.895   33.434     0.07713217 0.0394159  0.1515156 
3886.0476  32.409     0.07290825 0.03707669 0.1439927 
3886.2     22.529     0.03437496 0.01669929 0.0714789 
3886.3523  23.29      0.03720723 0.0181377  0.07706423
3886.5046  23.016     0.03618494 0.01761742 0.07505322
3886.6572  19.955     0.02495603 0.01198395 0.05258716
3886.8096  20.386     0.02651603 0.01275767 0.05575046
3886.9619  20.941     0.02853495 0.01376327 0.05982386
3887.1143  20.759     0.02787163 0.01343235 0.05848808
3887.2666  19.623     0.02375902 0.01139222 0.05015045
3887.4192  24.871     0.04316193 0.02119272 0.0886679 
3887.5715  26.855     0.0507713  0.02515736 0.1032294 
3887.7239  27.664     0.05391847 0.02681697 0.109167  
3887.8762  27.3016    0.05250546 0.02607041 0.1065072 
3888.0288  28.026     0.05533513 0.02756782 0.1118238 
3888.1812  28.081     0.05555083 0.02768234 0.1122275 
3888.3335  30.985     0.06711273 0.0339009  0.1335413 
3888.4858  29.449     0.0609548  0.03056942 0.1222679 
3888.6384  30.325     0.06445495 0.0324576  0.1286973 
3888.7908  27.408     0.05291978 0.02628907 0.1072881 
3888.9431  32.831     0.07464194 0.0380343  0.1470899 
3889.0955  29.76      0.06219386 0.03123621 0.1245505 
3889.2478  28.854     0.05859514 0.02930457 0.1179009 
3889.4004  30.957     0.06699961 0.0338393  0.1333358 
3889.5527  31.39      0.0687525  0.03479548 0.1365138 
3889.7051  30.495     0.06513783 0.03282765 0.129945  
3889.8574  34.002     0.07949188 0.04073173 0.1556844 
3890.01    29.876     0.06265702 0.03148591 0.1254018 
3890.1624  31.013     0.06722588 0.03396253 0.1337468 
3890.3147  32.691     0.07406597 0.03771577 0.1460624 
3890.467   33.327     0.07668918 0.03916959 0.1507303 
3890.6196  32.447     0.07306406 0.03716261 0.1442716 
3890.772   33.896     0.07905047 0.04048511 0.1549064 
3890.9243  35.797     0.08703934 0.04498374 0.1688587 
3891.0767  35.117     0.0841639  0.04335603 0.1638679 
3891.229   35.211     0.0845602  0.04357979 0.1645578 
3891.3816  36.799     0.0913128  0.04742051 0.1762128 
3891.5339  36.042     0.08808022 0.04557532 0.1706569 
3891.6863  50.899     0.1563059  0.08706307 0.2796991 
3891.8386  54.466     0.1742796  0.09887348 0.3058789 
3891.9912  54.332     0.1735925  0.09841533 0.3048954 
3892.1436  53.96      0.17169    0.09714945 0.3021652 
3892.2959  51.074     0.1571726  0.08762419 0.2809835 
3892.4482  40.37      0.1069021  0.05648836 0.202422  
3892.6008  42.902     0.1183039  0.06329735 0.2210055 
3892.7532  34.278     0.08064343 0.04137621 0.1577101 
3892.9055  32.792     0.07448141 0.03794548 0.1468037 
3893.0579  30.253     0.06416608 0.03230122 0.1281688 
3893.2102  30.684     0.0658984  0.03324044 0.1313321 
