~Version
 VERS              .         2.0                           : CWLS LOG ASCII STANDARD - VERSION 2.0
 WRAP              .         NO                            : ONE LINE PER DEPTH STEP
 DLM               .         SPACE                         : DELIMITING CHARACTER(SPACE TAB OR COMMA)
~Well Information
#_______________________________________________________________________________
#
#PARAMETER_NAME    .UNIT     VALUE                         : DESCRIPTION
#_______________________________________________________________________________
STRT               .M        3500.0183                     : First reference value
STOP               .M        4094.9878                     : Last reference value
STEP               .M        0.1524                        : Step increment
NULL               .         -9999                         : Missing value
COMP               .         STATOIL PETROLEUM AS          : Company
WELL               .         15/9-19                       : Well name
FLD                .         VOLVE                         : Field
LOC                .         UNKNOWN                       : Location
CNTY               .         UNKNOWN                       : County
STAT               .         UNKNOWN                       : State
CTRY               .         NO                            : Country
SRVC               .         UNKNOWN                       : Service Company
DATE               .         UNKNOWN                       : Date
UWI                .         NO 15/9-19 SR                 : Unique Well ID
COUNTRY            .         Norway                        : COUNTRY
ELEV               .M        25.0000                       : SURFACE ELEV
ELEV_TYPE          .         KB                            : ELEV TYPE
GDAT               .                                       : Geodetic Datum
HZCS               .                                       : Horizontal Co-ordinate System
LAT                .         58.435286                     : LATITUDE
LON                .         1.928158                      : LONGITUDE
ORIGINALWELLNAME   .         15/9-19                       : 
X                  .                                       : X or East-West coordinate
XCOORD             .         1.928158                      : SURFACE X
Y                  .                                       : Y or North South coordinate
YCOORD             .         58.435286                     : SURFACE Y
~Parameter Information Block
#_______________________________________________________________________________
#
#PARAMETER_NAME    .UNIT     VALUE                         : DESCRIPTION
#_______________________________________________________________________________
SET                .         LQC                           : 
TLFamily_DEPTH     .         Measured Depth                : 
TLFamily_GR        .         Gamma Ray                     : 
TLFamily_VSH_GR_LarOlder .         Shale Volume                  : 
TLFamily_VSH_GR_LarTert .         Shale Volume                  : 
TLFamily_VSH_GR_linear .         Shale Volume                  : 
~Curve Information
#_______________________________________________________________________________
#
#LOGNAME           .UNIT     LOG_ID                        : DESCRIPTION
#_______________________________________________________________________________
DEPTH              .M                                      : Measured Depth 
GR                 .gAPI                                   : v1 
VSH_GR_LarOlder    .v/v                                    : Shale volume fraction from Gamma Ray 
VSH_GR_LarTert     .v/v                                    : Shale volume fraction from Gamma Ray 
VSH_GR_linear      .v/v                                    : Shale volume fraction from Gamma Ray 
~Ascii
# ...
3577.5898  16.45599937438965 0.01254152 0.005929686 0.02690642
3577.7424  16.34900093078613 0.01216881 0.005750758 0.02612111
3577.8948  17.2450008392334 0.01530244 0.007260276 0.03269726
3578.0471  16.93000030517578 0.01419751 0.00672668 0.03038532
3578.1995  18.89500045776367 0.02114836 0.01010757 0.04480734
3578.3518  19.16200065612793 0.0221036  0.01057669 0.04676698
3578.5044  17.82099914550781 0.01733205 0.008244207 0.03692477
3578.6567  19.48999977111816 0.02328063 0.01115621 0.04917431
3578.8091  20.67000007629395 0.02754771 0.01327094 0.05783487
3578.9614  19.26799964904785 0.02248355 0.01076358 0.04754495
3579.114   15.92199993133545 0.01068545 0.005040285 0.02298716
3579.2664  14.77000045776367 0.006715528 0.003151753 0.01453211
3579.4187  12.99600028991699 0.0006923983 0.0003224623 0.001511929
3579.571   12.79399967193604 0.0000134  0.0000062  0.0000294 
3579.7234  11.00100040435791 0          0          0         
3579.876   11.92129993438721 0          0          0         
3580.0283  12.42399978637695 0          0          0         
3580.1807  12.70199966430664 0          0          0         
3580.333   16.37299919128418 0.01225237 0.005790858 0.02629724
3580.4856  16.69400024414063 0.01337201 0.006328976 0.02865321
3580.6379  19.55999946594238 0.02353233 0.01128036 0.04968807
3580.7903  17.27400016784668 0.01540434 0.007309558 0.03291009
3580.9426  18.35600090026855 0.01922789 0.009167713 0.04085138
3581.0952  16.66399955749512 0.01326722 0.006278546 0.02843303
3581.2476  14.12800025939941 0.00452323 0.002116925 0.009820187
3581.3999  16.29299926757813 0.0119739  0.005657253 0.02571009
3581.5522  17.34199905395508 0.0156434  0.007425224 0.03340917
3581.7046  21.45199966430664 0.03040391 0.01469849 0.06357431
3581.8572  18.05900001525879 0.01817416 0.00865389 0.03867156
3582.0095  15.19200038909912 0.00816439 0.003838811 0.01762936
3582.1619  16.11300086975098 0.01134817 0.00535738 0.024389  
3582.3142  14.89599990844727 0.007147474 0.003356322 0.01545688
3582.4668  11.64799976348877 0          0          0         
3582.6191  8.015000343322754 0          0          0         
3582.7715  9.145000457763672 0          0          0         
3582.9238  7.019999980926514 0          0          0         
3583.0764  9.251999855041504 0          0          0         
3583.2288  7.026000022888184 0          0          0         
3583.3811  11.6540002822876 0          0          0         
3583.5334  23.07600021362305 0.03640855 0.01773112 0.07549358
3583.6858  28.86700057983398 0.05864655 0.02933206 0.1179963 
3583.8384  29.76099967956543 0.06219785 0.03123835 0.1245578 
3583.9907  30.62400054931641 0.0656568  0.03310924 0.1308918 
3584.1431  34.20800018310547 0.08035107 0.04121244 0.1571963 
3584.2954  34.42699813842773 0.08126644 0.04172553 0.1588037 
3584.448   32.70000076293945 0.07410296 0.03773622 0.1461285 
3584.6003  30.61400032043457 0.06561654 0.03308738 0.1308184 
3584.7527  25.47900009155273 0.04547753 0.02239199 0.09313028
3584.905   22.47800064086914 0.03418594 0.01660363 0.07110459
3585.0576  22.80500030517578 0.03539964 0.0172186  0.0735046 
3585.21    25.49699974060059 0.0455463  0.02242771 0.09326239
3585.3623  25.45199966430664 0.0453744  0.02233844 0.09293211
3585.5146  29.78400039672852 0.06228964 0.03128782 0.1247266 
3585.667   33.00500106811523 0.07535895 0.03843137 0.148367  
3585.8196  32.25899887084961 0.0722938  0.03673813 0.1428917 
3585.9719  30.26799964904785 0.06422625 0.03233378 0.1282789 
3586.1243  29.17700004577637 0.05987433 0.02998945 0.1202716 
3586.2766  25.29999923706055 0.04479431 0.02203749 0.09181651
3586.4292  20.58799934387207 0.02724952 0.01312246 0.05723302
3586.5815  20.17600059509277 0.02575509 0.0123799  0.05420918
3586.7339  19.51000022888184 0.02335253 0.01119167 0.0493211 
3586.8862  19.85700035095215 0.02460228 0.0118089  0.05186789
3587.0388  21.88199996948242 0.03198416 0.01549247 0.06673028
3587.1912  22.07699966430664 0.03270307 0.01585465 0.06816147
3587.3435  23.97699928283691 0.03978299 0.01945405 0.08210642
3587.4958  24.24799919128418 0.04080401 0.01997801 0.08409541
3587.6482  25.93600082397461 0.0472275  0.0233025  0.09648442
3587.8008  25.09000015258789 0.04399436 0.02162311 0.09027524
3587.9531  25.01399993896484 0.04370527 0.02147355 0.08971743
3588.1055  31.18600082397461 0.0679257  0.03434402 0.1350165 
3588.2578  27.08300018310547 0.05165565 0.02562254 0.1049028 
3588.4104  26.04400062561035 0.04764225 0.02351882 0.09727708
3588.5627  27.88999938964844 0.05480229 0.02728513 0.1108257 
3588.7151  28.94000053405762 0.05893532 0.02948652 0.1185321 
3588.8674  29.47599983215332 0.06106221 0.03062716 0.1224661 
3589.02    29.0669994354248 0.05943822 0.02975574 0.1194642 
3589.1724  25.42300033569336 0.04526366 0.02228096 0.09271927
3589.3247  24.72200012207031 0.04259664 0.02090091 0.08757432
3589.4771  23.89999961853027 0.0394934  0.01930566 0.08154128
3589.6294  24.70299911499023 0.04252461 0.02086375 0.08743486
3589.782   24.21100044250488 0.04066445 0.01990632 0.08382386
3589.9343  23.12299919128418 0.03658381 0.01782028 0.07583853
3590.0867  23.86700057983398 0.03936936 0.01924214 0.08129909
3590.239   23.41699981689453 0.03768203 0.01837976 0.07799634
3590.3916  26.12100028991699 0.04793822 0.02367332 0.09784221
3590.5439  27.38400077819824 0.05282629 0.02623971 0.1071119 
3590.6963  31.28000068664551 0.06830646 0.03455183 0.1357064 
3590.8486  29.72900009155273 0.06207018 0.03116957 0.1243229 
3591.0012  29.11660003662109 0.0596348  0.02986106 0.1198283 
3591.1536  26.02300071716309 0.04756157 0.02347673 0.09712294
3591.3059  28.10700035095215 0.05565284 0.02773653 0.1124184 
3591.4583  28.36300086975098 0.05665867 0.02827142 0.1142973 
3591.6106  26.03700065612793 0.04761535 0.02350479 0.0972257 
3591.7632  26.60600090026855 0.04980785 0.02465162 0.1014018 
3591.9155  31.66799926757813 0.06988198 0.0354135  0.1385541 
3592.0679  34.17399978637695 0.08020914 0.04113297 0.1569468 
3592.2202  35.71099853515625 0.08667457 0.04477673 0.1682275 
3592.3728  27.5939998626709 0.05364513 0.02667237 0.1086532 
3592.5251  27.73900032043457 0.05421155 0.02697212 0.1097174 
3592.6775  32.90900039672852 0.0749632  0.03821213 0.1476624 
3592.8298  36.1150016784668 0.08839087 0.04575212 0.1711927 
3592.9824  37.11000061035156 0.09264807 0.04818623 0.1784954 
3593.1348  49.9370002746582 0.1515692  0.08401132 0.2726386 
3593.2871  48.70600128173828 0.1455752  0.08018596 0.2636037 
3593.4395  41.90599822998047 0.1137838  0.06058015 0.2136954 
3593.5918  30.63299942016602 0.06569302 0.03312891 0.1309578 
3593.7444  27.89399909973145 0.05481796 0.02729343 0.110855  
3593.8967  22.59700012207031 0.03462715 0.01682699 0.07197799
3594.0491  18.69499969482422 0.02043453 0.009757716 0.04333945
3594.2014  19.59799957275391 0.02366905 0.01134782 0.04996697
3594.354   19.47800064086914 0.0232375  0.01113495 0.04908625
3594.5063  24.59000015258789 0.04209656 0.02064307 0.08660551
3594.6587  27.57900047302246 0.05358659 0.02664141 0.1085431 
3594.811   32.52899932861328 0.07340048 0.03734822 0.1448734 
3594.9636  29.80699920654297 0.06238145 0.03133731 0.1248954 
3595.116   35.25799942016602 0.0847585  0.04369183 0.1649028 
3595.2683  35.34700012207031 0.08513425 0.04390424 0.165556  
3595.4207  31.97500038146973 0.07113302 0.03609975 0.1408073 
3595.573   34.04199981689453 0.07965857 0.04082493 0.155978  
3595.7256  32.52199935913086 0.07337175 0.03733236 0.144822  
3595.8779  22.76199913024902 0.0352398  0.01713751 0.07318899
3596.0303  25.72299957275391 0.04641085 0.02287715 0.0949211 
3596.1826  25.87899971008301 0.04700879 0.02318851 0.09606606
3596.3352  21.68099975585938 0.03124462 0.01512053 0.06525505
3596.4875  22.10199928283691 0.03279534 0.01590117 0.06834495
3596.6399  18.73600006103516 0.02058075 0.00982933 0.04364037
3596.7922  19.94499969482422 0.02491992 0.01196608 0.05251376
3596.9448  17.10099983215332 0.01479689 0.007015952 0.03164037
3597.0972  17.99200057983398 0.01793689 0.008538375 0.03817982
