~Version
 VERS              .         2.0                           : CWLS LOG ASCII STANDARD - VERSION 2.0
 WRAP              .         NO                            : ONE LINE PER DEPTH STEP
 DLM               .         SPACE                         : DELIMITING CHARACTER(SPACE TAB OR COMMA)
~Well Information
#_______________________________________________________________________________
#
#PARAMETER_NAME    .UNIT     VALUE                         : DESCRIPTION
#_______________________________________________________________________________
STRT               .M        3500.0183                     : First reference value
STOP               .M        4094.9878                     : Last reference value
STEP               .M        0.1524                        : Step increment
NULL               .         -9999                         : Missing value
COMP               .         STATOIL PETROLEUM AS          : Company
WELL               .         15/9-19                       : Well name
FLD                .         VOLVE                         : Field
LOC                .         UNKNOWN                       : Location
CNTY               .         UNKNOWN                       : County
STAT               .         UNKNOWN                       : State
CTRY               .         NO                            : Country
SRVC               .         UNKNOWN                       : Service Company
DATE               .         UNKNOWN                       : Date
UWI                .         NO 15/9-19 SR                 : Unique Well ID
COUNTRY            .         Norway                        : COUNTRY
ELEV               .M        25.0000                       : SURFACE ELEV
ELEV_TYPE          .         KB                            : ELEV TYPE
GDAT               .                                       : Geodetic Datum
HZCS               .                                       : Horizontal Co-ordinate System
LAT                .         58.435286                     : LATITUDE
LON                .         1.928158                      : LONGITUDE
ORIGINALWELLNAME   .         15/9-19                       : 
X                  .                                       : X or East-West coordinate
XCOORD             .         1.928158                      : SURFACE X
Y                  .                                       : Y or North South coordinate
YCOORD             .         58.435286                     : SURFACE Y
~Parameter Information Block
#_______________________________________________________________________________
#
#PARAMETER_NAME    .UNIT     VALUE                         : DESCRIPTION
#_______________________________________________________________________________
SET                .         LQC                           : 
TLFamily_DEPTH     .         Measured Depth                : 
TLFamily_GR        .         Gamma Ray                     : 
TLFamily_VSH_GR_LarOlder .         Shale Volume                  : 
TLFamily_VSH_GR_LarTert .         Shale Volume                  : 
TLFamily_VSH_GR_linear .         Shale Volume                  : 
~Curve Information
#_______________________________________________________________________________
#
#LOGNAME           .UNIT     LOG_ID                        : DESCRIPTION
#_______________________________________________________________________________
DEPTH              .M                                      : Measured Depth 
GR                 .gAPI                                   : v1 
VSH_GR_LarOlder    .v/v                                    : Shale volume fraction from Gamma Ray 
VSH_GR_LarTert     .v/v                                    : Shale volume fraction from Gamma Ray 
VSH_GR_linear      .v/v                                    : Shale volume fraction from Gamma Ray 
~Ascii
# ...
4026.408   33.954     0.07929193 0.04061999 0.1553321 
4026.5603  38.022     0.09658819 0.0504577  0.185189  
4026.7126  39.18      0.1016441  0.05339863 0.1936881 
4026.865   42.586     0.1168648  0.06242974 0.2186862 
4027.0176  46.461     0.1348352  0.07343373 0.2471266 
4027.1699  56.939     0.1871292  0.1075397  0.3240294 
4027.3223  50.894     0.1562812  0.08704707 0.2796624 
4027.4746  52.132     0.1624452  0.0910562  0.2887487 
4027.6272  50.66      0.1551248  0.08629972 0.277945  
4027.7795  45.863     0.1320155  0.07168276 0.2427376 
4027.9319  46.581     0.1354031  0.0737875  0.2480074 
4028.0842  47.859     0.1414943  0.07760489 0.2573872 
4028.2368  45.382     0.1297599  0.07028861 0.2392074 
4028.3892  47.144     0.1380767  0.07545786 0.2521395 
4028.5415  49.936     0.1515643  0.08400817 0.2726312 
4028.6938  49.313     0.1485214  0.08206114 0.2680587 
4028.8462  46.918     0.1370016  0.07478521 0.2504807 
4028.9988  38.053     0.09672277 0.0505356  0.1854165 
4029.1511  34.718     0.08248593 0.04241059 0.1609394 
4029.3035  40.985     0.1096446  0.05811249 0.2069358 
4029.4558  34.109     0.07993793 0.04098119 0.1564697 
4029.6084  33.803     0.0786636  0.04026913 0.1542239 
4029.7607  33.596     0.0778038  0.03978976 0.1527046 
4029.9131  36.567     0.09031945 0.04685222 0.1745101 
4030.0654  32.619     0.07377005 0.03755227 0.1455339 
4030.218   41.087     0.1101011  0.05838368 0.2076844 
4030.3704  37.36      0.09372452 0.04880502 0.1803303 
4030.5227  31.531     0.06932497 0.03510853 0.1375486 
4030.675   28.534     0.05733198 0.02863015 0.1155523 
4030.8274  29.724     0.06205023 0.03115882 0.1242862 
4030.98    31.32      0.0684686  0.03464037 0.136     
4031.1323  33.812     0.07870103 0.04029001 0.1542899 
4031.2847  30.075     0.06345287 0.03191556 0.1268624 
4031.437   32.474     0.0731748  0.03722369 0.1444697 
4031.5896  28.967     0.05904218 0.0295437  0.1187303 
4031.7419  33.39      0.07694995 0.03931456 0.1511927 
4031.8943  32.048     0.07143107 0.03626352 0.1413431 
4032.0466  37.504     0.09434579 0.04916277 0.1813872 
4032.1992  50.572     0.1546906  0.08601952 0.2772991 
4032.3516  50.556     0.1546117  0.08596863 0.2771817 
4032.5039  52.789     0.1657481  0.09322208 0.2935707 
4032.6562  50.508     0.1543751  0.08581603 0.2768294 
4032.8086  48.78      0.1459334  0.08041341 0.2641468 
4032.9612  48.458     0.1443767  0.07942595 0.2617835 
4033.1135  46.506     0.1350481  0.0735663  0.2474569 
4033.2659  45.763     0.1315457  0.07139188 0.2420037 
4033.4182  44.452     0.12543    0.06762856 0.2323817 
4033.5708  46.929     0.1370539  0.07481789 0.2505615 
4033.7231  46.837     0.1366169  0.07454483 0.2498863 
4033.8755  43.9644    0.1231762  0.0662524  0.2288029 
4034.0278  45.846     0.1319356  0.07163328 0.2426129 
4034.1804  50.805     0.1558411  0.08676244 0.2790092 
4034.3328  48.957     0.1467913  0.08095877 0.2654459 
4034.4851  50.434     0.1540105  0.08558104 0.2762862 
4034.6375  54.063     0.1722161  0.09749907 0.3029211 
4034.7898  50.392     0.1538038  0.08544783 0.275978  
4034.9424  48.656     0.1453333  0.08003244 0.2632367 
4035.0947  50.728     0.1554606  0.08651657 0.2784441 
4035.2471  49.982     0.1517897  0.08415284 0.2729688 
4035.3994  46.155     0.1333902  0.07253529 0.2448807 
4035.552   44.753     0.1268269  0.0684844  0.2345908 
4035.7043  49.491     0.1493888  0.08261511 0.2693652 
4035.8567  43.052     0.1189886  0.063711   0.2221064 
4036.009   47.939     0.1418782  0.07784691 0.2579743 
4036.1616  49.426     0.1490719  0.0824126  0.2688881 
4036.314   44.125     0.1239173  0.06670427 0.2299817 
4036.4663  45.126     0.1285639  0.06955173 0.2373285 
4036.6187  49.134     0.1476507  0.08150593 0.266745  
4036.771   43.774     0.1222991  0.06571845 0.2274055 
4036.9236  43.059     0.1190206  0.06373033 0.2221578 
4037.0759  44.247     0.1244811  0.06704845 0.2308771 
4037.2283  42.215     0.1151812  0.0614177  0.2159633 
4037.3806  40.257     0.1064001  0.05619198 0.2015927 
4037.5332  35.408     0.08539199 0.04405005 0.1660037 
4037.6855  30.484     0.0650936  0.03280366 0.1298642 
4037.8379  33.62      0.07790339 0.03984524 0.1528807 
4037.9902  29.611     0.06159974 0.03091626 0.1234569 
4038.1428  30.798     0.06635788 0.03349014 0.1321688 
4038.2952  45.662     0.1310716  0.07109863 0.2412624 
4038.4475  46.097     0.1331168  0.07236558 0.2444551 
4038.5999  47.255     0.1386056  0.07578929 0.2529542 
4038.7522  47.496     0.1397561  0.07651124 0.2547229 
4038.9048  48.836     0.1462046  0.08058576 0.2645578 
4039.0571  53.602     0.169866   0.09593958 0.2995376 
4039.2095  51.194     0.1577678  0.08801003 0.2818642 
4039.3618  52.669     0.1651432  0.09282447 0.2926899 
4039.5144  41.662     0.1126834  0.05992222 0.2119046 
4039.6667  32.81      0.07455549 0.03798647 0.1469358 
4039.8191  33.627     0.07793244 0.03986143 0.1529321 
4039.9714  31.305     0.06840779 0.03460716 0.1358899 
4040.124   31.428     0.0689067  0.03487977 0.1367927 
4040.2764  29.67      0.06183489 0.03104284 0.1238899 
4040.4287  35.512     0.08583178 0.044299   0.166767  
4040.5811  42.491     0.1164331  0.06216992 0.217989  
4040.7334  43.383     0.1205033  0.06462792 0.2245358 
4040.886   54.219     0.1730139  0.09802987 0.3040661 
4041.0383  56.161     0.1830518  0.1047697  0.3183193 
4041.1907  56.999     0.187445   0.1077551  0.3244697 
4041.343   53.639     0.1700542  0.09606424 0.2998092 
4041.4956  51.211     0.1578522  0.08806475 0.281989  
4041.6479  49.468     0.1492767  0.08254342 0.2691963 
4041.8003  45.08      0.1283494  0.0694197  0.2369909 
4041.9526  31.292     0.0683551  0.03457839 0.1357945 
4042.1052  30.378     0.06466772 0.03257284 0.1290862 
4042.2576  32.047     0.07142699 0.03626128 0.1413358 
4042.4099  31.015     0.06723396 0.03396693 0.1337615 
4042.5623  45.093     0.12841    0.06945699 0.2370862 
4042.7146  44.785     0.1269757  0.06857568 0.2348257 
4042.8672  51.699     0.1602805  0.08964334 0.2855707 
4043.0195  50.962     0.1566178  0.08726487 0.2801615 
4043.1719  52.734     0.1654708  0.09303974 0.293167  
4043.3242  54.349     0.1736796  0.09847338 0.3050202 
4043.4768  47.237     0.1385198  0.07573549 0.252822  
4043.6292  44.463     0.125481   0.06765976 0.2324624 
4043.7815  40.716     0.1084429  0.05739978 0.2049615 
4043.9338  48.147     0.142878   0.07847789 0.2595009 
4044.0864  56.093     0.182697   0.1045296  0.3178202 
4044.2388  55.344     0.1788047  0.1019042  0.312323  
4044.3911  69.631     0.2584131  0.1589578  0.4171816 
4044.5435  81.61499999999999 0.3347175  0.2201838  0.5051376 
4044.6958  76.383     0.3002575  0.1917487  0.4667377 
4044.8484  77.371     0.3066251  0.196906   0.473989  
4045.0007  75.5183    0.2947368  0.187313   0.4603912 
4045.1531  76.336     0.2999561  0.1915057  0.4663927 
4045.3054  77.679     0.3086233  0.1985335  0.4762496 
4045.458   74.893     0.2907747  0.18415    0.4558018 
4045.6104  78.715     0.3153906  0.2040775  0.4838532 
4045.7627  73.866     0.2843218  0.1790352  0.4482642 
4045.915   75.337     0.2935854  0.1863921  0.4590605 
4046.0676  75.64700000000001 0.2955554  0.1879686  0.4613358 
4046.22    67.411     0.2452712  0.1490554  0.4008881 
4046.3723  68.682     0.2527589  0.1546741  0.4102165 
4046.5247  66.015     0.2371579  0.1430371  0.3906422 
4046.677   54.332     0.1735925  0.09841533 0.3048954 
4046.8296  54.586     0.1748957  0.09928475 0.3067596 
4046.9819  54.42      0.1740436  0.09871607 0.3055413 
4047.1343  57.792     0.1916369  0.1106238  0.3302899 
4047.2866  58.33      0.1945001  0.1125945  0.3342386 
4047.4392  57.871     0.1920563  0.1109119  0.3308697 
4047.5916  61.443     0.2113789  0.1243981  0.3570863 
4047.7439  64.428     0.2280735  0.1363847  0.3789945 
4047.8962  64.684     0.229529   0.1374444  0.3808734 
4048.0488  64.861     0.2305375  0.1381801  0.3821725 
4048.2012  71.846     0.2718246  0.169259   0.4334386 
4048.3535  63.707     0.2239945  0.1334275  0.3737028 
4048.5059  67.871     0.24797    0.1510734  0.4042643 
