~Version
 VERS              .         2.0                           : CWLS LOG ASCII STANDARD - VERSION 2.0
 WRAP              .         NO                            : ONE LINE PER DEPTH STEP
 DLM               .         SPACE                         : DELIMITING CHARACTER(SPACE TAB OR COMMA)
~Well Information
#_______________________________________________________________________________
#
#PARAMETER_NAME    .UNIT     VALUE                         : DESCRIPTION
#_______________________________________________________________________________
STRT               .M        3500.0183                     : First reference value
STOP               .M        4094.9878                     : Last reference value
STEP               .M        0.1524                        : Step increment
NULL               .         -9999                         : Missing value
COMP               .         STATOIL PETROLEUM AS          : Company
WELL               .         15/9-19                       : Well name
FLD                .         VOLVE                         : Field
LOC                .         UNKNOWN                       : Location
CNTY               .         UNKNOWN                       : County
STAT               .         UNKNOWN                       : State
CTRY               .         NO                            : Country
SRVC               .         UNKNOWN                       : Service Company
DATE               .         UNKNOWN                       : Date
UWI                .         NO 15/9-19 SR                 : Unique Well ID
COUNTRY            .         Norway                        : COUNTRY
ELEV               .M        25.0000                       : SURFACE ELEV
ELEV_TYPE          .         KB                            : ELEV TYPE
GDAT               .                                       : Geodetic Datum
HZCS               .                                       : Horizontal Co-ordinate System
LAT                .         58.435286                     : LATITUDE
LON                .         1.928158                      : LONGITUDE
ORIGINALWELLNAME   .         15/9-19                       : 
X                  .                                       : X or East-West coordinate
XCOORD             .         1.928158                      : SURFACE X
Y                  .                                       : Y or North South coordinate
YCOORD             .         58.435286                     : SURFACE Y
~Parameter Information Block
#_______________________________________________________________________________
#
#PARAMETER_NAME    .UNIT     VALUE                         : DESCRIPTION
#_______________________________________________________________________________
SET                .         LQC                           : 
TLFamily_DEPTH     .         Measured Depth                : 
TLFamily_GR        .         Gamma Ray                     : 
TLFamily_VSH_GR_LarOlder .         Shale Volume                  : 
TLFamily_VSH_GR_LarTert .         Shale Volume                  : 
TLFamily_VSH_GR_linear .         Shale Volume                  : 
~Curve Information
#_______________________________________________________________________________
#
#LOGNAME           .UNIT     LOG_ID                        : DESCRIPTION
#_______________________________________________________________________________
DEPTH              .M                                      : Measured Depth 
GR                 .gAPI                                   : v1 
VSH_GR_LarOlder    .v/v                                    : Shale volume fraction from Gamma Ray 
VSH_GR_LarTert     .v/v                                    : Shale volume fraction from Gamma Ray 
VSH_GR_linear      .v/v                                    : Shale volume fraction from Gamma Ray 
~Ascii
# ...
3637.3308  34.04399871826172 0.07966691 0.04082959 0.1559927 
3637.4832  32.20199966430664 0.07206056 0.03660974 0.1424734 
3637.6355  29.17900085449219 0.05988226 0.0299937  0.1202862 
3637.7878  27.62100028991699 0.05375054 0.02672813 0.1088514 
3637.9404  31.72200012207031 0.07010175 0.03553392 0.1389505 
3638.0928  35.5620002746582 0.08604337 0.04441886 0.167134  
3638.2451  38.02199935913086 0.09658819 0.0504577  0.185189  
3638.3975  39.54999923706055 0.1032721  0.0543519  0.1964037 
3638.5498  38.1609992980957 0.09719193 0.05080733 0.1862092 
3638.7024  40.10699844360352 0.1057345  0.05579953 0.2004917 
3638.8547  38.61199951171875 0.09915671 0.05194809 0.1895193 
3639.0071  33.51300048828125 0.07745956 0.03959807 0.1520954 
3639.1594  36.09500122070313 0.08830574 0.04570366 0.1710459 
3639.312   32.05599975585938 0.07146374 0.03628148 0.1414018 
3639.4644  34.23199844360352 0.08045127 0.04126856 0.1573725 
3639.6167  37.61999893188477 0.09484692 0.04945165 0.1822385 
3639.769   44.02999877929688 0.1234787  0.0664368  0.2292844 
3639.9216  39.18899917602539 0.1016836  0.05342174 0.1937541 
3640.074   37.19100189208984 0.09299655 0.0483864  0.1790899 
3640.2263  32.3120002746582 0.0725108  0.03685765 0.1432807 
3640.3787  36.14599990844727 0.08852285 0.04582727 0.1714202 
3640.531   46.22999954223633 0.1337439  0.07275502 0.2454312 
3640.6836  45.56499862670898 0.1306168  0.07081753 0.2405505 
3640.8359  44.53799819946289 0.1258287  0.06787259 0.2330128 
3640.9883  44.95199966430664 0.1277528  0.0690529  0.2360514 
3641.1406  44.49599838256836 0.1256339  0.06775337 0.2327046 
3641.2932  39.66400146484375 0.103775   0.05464695 0.1972404 
3641.4456  43.18099975585938 0.1195783  0.06406767 0.2230532 
3641.5979  41.89400100708008 0.1137296  0.06054772 0.2136074 
3641.7502  38.34370040893555 0.09798678 0.05126829 0.1875501 
3641.9028  34.81700134277344 0.08290165 0.04264452 0.1616661 
3642.0552  35.5629997253418 0.0860476  0.04442126 0.1671413 
3642.2075  37.62900161743164 0.09488583 0.0494741  0.1823046 
3642.3599  42.17100143432617 0.1149819  0.06129814 0.2156404 
3642.5122  36.14799880981445 0.08853137 0.04583211 0.1714349 
3642.6648  41.72499847412109 0.1129672  0.0600918  0.212367  
3642.8171  36.48699951171875 0.08997746 0.04665682 0.1739229 
3642.9695  38.21599960327148 0.09743106 0.05094593 0.1866128 
3643.1218  37.96699905395508 0.09634953 0.0503196  0.1847853 
3643.2744  40.87099838256836 0.1091349  0.05781    0.2060991 
3643.4268  38.36600112915039 0.0980839  0.05132466 0.1877138 
3643.5791  34.62400054931641 0.08209162 0.04218889 0.1602495 
3643.7314  36.54899978637695 0.09024248 0.04680822 0.174378  
3643.8838  34.32199859619141 0.0808273  0.04147926 0.158033  
3644.0364  33.27899932861328 0.0764906  0.03905926 0.150378  
3644.1887  30.87700080871582 0.0666766  0.0336635  0.1327486 
3644.3411  29.37299919128418 0.0606526  0.03040707 0.1217101 
3644.4934  33.56600189208984 0.07767935 0.03972045 0.1524844 
3644.646   33.61700057983398 0.07789095 0.03983831 0.1528587 
3644.7983  32.40000152587891 0.07287136 0.03705635 0.1439266 
3644.9507  37.44300079345703 0.0940825  0.0490111  0.1809395 
3645.103   35.35100173950195 0.08515115 0.0439138  0.1655853 
3645.2556  37.07199859619141 0.09248468 0.04809242 0.1782165 
3645.408   36.44400024414063 0.08979376 0.04655192 0.1736073 
3645.5603  36.47100067138672 0.0899091  0.04661778 0.1738055 
3645.7126  35.55599975585938 0.08601797 0.04440447 0.1670899 
3645.865   37.19800186157227 0.09302668 0.04840372 0.1791413 
3646.0176  35.51300048828125 0.085836   0.04430139 0.1667743 
3646.1699  38.18199920654297 0.09728321 0.05086024 0.1863633 
3646.3223  34.37799835205078 0.08106145 0.04161055 0.158444  
3646.4746  34.36199951171875 0.08099455 0.04157303 0.1583266 
3646.6272  34.64599990844727 0.08218388 0.04224075 0.160411  
3646.7795  35.78400039672852 0.08698418 0.04495243 0.1687633 
3646.9319  29.04599952697754 0.05935502 0.02971118 0.1193101 
3647.0842  26.33200073242188 0.04875048 0.02409784 0.09939083
3647.2368  30.5049991607666 0.06517802 0.03284945 0.1300184 
3647.3892  29.18199920654297 0.05989416 0.03000008 0.1203083 
3647.5415  30.10099983215332 0.06355696 0.03197181 0.1270532 
3647.6938  27.16699981689453 0.05198197 0.02579442 0.1055193 
3647.8462  24.61800003051758 0.04220258 0.02069771 0.08681101
3647.9988  28.91399955749512 0.05883244 0.02943148 0.1183413 
3648.1511  30.5629997253418 0.0654113  0.03297599 0.130444  
3648.3035  28.43000030517578 0.05692234 0.02841184 0.114789  
3648.4558  27.58600044250488 0.05361391 0.02665586 0.1085945 
3648.6084  29.49799919128418 0.06114976 0.03067422 0.1226275 
3648.7607  31.07900047302246 0.06749272 0.03410792 0.1342312 
3648.9131  41.31999969482422 0.1111456  0.05900512 0.2093945 
3649.0654  43.20000076293945 0.1196652  0.06412029 0.2231927 
3649.218   38.96900177001953 0.1007184  0.05285798 0.1921395 
3649.3704  39.86999893188477 0.1046851  0.05518172 0.1987523 
3649.5227  34.30699920654297 0.08076461 0.04144412 0.1579229 
3649.675   39.96599960327148 0.1051099  0.05543164 0.1994569 
3649.8274  39.49599838256836 0.1030341  0.05421235 0.1960073 
3649.98    43.29199981689453 0.1200864  0.06437527 0.2238679 
3650.1323  47.76599884033203 0.1410484  0.07732398 0.2567046 
3650.2847  47.84400177001953 0.1414224  0.07755955 0.2572771 
3650.437   51.11100006103516 0.1573561  0.08774307 0.2812551 
3650.5896  57.38000106811523 0.1894548  0.109128   0.3272661 
3650.7419  57.125     0.1881088  0.108208   0.3253945 
3650.8943  51.6150016784668 0.1598616  0.08937059 0.2849542 
3651.0466  35.41699981689453 0.08543003 0.04407157 0.1660697 
3651.1992  31.7189998626709 0.07008954 0.03552723 0.1389284 
3651.3516  29.70100021362305 0.0619585  0.03110941 0.1241174 
3651.5039  26.23800086975098 0.04838841 0.02390851 0.09870093
3651.6562  18.15399932861328 0.01851087 0.008817931 0.0393688 
3651.8086  18.59600067138672 0.02008172 0.009585027 0.04261285
3651.9612  21.5620002746582 0.0308075  0.01490099 0.06438166
3652.1135  21.90500068664551 0.03206889 0.01553512 0.06689909
3652.2659  18.3390007019043 0.01916749 0.009138225 0.04072661
3652.4182  17.52099990844727 0.01627348 0.007730412 0.03472294
3652.5708  19.98399925231934 0.02506078 0.01203582 0.0528    
3652.7231  23.84199905395508 0.03927542 0.01919403 0.0811156 
3652.8755  31.11739921569824 0.06764805 0.0341926  0.134513  
3653.0278  37.56100082397461 0.09459196 0.04930464 0.1818055 
3653.1804  39.11299896240234 0.1013499  0.05322672 0.1931963 
3653.3328  34.25699996948242 0.0805557  0.04132706 0.157556  
3653.4851  30.125     0.06365307 0.03202376 0.1272294 
3653.6375  26.13899993896484 0.04800745 0.02370947 0.09797432
3653.7898  25.50399971008301 0.04557305 0.0224416  0.09331376
3653.9424  26.17499923706055 0.04814593 0.0237818  0.09823854
3654.0947  31.35600090026855 0.06861458 0.03472012 0.1362642 
3654.2471  33.90999984741211 0.07910874 0.04051765 0.1550092 
3654.3994  38.14199829101563 0.09710935 0.05075949 0.1860697 
3654.552   41.42399978637695 0.1116127  0.05928338 0.2101578 
3654.7043  46.11700057983398 0.1332111  0.07242408 0.2446018 
3654.8567  45.39699935913086 0.1298301  0.07033189 0.2393174 
3655.009   43.79800033569336 0.1224095  0.06578565 0.2275817 
3655.1616  45.62300109863281 0.1308887  0.07098556 0.2409762 
3655.314   46.42499923706055 0.1346649  0.07332777 0.2468624 
3655.4663  46.22200012207031 0.1337062  0.07273157 0.2453725 
3655.6187  42.09000015258789 0.1146154  0.0610783  0.2150459 
3655.771   42.70299911499023 0.1173971  0.06275038 0.219545  
3655.9236  44.52500152587891 0.1257684  0.06783569 0.2329175 
3656.0759  44.28300094604492 0.1246476  0.06715017 0.2311413 
3656.2283  48.58200073242188 0.1449755  0.07980552 0.2626936 
3656.3806  46.14400100708008 0.1333383  0.0725031  0.2448    
3656.5332  41.2599983215332 0.1108764  0.05884482 0.2089541 
3656.6855  43.04499816894531 0.1189566  0.06369167 0.222055  
3656.8379  46.65299987792969 0.1357441  0.07400012 0.2485358 
3656.9902  46.59600067138672 0.1354741  0.07383177 0.2481174 
