~Version
 VERS              .         2.0                           : CWLS LOG ASCII STANDARD - VERSION 2.0
 WRAP              .         NO                            : ONE LINE PER DEPTH STEP
 DLM               .         SPACE                         : DELIMITING CHARACTER(SPACE TAB OR COMMA)
~Well Information
#_______________________________________________________________________________
#
#PARAMETER_NAME    .UNIT     VALUE                         : DESCRIPTION
#_______________________________________________________________________________
STRT               .M        3500.0183                     : First reference value
STOP               .M        4094.9878                     : Last reference value
STEP               .M        0.1524                        : Step increment
NULL               .         -9999                         : Missing value
COMP               .         STATOIL PETROLEUM AS          : Company
WELL               .         15/9-19                       : Well name
FLD                .         VOLVE                         : Field
LOC                .         UNKNOWN                       : Location
CNTY               .         UNKNOWN                       : County
STAT               .         UNKNOWN                       : State
CTRY               .         NO                            : Country
SRVC               .         UNKNOWN                       : Service Company
DATE               .         UNKNOWN                       : Date
UWI                .         NO 15/9-19 SR                 : Unique Well ID
COUNTRY            .         Norway                        : COUNTRY
ELEV               .M        25.0000                       : SURFACE ELEV
ELEV_TYPE          .         KB                            : ELEV TYPE
GDAT               .                                       : Geodetic Datum
HZCS               .                                       : Horizontal Co-ordinate System
LAT                .         58.435286                     : LATITUDE
LON                .         1.928158                      : LONGITUDE
ORIGINALWELLNAME   .         15/9-19                       : 
X                  .                                       : X or East-West coordinate
XCOORD             .         1.928158                      : SURFACE X
Y                  .                                       : Y or North South coordinate
YCOORD             .         58.435286                     : SURFACE Y
~Parameter Information Block
#_______________________________________________________________________________
#
#PARAMETER_NAME    .UNIT     VALUE                         : DESCRIPTION
#_______________________________________________________________________________
SET                .         LQC                           : 
TLFamily_DEPTH     .         Measured Depth                : 
TLFamily_GR        .         Gamma Ray                     : 
TLFamily_VSH_GR_LarOlder .         Shale Volume                  : 
TLFamily_VSH_GR_LarTert .         Shale Volume                  : 
TLFamily_VSH_GR_linear .         Shale Volume                  : 
~Curve Information
#_______________________________________________________________________________
#
#LOGNAME           .UNIT     LOG_ID                        : DESCRIPTION
#_______________________________________________________________________________
DEPTH              .M                                      : Measured Depth 
GR                 .gAPI                                   : v1 
VSH_GR_LarOlder    .v/v                                    : Shale volume fraction from Gamma Ray 
VSH_GR_LarTert     .v/v                                    : Shale volume fraction from Gamma Ray 
VSH_GR_linear      .v/v                                    : Shale volume fraction from Gamma Ray 
~Ascii
# ...
4070.604   59.572     0.2011702  0.117221   0.3433541 
4070.7563  67.10599999999999 0.2434887  0.147727   0.3986496 
4070.9087  67.922     0.2482699  0.1512982  0.4046385 
4071.061   69.858     0.2597737  0.1599939  0.4188477 
4071.2136  72.172     0.2738241  0.1708117  0.4358312 
4071.366   65.85899999999999 0.2362584  0.1423743  0.3894973 
4071.5183  73.70399999999999 0.28331    0.1782375  0.4470753 
4071.6707  76.58499999999999 0.3015541  0.1927953  0.4682202 
4071.823   81.843     0.3362613  0.2214877  0.506811  
4071.9756  79.78      0.322422   0.2098905  0.4916697 
4072.1279  63.861     0.2248632  0.1340557  0.374833  
4072.2803  55.584     0.1800486  0.1027414  0.3140844 
4072.4326  54.393     0.1739052  0.09862375 0.3053432 
4072.5852  50.874     0.1561823  0.08698306 0.2795156 
4072.7375  49.746     0.1506342  0.08341195 0.2712367 
4072.8899  47.775     0.1410915  0.07735115 0.2567707 
4073.0422  41.859     0.1135716  0.06045319 0.2133505 
4073.1948  43.953     0.1231236  0.06622037 0.2287193 
4073.3472  41.85      0.113531   0.06042888 0.2132844 
4073.4995  43.107     0.1192399  0.06386296 0.2225101 
4073.6519  44.703     0.1265946  0.0683419  0.2342239 
4073.8042  49.948     0.1516231  0.08404591 0.2727193 
4073.9568  54.14      0.1726097  0.09776086 0.3034863 
4074.1091  51.512     0.1593485  0.08903672 0.2841982 
4074.2615  52.361     0.163594   0.09180809 0.2904294 
4074.4138  47.379     0.1391972  0.07616035 0.2538643 
4074.5664  56.482     0.1847302  0.1059077  0.3206752 
4074.7188  48.933     0.1466748  0.08088471 0.2652697 
4074.8711  61.171     0.2098827  0.1233389  0.3550899 
4075.0234  61.943     0.21414    0.1263592  0.360756  
4075.176   65.408     0.2336659  0.1404691  0.3861872 
4075.3284  68.871     0.2538806  0.1555211  0.4116037 
4075.4807  69.992     0.2605783  0.1606075  0.4198312 
4075.6331  68.58199999999999 0.2521662  0.1542271  0.4094826 
4075.7854  66.599     0.240538   0.1455355  0.3949285 
4075.938   62.344     0.2163647  0.1279455  0.3636991 
4076.0903  65.64700000000001 0.2350383  0.1414768  0.3879413 
4076.2427  74.596     0.2889016  0.1826607  0.453622  
4076.395   73.06999999999999 0.2793665  0.1751384  0.442422  
4076.5476  76.145     0.2987331  0.1905206  0.4649908 
4076.7     76.227     0.2992579  0.1909431  0.4655927 
4076.8523  67.232     0.2442244  0.1482748  0.3995743 
4077.0046  72.086     0.273296   0.1704012  0.4352    
4077.1572  67.636     0.2465897  0.1500403  0.4025395 
4077.3096  68.63200000000001 0.2524625  0.1544505  0.4098496 
4077.4619  68.026     0.2488822  0.1517573  0.4054019 
4077.6143  66.208     0.2382727  0.1438597  0.3920587 
4077.7666  63.478     0.2227052  0.1324966  0.372022  
4077.9192  56.55      0.1850865  0.1061497  0.3211743 
4078.0715  60.189     0.2045153  0.1195599  0.3478826 
4078.2239  48.114     0.1427192  0.07837762 0.2592587 
4078.3762  46.9414    0.1371128  0.07485472 0.2506525 
4078.5288  47.095     0.1378434  0.07531178 0.2517798 
4078.6812  53.421     0.1689463  0.09533097 0.2982092 
4078.8335  55.571     0.1799812  0.102696   0.313989  
4078.9858  57.95      0.1924761  0.1112005  0.3314496 
4079.1384  49.631     0.1500722  0.08305212 0.2703927 
4079.2908  51.597     0.1597719  0.08931219 0.284822  
4079.4431  50.488     0.1542766  0.08575249 0.2766826 
4079.5955  58.771     0.1968589  0.1142249  0.3374752 
4079.7478  61.342     0.2108228  0.1240041  0.356345  
4079.9004  51.787     0.1607197  0.08992954 0.2862165 
4080.0527  44.414     0.125254   0.06752086 0.2321028 
4080.2051  47.235     0.1385103  0.07572952 0.2528073 
4080.3574  50.479     0.1542322  0.08572391 0.2766165 
4080.51    55.249     0.1783131  0.1015739  0.3116257 
4080.6624  54.24      0.1731214  0.09810144 0.3042202 
4080.8147  54.346     0.1736643  0.09846314 0.3049982 
4080.967   63.005     0.2200516  0.1305864  0.3685505 
4081.1196  61.496     0.2116709  0.1246051  0.3574752 
4081.272   57.785     0.1915997  0.1105982  0.3302386 
4081.4243  59.867     0.202767   0.1183359  0.3455193 
4081.5767  62.986     0.2199453  0.1305101  0.368411  
4081.729   59.535     0.2009703  0.1170816  0.3430826 
4081.8816  63.02      0.2201356  0.1306468  0.3686606 
4082.0339  62.678     0.2182246  0.1292758  0.3661505 
4082.1863  66.45399999999999 0.2396969  0.1449126  0.3938642 
4082.3386  65.742     0.2355847  0.1418785  0.3886385 
4082.4912  61.71      0.2128516  0.125443   0.3590459 
4082.6436  63.858     0.2248463  0.1340435  0.3748111 
4082.7959  55.824     0.1812957  0.1035824  0.3158459 
4082.9482  49.148     0.1477187  0.08154929 0.2668477 
4083.1008  51.534     0.1594581  0.08910798 0.2843597 
4083.2532  50.905     0.1563356  0.08708227 0.2797431 
4083.4055  52.049     0.1620295  0.09078448 0.2881395 
4083.5579  57.462     0.1898884  0.1094248  0.3278679 
4083.7102  59.706     0.2018949  0.1177267  0.3443376 
4083.8628  62.784     0.2188162  0.1296998  0.3669285 
4084.0151  61.559     0.2120182  0.1248514  0.3579376 
4084.1675  58.417     0.1949646  0.1129151  0.3348771 
4084.3198  56.58      0.1852437  0.1062565  0.3213945 
4084.4724  53.158     0.1676129  0.09445033 0.2962789 
4084.6248  57.499     0.1900841  0.1095588  0.3281395 
4084.7771  57.754     0.1914352  0.1104853  0.330011  
4084.9294  55.871     0.1815402  0.1037475  0.3161908 
4085.082   58.882     0.1974542  0.1146374  0.3382899 
4085.2344  56.785     0.1863195  0.1069882  0.3228991 
4085.3867  55.606     0.1801628  0.1028184  0.3142459 
4085.5391  55.309     0.1786235  0.1017824  0.312066  
4085.6914  61.722     0.2129179  0.1254901  0.359134  
4085.844   59.417     0.2003332  0.1166377  0.3422165 
4085.9963  58.204     0.1938281  0.1121312  0.3333138 
4086.1487  60.054     0.2037816  0.1190459  0.3468918 
4086.301   59.746     0.2021114  0.1178779  0.3446312 
4086.4536  55.09      0.1774914  0.1010223  0.3104587 
4086.606   61.533     0.2118748  0.1247497  0.3577468 
4086.7583  53.335     0.1685098  0.09504252 0.297578  
4086.9106  57.23      0.1886626  0.1085863  0.3261651 
4087.0632  -9999      -9999      -9999      -9999     
4087.2156  -9999      -9999      -9999      -9999     
4087.3679  -9999      -9999      -9999      -9999     
4087.5203  -9999      -9999      -9999      -9999     
4087.6726  -9999      -9999      -9999      -9999     
4087.8252  -9999      -9999      -9999      -9999     
4087.9775  -9999      -9999      -9999      -9999     
4088.1299  -9999      -9999      -9999      -9999     
4088.2822  -9999      -9999      -9999      -9999     
4088.4348  -9999      -9999      -9999      -9999     
4088.5872  -9999      -9999      -9999      -9999     
4088.7395  -9999      -9999      -9999      -9999     
4088.8918  -9999      -9999      -9999      -9999     
4089.0442  -9999      -9999      -9999      -9999     
4089.1968  -9999      -9999      -9999      -9999     
4089.3491  -9999      -9999      -9999      -9999     
4089.5015  -9999      -9999      -9999      -9999     
4089.6538  -9999      -9999      -9999      -9999     
4089.8064  -9999      -9999      -9999      -9999     
4089.9587  -9999      -9999      -9999      -9999     
4090.1111  -9999      -9999      -9999      -9999     
4090.2634  -9999      -9999      -9999      -9999     
4090.416   -9999      -9999      -9999      -9999     
4090.5684  -9999      -9999      -9999      -9999     
4090.7207  -9999      -9999      -9999      -9999     
4090.873   -9999      -9999      -9999      -9999     
4091.0254  -9999      -9999      -9999      -9999     
4091.178   -9999      -9999      -9999      -9999     
4091.3303  -9999      -9999      -9999      -9999     
4091.4827  -9999      -9999      -9999      -9999     
4091.635   -9999      -9999      -9999      -9999     
4091.7876  -9999      -9999      -9999      -9999     
4091.9399  -9999      -9999      -9999      -9999     
4092.0923  -9999      -9999      -9999      -9999     
4092.2446  -9999      -9999      -9999      -9999     
4092.3972  -9999      -9999      -9999      -9999     
4092.5496  -9999      -9999      -9999      -9999     
