~Version
 VERS              .         2.0                           : CWLS LOG ASCII STANDARD - VERSION 2.0
 WRAP              .         NO                            : ONE LINE PER DEPTH STEP
 DLM               .         SPACE                         : DELIMITING CHARACTER(SPACE TAB OR COMMA)
~Well Information
#_______________________________________________________________________________
#
#PARAMETER_NAME    .UNIT     VALUE                         : DESCRIPTION
#_______________________________________________________________________________
STRT               .M        3500.0183                     : First reference value
STOP               .M        4094.9878                     : Last reference value
STEP               .M        0.1524                        : Step increment
NULL               .         -9999                         : Missing value
COMP               .         STATOIL PETROLEUM AS          : Company
WELL               .         15/9-19                       : Well name
FLD                .         VOLVE                         : Field
LOC                .         UNKNOWN                       : Location
CNTY               .         UNKNOWN                       : County
STAT               .         UNKNOWN                       : State
CTRY               .         NO                            : Country
SRVC               .         UNKNOWN                       : Service Company
DATE               .         UNKNOWN                       : Date
UWI                .         NO 15/9-19 SR                 : Unique Well ID
COUNTRY            .         Norway                        : COUNTRY
ELEV               .M        25.0000                       : SURFACE ELEV
ELEV_TYPE          .         KB                            : ELEV TYPE
GDAT               .                                       : Geodetic Datum
HZCS               .                                       : Horizontal Co-ordinate System
LAT                .         58.435286                     : LATITUDE
LON                .         1.928158                      : LONGITUDE
ORIGINALWELLNAME   .         15/9-19                       : 
X                  .                                       : X or East-West coordinate
XCOORD             .         1.928158                      : SURFACE X
Y                  .                                       : Y or North South coordinate
YCOORD             .         58.435286                     : SURFACE Y
~Parameter Information Block
#_______________________________________________________________________________
#
#PARAMETER_NAME    .UNIT     VALUE                         : DESCRIPTION
#_______________________________________________________________________________
SET                .         LQC                           : 
TLFamily_DEPTH     .         Measured Depth                : 
TLFamily_GR        .         Gamma Ray                     : 
TLFamily_VSH_GR_LarOlder .         Shale Volume                  : 
TLFamily_VSH_GR_LarTert .         Shale Volume                  : 
TLFamily_VSH_GR_linear .         Shale Volume                  : 
~Curve Information
#_______________________________________________________________________________
#
#LOGNAME           .UNIT     LOG_ID                        : DESCRIPTION
#_______________________________________________________________________________
DEPTH              .M                                      : Measured Depth 
GR                 .gAPI                                   : v1 
VSH_GR_LarOlder    .v/v                                    : Shale volume fraction from Gamma Ray 
VSH_GR_LarTert     .v/v                                    : Shale volume fraction from Gamma Ray 
VSH_GR_linear      .v/v                                    : Shale volume fraction from Gamma Ray 
~Ascii
# ...
3827.0686  21.981     0.03234897 0.01567618 0.06745689
3827.2212  21.977     0.03233422 0.01566875 0.06742752
3827.3735  22.255     0.03336055 0.01618641 0.06946789
3827.5259  22.674     0.03491293 0.01697178 0.07254312
3827.6782  21.657     0.03115642 0.01507621 0.0650789 
3827.8308  22.131     0.03290241 0.01595518 0.06855781
3827.9832  21.974     0.03232317 0.01566318 0.06740551
3828.1355  22.276     0.0334382  0.01622563 0.06962202
3828.2878  22.97      0.03601359 0.01753034 0.07471559
3828.4404  21.196     0.02946638 0.01422884 0.06169541
3828.5928  19.157     0.02208569 0.01056788 0.04673028
3828.7451  18.433     0.0195016  0.009301395 0.04141652
3828.8975  18.604     0.02011021 0.009598969 0.04267156
3829.0498  20.832     0.02813754 0.01356495 0.05902386
3829.2024  20.743     0.02781337 0.01340331 0.05837065
3829.3547  17.939     0.01774931 0.008447098 0.03779082
3829.5071  21.025     0.0288415  0.01391639 0.06044037
3829.6594  19.133     0.02199972 0.01052562 0.04655413
3829.812   20.699     0.02765322 0.0133235  0.0580477 
3829.9644  17.889     0.01757245 0.008361073 0.03742386
3830.1167  14.463     0.005665399 0.002655345 0.0122789 
3830.269   17.381     0.01578058 0.007491632 0.03369542
3830.4216  16.661     0.01325674 0.006273504 0.02841101
3830.574   16.063     0.01117456 0.005274259 0.02402202
3830.7263  16.902     0.01409947 0.006679403 0.03017982
3830.8787  17.864     0.01748405 0.008318092 0.03724037
3831.031   17.771     0.0171554  0.008158375 0.0365578 
3831.1836  20.977     0.02866629 0.01382887 0.06008807
3831.3359  19.182     0.02217525 0.01061192 0.04691376
3831.4883  18.497     0.01972926 0.009412655 0.04188624
3831.6406  21.562     0.0308075  0.01490099 0.06438166
3831.7932  22.023     0.03250385 0.01575422 0.06776515
3831.9456  25.652     0.04613904 0.02273575 0.09440001
3832.0979  28.705     0.05800647 0.02899004 0.1168073 
3832.2502  28.256     0.05623794 0.02804754 0.1135119 
3832.4028  32.07      0.07152093 0.03631292 0.1415046 
3832.5552  32.448     0.07306817 0.03716487 0.1442789 
3832.7075  28.935     0.05891553 0.02947593 0.1184954 
3832.8599  26.062     0.04771142 0.02355492 0.09740918
3833.0122  24.702     0.04252082 0.0208618  0.08742753
3833.1648  22.653     0.03483497 0.01693227 0.07238899
3833.3171  23.652     0.03856223 0.0188292  0.07972111
3833.4695  23.68      0.03866725 0.01888288 0.07992661
3833.6218  24.978     0.04356841 0.02140278 0.08945322
3833.7744  22.51      0.03430453 0.01666364 0.07133946
3833.9268  25.235     0.04454653 0.02190906 0.09133946
3834.0791  24.279     0.04092099 0.02003811 0.08432294
3834.2314  23.964     0.03973409 0.01942898 0.08201102
3834.3838  25.744     0.04649129 0.02291901 0.09507523
3834.5364  26.388     0.04896634 0.02421079 0.09980185
3834.6887  26.26      0.04847311 0.02395279 0.09886239
3834.8411  27.644     0.05384035 0.02677564 0.1090202 
3834.9934  31.475     0.06909751 0.0349841  0.1371376 
3835.146   30.757     0.06619257 0.03340027 0.1318679 
3835.2983  34.946     0.08344394 0.04294997 0.1626128 
3835.4507  32.298     0.07245348 0.03682607 0.143178  
3835.603   32.566     0.07355239 0.03743207 0.145145  
3835.7556  42.35      0.1157931  0.06178514 0.2169541 
3835.908   43.39      0.1205354  0.06464738 0.2245872 
3836.0603  49.94      0.1515839  0.08402074 0.2726606 
3836.2126  50.277     0.153238   0.08508359 0.275134  
3836.365   35.029     0.08379324 0.0431469  0.163222  
3836.5176  29.051     0.05937483 0.02972179 0.1193468 
3836.6699  22.011     0.03245959 0.01573191 0.06767707
3836.8223  21.678     0.0312336  0.01511499 0.06523303
3836.9746  23.428     0.03772319 0.01840075 0.07807706
3837.1272  26.416     0.04907432 0.02426731 0.1000073 
3837.2795  28.166     0.05588442 0.02785957 0.1128514 
3837.4319  27.193     0.05208304 0.02584768 0.1057101 
3837.5842  31.548     0.06939404 0.03514633 0.1376734 
3837.7368  28.984     0.05910948 0.02957972 0.118855  
3837.8892  25.225     0.04450842 0.02188931 0.09126607
3838.0415  24.704     0.04252841 0.02086571 0.08744221
3838.1938  22.256     0.03336425 0.01618828 0.06947523
3838.3462  24.53      0.04186947 0.02052608 0.08616515
3838.4988  23.78      0.03904254 0.01907484 0.08066056
3838.6511  24.518     0.04182407 0.0205027  0.08607706
3838.8035  25.048     0.04383457 0.02154044 0.08996698
3838.9558  23.946     0.03966637 0.01939428 0.0818789 
3839.1084  22.444     0.03405997 0.01653991 0.07085505
3839.2607  21.065     0.02898758 0.01398939 0.06073395
3839.4131  19.594     0.02365466 0.01134071 0.04993762
3839.5654  22.008     0.03244852 0.01572634 0.06765504
3839.718   22.696     0.03499462 0.01701318 0.07270458
3839.8704  24.138     0.04038924 0.01976501 0.08328808
3840.0227  23.425     0.03771196 0.01839503 0.07805505
3840.175   23.927     0.03959492 0.01935767 0.08173946
3840.3274  18.894     0.02114479 0.01010582 0.04479999
3840.48    19.484     0.02325906 0.01114558 0.04913027
3840.6323  16.742     0.01353975 0.006409723 0.02900551
3840.7847  21.003     0.02876119 0.01387627 0.0602789 
3840.937   19.854     0.02459146 0.01180355 0.05184587
3841.0896  18.61      0.02013159 0.009609427 0.0427156 
3841.2419  19.29      0.02256246 0.01080242 0.04770643
3841.3943  18.88      0.02109477 0.01008129 0.04469724
3841.5466  19.018     0.02158809 0.01032339 0.04571009
3841.6992  17.139     0.01493023 0.007080362 0.03191927
3841.8516  18.042     0.01811394 0.008624566 0.03854679
3842.0039  19.4       0.02295727 0.01099684 0.04851376
3842.1562  25.536     0.04569535 0.02250513 0.09354863
3842.3086  26.567     0.04965716 0.02457262 0.1011156 
3842.4612  26.688     0.05012486 0.02481791 0.1020037 
3842.6135  28.973     0.05906593 0.02955641 0.1187743 
3842.7659  25.159     0.04425701 0.02175909 0.09078166
3842.9182  27.407     0.05291588 0.02628701 0.1072807 
3843.0708  26.135     0.04799207 0.02370144 0.09794496
3843.2231  27.979     0.05515091 0.02747004 0.1114789 
3843.3755  27.36      0.05273281 0.02619037 0.1069358 
3843.5278  30.926     0.06687441 0.03377115 0.1331083 
3843.6804  27.078     0.05163623 0.02561231 0.1048661 
3843.8328  31.719     0.07008954 0.03552723 0.1389284 
3843.9851  34.127     0.08001301 0.0410232  0.1566018 
3844.1375  30.718     0.06603539 0.03331486 0.1315817 
3844.2898  31.486     0.06914218 0.03500853 0.1372184 
3844.4424  30.153     0.06376524 0.0320844  0.1274349 
3844.5947  32.34      0.0726255  0.03692084 0.1434862 
3844.7471  31.813     0.07047237 0.03573713 0.1396184 
3844.8994  32.959     0.07516927 0.03832626 0.1480294 
3845.052   31.815     0.07048053 0.0357416  0.139633  
3845.2043  30.47      0.06503733 0.03277315 0.1297615 
3845.3567  32.986     0.07528059 0.03838794 0.1482275 
3845.509   35.717     0.08670001 0.04479116 0.1682716 
3845.6616  34.61      0.08203293 0.04215591 0.1601468 
3845.814   32.99      0.07529709 0.03839708 0.1482569 
3845.9663  31.358     0.06862269 0.03472455 0.1362789 
3846.1187  33.001     0.07534245 0.03842222 0.1483376 
3846.271   36.319     0.08926019 0.04624746 0.1726899 
3846.4236  36.171     0.08862934 0.04588791 0.1716037 
3846.5759  34.666     0.08226776 0.0422879  0.1605578 
3846.7283  32.736     0.074251   0.03781806 0.1463927 
3846.8806  31.32      0.0684686  0.03464037 0.136     
3847.0332  30.811     0.06641031 0.03351865 0.1322642 
3847.1855  35.144     0.0842777  0.04342026 0.1640661 
3847.3379  37.728     0.09531403 0.04972119 0.1830312 
3847.4902  38.538     0.09883371 0.05176025 0.1889761 
3847.6428  36.595     0.09043922 0.04692067 0.1747156 
3847.7952  33.087     0.0756973  0.03861894 0.1489688 
3847.9475  34.539     0.08173539 0.04198876 0.1596257 
3848.0999  30.969     0.06704809 0.0338657  0.1334239 
3848.2522  32.865     0.07478195 0.03811179 0.1473395 
3848.4048  29.468     0.06103039 0.03061005 0.1224073 
3848.5571  31.582     0.06953224 0.03522197 0.1379229 
3848.7095  33.238     0.07632107 0.0389651  0.1500771 
3848.8618  30.904     0.06678558 0.0337228  0.1329468 
3849.0144  33.385     0.07692924 0.03930304 0.151156  
3849.1667  37.107     0.09263516 0.04817882 0.1784734 
