~Version
 VERS              .         2.0                           : CWLS LOG ASCII STANDARD - VERSION 2.0
 WRAP              .         NO                            : ONE LINE PER DEPTH STEP
 DLM               .         SPACE                         : DELIMITING CHARACTER(SPACE TAB OR COMMA)
~Well Information
#_______________________________________________________________________________
#
#PARAMETER_NAME    .UNIT     VALUE                         : DESCRIPTION
#_______________________________________________________________________________
STRT               .M        3500.0183                     : First reference value
STOP               .M        4094.9878                     : Last reference value
STEP               .M        0.1524                        : Step increment
NULL               .         -9999                         : Missing value
COMP               .         STATOIL PETROLEUM AS          : Company
WELL               .         15/9-19                       : Well name
FLD                .         VOLVE                         : Field
LOC                .         UNKNOWN                       : Location
CNTY               .         UNKNOWN                       : County
STAT               .         UNKNOWN                       : State
CTRY               .         NO                            : Country
SRVC               .         UNKNOWN                       : Service Company
DATE               .         UNKNOWN                       : Date
UWI                .         NO 15/9-19 SR                 : Unique Well ID
COUNTRY            .         Norway                        : COUNTRY
ELEV               .M        25.0000                       : SURFACE ELEV
ELEV_TYPE          .         KB                            : ELEV TYPE
GDAT               .                                       : Geodetic Datum
HZCS               .                                       : Horizontal Co-ordinate System
LAT                .         58.435286                     : LATITUDE
LON                .         1.928158                      : LONGITUDE
ORIGINALWELLNAME   .         15/9-19                       : 
X                  .                                       : X or East-West coordinate
XCOORD             .         1.928158                      : SURFACE X
Y                  .                                       : Y or North South coordinate
YCOORD             .         58.435286                     : SURFACE Y
~Parameter Information Block
#_______________________________________________________________________________
#
#PARAMETER_NAME    .UNIT     VALUE                         : DESCRIPTION
#_______________________________________________________________________________
SET                .         LQC                           : 
TLFamily_DEPTH     .         Measured Depth                : 
TLFamily_GR        .         Gamma Ray                     : 
TLFamily_VSH_GR_LarOlder .         Shale Volume                  : 
TLFamily_VSH_GR_LarTert .         Shale Volume                  : 
TLFamily_VSH_GR_linear .         Shale Volume                  : 
~Curve Information
#_______________________________________________________________________________
#
#LOGNAME           .UNIT     LOG_ID                        : DESCRIPTION
#_______________________________________________________________________________
DEPTH              .M                                      : Measured Depth 
GR                 .gAPI                                   : v1 
VSH_GR_LarOlder    .v/v                                    : Shale volume fraction from Gamma Ray 
VSH_GR_LarTert     .v/v                                    : Shale volume fraction from Gamma Ray 
VSH_GR_linear      .v/v                                    : Shale volume fraction from Gamma Ray 
~Ascii
# ...
3597.2495  17.01700019836426 0.01450233 0.006873738 0.03102386
3597.4019  16.53899955749512 0.01283092 0.006068731 0.02751559
3597.5542  15.44400024414063 0.009032559 0.004251702 0.0194789 
3597.7068  17.58600044250488 0.01650257 0.007841489 0.0352    
3597.8591  17.65299987792969 0.01673886 0.007956125 0.03569175
3598.0115  20.41200065612793 0.02661036 0.01280455 0.05594129
3598.1638  24.2810001373291 0.04092854 0.02004199 0.08433762
3598.3164  28.08499908447266 0.05556652 0.02769068 0.1122569 
3598.4688  28.35700035095215 0.05663506 0.02825885 0.1142532 
3598.6211  30.93000030517578 0.06689057 0.03377994 0.1331376 
3598.7734  33.21699905395508 0.07623425 0.0389169  0.1499229 
3598.926   34.44400024414063 0.08133759 0.04176545 0.1589285 
3599.0784  31.83600044250488 0.07056611 0.03578855 0.1397872 
3599.2307  32.17800140380859 0.0719624  0.03655572 0.1422973 
3599.3831  26.54400062561035 0.04956833 0.02452606 0.1009468 
3599.5354  22.32200050354004 0.03360834 0.01631158 0.06995964
3599.688   22.3700008392334 0.03378597 0.01640135 0.07031193
3599.8403  19.55999946594238 0.02353233 0.01128036 0.04968807
3599.9927  22.21699905395508 0.03322009 0.01611549 0.06918899
3600.145   26.4689998626709 0.04927879 0.02437437 0.1003963 
3600.2976  28.23900032043457 0.05617114 0.02801201 0.1133872 
3600.45    27.01700019836426 0.05139944 0.02548768 0.1044184 
3600.6023  32.67200088500977 0.07398786 0.0376726  0.1459229 
3600.7546  33.70100021362305 0.0782397  0.04003268 0.1534752 
3600.9072  35.57199859619141 0.0860857  0.04444285 0.1672073 
3601.0596  37.68899917602539 0.09514529 0.04962379 0.182745  
3601.2119  26.76300048828125 0.05041504 0.02497023 0.1025541 
3601.3643  24.90999984741211 0.04331004 0.02126923 0.08895413
3601.5166  19.70700073242188 0.0240615  0.01154159 0.05076698
3601.6692  23.00099945068359 0.03612905 0.01758902 0.07494312
3601.8215  20.26399993896484 0.02607376 0.01253802 0.05485505
3601.9739  21.0319995880127 0.02886706 0.01392916 0.06049174
3602.1262  23.00830078125 0.03615626 0.01760284 0.07499671
3602.2788  23.90999984741211 0.039531   0.01932492 0.08161468
3602.4312  25.35799980163574 0.04501555 0.02215223 0.0922422 
3602.5835  25.00900077819824 0.04368626 0.02146372 0.08968075
3602.7358  24.86000061035156 0.04312017 0.02117115 0.08858716
3602.8884  25.99900054931641 0.04746938 0.02342864 0.0969468 
3603.0408  31.67099952697754 0.06989419 0.03542018 0.1385761 
3603.1931  33.42399978637695 0.07709075 0.03939286 0.1514422 
3603.3455  30.19099998474121 0.06391751 0.03216675 0.1277138 
3603.4978  27.88299942016602 0.05477489 0.0272706  0.1107743 
3603.6504  26.86400032043457 0.05080617 0.02517569 0.1032954 
3603.8027  24.47100067138672 0.04164631 0.02041117 0.08573212
3603.9551  26.05100059509277 0.04766915 0.02353286 0.09732845
3604.1074  26.0319995880127 0.04759614 0.02349477 0.09718899
3604.26    26.96699905395508 0.05120546 0.02538562 0.1040514 
3604.4124  29.1299991607666 0.05968793 0.02988953 0.1199266 
3604.5647  27.63999938964844 0.05382473 0.02676737 0.1089908 
3604.717   32.0369987487793 0.07138614 0.03623882 0.1412624 
3604.8696  30.91399955749512 0.06682596 0.03374477 0.1330202 
3605.022   32.36800003051758 0.07274021 0.03698406 0.1436917 
3605.1743  29.20400047302246 0.05998145 0.03004689 0.1204697 
3605.3267  28.08799934387207 0.05557829 0.02769693 0.1122789 
3605.479   29.90099906921387 0.06275691 0.03153979 0.1255853 
3605.6316  27.86499977111816 0.05470443 0.02723325 0.1106422 
3605.7839  30.1560001373291 0.06377726 0.0320909  0.1274569 
3605.9363  25.45599937438965 0.04538967 0.02234638 0.09296147
3606.0886  26.24300003051758 0.04840765 0.02391857 0.09873762
3606.2412  22.85700035095215 0.03559302 0.01731674 0.07388625
3606.3936  27.95599937438965 0.05506079 0.02742223 0.1113101 
3606.5459  26.97299957275391 0.05122873 0.02539786 0.1040954 
3606.6982  27.02400016784668 0.05142661 0.02550197 0.1044697 
3606.8508  25.26799964904785 0.0446723  0.02197424 0.09158165
3607.0032  25.73800086975098 0.04646831 0.02290705 0.0950312 
3607.1555  27.7189998626709 0.05413337 0.02693072 0.1095706 
3607.3079  27.10000038146973 0.05172167 0.0256573  0.1050275 
3607.4602  20.40999984741211 0.0266031  0.01280094 0.05592661
3607.6128  25.64299964904785 0.04610459 0.02271784 0.09433395
3607.7651  21.03000068664551 0.02885976 0.01392552 0.06047707
3607.9175  22.66699981689453 0.03488694 0.01695861 0.07249174
3608.0698  28.12599945068359 0.0557274  0.02777614 0.1125578 
3608.2224  26.38199996948242 0.0489432  0.02419868 0.09975781
3608.3748  27.11300086975098 0.05177217 0.02568389 0.1051229 
3608.5271  23.77300071716309 0.03901626 0.01906139 0.08060919
3608.6794  25.60000038146973 0.04594008 0.02263231 0.09401836
3608.832   25.92900085449219 0.04720064 0.0232885  0.09643304
3608.9844  30.50600051879883 0.06518205 0.03285163 0.1300257 
3609.1367  33.77999877929688 0.07856797 0.04021577 0.154055  
3609.2891  38.39899826049805 0.09822765 0.05140812 0.187956  
3609.4414  32.87099838256836 0.07480665 0.03812546 0.1473835 
3609.594   32.7599983215332 0.07434972 0.03787265 0.1465688 
3609.7463  32.71599960327148 0.07416875 0.03777258 0.1462459 
3609.8987  31.60199928283691 0.06961355 0.03526648 0.1380697 
3610.051   30.54700088500977 0.06534694 0.03294107 0.1303266 
3610.2036  31.09099960327148 0.06754125 0.03413438 0.1343193 
3610.356   12.05399990081787 0          0          0         
3610.5083  0          0          0          0         
3610.6606  0          0          0          0         
3610.8132  0          0          0          0         
3610.9656  0          0          0          0         
3611.1179  0          0          0          0         
3611.2703  0          0          0          0         
3611.4226  0          0          0          0         
3611.5752  0          0          0          0         
3611.7275  6.75600004196167 0          0          0         
3611.8799  16.79100036621094 0.01371107 0.006492226 0.02936514
3612.0322  16.25799942016602 0.01185214 0.005598865 0.02545321
3612.1848  19.0930004119873 0.02185649 0.01045523 0.04626055
3612.3372  15.61299991607666 0.00961603 0.0045297  0.02071927
3612.4895  16.10700035095215 0.01132733 0.0053474  0.02434496
3612.6418  16.74399948120117 0.01354674 0.006413087 0.02902018
3612.7942  17.54999923706055 0.01637566 0.007779951 0.03493578
3612.9468  19.01799964904785 0.02158809 0.01032339 0.04571009
3613.0991  19.86499977111816 0.02463114 0.01182318 0.05192661
3613.2515  21.9778003692627 0.03233717 0.01567023 0.0674334 
3613.4038  19.38999938964844 0.02292136 0.01097915 0.04844037
3613.5564  19.25399971008301 0.02243334 0.01073888 0.0474422 
3613.7087  18.58499908447266 0.02004253 0.009565855 0.0425321 
3613.8611  19.6569995880127 0.02388142 0.01145265 0.0504    
3614.0134  20.02899932861328 0.02522339 0.01211635 0.05313027
3614.166   20.05599975585938 0.02532099 0.0121647  0.05332844
3614.3184  16.95199966430664 0.01427457 0.006763844 0.03054679
3614.4707  13.91300010681152 0.003792244 0.001773155 0.008242203
3614.623   17.33300018310547 0.01561175 0.007409908 0.03334312
3614.7754  8.633999824523926 0          0          0         
3614.928   10.60400009155273 0          0          0         
3615.0803  10.60400009155273 0          0          0         
3615.2327  10.64299964904785 0          0          0         
3615.385   10.16399955749512 0          0          0         
3615.5376  9.192999839782717 0          0          0         
3615.6899  10.27099990844727 0          0          0         
3615.8423  10.01900005340576 0          0          0         
3615.9946  9.37600040435791 0          0          0         
3616.1472  7.777999877929688 0          0          0         
3616.2996  9.104000091552734 0          0          0         
3616.4519  8.48900032043457 0          0          0         
3616.6042  6.908999919891357 0          0          0         
3616.7566  0          0          0          0         
3616.9092  0          0          0          0         
3617.0615  0          0          0          0         
