~Version
 VERS              .         2.0                           : CWLS LOG ASCII STANDARD - VERSION 2.0
 WRAP              .         NO                            : ONE LINE PER DEPTH STEP
 DLM               .         SPACE                         : DELIMITING CHARACTER(SPACE TAB OR COMMA)
~Well Information
#_______________________________________________________________________________
#
#PARAMETER_NAME    .UNIT     VALUE                         : DESCRIPTION
#_______________________________________________________________________________
STRT               .M        3500.0183                     : First reference value
STOP               .M        4094.9878                     : Last reference value
STEP               .M        0.1524                        : Step increment
NULL               .         -9999                         : Missing value
COMP               .         STATOIL PETROLEUM AS          : Company
WELL               .         15/9-19                       : Well name
FLD                .         VOLVE                         : Field
LOC                .         UNKNOWN                       : Location
CNTY               .         UNKNOWN                       : County
STAT               .         UNKNOWN                       : State
CTRY               .         NO                            : Country
SRVC               .         UNKNOWN                       : Service Company
DATE               .         UNKNOWN                       : Date
UWI                .         NO 15/9-19 SR                 : Unique Well ID
COUNTRY            .         Norway                        : COUNTRY
ELEV               .M        25.0000                       : SURFACE ELEV
ELEV_TYPE          .         KB                            : ELEV TYPE
GDAT               .                                       : Geodetic Datum
HZCS               .                                       : Horizontal Co-ordinate System
LAT                .         58.435286                     : LATITUDE
LON                .         1.928158                      : LONGITUDE
ORIGINALWELLNAME   .         15/9-19                       : 
X                  .                                       : X or East-West coordinate
XCOORD             .         1.928158                      : SURFACE X
Y                  .                                       : Y or North South coordinate
YCOORD             .         58.435286                     : SURFACE Y
~Parameter Information Block
#_______________________________________________________________________________
#
#PARAMETER_NAME    .UNIT     VALUE                         : DESCRIPTION
#_______________________________________________________________________________
SET                .         LQC                           : 
TLFamily_DEPTH     .         Measured Depth                : 
TLFamily_GR        .         Gamma Ray                     : 
TLFamily_VSH_GR_LarOlder .         Shale Volume                  : 
TLFamily_VSH_GR_LarTert .         Shale Volume                  : 
TLFamily_VSH_GR_linear .         Shale Volume                  : 
~Curve Information
#_______________________________________________________________________________
#
#LOGNAME           .UNIT     LOG_ID                        : DESCRIPTION
#_______________________________________________________________________________
DEPTH              .M                                      : Measured Depth 
GR                 .gAPI                                   : v1 
VSH_GR_LarOlder    .v/v                                    : Shale volume fraction from Gamma Ray 
VSH_GR_LarTert     .v/v                                    : Shale volume fraction from Gamma Ray 
VSH_GR_linear      .v/v                                    : Shale volume fraction from Gamma Ray 
~Ascii
# ...
3538.5754  13.95699977874756 0.00394171 0.001843394 0.008565136
3538.728   20.02199935913086 0.02519809 0.01210382 0.0530789 
3538.8804  20.34099960327148 0.02635283 0.01267659 0.05542018
3539.0327  24.01600074768066 0.03992976 0.01952929 0.08239267
3539.1851  22.34900093078613 0.03370825 0.01636207 0.07015781
3539.3374  20.14800071716309 0.02565375 0.01232965 0.05400368
3539.49    22.57600021362305 0.03454925 0.01678753 0.07182386
3539.6423  19.92600059509277 0.02485132 0.01193212 0.05237432
3539.7947  19.31500053405762 0.02265215 0.01084657 0.04788991
3539.947   17.76199913024902 0.01712361 0.008142931 0.03649174
3540.0996  21.94700050354004 0.03222364 0.01561305 0.06720734
3540.252   20.96500015258789 0.02862251 0.013807   0.06000001
3540.4043  21.36700057983398 0.03009235 0.0145423  0.06295047
3540.5566  22.50399971008301 0.03428229 0.01665239 0.07129542
3540.7092  22.8700008392334 0.03564138 0.01734129 0.07398167
3540.8616  20.02000045776367 0.02519087 0.01210024 0.05306423
3541.0139  18.94499969482422 0.02132705 0.01019524 0.04517431
3541.1663  20.05299949645996 0.02531014 0.01215933 0.05330642
3541.3186  21.9950008392334 0.03240059 0.01570218 0.06755964
3541.4712  21.20700073242188 0.02950662 0.01424898 0.06177615
3541.6235  22.19599914550781 0.03314249 0.01607632 0.06903486
3541.7759  26.55599975585938 0.04961467 0.02455035 0.1010349 
3541.9282  25.42399978637695 0.04526747 0.02228294 0.09272661
3542.0808  27.2189998626709 0.05218413 0.02590096 0.1059009 
3542.2332  27.55699920654297 0.05350073 0.02659602 0.1083817 
3542.3855  25.82600021362305 0.04680554 0.02308263 0.09567707
3542.5378  16.87199974060059 0.01399445 0.006628775 0.02995963
3542.6904  16.91699981689453 0.01415199 0.006704726 0.03028991
3542.8428  16.68199920654297 0.01333009 0.0063088  0.02856513
3542.9951  17.21199989318848 0.01518652 0.007204225 0.03245505
3543.1475  20.48399925231934 0.02687169 0.01293447 0.05646972
3543.2998  21.19000053405762 0.02944444 0.01421787 0.06165138
3543.4524  20.54999923706055 0.02711142 0.01305373 0.05695413
3543.6047  13.04199981689453 0.0008472081 0.0003946385 0.00184954
3543.7571  16.83099937438965 0.01385098 0.00655963 0.02965871
3543.9094  17.92900085449219 0.01771394 0.008429889 0.03771744
3544.062   20.02799987792969 0.02521978 0.01211456 0.05312294
3544.2144  17.25600051879883 0.01534109 0.007278966 0.03277799
3544.3667  18.12400054931641 0.01840451 0.008766098 0.03914863
3544.519   20.22699928283691 0.02593973 0.01247151 0.05458348
3544.6716  19.34700012207031 0.02276699 0.01090311 0.04812478
3544.824   18.15399932861328 0.01851087 0.008817931 0.0393688 
3544.9763  18.57600021362305 0.02001049 0.009550177 0.04246606
3545.1287  20.50200080871582 0.02693706 0.01296698 0.05660184
3545.281   21.07099914550781 0.02900949 0.01400034 0.06077798
3545.4336  20.84199905395508 0.02817397 0.01358312 0.05909725
3545.5859  22.33699989318848 0.03366384 0.01633963 0.07006973
3545.7383  25.08600044250488 0.04397913 0.02161524 0.09024588
3545.8906  26.06599998474121 0.04772679 0.02356294 0.09743854
3546.0432  20.98699951171875 0.02870279 0.01384709 0.06016147
3546.1956  21.59199905395508 0.03091765 0.01495629 0.06460183
3546.3479  16.54599952697754 0.01285533 0.006080467 0.02756697
3546.5002  15.68780040740967 0.0098746  0.004653026 0.02126826
3546.6528  13.3459997177124 0.001872132 0.0008732085 0.004080732
3546.8052  10.42700004577637 0          0          0         
3546.9575  12.41499996185303 0          0          0         
3547.1099  13.29699993133545 0.001706717 0.0007958856 0.003721101
3547.2622  15.24199962615967 0.008336467 0.003920577 0.01799633
3547.4148  13.89700031280518 0.003737909 0.001747629 0.008124773
3547.5671  15.79399967193604 0.01024205 0.00482842 0.02204771
3547.7195  13.27700042724609 0.001639226 0.0007643464 0.003574315
3547.8718  14.01200008392334 0.004128638 0.001931276 0.008968809
3548.0244  12.65100002288818 0          0          0         
3548.1768  13.23900032043457 0.001511026 0.000704453 0.003295416
3548.3291  14.44900035858154 0.005617589 0.002632776 0.01217615
3548.4814  14.84500026702881 0.006972572 0.003273462 0.01508257
3548.6338  13.14000034332275 0.001177267 0.0005486163 0.00256881
3548.7864  12.18400001525879 0          0          0         
3548.9387  15.5620002746582 0.009439848 0.004445714 0.02034496
3549.0911  14.44099998474121 0.00559027 0.002619881 0.01211743
3549.2434  15.23900032043457 0.008326142 0.00391567 0.01797432
3549.396   18.28700065612793 0.0189828  0.009048084 0.04034496
3549.5483  16.77700042724609 0.01366211 0.006468646 0.02926239
3549.7007  18.3799991607666 0.01931318 0.009209357 0.04102752
3549.853   13.94900035858154 0.003914531 0.00183062 0.008506426
3550.0056  11.41899967193604 0          0          0         
3550.158   13.83899974822998 0.003541017 0.001655156 0.007699081
3550.3103  12.62600040435791 0          0          0         
3550.4626  12.08300018310547 0          0          0         
3550.615   12.3100004196167 0          0          0         
3550.7676  12.14500045776367 0          0          0         
3550.9199  10.87199974060059 0          0          0         
3551.0723  12.01500034332275 0          0          0         
3551.2246  13.92800045013428 0.003843192 0.001797095 0.008352297
3551.3772  14.08600044250488 0.004380308 0.002049661 0.009511931
3551.5295  14.15299987792969 0.00460833 0.002156988 0.01000367
3551.6819  14.96100044250488 0.007370522 0.003462044 0.01593395
3551.8342  14.68900012969971 0.006438138 0.0030205  0.01393762
3551.9868  13.70800018310547 0.003096745 0.001446669 0.006737617
3552.1392  14.84700012207031 0.006979429 0.00327671 0.01509725
3552.2915  14.19400024414063 0.004747946 0.002222733 0.01030459
3552.4438  14.56999969482422 0.00603103 0.002828034 0.01306422
3552.5962  11.2480001449585 0          0          0         
3552.7488  9.185000419616699 0          0          0         
3552.9011  10.70600032806396 0          0          0         
3553.0535  9.942000389099119 0          0          0         
3553.2058  13.95100021362305 0.003921325 0.001833814 0.008521103
3553.3584  14.53499984741211 0.005911387 0.002771508 0.01280734
3553.5107  13.07600021362305 0.0009616817 0.0004480275 0.002099084
3553.6631  10.25300025939941 0          0          0         
3553.8154  11.05900001525879 0          0          0         
3553.968   10.71599960327148 0          0          0         
3554.1204  9.333000183105469 0          0          0         
3554.2727  10.4350004196167 0          0          0         
3554.425   11.52999973297119 0          0          0         
3554.5774  11.07400035858154 0          0          0         
3554.73    11.25      0          0          0         
3554.8823  14.12100028991699 0.004499405 0.00210571 0.00976881
3555.0347  14.24100017547607 0.004908063 0.002298162 0.01064954
3555.187   16.61400032043457 0.01309263 0.006194562 0.02806606
3555.3396  18.14500045776367 0.01847896 0.008802379 0.03930276
3555.4919  14.1879997253418 0.004727509 0.002213108 0.01026055
3555.6443  14.28299999237061 0.005051211 0.002365622 0.0109578 
3555.7966  15.33699989318848 0.008663658 0.004076147 0.01869358
3555.9492  18.9689998626709 0.02141285 0.01023735 0.04535046
3556.1016  19.70700073242188 0.0240615  0.01154159 0.05076698
3556.2539  19.03899955749512 0.02166322 0.01036028 0.04586422
3556.4062  15.62199974060059 0.00964713 0.004544529 0.02078532
3556.5586  9.246999740600586 0          0          0         
3556.7112  7.130000114440918 0          0          0         
3556.8635  8.048000335693359 0          0          0         
3557.0159  8.154000282287598 0          0          0         
3557.1682  9.871999740600586 0          0          0         
3557.3208  12.78699970245361 0          0          0         
3557.4731  14.4680004119873 0.005682476 0.002663407 0.0123156 
3557.6255  15.31459999084473 0.008586482 0.004039441 0.01852917
3557.7778  10.65299987792969 0          0          0         
3557.9304  14.63700008392334 0.006260182 0.002936344 0.01355596
