~Version
 VERS              .         2.0                           : CWLS LOG ASCII STANDARD - VERSION 2.0
 WRAP              .         NO                            : ONE LINE PER DEPTH STEP
 DLM               .         SPACE                         : DELIMITING CHARACTER(SPACE TAB OR COMMA)
~Well Information
#_______________________________________________________________________________
#
#PARAMETER_NAME    .UNIT     VALUE                         : DESCRIPTION
#_______________________________________________________________________________
STRT               .M        3500.0183                     : First reference value
STOP               .M        4094.9878                     : Last reference value
STEP               .M        0.1524                        : Step increment
NULL               .         -9999                         : Missing value
COMP               .         STATOIL PETROLEUM AS          : Company
WELL               .         15/9-19                       : Well name
FLD                .         VOLVE                         : Field
LOC                .         UNKNOWN                       : Location
CNTY               .         UNKNOWN                       : County
STAT               .         UNKNOWN                       : State
CTRY               .         NO                            : Country
SRVC               .         UNKNOWN                       : Service Company
DATE               .         UNKNOWN                       : Date
UWI                .         NO 15/9-19 SR                 : Unique Well ID
COUNTRY            .         Norway                        : COUNTRY
ELEV               .M        25.0000                       : SURFACE ELEV
ELEV_TYPE          .         KB                            : ELEV TYPE
GDAT               .                                       : Geodetic Datum
HZCS               .                                       : Horizontal Co-ordinate System
LAT                .         58.435286                     : LATITUDE
LON                .         1.928158                      : LONGITUDE
ORIGINALWELLNAME   .         15/9-19                       : 
X                  .                                       : X or East-West coordinate
XCOORD             .         1.928158                      : SURFACE X
Y                  .                                       : Y or North South coordinate
YCOORD             .         58.435286                     : SURFACE Y
~Parameter Information Block
#_______________________________________________________________________________
#
#PARAMETER_NAME    .UNIT     VALUE                         : DESCRIPTION
#_______________________________________________________________________________
SET                .         LQC                           : 
TLFamily_DEPTH     .         Measured Depth                : 
TLFamily_GR        .         Gamma Ray                     : 
TLFamily_VSH_GR_LarOlder .         Shale Volume                  : 
TLFamily_VSH_GR_LarTert .         Shale Volume                  : 
TLFamily_VSH_GR_linear .         Shale Volume                  : 
~Curve Information
#_______________________________________________________________________________
#
#LOGNAME           .UNIT     LOG_ID                        : DESCRIPTION
#_______________________________________________________________________________
DEPTH              .M                                      : Measured Depth 
GR                 .gAPI                                   : v1 
VSH_GR_LarOlder    .v/v                                    : Shale volume fraction from Gamma Ray 
VSH_GR_LarTert     .v/v                                    : Shale volume fraction from Gamma Ray 
VSH_GR_linear      .v/v                                    : Shale volume fraction from Gamma Ray 
~Ascii
3500.0183  36.62099838256836 0.09055045 0.04698427 0.1749064 
3500.1707  36.37400054931641 0.08949488 0.04638134 0.1730936 
3500.323   30.74799919128418 0.06615628 0.03338056 0.1318018 
3500.4756  29.79500007629395 0.06233355 0.03131149 0.1248073 
3500.6279  27.34600067138672 0.0526783  0.0261616  0.106833  
3500.7803  24.99699974060059 0.04364063 0.02144013 0.08959267
3500.9326  20.60899925231934 0.02732586 0.01316046 0.05738715
3501.0852  18.34900093078613 0.01920302 0.009155571 0.04080001
3501.2375  16.76600074768066 0.01362365 0.006450124 0.02918166
3501.3899  17.08600044250488 0.01474427 0.006990541 0.03153028
3501.5422  17.52199935913086 0.016277   0.007732118 0.03473027
3501.6948  19.35700035095215 0.02280289 0.01092079 0.04819817
3501.8472  19.76099967956543 0.02425608 0.01163774 0.0511633 
3501.9995  19.03800010681152 0.02165965 0.01035853 0.04585689
3502.1519  17.44499969482422 0.01600582 0.007600709 0.03416514
3502.3042  17.67799949645996 0.01682706 0.007998936 0.03587523
3502.4568  14.88300037384033 0.007102883 0.003335194 0.01536147
3502.6091  14.03600025177002 0.00421024 0.001969653 0.009144956
3502.7615  15.08600044250488 0.007799873 0.003665719 0.01685138
3502.9138  13.14099979400635 0.001180635 0.0005501881 0.002576146
3503.0664  12.99899959564209 0.0007024902 0.0003271665 0.001533942
3503.2188  16.22500038146973 0.01173738 0.005543849 0.02521101
3503.3711  15.09099960327148 0.007817055 0.003673875 0.01688807
3503.5234  13.53400039672852 0.002507558 0.001170541 0.005460554
3503.676   15.66399955749512 0.009792304 0.004613766 0.02109358
3503.8284  14.58800029754639 0.00609258 0.002857119 0.01319633
3503.9807  16.52199935913086 0.01277162 0.006040234 0.02739082
3504.1331  16.91699981689453 0.01415199 0.006704726 0.03028991
3504.2854  16.02300071716309 0.01103573 0.005207822 0.02372845
3504.438   15.71500015258789 0.009968672 0.004697915 0.02146789
3504.5903  14.41199970245361 0.005491263 0.002573156 0.01190459
3504.7427  14.55399990081787 0.005976331 0.002802189 0.01294679
3504.895   14.43599987030029 0.005573198 0.002611823 0.01208073
3505.0476  16.46599960327148 0.01257637 0.005946427 0.02697982
3505.2     14.08100032806396 0.004363297 0.002041656 0.009475232
3505.3523  15.35400009155273 0.008722242 0.004104016 0.01881835
3505.5046  15.26200008392334 0.008405324 0.003953306 0.01814312
3505.6572  13.68299961090088 0.003012026 0.001406939 0.006554126
3505.8096  13.61600017547607 0.00278509 0.001300557 0.006062387
3505.9619  16.57799911499023 0.01296698 0.006134139 0.02780183
3506.1143  16.00300025939941 0.01096634 0.005174621 0.02358165
3506.2666  13.38399982452393 0.002000471 0.0009332227 0.004359632
3506.4192  14.15200042724609 0.004604928 0.002155385 0.009996334
3506.5715  12.81099987030029 0.0000705  0.0000328  0.0001541278
3506.7239  11.25800037384033 0          0          0         
3506.8762  10.10949993133545 0          0          0         
3507.0288  12.99100017547607 0.0006755751 0.0003146206 0.001475231
3507.1812  11.27400016784668 0          0          0         
3507.3335  16.27899932861328 0.01192519 0.005633893 0.02560734
3507.4858  19.62400054931641 0.02376262 0.011394   0.0501578 
3507.6384  19.51399993896484 0.02336691 0.01119876 0.04935046
3507.7908  18.47699928283691 0.0196581  0.009377871 0.04173945
3507.9431  20.30599975585938 0.02622595 0.01261358 0.05516331
3508.0955  22.03400039672852 0.03254442 0.01577467 0.06784588
3508.2478  19.22900009155273 0.02234371 0.01069477 0.04725872
3508.4004  15.47000026702881 0.009122259 0.004294414 0.01966973
3508.5527  17.28800010681152 0.01545355 0.00733336 0.03301285
3508.7051  13.8439998626709 0.003557986 0.001663124 0.00773578
3508.8574  13.83899974822998 0.003541017 0.001655156 0.007699081
3509.01    13.19299983978271 0.001355903 0.0006320071 0.002957797
3509.1624  15.34200000762939 0.008680888 0.004084343 0.01873028
3509.3147  15.53800010681152 0.00935697 0.004406219 0.02016881
3509.467   14.93099975585938 0.007267557 0.003413233 0.01571376
3509.6196  13.46300029754639 0.002267441 0.001058127 0.004939452
3509.772   13.17500019073486 0.001295224 0.0006036767 0.00282569
3509.9243  15.45899963378906 0.009084304 0.00427634 0.01958899
3510.0767  18.76700019836426 0.02069134 0.009883514 0.04386789
3510.229   16.58699989318848 0.01299839 0.006149242 0.02786789
3510.3816  14.93900012969971 0.007295012 0.003426247 0.01577248
3510.5339  15.22999954223633 0.00829516 0.003900946 0.01790825
3510.6863  20.58300018310547 0.02723135 0.01311341 0.05719633
3510.8386  17.29800033569336 0.0154887  0.007350365 0.03308624
3510.9912  13.80000019073486 0.003408692 0.001593034 0.007412846
3511.1436  14.67700004577637 0.006397063 0.003001072 0.01384954
3511.2959  18.26799964904785 0.01891534 0.009015168 0.0402055 
3511.4482  20.39500045776367 0.02654868 0.01277389 0.05581652
3511.6008  17.08300018310547 0.01473375 0.006985459 0.03150826
3511.7532  15.81900024414063 0.0103286  0.00486976 0.0222312 
3511.9055  13.7209997177124 0.003140806 0.001467335 0.006833026
3512.0579  12.58100032806396 0          0          0         
3512.2102  15.46500015258789 0.009105006 0.004286198 0.01963303
3512.3628  15.23299980163574 0.008305486 0.003905853 0.01793027
3512.5151  14.78400039672852 0.006763495 0.003174459 0.01463487
3512.6675  13.01500034332275 0.0007563336 0.0003522671 0.001651379
3512.8198  13.48299980163574 0.00233506 0.001089777 0.005086238
3512.9724  12.99300003051758 0.0006823036 0.0003177569 0.001489909
3513.1248  14.06599998474121 0.004312269 0.002017648 0.009365139
3513.2771  13.88099956512451 0.003683581 0.001722108 0.008007337
3513.4294  12.06900024414063 0          0          0         
3513.582   13.50800037384033 0.002419607 0.001129358 0.005269728
3513.7344  15.39500045776367 0.008863575 0.004171264 0.01911927
3513.8867  14.79100036621094 0.00678748 0.003185814 0.01468624
3514.0391  16.80299949645996 0.01375303 0.006512441 0.02945321
3514.1914  17.40500068664551 0.01586503 0.007532521 0.03387157
3514.344   14.79899978637695 0.006814893 0.003198793 0.01474495
3514.4963  13.47900009155273 0.002321536 0.001083446 0.005056882
3514.6487  12.86999988555908 0.0002687195 0.0001250793 0.0005871555
3514.801   14.9379997253418 0.007291579 0.003424619 0.01576514
3514.9536  15.6540002822876 0.009757736 0.004597277 0.02102019
3515.106   17.65299987792969 0.01673886 0.007956125 0.03569175
3515.2583  14.89400005340576 0.007140614 0.003353071 0.0154422 
3515.4106  15.01500034332275 0.007555934 0.003549973 0.01633028
3515.5632  18.85799980163574 0.02101619 0.01004275 0.04453578
3515.7156  18.0049991607666 0.01798292 0.008560775 0.03827523
3515.8679  15.97999954223633 0.01088656 0.005136454 0.02341284
3516.0203  17.45100021362305 0.01602694 0.007610943 0.03420918
3516.1726  14.46100044250488 0.005658569 0.002652121 0.01226422
3516.3252  16.62599945068359 0.01313452 0.00621471 0.02815413
3516.4775  15.52499961853027 0.009312084 0.004384832 0.02007339
3516.6299  15.45100021362305 0.009056706 0.004263199 0.01953028
3516.7822  14.01500034332275 0.004138838 0.001936073 0.008990829
3516.9348  14.51900005340576 0.005856708 0.002745681 0.01268991
3517.0872  13.45800018310547 0.002250537 0.001050216 0.004902754
3517.2395  15.70600032806396 0.009937542 0.00468306 0.02140184
3517.3918  14.38500022888184 0.005399113 0.002529678 0.01170642
3517.5442  17.29700088500977 0.01548518 0.007348666 0.03307891
3517.6968  18.22699928283691 0.01876982 0.008944183 0.03990458
3517.8491  15.21000003814697 0.008226328 0.003868238 0.01776147
3518.0015  16.85190010070801 0.01392411 0.006594872 0.02981211
3518.1538  18.84099960327148 0.02095548 0.01001298 0.04441101
3518.3064  19.52099990844727 0.02339208 0.01121117 0.04940184
3518.4587  16.82999992370605 0.01384748 0.006557946 0.02965138
3518.6111  14.91100025177002 0.007198934 0.003380708 0.01556698
3518.7634  13.83699989318848 0.00353423 0.001651969 0.007684404
3518.916   14.46599960327148 0.005675643 0.002660181 0.01230092
3519.0684  13.16199970245361 0.001251404 0.0005832206 0.002730273
