~Version
 VERS              .         2.0                           : CWLS LOG ASCII STANDARD - VERSION 2.0
 WRAP              .         NO                            : ONE LINE PER DEPTH STEP
 DLM               .         SPACE                         : DELIMITING CHARACTER(SPACE TAB OR COMMA)
~Well Information
#_______________________________________________________________________________
#
#PARAMETER_NAME    .UNIT     VALUE                         : DESCRIPTION
#_______________________________________________________________________________
STRT               .M        3500.0183                     : First reference value
STOP               .M        4094.9878                     : Last reference value
STEP               .M        0.1524                        : Step increment
NULL               .         -9999                         : Missing value
COMP               .         STATOIL PETROLEUM AS          : Company
WELL               .         15/9-19                       : Well name
FLD                .         VOLVE                         : Field
LOC                .         UNKNOWN                       : Location
CNTY               .         UNKNOWN                       : County
STAT               .         UNKNOWN                       : State
CTRY               .         NO                            : Country
SRVC               .         UNKNOWN                       : Service Company
DATE               .         UNKNOWN                       : Date
UWI                .         NO 15/9-19 SR                 : Unique Well ID
COUNTRY            .         Norway                        : COUNTRY
ELEV               .M        25.0000                       : SURFACE ELEV
ELEV_TYPE          .         KB                            : ELEV TYPE
GDAT               .                                       : Geodetic Datum
HZCS               .                                       : Horizontal Co-ordinate System
LAT                .         58.435286                     : LATITUDE
LON                .         1.928158                      : LONGITUDE
ORIGINALWELLNAME   .         15/9-19                       : 
X                  .                                       : X or East-West coordinate
XCOORD             .         1.928158                      : SURFACE X
Y                  .                                       : Y or North South coordinate
YCOORD             .         58.435286                     : SURFACE Y
~Parameter Information Block
#_______________________________________________________________________________
#
#PARAMETER_NAME    .UNIT     VALUE                         : DESCRIPTION
#_______________________________________________________________________________
SET                .         LQC                           : 
TLFamily_DEPTH     .         Measured Depth                : 
TLFamily_GR        .         Gamma Ray                     : 
TLFamily_VSH_GR_LarOlder .         Shale Volume                  : 
TLFamily_VSH_GR_LarTert .         Shale Volume                  : 
TLFamily_VSH_GR_linear .         Shale Volume                  : 
~Curve Information
#_______________________________________________________________________________
#
#LOGNAME           .UNIT     LOG_ID                        : DESCRIPTION
#_______________________________________________________________________________
DEPTH              .M                                      : Measured Depth 
GR                 .gAPI                                   : v1 
VSH_GR_LarOlder    .v/v                                    : Shale volume fraction from Gamma Ray 
VSH_GR_LarTert     .v/v                                    : Shale volume fraction from Gamma Ray 
VSH_GR_linear      .v/v                                    : Shale volume fraction from Gamma Ray 
~Ascii
# ...
3783.1775  89.173     0.387851   0.2665351  0.5606092 
3783.3298  84.25      0.3527797  0.2356005  0.5244771 
3783.4824  80.21299999999999 0.3253027  0.2122874  0.4948477 
3783.6348  80.709     0.3286181  0.2150572  0.4984881 
3783.7871  80.10299999999999 0.3245697  0.2116766  0.4940404 
3783.9395  78.211     0.3120894  0.2013669  0.4801541 
3784.0918  78.459     0.3137117  0.2026975  0.4819743 
3784.2444  75.262     0.2931097  0.186012   0.4585101 
3784.3967  75.911     0.297238   0.1893185  0.4632734 
3784.5491  78.387     0.3132403  0.2023105  0.4814459 
3784.7014  86.09099999999999 0.3656898  0.2468346  0.537989  
3784.854   82.71599999999999 0.3422057  0.2265326  0.5132184 
3785.0063  83.45699999999999 0.3472929  0.2308802  0.5186569 
3785.1587  78.105     0.3113974  0.2008001  0.4793762 
3785.311   82.714     0.342192   0.2265209  0.5132037 
3785.4636  84.19199999999999 0.3523769  0.2352529  0.5240514 
3785.616   85.01900000000001 0.3581429  0.2402457  0.5301211 
3785.7683  84.03400000000001 0.3512808  0.2343077  0.5228918 
3785.9207  71.825     0.271696   0.1691593  0.4332844 
3786.073   67.72199999999999 0.2470944  0.1504178  0.4031707 
3786.2256  61.3       0.2105917  0.1238406  0.3560367 
3786.3779  67.627     0.2465369  0.1500008  0.4024734 
3786.5303  61.293     0.2105532  0.1238133  0.3559853 
3786.6826  79.265     0.3190123  0.207065   0.4878899 
3786.8352  83.129     0.3450363  0.2289482  0.5162495 
3786.9875  82.73399999999999 0.3423288  0.2266375  0.5133505 
3787.1399  80.53      0.3274197  0.2140546  0.4971743 
3787.2922  86.458     0.3682924  0.249121   0.5406826 
3787.4448  89.407     0.3895621  0.268078   0.5623266 
3787.5972  85.649     0.3625681  0.2441018  0.534745  
3787.7495  82.542     0.3410167  0.2255204  0.5119413 
3787.9019  85.175     0.3592361  0.2411963  0.5312661 
3788.0542  89.21299999999999 0.3881432  0.2667983  0.5609028 
3788.2068  89.563     0.3907052  0.2691105  0.5634716 
3788.3591  86.73399999999999 0.3702561  0.2508509  0.5427083 
3788.5115  89.184     0.3879313  0.2666075  0.5606899 
3788.6638  84.872     0.3571145  0.2393526  0.5290422 
3788.8164  87.36199999999999 0.3747448  0.2548207  0.5473174 
3788.9688  89.56399999999999 0.3907125  0.2691171  0.5634789 
3789.1211  84.931     0.3575271  0.2397108  0.5294753 
3789.2734  83.383     0.3467832  0.2304433  0.5181138 
3789.426   89.467     0.3900016  0.2684748  0.562767  
3789.5784  88.081     0.3799193  0.2594238  0.5525945 
3789.7307  88.776     0.3849572  0.2639328  0.5576954 
3789.8831  89.161     0.3877634  0.2664562  0.5605211 
3790.0354  93.611     0.4210086  0.2969884  0.5931817 
3790.188   87.636     0.3767123  0.2565676  0.5493285 
3790.3403  83.52800000000001 0.3477823  0.2312999  0.519178  
3790.4927  70.129     0.2614021  0.1612365  0.4208367 
3790.645   64.08799999999999 0.2261462  0.1349851  0.3764991 
3790.7976  49.337     0.1486383  0.08213573 0.2682349 
3790.95    48.325     0.1437352  0.07901984 0.2608074 
3791.1023  59.629     0.2014784  0.117436   0.3437725 
3791.2546  81.628     0.3348054  0.220258   0.505233  
3791.4072  81.586     0.3345214  0.2200183  0.5049248 
3791.5596  81.845     0.3362749  0.2214992  0.5068257 
3791.7119  82.828     0.3429722  0.2271858  0.5140404 
3791.8643  76.23699999999999 0.2993219  0.1909947  0.4656661 
3792.0166  71.29900000000001 0.2684845  0.166675   0.4294239 
3792.1692  66.767     0.2415141  0.1462594  0.3961615 
3792.3215  76.355     0.3000779  0.1916039  0.4665322 
3792.4739  81.651     0.334961   0.2203893  0.5054018 
3792.6262  90.6173    0.3984779  0.276168   0.5712096 
3792.7788  88.468     0.3827202  0.2619273  0.5554349 
3792.9312  87.76900000000001 0.3776692  0.2574187  0.5503046 
3793.0835  84.85899999999999 0.3570236  0.2392737  0.5289468 
3793.2358  82.011     0.3374012  0.2224521  0.5080441 
3793.3884  83.283     0.3460948  0.2298538  0.5173798 
3793.5408  80.316     0.3259898  0.2128605  0.4956037 
3793.6931  78.55200000000001 0.3143211  0.203198   0.4826569 
3793.8455  80.554     0.3275803  0.2141889  0.4973505 
3793.9978  77.56100000000001 0.307857   0.1979089  0.4753835 
3794.1504  79.742     0.3221698  0.209681   0.4913908 
3794.3027  79.93300000000001 0.3234385  0.2107352  0.4927927 
3794.4551  70.84699999999999 0.2657384  0.1645598  0.4261065 
3794.6074  71.809     0.2715981  0.1690834  0.433167  
3794.76    77.331     0.3063661  0.1966954  0.4736955 
3794.9124  74.336     0.2872665  0.1813637  0.4517138 
3795.0647  79.11799999999999 0.3180423  0.2062634  0.486811  
3795.217   74.366     0.287455   0.181513   0.451934  
3795.3696  72.64700000000001 0.2767495  0.1730912  0.4393175 
3795.522   80.158     0.3249361  0.2119818  0.494444  
3795.6743  76.024     0.2979595  0.1898983  0.4641028 
3795.8267  74.67400000000001 0.289393   0.183051   0.4541945 
3795.979   61.954     0.2142009  0.1264026  0.3608367 
3796.1316  59.71      0.2019166  0.1177418  0.344367  
3796.2839  48.431     0.1442464  0.07934342 0.2615853 
3796.4363  46.601     0.1354978  0.07384653 0.2481541 
3796.5886  44.408     0.1252262  0.06750387 0.2320587 
3796.7412  42.76      0.1176567  0.06290683 0.2199633 
3796.8936  38.891     0.1003767  0.05265865 0.191567  
3797.0459  37.369     0.09376331 0.04882735 0.1803963 
3797.1982  35.926     0.08758707 0.04529488 0.1698055 
3797.3508  36.256     0.08899154 0.04609428 0.1722275 
3797.5032  38.238     0.09752674 0.05100141 0.1867743 
3797.6555  34.175     0.08021331 0.04113531 0.1569541 
3797.8079  36.306     0.08920474 0.04621584 0.1725945 
3797.9602  34.067     0.07976279 0.04088322 0.1561615 
3798.1128  33.078     0.07566013 0.03859833 0.1489028 
3798.2651  38.434     0.09838017 0.0514967  0.1882128 
3798.4175  37.007     0.09220538 0.04793214 0.1777395 
3798.5698  33.248     0.07636242 0.03898806 0.1501505 
3798.7224  34.306     0.08076043 0.04144178 0.1579156 
3798.8748  35.432     0.08549343 0.04410745 0.1661798 
3799.0271  30.365     0.06461552 0.03254456 0.1289908 
3799.1794  28.872     0.05866632 0.02934263 0.118033  
3799.332   26.481     0.0493251  0.02439863 0.1004844 
3799.4844  28.452     0.05700896 0.02845798 0.1149505 
3799.6367  28.069     0.05550376 0.02765735 0.1121395 
3799.7891  25.962     0.0473273  0.02335454 0.09667523
3799.9414  24.965     0.043519   0.02137724 0.0893578 
3800.094   25.402     0.04518348 0.02223935 0.09256515
3800.2463  25.304     0.04480957 0.0220454  0.09184588
3800.3987  27.398     0.05288082 0.0262685  0.1072147 
3800.551   25.383     0.04511096 0.02220172 0.09242569
3800.7036  27.389     0.05284576 0.02624999 0.1071486 
3800.856   29.861     0.0625971  0.03145359 0.1252917 
3801.0083  29.726     0.06205821 0.03116312 0.1243009 
3801.1606  25.114     0.04408569 0.02167039 0.09045138
3801.3132  29.215     0.0600251  0.0300703  0.1205505 
3801.4656  29.831     0.06247728 0.03138898 0.1250716 
3801.6179  32.705     0.07412352 0.03774758 0.1461652 
3801.7703  35.239     0.08467832 0.04364652 0.1647633 
3801.9226  38.52      0.09875519 0.0517146  0.1888441 
3802.0752  36.348     0.08938392 0.04631803 0.1729028 
3802.2275  38.499     0.09866358 0.05166136 0.1886899 
3802.3799  41.385     0.1114375  0.05917896 0.2098716 
3802.5322  36.362     0.08944366 0.04635211 0.1730055 
3802.6848  40.109     0.1057434  0.05580476 0.2005064 
3802.8372  43.564     0.1213337  0.06513175 0.2258642 
3802.9895  44.737     0.1267526  0.06843879 0.2344734 
3803.1418  46.663     0.1357915  0.07402967 0.2486092 
3803.2942  43.788     0.1223635  0.06575764 0.2275083 
3803.4468  46.314     0.1341405  0.07300149 0.2460477 
3803.5991  51.987     0.1617193  0.09058179 0.2876844 
3803.7515  57.0102    0.187504   0.1077953  0.3245519 
3803.9038  61.311     0.2106522  0.1238834  0.3561175 
3804.0564  63.867     0.2248971  0.1340802  0.3748771 
3804.2087  66.129     0.2378161  0.1435226  0.3914789 
3804.3611  64.104     0.2262367  0.1350508  0.3766165 
3804.5134  65.14100000000001 0.2321367  0.1393489  0.3842275 
3804.666   58.662     0.1962749  0.1138207  0.3366752 
