~Version
 VERS              .         2.0                           : CWLS LOG ASCII STANDARD - VERSION 2.0
 WRAP              .         NO                            : ONE LINE PER DEPTH STEP
 DLM               .         SPACE                         : DELIMITING CHARACTER(SPACE TAB OR COMMA)
~Well Information
#_______________________________________________________________________________
#
#PARAMETER_NAME    .UNIT     VALUE                         : DESCRIPTION
#_______________________________________________________________________________
STRT               .M        3500.0183                     : First reference value
STOP               .M        4094.9878                     : Last reference value
STEP               .M        0.1524                        : Step increment
NULL               .         -9999                         : Missing value
COMP               .         STATOIL PETROLEUM AS          : Company
WELL               .         15/9-19                       : Well name
FLD                .         VOLVE                         : Field
LOC                .         UNKNOWN                       : Location
CNTY               .         UNKNOWN                       : County
STAT               .         UNKNOWN                       : State
CTRY               .         NO                            : Country
SRVC               .         UNKNOWN                       : Service Company
DATE               .         UNKNOWN                       : Date
UWI                .         NO 15/9-19 SR                 : Unique Well ID
COUNTRY            .         Norway                        : COUNTRY
ELEV               .M        25.0000                       : SURFACE ELEV
ELEV_TYPE          .         KB                            : ELEV TYPE
GDAT               .                                       : Geodetic Datum
HZCS               .                                       : Horizontal Co-ordinate System
LAT                .         58.435286                     : LATITUDE
LON                .         1.928158                      : LONGITUDE
ORIGINALWELLNAME   .         15/9-19                       : 
X                  .                                       : X or East-West coordinate
XCOORD             .         1.928158                      : SURFACE X
Y                  .                                       : Y or North South coordinate
YCOORD             .         58.435286                     : SURFACE Y
~Parameter Information Block
#_______________________________________________________________________________
#
#PARAMETER_NAME    .UNIT     VALUE                         : DESCRIPTION
#_______________________________________________________________________________
SET                .         LQC                           : 
TLFamily_DEPTH     .         Measured Depth                : 
TLFamily_GR        .         Gamma Ray                     : 
TLFamily_VSH_GR_LarOlder .         Shale Volume                  : 
TLFamily_VSH_GR_LarTert .         Shale Volume                  : 
TLFamily_VSH_GR_linear .         Shale Volume                  : 
~Curve Information
#_______________________________________________________________________________
#
#LOGNAME           .UNIT     LOG_ID                        : DESCRIPTION
#_______________________________________________________________________________
DEPTH              .M                                      : Measured Depth 
GR                 .gAPI                                   : v1 
VSH_GR_LarOlder    .v/v                                    : Shale volume fraction from Gamma Ray 
VSH_GR_LarTert     .v/v                                    : Shale volume fraction from Gamma Ray 
VSH_GR_linear      .v/v                                    : Shale volume fraction from Gamma Ray 
~Ascii
# ...
3676.9546  147.0249938964844 0.963213   0.955525   0.985211  
3677.1072  159.0330047607422 1          1          1         
3677.2595  160.85400390625 1          1          1         
3677.4119  165.7019958496094 1          1          1         
3677.5642  181.0140075683594 1          1          1         
3677.7168  177.22900390625 1          1          1         
3677.8691  164.0469970703125 1          1          1         
3678.0215  157.8009948730469 1          1          1         
3678.1738  156.7729949951172 1          1          1         
3678.3264  155.5249938964844 1          1          1         
3678.4788  163.8699951171875 1          1          1         
3678.6311  168.3670043945313 1          1          1         
3678.7834  171.4290008544922 1          1          1         
3678.9358  162.1320037841797 1          1          1         
3679.0884  166.0579986572266 1          1          1         
3679.2407  185.6049957275391 1          1          1         
3679.3931  185.6880035400391 1          1          1         
3679.5454  177.97900390625 1          1          1         
3679.698   180.8639984130859 1          1          1         
3679.8503  180.7819976806641 1          1          1         
3680.0027  177.4499969482422 1          1          1         
3680.155   168.1360015869141 1          1          1         
3680.3076  175.8560028076172 1          1          1         
3680.46    185.2640075683594 1          1          1         
3680.6123  176.1929931640625 1          1          1         
3680.7646  182.6540069580078 1          1          1         
3680.917   183.7949981689453 1          1          1         
3681.0696  186.6860046386719 1          1          1         
3681.2219  185.7729949951172 1          1          1         
3681.3743  189.0050048828125 1          1          1         
3681.5266  187.5720062255859 1          1          1         
3681.6792  197.1600036621094 1          1          1         
3681.8315  192.0269927978516 1          1          1         
3681.9839  178.4539947509766 1          1          1         
3682.1362  188.3930053710938 1          1          1         
3682.2888  182.1119995117188 1          1          1         
3682.4412  191.8630065917969 1          1          1         
3682.5935  189.4720001220703 1          1          1         
3682.7458  188.1629943847656 1          1          1         
3682.8982  198.2870025634766 1          1          1         
3683.0508  200.3300018310547 1          1          1         
3683.2031  209.2489929199219 1          1          1         
3683.3555  203.2960052490234 1          1          1         
3683.5078  212.9429931640625 1          1          1         
3683.6604  197.9129943847656 1          1          1         
3683.8127  201.3200073242188 1          1          1         
3683.9651  208.0189971923828 1          1          1         
3684.1174  200.7850036621094 1          1          1         
3684.27    202.1239929199219 1          1          1         
3684.4224  203.9929962158203 1          1          1         
3684.5747  196.3569946289063 1          1          1         
3684.7271  200.8609924316406 1          1          1         
3684.8794  193.2590026855469 1          1          1         
3685.032   200.7929992675781 1          1          1         
3685.1843  193.2319946289063 1          1          1         
3685.3367  193.6970062255859 1          1          1         
3685.489   186.6080017089844 1          1          1         
3685.6416  178.4640045166016 1          1          1         
3685.7939  171.468994140625 1          1          1         
3685.9463  175.6730041503906 1          1          1         
3686.0986  172.1069946289063 1          1          1         
3686.2512  167.0014953613281 1          1          1         
3686.4036  169.2230072021484 1          1          1         
3686.5559  167.9539947509766 1          1          1         
3686.7083  166.0789947509766 1          1          1         
3686.8606  161.8339996337891 1          1          1         
3687.0132  155.6499938964844 1          1          1         
3687.1655  163.6600036621094 1          1          1         
3687.3179  161.0559997558594 1          1          1         
3687.4702  171.5829925537109 1          1          1         
3687.6228  175.9380035400391 1          1          1         
3687.7751  181.6100006103516 1          1          1         
3687.9275  187.1600036621094 1          1          1         
3688.0798  188.3029937744141 1          1          1         
3688.2324  202.9620056152344 1          1          1         
3688.3848  214.6699981689453 1          1          1         
3688.5371  222.2989959716797 1          1          1         
3688.6895  225.8119964599609 1          1          1         
3688.8418  223.2819976806641 1          1          1         
3688.9944  228.2330017089844 1          1          1         
3689.1467  223.0599975585938 1          1          1         
3689.2991  229.1920013427734 1          1          1         
3689.4514  228.2530059814453 1          1          1         
3689.604   212.0740051269531 1          1          1         
3689.7563  206.8990020751953 1          1          1         
3689.9087  218.1880035400391 1          1          1         
3690.061   217.0820007324219 1          1          1         
3690.2136  231.7940063476563 1          1          1         
3690.366   242.7070007324219 1          1          1         
3690.5183  244.8150024414063 1          1          1         
3690.6707  222.6410064697266 1          1          1         
3690.823   213.9320068359375 1          1          1         
3690.9756  205.5959930419922 1          1          1         
3691.1279  203.2510070800781 1          1          1         
3691.2803  206.3979949951172 1          1          1         
3691.4326  202.2850036621094 1          1          1         
3691.5852  215.4429931640625 1          1          1         
3691.7375  212.1580047607422 1          1          1         
3691.8899  222.447998046875 1          1          1         
3692.0422  223.8840026855469 1          1          1         
3692.1948  221.6620025634766 1          1          1         
3692.3472  218.3159942626953 1          1          1         
3692.4995  217.3419952392578 1          1          1         
3692.6519  214.9329986572266 1          1          1         
3692.8042  213.3739929199219 1          1          1         
3692.9568  208.2180023193359 1          1          1         
3693.1091  205.3240051269531 1          1          1         
3693.2615  208.3589935302734 1          1          1         
3693.4138  227.1210021972656 1          1          1         
3693.5664  215.6289978027344 1          1          1         
3693.7188  215.0169982910156 1          1          1         
3693.8711  221.1990051269531 1          1          1         
3694.0234  184.9199981689453 1          1          1         
3694.176   183.1300048828125 1          1          1         
3694.3284  181.7279968261719 1          1          1         
3694.4807  179.3919982910156 1          1          1         
3694.6331  179.5549926757813 1          1          1         
3694.7854  174.7160034179688 1          1          1         
3694.938   147.2779998779297 0.9665464  0.9604826  0.9870679 
3695.0903  151.8800048828125 1          1          1         
3695.2427  154.7839965820313 1          1          1         
3695.395   147.7400054931641 0.9726555  0.9695967  0.9904588 
3695.5476  156.7330017089844 1          1          1         
3695.7     168.4640045166016 1          1          1         
3695.8523  170.8639984130859 1          1          1         
3696.0046  186.7570037841797 1          1          1         
3696.1572  189.2760009765625 1          1          1         
3696.3096  181.3699951171875 1          1          1         
3696.4619  195.9019927978516 1          1          1         
3696.6143  199.3300018310547 1          1          1         
