~Version
 VERS              .         2.0                           : CWLS LOG ASCII STANDARD - VERSION 2.0
 WRAP              .         NO                            : ONE LINE PER DEPTH STEP
 DLM               .         SPACE                         : DELIMITING CHARACTER(SPACE TAB OR COMMA)
~Well Information
#_______________________________________________________________________________
#
#PARAMETER_NAME    .UNIT     VALUE                         : DESCRIPTION
#_______________________________________________________________________________
STRT               .M        3500.0183                     : First reference value
STOP               .M        4094.9878                     : Last reference value
STEP               .M        0.1524                        : Step increment
NULL               .         -9999                         : Missing value
COMP               .         STATOIL PETROLEUM AS          : Company
WELL               .         15/9-19                       : Well name
FLD                .         VOLVE                         : Field
LOC                .         UNKNOWN                       : Location
CNTY               .         UNKNOWN                       : County
STAT               .         UNKNOWN                       : State
CTRY               .         NO                            : Country
SRVC               .         UNKNOWN                       : Service Company
DATE               .         UNKNOWN                       : Date
UWI                .         NO 15/9-19 SR                 : Unique Well ID
COUNTRY            .         Norway                        : COUNTRY
ELEV               .M        25.0000                       : SURFACE ELEV
ELEV_TYPE          .         KB                            : ELEV TYPE
GDAT               .                                       : Geodetic Datum
HZCS               .                                       : Horizontal Co-ordinate System
LAT                .         58.435286                     : LATITUDE
LON                .         1.928158                      : LONGITUDE
ORIGINALWELLNAME   .         15/9-19                       : 
X                  .                                       : X or East-West coordinate
XCOORD             .         1.928158                      : SURFACE X
Y                  .                                       : Y or North South coordinate
YCOORD             .         58.435286                     : SURFACE Y
~Parameter Information Block
#_______________________________________________________________________________
#
#PARAMETER_NAME    .UNIT     VALUE                         : DESCRIPTION
#_______________________________________________________________________________
SET                .         LQC                           : 
TLFamily_DEPTH     .         Measured Depth                : 
TLFamily_GR        .         Gamma Ray                     : 
TLFamily_VSH_GR_LarOlder .         Shale Volume                  : 
TLFamily_VSH_GR_LarTert .         Shale Volume                  : 
TLFamily_VSH_GR_linear .         Shale Volume                  : 
~Curve Information
#_______________________________________________________________________________
#
#LOGNAME           .UNIT     LOG_ID                        : DESCRIPTION
#_______________________________________________________________________________
DEPTH              .M                                      : Measured Depth 
GR                 .gAPI                                   : v1 
VSH_GR_LarOlder    .v/v                                    : Shale volume fraction from Gamma Ray 
VSH_GR_LarTert     .v/v                                    : Shale volume fraction from Gamma Ray 
VSH_GR_linear      .v/v                                    : Shale volume fraction from Gamma Ray 
~Ascii
# ...
3981.9072  52.607     0.164831   0.0926194  0.2922349 
3982.0596  43.894     0.1228517  0.06605475 0.2282863 
3982.2119  46.694     0.1359385  0.07412133 0.2488367 
3982.3643  40.596     0.1079079  0.05708301 0.2040807 
3982.5166  44.928     0.1276411  0.06898423 0.2358752 
3982.6692  39.083     0.1012183  0.05314982 0.1929762 
3982.8215  40.237     0.1063113  0.05613959 0.2014459 
3982.9739  40.692     0.1083359  0.05733638 0.2047853 
3983.1262  41.3296    0.1111887  0.05903078 0.209465  
3983.2788  38.678     0.09944501 0.05211585 0.1900037 
3983.4312  37.503     0.09434146 0.04916027 0.1813798 
3983.5835  31.459     0.06903254 0.03494857 0.1370202 
3983.7358  31.929     0.07094532 0.03599668 0.1404697 
3983.8884  28.944     0.05895115 0.02949499 0.1185615 
3984.0408  34.376     0.08105309 0.04160586 0.1584294 
3984.1931  35.127     0.08420604 0.04337981 0.1639413 
3984.3455  43.424     0.1206912  0.0647419  0.2248367 
3984.4978  36.662     0.09072592 0.04708462 0.1752073 
3984.6504  28.928     0.05888784 0.02946111 0.118444  
3984.8027  28.532     0.0573241  0.02862595 0.1155376 
3984.9551  31.604     0.06962167 0.03527093 0.1380844 
3985.1074  33.894     0.07904216 0.04048046 0.1548918 
3985.26    28.564     0.05745022 0.0286932  0.1157725 
3985.4124  33.094     0.07572619 0.03863496 0.1490202 
3985.5647  25.305     0.04481338 0.02204738 0.09185322
3985.717   26.633     0.0499122  0.02470635 0.1016    
3985.8696  26.829     0.05067059 0.02510444 0.1030385 
3986.022   28.698     0.05797884 0.02897528 0.116756  
3986.1743  26.901     0.05094955 0.02525105 0.103567  
3986.3267  30.637     0.06570913 0.03313765 0.1309872 
3986.479   28.005     0.05525281 0.02752412 0.1116697 
3986.6316  31.112     0.0676262  0.03418069 0.1344734 
3986.7839  34.939     0.08341449 0.04293337 0.1625615 
3986.9363  40.72      0.1084608  0.05741036 0.2049908 
3987.0886  40.814     0.1088803  0.05765901 0.2056807 
3987.2412  39.241     0.1019121  0.05355534 0.1941358 
3987.3936  40.42      0.1071244  0.0566197  0.202789  
3987.5459  44.677     0.1264738  0.06826785 0.234033  
3987.6982  40.891     0.1092243  0.05786303 0.2062459 
3987.8508  40.192     0.1061116  0.05602179 0.2011156 
3988.0032  33.701     0.0782397  0.04003268 0.1534752 
3988.1555  30.489     0.0651137  0.03281456 0.1299009 
3988.3079  30.095     0.06353293 0.03195882 0.1270092 
3988.4602  30.289     0.06431049 0.03237938 0.128433  
3988.6128  30.327     0.06446297 0.03246194 0.1287119 
3988.7651  30.451     0.06496096 0.03273175 0.129622  
3988.9175  30.521     0.06524237 0.03288434 0.1301358 
3989.0698  31.245     0.06816465 0.03447442 0.1354496 
3989.2224  31.659     0.06984537 0.03539344 0.1384881 
3989.3748  35.683     0.08655588 0.0447094  0.168022  
3989.5271  36.778     0.09122279 0.04736897 0.1760587 
3989.6794  36.665     0.09073877 0.04709197 0.1752294 
3989.832   38.328     0.09791841 0.05122861 0.1874349 
3989.9844  41.364     0.1113432  0.05912277 0.2097174 
3990.1367  34.914     0.08330936 0.04287414 0.162378  
3990.2891  35.207     0.08454334 0.04357027 0.1645285 
3990.4414  38.878     0.1003198  0.05262546 0.1914716 
3990.594   34.798     0.08282183 0.04259959 0.1615266 
3990.7463  37.071     0.09248039 0.04808996 0.1782092 
3990.8987  33.538     0.0775632  0.03965577 0.1522789 
3991.051   39.851     0.1046011  0.05513231 0.1986129 
3991.2036  41.771     0.1131746  0.06021576 0.2127046 
3991.356   40.428     0.10716    0.05664073 0.2028477 
3991.5083  43.372     0.1204529  0.06459737 0.2244551 
3991.6606  41.521     0.1120488  0.0595434  0.2108697 
3991.8132  34.592     0.08195747 0.04211351 0.1600147 
3991.9656  34.266     0.0805933  0.04134812 0.157622  
3992.1179  35.897     0.08746387 0.04522487 0.1695927 
3992.2703  40.479     0.1073869  0.05677485 0.203222  
3992.4226  33.771     0.07853056 0.0401949  0.153989  
3992.5752  36.03      0.08802918 0.04554628 0.1705688 
3992.7275  34.713     0.08246496 0.0423988  0.1609028 
3992.8799  30.562     0.06540728 0.03297381 0.1304367 
3993.0322  33.436     0.07714046 0.03942051 0.1515303 
3993.1848  32.029     0.07135347 0.03622087 0.1412037 
3993.3372  40.056     0.1055085  0.05566635 0.2001174 
3993.4895  40.533     0.1076273  0.05691699 0.2036184 
3993.6418  49.158     0.1477674  0.08158027 0.2669211 
3993.7942  51.981     0.1616892  0.09056218 0.2876404 
3993.9468  49.134     0.1476507  0.08150593 0.266745  
3994.0991  46.38      0.1344523  0.07319542 0.2465321 
3994.2515  50.1944    0.1528321  0.08482246 0.2745277 
3994.4038  52.992     0.1667731  0.09389672 0.2950606 
3994.5564  45.487     0.1302514  0.07059187 0.239978  
3994.7087  54.47      0.1743001  0.09888718 0.3059083 
3994.8611  48.183     0.1430512  0.07858735 0.2597651 
3995.0134  41.284     0.1109841  0.05890892 0.2091303 
3995.166   40.784     0.1087464  0.05757961 0.2054606 
3995.3184  38.726     0.09965479 0.05223798 0.190356  
3995.4707  42.752     0.1176202  0.06288487 0.2199046 
3995.623   40.112     0.1057567  0.0558126  0.2005284 
3995.7754  40.645     0.1081263  0.05721227 0.2044404 
3995.928   38.148     0.09713542 0.0507746  0.1861138 
3996.0803  42.82      0.11793    0.06307171 0.2204037 
3996.2327  41.018     0.1097922  0.05820017 0.207178  
3996.385   46.849     0.1366739  0.07458042 0.2499743 
3996.5376  43.212     0.1197202  0.06415352 0.2232808 
3996.6899  46.259     0.1338808  0.07284006 0.245644  
3996.8423  48.523     0.1446905  0.0796248  0.2622606 
3996.9946  44.867     0.1273571  0.06880982 0.2354275 
3997.1472  45.926     0.1323117  0.0718663  0.2432    
3997.2996  45.631     0.1309262  0.07100875 0.2410349 
3997.4519  48.699     0.1455413  0.08016445 0.2635523 
3997.6042  51.792     0.1607446  0.08994582 0.2862532 
3997.7566  48.303     0.1436291  0.07895276 0.2606459 
3997.9092  52.729     0.1654456  0.09302317 0.2931303 
3998.0615  59.589     0.2012621  0.1172851  0.3434789 
3998.2139  57.163     0.1883091  0.1083448  0.3256734 
3998.3662  49.893     0.1513537  0.08387306 0.2723156 
3998.5188  48.765     0.1458607  0.08036728 0.2640367 
3998.6711  34.262     0.08057659 0.04133876 0.1575927 
3998.8235  26.182     0.04817286 0.02379587 0.09828991
3998.9758  24.143     0.04040808 0.01977468 0.08332478
3999.1284  25.813     0.0467557  0.02305667 0.09558165
3999.2808  23.856     0.03932803 0.01922097 0.08121836
3999.4331  21.419     0.03028292 0.01463783 0.06333212
3999.5854  23.758     0.03895994 0.01903258 0.08049908
3999.7378  24.012     0.0399147  0.01952157 0.0823633 
3999.8904  24.729     0.04262318 0.0209146  0.08762569
4000.0427  23.28      0.03716987 0.01811867 0.07699084
4000.1951  30.431     0.0648806  0.03268819 0.1294752 
4000.3474  36.94      0.09191765 0.04776711 0.1772477 
4000.5     37.107     0.09263516 0.04817882 0.1784734 
4000.6523  33.153     0.07596982 0.03877012 0.1494532 
4000.8047  32.809     0.07455137 0.03798418 0.1469284 
4000.957   38.448     0.09844121 0.05153215 0.1883156 
4001.1096  39.124     0.1013982  0.05325493 0.1932771 
4001.262   46.405     0.1345704  0.07326893 0.2467156 
4001.4143  51.445     0.1590151  0.08881989 0.2837064 
4001.5667  48.662     0.1453623  0.08005085 0.2632807 
4001.719   44.753     0.1268269  0.0684844  0.2345908 
4001.8716  31.02      0.06725417 0.03397794 0.1337982 
4002.0239  28.703     0.05799857 0.02898582 0.1167927 
4002.1763  28.306     0.05643448 0.0281521  0.1138789 
4002.3286  27.707     0.05408648 0.0269059  0.1094826 
4002.4812  24.791     0.04285831 0.02103594 0.08808074
4002.6335  26.096     0.0478421  0.02362314 0.09765872
4002.7859  27.741     0.05421937 0.02697625 0.1097321 
4002.9382  27.671     0.05394582 0.02683144 0.1092184 
4003.0908  27.99      0.05519402 0.02749292 0.1115596 
4003.2432  30.138     0.06370515 0.03205191 0.1273248 
4003.3955  28.812     0.05842912 0.02921582 0.1175927 
4003.5479  25.393     0.04514913 0.02222152 0.09249908
4003.7002  28.888     0.0587296  0.02937647 0.1181505 
4003.8528  29.881     0.062677   0.03149668 0.1254385 
4004.0051  22.957     0.03596519 0.01750574 0.07462019
