~Version
 VERS              .         2.0                           : CWLS LOG ASCII STANDARD - VERSION 2.0
 WRAP              .         NO                            : ONE LINE PER DEPTH STEP
 DLM               .         SPACE                         : DELIMITING CHARACTER(SPACE TAB OR COMMA)
~Well Information
#_______________________________________________________________________________
#
#PARAMETER_NAME    .UNIT     VALUE                         : DESCRIPTION
#_______________________________________________________________________________
STRT               .M        3500.0183                     : First reference value
STOP               .M        4094.9878                     : Last reference value
STEP               .M        0.1524                        : Step increment
NULL               .         -9999                         : Missing value
COMP               .         STATOIL PETROLEUM AS          : Company
WELL               .         15/9-19                       : Well name
FLD                .         VOLVE                         : Field
LOC                .         UNKNOWN                       : Location
CNTY               .         UNKNOWN                       : County
STAT               .         UNKNOWN                       : State
CTRY               .         NO                            : Country
SRVC               .         UNKNOWN                       : Service Company
DATE               .         UNKNOWN                       : Date
UWI                .         NO 15/9-19 SR                 : Unique Well ID
COUNTRY            .         Norway                        : COUNTRY
ELEV               .M        25.0000                       : SURFACE ELEV
ELEV_TYPE          .         KB                            : ELEV TYPE
GDAT               .                                       : Geodetic Datum
HZCS               .                                       : Horizontal Co-ordinate System
LAT                .         58.435286                     : LATITUDE
LON                .         1.928158                      : LONGITUDE
ORIGINALWELLNAME   .         15/9-19                       : 
X                  .                                       : X or East-West coordinate
XCOORD             .         1.928158                      : SURFACE X
Y                  .                                       : Y or North South coordinate
YCOORD             .         58.435286                     : SURFACE Y
~Parameter Information Block
#_______________________________________________________________________________
#
#PARAMETER_NAME    .UNIT     VALUE                         : DESCRIPTION
#_______________________________________________________________________________
SET                .         LQC                           : 
TLFamily_DEPTH     .         Measured Depth                : 
TLFamily_GR        .         Gamma Ray                     : 
TLFamily_VSH_GR_LarOlder .         Shale Volume                  : 
TLFamily_VSH_GR_LarTert .         Shale Volume                  : 
TLFamily_VSH_GR_linear .         Shale Volume                  : 
~Curve Information
#_______________________________________________________________________________
#
#LOGNAME           .UNIT     LOG_ID                        : DESCRIPTION
#_______________________________________________________________________________
DEPTH              .M                                      : Measured Depth 
GR                 .gAPI                                   : v1 
VSH_GR_LarOlder    .v/v                                    : Shale volume fraction from Gamma Ray 
VSH_GR_LarTert     .v/v                                    : Shale volume fraction from Gamma Ray 
VSH_GR_linear      .v/v                                    : Shale volume fraction from Gamma Ray 
~Ascii
# ...
3959.8091  60.669     0.2071321  0.1213984  0.3514055 
3959.9614  71.822     0.2716777  0.1691451  0.4332624 
3960.114   72.64400000000001 0.2767309  0.1730767  0.4392954 
3960.2664  103.445    0.5000405  0.3742576  0.6653578 
3960.4187  110.905    0.5654956  0.4431925  0.7201101 
3960.571   109.908    0.5564575  0.4334097  0.7127927 
3960.7234  88.93899999999999 0.386144   0.2649989  0.5588918 
3960.876   68.997     0.2546296  0.1560875  0.4125285 
3961.0283  65.947     0.2367656  0.1427479  0.3901431 
3961.1807  47.368     0.1391447  0.07612739 0.2537835 
3961.333   46.619     0.135583   0.07389967 0.2482862 
3961.4856  47.986     0.142104   0.07798927 0.2583193 
3961.6379  54.047     0.1721343  0.09744471 0.3028037 
3961.7903  57.454     0.189846   0.1093958  0.3278092 
3961.9426  50.599     0.1548238  0.08610544 0.2774973 
3962.0952  50.784     0.1557373  0.08669534 0.2788551 
3962.2476  50.086     0.1522998  0.08448038 0.2737321 
3962.3999  46.624     0.1356067  0.07391445 0.2483229 
3962.5522  44.358     0.1249946  0.06736229 0.2316918 
3962.7046  43.239     0.1198437  0.06422832 0.2234789 
3962.8572  37.691     0.09515395 0.04962879 0.1827597 
3963.0095  43.83      0.1225569  0.0658753  0.2278165 
3963.1619  44.435     0.1253513  0.06758038 0.2322569 
3963.3142  48.443     0.1443043  0.0793801  0.2616734 
3963.4668  53.401     0.1688447  0.09526385 0.2980624 
3963.6191  53.079     0.1672131  0.09418664 0.2956991 
3963.7715  51.501     0.1592938  0.0890011  0.2841174 
3963.9238  51.837     0.1609694  0.09009238 0.2865835 
3964.0764  61.178     0.2099211  0.1233661  0.3551413 
3964.2288  70.745     0.2651204  0.164085   0.4253578 
3964.3811  78.85299999999999 0.3162974  0.2048241  0.4848661 
3964.5334  80.47499999999999 0.3270519  0.2137472  0.4967707 
3964.6858  73.614     0.2827486  0.1777952  0.4464147 
3964.8384  67.96599999999999 0.2485289  0.1514923  0.4049615 
3964.9907  61.575     0.2121065  0.124914   0.3580551 
3965.1431  57.96      0.1925293  0.111237   0.3315229 
3965.2954  48.99      0.1469514  0.08106065 0.2656881 
3965.448   49.125     0.147607   0.08147807 0.2666789 
3965.6003  50.07      0.1522213  0.08442995 0.2736147 
3965.7527  54.421     0.1740488  0.0987195  0.3055486 
3965.905   54.167     0.1727478  0.09785276 0.3036844 
3966.0576  50.395     0.1538185  0.08545734 0.276     
3966.21    50.714     0.1553914  0.0864719  0.2783413 
3966.3623  55.192     0.1780184  0.101376   0.3112074 
3966.5146  52.175     0.1626607  0.09119713 0.2890642 
3966.667   55.209     0.1781063  0.101435   0.3113321 
3966.8196  53.238     0.1680181  0.09471773 0.2968661 
3966.9719  49.049     0.1472378  0.08124294 0.2661211 
3967.1243  42.675     0.1172697  0.06267358 0.2193395 
3967.2766  41.107     0.1101906  0.05843691 0.2078312 
3967.4292  41.671     0.1127239  0.05994644 0.2119707 
3967.5815  42.61      0.116974   0.06249546 0.2188624 
3967.7339  41.524     0.1120622  0.05955145 0.2108917 
3967.8862  43.773     0.1222945  0.06571565 0.2273982 
3968.0388  50.431     0.1539958  0.08557153 0.2762642 
3968.1912  48.597     0.145048   0.07985149 0.2628037 
3968.3435  50.87      0.1561625  0.08697026 0.2794862 
3968.4958  53.465     0.1691697  0.09547872 0.2985321 
3968.6482  53.593     0.1698202  0.09590925 0.2994716 
3968.8008  55.377     0.1789755  0.1020191  0.3125651 
3968.9531  45.091     0.1284007  0.06945126 0.2370716 
3969.1055  42.716     0.1174563  0.06278604 0.2196404 
3969.2578  39.388     0.1025585  0.05393371 0.1952147 
3969.4104  37.704     0.09521017 0.04966124 0.182855  
3969.5627  37.243     0.0932204  0.04851506 0.1794716 
3969.7151  36.786     0.09125707 0.0473886  0.1761174 
3969.8674  35.602     0.08621273 0.04451484 0.1674275 
3970.02    36.793     0.09128707 0.04740578 0.1761688 
3970.1724  30.028     0.06326476 0.03181393 0.1265174 
3970.3247  28.385     0.05674522 0.02831751 0.1144587 
3970.4771  25.748     0.04650661 0.02292699 0.09510458
3970.6294  23.965     0.03973785 0.01943091 0.08201835
3970.782   28.612     0.05763949 0.02879417 0.1161248 
3970.9343  24.704     0.04252841 0.02086571 0.08744221
3971.0867  29.702     0.06196248 0.03111156 0.1241248 
3971.239   34.864     0.08309913 0.04275572 0.162011  
3971.3916  37.25      0.09325054 0.04853239 0.1795229 
3971.5439  43.346     0.1203337  0.06452515 0.2242642 
3971.6963  44.946     0.1277249  0.06903573 0.2360073 
3971.8486  47.821     0.141312   0.07749005 0.2571083 
3972.0012  56.8394    0.1866054  0.1071829  0.3232984 
3972.1536  56.257     0.1835532  0.1051093  0.3190239 
3972.3059  57.024     0.1875766  0.1078448  0.3246532 
3972.4583  54.035     0.172073   0.09740396 0.3027156 
3972.6106  57.521     0.1902005  0.1096386  0.3283009 
3972.7632  55.666     0.1804744  0.1030283  0.3146863 
3972.9155  49.141     0.1476847  0.08152761 0.2667963 
3973.0679  52.816     0.1658843  0.09331167 0.2937688 
3973.2202  47.846     0.141432   0.07756559 0.2572918 
3973.3728  48.376     0.143981   0.07917544 0.2611817 
3973.5251  44.04      0.1235249  0.06646495 0.2293578 
3973.6775  45.949     0.13242    0.07193337 0.2433688 
3973.8298  44.944     0.1277156  0.06903001 0.2359927 
3973.9824  48.21      0.1431812  0.0786695  0.2599633 
3974.1348  52.089     0.1622298  0.09091538 0.288433  
3974.2871  45.202     0.1289187  0.06977011 0.2378863 
3974.4395  48.344     0.1438268  0.0790778  0.2609468 
3974.5918  35.733     0.08676787 0.04482966 0.168389  
3974.7444  31.503     0.06921122 0.0350463  0.1373431 
3974.8967  31.699     0.07000814 0.03548261 0.1387817 
3975.0491  33.41      0.07703277 0.03936061 0.1513395 
3975.2014  32.637     0.07384402 0.03759313 0.1456661 
3975.354   34.77      0.08270424 0.04253341 0.1613211 
3975.5063  33.941     0.07923782 0.04058975 0.1552367 
3975.6587  35.005     0.08369222 0.04308993 0.1630459 
3975.811   36.402     0.08961441 0.04644955 0.1732991 
3975.9636  36.336     0.08933271 0.04628882 0.1728147 
3976.116   42.722     0.1174836  0.06280252 0.2196844 
3976.2683  45.599     0.1307762  0.070916   0.2408    
3976.4207  70.559     0.2639952  0.1632214  0.4239927 
3976.573   71.63      0.2705034  0.1682355  0.4318532 
3976.7256  66.298     0.2387933  0.1442444  0.3927193 
3976.8779  73.084     0.2794533  0.1752064  0.4425248 
3977.0303  67.959     0.2484877  0.1514614  0.4049101 
3977.1826  75.407     0.2940297  0.1867472  0.4595743 
3977.3352  75.803     0.2965491  0.1887655  0.4624808 
3977.4875  58.382     0.1947777  0.1127861  0.3346202 
3977.6399  47.733     0.1408903  0.07722443 0.2564624 
3977.7922  35.794     0.0870266  0.04497651 0.1688367 
3977.9448  34.574     0.08188204 0.04207113 0.1598826 
3978.0972  31.236     0.06812818 0.03445451 0.1353835 
3978.2495  36.935     0.0918962  0.04775481 0.177211  
3978.4019  33.5       0.07740566 0.03956808 0.152     
3978.5542  48.932     0.14667    0.08088163 0.2652624 
3978.7068  45.775     0.131602   0.07142676 0.2420918 
3978.8591  49.135     0.1476555  0.08150902 0.2667523 
3979.0115  47.384     0.1392211  0.07617532 0.2539009 
3979.1638  44.641     0.1263066  0.06816538 0.2337688 
3979.3164  41.678     0.1127555  0.05996528 0.212022  
3979.4688  43.932     0.1230268  0.0661614  0.2285651 
3979.6211  43.509     0.1210812  0.06497847 0.2254606 
3979.7734  43.804     0.1224372  0.06580245 0.2276257 
3979.926   46.813     0.136503   0.07447367 0.2497101 
3980.0784  39.548     0.1032633  0.05434673 0.196389  
3980.2307  41.714     0.1129177  0.06006218 0.2122862 
3980.3831  48.213     0.1431956  0.07867863 0.2599854 
3980.5354  37.816     0.09569502 0.04994122 0.1836771 
3980.688   37.309     0.09350469 0.04867854 0.179956  
3980.8403  34.955     0.08348181 0.04297131 0.1626789 
3980.9927  34.499     0.08156785 0.04189469 0.1593321 
3981.145   34.291     0.08069775 0.04140665 0.1578055 
3981.2976  35.321     0.08502444 0.04384215 0.1653651 
3981.45    50.662     0.1551347  0.0863061  0.2779596 
3981.6023  56.831     0.1865613  0.1071528  0.3232367 
3981.7546  56.69      0.1858207  0.1066488  0.3222018 
