~Version
 VERS              .         2.0                           : CWLS LOG ASCII STANDARD - VERSION 2.0
 WRAP              .         NO                            : ONE LINE PER DEPTH STEP
 DLM               .         SPACE                         : DELIMITING CHARACTER(SPACE TAB OR COMMA)
~Well Information
#_______________________________________________________________________________
#
#PARAMETER_NAME    .UNIT     VALUE                         : DESCRIPTION
#_______________________________________________________________________________
STRT               .M        3500.0183                     : First reference value
STOP               .M        4094.9878                     : Last reference value
STEP               .M        0.1524                        : Step increment
NULL               .         -9999                         : Missing value
COMP               .         STATOIL PETROLEUM AS          : Company
WELL               .         15/9-19                       : Well name
FLD                .         VOLVE                         : Field
LOC                .         UNKNOWN                       : Location
CNTY               .         UNKNOWN                       : County
STAT               .         UNKNOWN                       : State
CTRY               .         NO                            : Country
SRVC               .         UNKNOWN                       : Service Company
DATE               .         UNKNOWN                       : Date
UWI                .         NO 15/9-19 SR                 : Unique Well ID
COUNTRY            .         Norway                        : COUNTRY
ELEV               .M        25.0000                       : SURFACE ELEV
ELEV_TYPE          .         KB                            : ELEV TYPE
GDAT               .                                       : Geodetic Datum
HZCS               .                                       : Horizontal Co-ordinate System
LAT                .         58.435286                     : LATITUDE
LON                .         1.928158                      : LONGITUDE
ORIGINALWELLNAME   .         15/9-19                       : 
X                  .                                       : X or East-West coordinate
XCOORD             .         1.928158                      : SURFACE X
Y                  .                                       : Y or North South coordinate
YCOORD             .         58.435286                     : SURFACE Y
~Parameter Information Block
#_______________________________________________________________________________
#
#PARAMETER_NAME    .UNIT     VALUE                         : DESCRIPTION
#_______________________________________________________________________________
SET                .         LQC                           : 
TLFamily_DEPTH     .         Measured Depth                : 
TLFamily_GR        .         Gamma Ray                     : 
TLFamily_VSH_GR_LarOlder .         Shale Volume                  : 
TLFamily_VSH_GR_LarTert .         Shale Volume                  : 
TLFamily_VSH_GR_linear .         Shale Volume                  : 
~Curve Information
#_______________________________________________________________________________
#
#LOGNAME           .UNIT     LOG_ID                        : DESCRIPTION
#_______________________________________________________________________________
DEPTH              .M                                      : Measured Depth 
GR                 .gAPI                                   : v1 
VSH_GR_LarOlder    .v/v                                    : Shale volume fraction from Gamma Ray 
VSH_GR_LarTert     .v/v                                    : Shale volume fraction from Gamma Ray 
VSH_GR_linear      .v/v                                    : Shale volume fraction from Gamma Ray 
~Ascii
# ...
3761.6892  100.311    0.4739902  0.3480635  0.642356  
3761.8416  97.77500000000001 0.4535103  0.32797    0.6237432 
3761.9939  95.688     0.4370483  0.3121385  0.6084257 
3762.1462  93.78      0.4223011  0.2981991  0.594422  
3762.2988  91.762     0.407012   0.2839909  0.5796111 
3762.4512  90.526     0.3978015  0.2755513  0.5705395 
3762.6035  92.562     0.4130355  0.2895589  0.5854826 
3762.7559  92.16200000000001 0.4100177  0.2867644  0.5825468 
3762.9082  86.69      0.3699427  0.2505745  0.5423853 
3763.0608  83.255     0.3459023  0.2296889  0.5171743 
3763.2131  83.14700000000001 0.34516    0.229054   0.5163817 
3763.3655  86.28100000000001 0.3670359  0.2480163  0.5393835 
3763.5178  89.863     0.3929084  0.2711044  0.5656734 
3763.6704  87.879     0.3784617  0.2581243  0.5511119 
3763.8228  84.907     0.3573592  0.239565   0.5292991 
3763.9751  86.729     0.3702204  0.2508194  0.5426716 
3764.1274  87.545     0.3760582  0.2559864  0.5486606 
3764.28    83.63      0.3484861  0.2319039  0.5199266 
3764.4324  84.893     0.3572613  0.23948    0.5291963 
3764.5847  81.34      0.3328602  0.2186184  0.5031193 
3764.7371  83.211     0.3455998  0.2294301  0.5168514 
3764.8894  92.70399999999999 0.4141099  0.2905561  0.5865248 
3765.042   88.82899999999999 0.3853429  0.2642791  0.5580844 
3765.1943  81.548     0.3342645  0.2198016  0.5046459 
3765.3467  80.482     0.3270987  0.2137864  0.4968221 
3765.499   85.68600000000001 0.3628289  0.2443297  0.5350165 
3765.6516  81.33499999999999 0.3328265  0.2185901  0.5030826 
3765.804   83.295     0.3461774  0.2299245  0.5174679 
3765.9563  84.997     0.3579889  0.2401119  0.5299597 
3766.1086  84.455     0.3542054  0.2368323  0.5259817 
3766.2612  82.283     0.3392507  0.22402    0.5100403 
3766.4136  85.673     0.3627372  0.2442496  0.5349211 
3766.5659  79.858     0.32294    0.2103208  0.4922422 
3766.7183  81.95399999999999 0.3370142  0.2221246  0.5076258 
3766.8706  79.324     0.319402   0.2073873  0.4883229 
3767.0232  81.98399999999999 0.3372178  0.2222969  0.5078459 
3767.1755  79.509     0.3206256  0.2084002  0.4896808 
3767.3279  84.608     0.3552713  0.2377547  0.5271046 
3767.4802  77.414     0.3069037  0.1971327  0.4743046 
3767.6328  75.22499999999999 0.2928752  0.1858247  0.4582385 
3767.7852  75.096     0.2920582  0.1851728  0.4572918 
3767.9375  70.35599999999999 0.2627697  0.1622824  0.4225028 
3768.0898  72.60299999999999 0.2764779  0.1728792  0.4389945 
3768.2424  75.593     0.2952118  0.1876933  0.4609395 
3768.3948  78.744     0.3155811  0.2042343  0.4840661 
3768.5471  82.21599999999999 0.3387947  0.2236331  0.5095487 
3768.6995  82.066     0.3377747  0.2227685  0.5084478 
3768.8518  77.084     0.3047688  0.195398   0.4718826 
3769.0044  79.04600000000001 0.3175678  0.2058717  0.4862826 
3769.1567  82.057     0.3377136  0.2227167  0.5083817 
3769.3091  82.28      0.3392303  0.2240027  0.5100183 
3769.4614  83.527     0.3477754  0.231294   0.5191706 
3769.614   74.605     0.2889583  0.1827057  0.4536881 
3769.7664  66.08799999999999 0.2375793  0.1433479  0.391178  
3769.9187  66.47      0.2397896  0.1449813  0.3939817 
3770.071   72.185     0.273904   0.1708738  0.4359266 
3770.2234  74.221     0.2865447  0.1807921  0.4508697 
3770.376   80.5479    0.3275394  0.2141547  0.4973057 
3770.5283  80.23099999999999 0.3254227  0.2123875  0.4949799 
3770.6807  80.5       0.3272191  0.2138869  0.4969541 
3770.833   82.172     0.3384953  0.2233792  0.5092257 
3770.9856  82.836     0.3430269  0.2272325  0.5140991 
3771.1379  82.339     0.3396322  0.2243438  0.5104514 
3771.2903  86.428     0.3680793  0.2489335  0.5404624 
3771.4426  85.259     0.3598254  0.2417094  0.5318826 
3771.5952  85.70099999999999 0.3629346  0.2444221  0.5351266 
3771.7476  79.506     0.3206057  0.2083838  0.4896587 
3771.8999  85.717     0.3630475  0.2445208  0.5352441 
3772.0522  86.14400000000001 0.366065   0.2471638  0.538378  
3772.2046  81.57899999999999 0.3344741  0.2199784  0.5048735 
3772.3572  79.929     0.3234119  0.2107131  0.4927633 
3772.5095  81.056     0.3309475  0.2170104  0.5010349 
3772.6619  78.60899999999999 0.3146949  0.2035053  0.4830753 
3772.8142  81.91800000000001 0.3367699  0.2219179  0.5073615 
3772.9668  82.56999999999999 0.3412079  0.2256831  0.5121468 
3773.1191  80.071     0.3243566  0.2114992  0.4938055 
3773.2715  79.669     0.3216856  0.2092792  0.4908551 
3773.4238  84.374     0.3536417  0.236345   0.5253872 
3773.5764  82.812     0.3428626  0.2270924  0.5139229 
3773.7288  83.02800000000001 0.344343   0.2283557  0.5155083 
3773.8811  87.679     0.3770216  0.2568425  0.5496441 
3774.0334  82.199     0.338679   0.2235349  0.5094239 
3774.1858  81.337     0.3328399  0.2186014  0.5030972 
3774.3384  89.015     0.3866979  0.2654971  0.5594496 
3774.4907  82.989     0.3440754  0.2281273  0.515222  
3774.6431  90.134     0.3949045  0.2729154  0.5676624 
3774.7954  90.509     0.3976756  0.2754366  0.5704147 
3774.948   82.11199999999999 0.3380873  0.2230334  0.5087854 
3775.1003  82.184     0.3385769  0.2234484  0.5093138 
3775.2527  79.708     0.3219443  0.2094938  0.4911413 
3775.405   87.205     0.3736199  0.2538239  0.5461652 
3775.5576  92.34999999999999 0.4114345  0.2880752  0.5839266 
3775.71    103.916    0.5040278  0.3783295  0.6688147 
3775.8623  104.846    0.5119572  0.3864764  0.6756404 
3776.0146  99.36499999999999 0.4662888  0.3404556  0.6354129 
3776.167   85.904     0.3643673  0.2456756  0.5366166 
3776.3196  83.39100000000001 0.3468382  0.2304904  0.5181725 
3776.4719  86.14400000000001 0.366065   0.2471638  0.538378  
3776.6243  87.41      0.3750891  0.2551261  0.5476698 
3776.7766  89.976     0.39374    0.2718584  0.5665027 
3776.9292  91.47199999999999 0.4048405  0.281993   0.5774826 
3777.0815  91.071     0.4018485  0.2792484  0.5745395 
3777.2339  86.99299999999999 0.3721038  0.2524824  0.5446092 
3777.3862  91.062     0.4017814  0.279187   0.5744734 
3777.5388  90.687     0.3989947  0.2766395  0.5717211 
3777.6912  86.32899999999999 0.3673765  0.2483155  0.5397359 
3777.8435  81.958     0.3370413  0.2221476  0.5076551 
3777.9958  86.77      0.3705126  0.2510772  0.5429725 
3778.1482  85.64      0.3625047  0.2440464  0.5346789 
3778.3008  80.81100000000001 0.329302   0.21563    0.4992367 
3778.4531  69.154     0.2555643  0.1567951  0.4136808 
3778.6055  58.245     0.1940467  0.1122818  0.3336147 
3778.7578  69.58799999999999 0.2581557  0.158762   0.4168661 
3778.9104  74.352     0.287367   0.1814433  0.4518312 
3779.0627  77.746     0.3090588  0.1988888  0.4767413 
3779.2151  73.636     0.2828858  0.1779033  0.4465762 
3779.3674  79.708     0.3219443  0.2094938  0.4911413 
3779.52    83.182     0.3454005  0.2292596  0.5166386 
3779.6724  78.023     0.3108625  0.2003624  0.4787744 
3779.8247  79.166     0.3183589  0.2065249  0.4871633 
3779.9771  79.371     0.3197127  0.2076443  0.4886679 
3780.1294  79.89700000000001 0.3231992  0.2105362  0.4925285 
3780.282   79.51600000000001 0.3206719  0.2084386  0.4897321 
3780.4343  77.245     0.3058095  0.196243   0.4730643 
3780.5867  76.748     0.3026024  0.1936428  0.4694166 
3780.739   77.291     0.3061071  0.1964849  0.4734019 
3780.8916  74.47799999999999 0.288159   0.1820713  0.452756  
3781.0439  82.23399999999999 0.3389172  0.223737   0.5096807 
3781.1963  77.83199999999999 0.3096182  0.1993455  0.4773725 
3781.3486  81.767     0.3357463  0.2210524  0.5062532 
3781.5012  81.047     0.330887   0.2169595  0.5009688 
3781.6536  27.321     0.05258097 0.02611024 0.1066495 
3781.8059  83.16      0.3452493  0.2291303  0.5164771 
3781.9583  -9999      -9999      -9999      -9999     
3782.1106  -9999      -9999      -9999      -9999     
3782.2632  82.25      0.3390261  0.2238294  0.5097982 
3782.4155  79.66      0.321626   0.2092297  0.4907891 
3782.5679  84.34399999999999 0.3534331  0.2361647  0.525167  
3782.7202  81.154     0.3316069  0.2175643  0.5017542 
3782.8728  89.732     0.3919455  0.2702324  0.564712  
3783.0251  84.004     0.3510729  0.2341286  0.5226716 
