~Version
 VERS              .         2.0                           : CWLS LOG ASCII STANDARD - VERSION 2.0
 WRAP              .         NO                            : ONE LINE PER DEPTH STEP
 DLM               .         SPACE                         : DELIMITING CHARACTER(SPACE TAB OR COMMA)
~Well Information
#_______________________________________________________________________________
#
#PARAMETER_NAME    .UNIT     VALUE                         : DESCRIPTION
#_______________________________________________________________________________
STRT               .M        1740.47                       : First reference value
STOP               .M        2787.78                       : Last reference value
STEP               .M        0                             : Step increment
NULL               .         -9999                         : Missing value
COMP               .                                       : Company
WELL               .         616                           : Well name
FLD                .                                       : Field
LOC                .                                       : Location
CNTY               .                                       : County
STAT               .                                       : State
CTRY               .                                       : Country
SRVC               .                                       : Service Company
DATE               .                                       : Date
API                .                                       : API number
PROJECT_UPGRADE_TIME .         2021-03-18T21_24_50           : 
group              .         Good                          : 
~Parameter Information Block
#_______________________________________________________________________________
#
#PARAMETER_NAME    .UNIT     VALUE                         : DESCRIPTION
#_______________________________________________________________________________
SET                .         D2664                         : 
NPR                .         980607                        : ЗАВ НОМЕР ПРИБОРА
NPRT               .         Мещеряков                     : НАЧ ПАРТИИ
PROJECT_UPGRADE_TIME .         2021-03-18T21_24_50           : 
TLFamily_AZIMUTH   .         True Dip Azimuth              : 
TLFamily_DEPTH     .         Measured Depth                : 
TLFamily_DRILL     .                                       : 
TLFamily_METKA     .                                       : 
TLFamily_ZENIT     .                                       : 
group              .         prim                          : 
~Curve Information
#_______________________________________________________________________________
#
#LOGNAME           .UNIT     LOG_ID                        : DESCRIPTION
#_______________________________________________________________________________
DEPTH              .M                                      : 1 ГЛУБИНА 
AZIMUTH            .ГРАД                                   : 4 АЗИМУТ 
DRILL              .ГРАД                                   : 2 ПОВОРОТ 
METKA              .                                       : 5 МАГН МЕТКА 
ZENIT              .ГРАД                                   : 3 ЗЕНИТ 
~Ascii
# ...
2697.49    61.47      295.1      0          0.83      
2697.68    61.07      296.67     0          0.83      
2697.87    60.87      298.06     0          0.84      
2698.06    60.58      299.52     0          0.84      
2698.25    60.32      300.92     0          0.84      
2698.44    60.07      302.31     0          0.84      
2698.63    59.9       303.6      0          0.85      
2698.82    59.83      304.78     0          0.85      
2699.01    59.72      305.97     0          0.85      
2699.2     59.77      306.96     0          0.85      
2699.39    59.77      307.96     0          0.85      
2699.58    59.79      308.9      0          0.85      
2699.77    59.86      309.76     0          0.86      
2699.94    59.93      310.57     0          0.86      
2700.11    60.09      311.26     0          0.86      
2700.28    60.21      311.92     0          0.86      
2700.45    60.31      312.53     0          0.86      
2700.62    60.35      313.13     0          0.86      
2700.79    60.37      313.71     0          0.87      
2700.96    60.38      314.29     0          0.87      
2701.13    60.26      314.97     0          0.87      
2701.3     60.18      315.56     0          0.87      
2701.47    60.08      316.13     0          0.87      
2701.64    60.02      316.64     0          0.87      
2701.8     60.08      317        0          0.87      
2701.97    60.03      317.44     0          0.87      
2702.14    59.96      317.88     0          0.87      
2702.31    59.9       318.26     0          0.87      
2702.48    59.93      318.51     0          0.87      
2702.65    59.92      318.76     0          0.88      
2702.82    59.95      318.91     0          0.88      
2702.99    59.92      319.06     0          0.88      
2703.16    59.92      319.16     0          0.88      
2703.33    59.91      319.25     0          0.89      
2703.5     59.91      319.31     0          0.89      
2703.67    59.91      319.33     0          0.89      
2703.84    59.83      319.39     0          0.89      
2704.01    59.76      319.45     0          0.89      
2704.18    59.69      319.5      0          0.89      
2704.35    59.53      319.65     0          0.9       
2704.52    59.36      319.8      0          0.9       
2704.69    59.21      319.92     0          0.9       
2704.86    59.02      320.1      0          0.91      
2705.05    58.79      320.32     0          0.91      
2705.24    58.55      320.54     0          0.91      
2705.43    58.33      320.76     0          0.91      
2705.62    58.12      321        0          0.91      
2705.81    57.91      321.29     0          0.91      
2706       57.67      321.66     0          0.91      
2706.19    57.4       322.08     0          0.91      
2706.38    57.29      322.36     0          0.92      
2706.58    57.18      322.67     0          0.92      
2706.77    57.03      323.1      0          0.92      
2706.96    56.87      323.58     0          0.93      
2707.15    56.62      324.2      0          0.93      
2707.34    56.37      324.92     0          0.93      
2707.53    56.22      325.64     0          0.94      
2707.72    55.99      326.52     0          0.95      
2707.91    55.69      327.55     0          0.95      
2708.1     55.4       328.62     0          0.96      
2708.29    55.02      329.86     0          0.97      
2708.48    54.72      331.11     0          0.98      
2708.67    54.35      332.49     0          0.98      
2708.86    54.04      333.85     0          0.99      
2709.05    53.75      335.24     0          1         
2709.25    53.5       336.63     0          1         
2709.44    53.23      338.1      0          1         
2709.63    52.96      339.62     0          1.01      
2709.83    52.84      341        0          1.01      
2710.03    52.75      342.39     0          1.01      
2710.24    52.66      343.83     0          1.01      
2710.44    52.61      345.26     0          1         
2710.65    52.66      346.63     0          1         
2710.85    52.73      347.98     0          1         
2711.05    52.73      349.43     0          1         
2711.26    52.63      351.04     0          1         
2711.46    52.58      352.61     0          1         
2711.67    52.51      354.21     0          1         
2711.87    52.57      355.65     0          1         
2712.07    52.67      356.99     0          1         
2712.28    52.71      358.34     0          1         
2712.48    52.8       359.65     0          1         
2712.68    52.97      0.8        0          1         
2712.89    53.18      1.86       0          1         
2713.09    53.4       2.85       0          0.99      
2713.3     53.73      3.66       0          0.99      
2713.5     53.99      4.47       0          0.98      
2713.7     54.3       5.16       0          0.97      
2713.91    54.54      5.88       0          0.96      
2714.11    54.78      6.59       0          0.95      
2714.31    55.06      7.25       0          0.94      
2714.52    55.26      7.96       0          0.94      
2714.72    55.42      8.69       0          0.93      
2714.92    55.57      9.42       0          0.93      
2715.13    55.59      10.23      0          0.93      
2715.33    55.51      11.12      0          0.93      
2715.54    55.43      11.94      0          0.93      
2715.74    55.35      12.72      0          0.94      
2715.93    55.16      13.59      0          0.94      
2716.12    54.93      14.45      0          0.95      
2716.31    54.6       15.36      0          0.95      
2716.5     54.26      16.24      0          0.96      
2716.69    53.88      17.11      0          0.97      
2716.88    53.57      17.89      0          0.98      
2717.07    53.39      18.52      0          0.99      
2717.26    53.28      19.05      0          0.99      
2717.45    53.13      19.59      0          1         
2717.64    52.94      20.17      0          1.01      
2717.83    52.67      20.87      0          1.01      
2718.03    52.34      21.65      0          1.02      
2718.22    51.97      22.49      0          1.02      
2718.41    51.59      23.37      0          1.03      
2718.6     51.09      24.41      0          1.04      
2718.79    50.5       25.57      0          1.04      
2718.98    50         26.66      0          1.05      
2719.17    49.43      27.85      0          1.06      
2719.36    48.83      29.08      0          1.07      
2719.55    48.21      30.34      0          1.08      
2719.74    47.7       31.51      0          1.09      
2719.93    47.22      32.63      0          1.1       
2720.12    46.72      33.76      0          1.11      
2720.31    46.27      34.83      0          1.12      
2720.5     45.9       35.82      0          1.12      
2720.69    45.55      36.78      0          1.12      
2720.88    45.33      37.62      0          1.13      
2721.07    45.15      38.4       0          1.13      
2721.26    45.07      39.09      0          1.13      
2721.45    45.02      39.72      0          1.14      
2721.64    44.98      40.34      0          1.14      
2721.83    44.88      41.02      0          1.14      
2722.02    44.94      41.53      0          1.14      
2722.21    44.96      42.04      0          1.14      
2722.4     45.01      42.5       0          1.14      
2722.59    44.99      42.96      0          1.14      
2722.78    44.88      43.41      0          1.14      
2722.97    44.85      43.7       0          1.14      
2723.16    44.73      43.99      0          1.13      
2723.35    44.61      44.18      0          1.13      
2723.54    44.44      44.31      0          1.13      
2723.73    44.31      44.29      0          1.12      
2723.92    44.2       44.11      0          1.12      
2724.11    44.06      43.85      0          1.11      
2724.3     44.09      43.25      0          1.1       
2724.49    44.18      42.44      0          1.09      
2724.68    44.23      41.52      0          1.08      
2724.87    44.3       40.41      0          1.07      
