~Version
 VERS              .         2.0                           : CWLS LOG ASCII STANDARD - VERSION 2.0
 WRAP              .         NO                            : ONE LINE PER DEPTH STEP
 DLM               .         SPACE                         : DELIMITING CHARACTER(SPACE TAB OR COMMA)
~Well Information
#_______________________________________________________________________________
#
#PARAMETER_NAME    .UNIT     VALUE                         : DESCRIPTION
#_______________________________________________________________________________
STRT               .M        2650.6                        : First reference value
STOP               .M        2759.999891                   : Last reference value
STEP               .M        0.1999998                     : Step increment
NULL               .         -9999                         : Missing value
COMP               .                                       : Company
WELL               .         616                           : Well name
FLD                .                                       : Field
LOC                .                                       : Location
CNTY               .                                       : County
STAT               .                                       : State
CTRY               .                                       : Country
SRVC               .                                       : Service Company
DATE               .                                       : Date
API                .                                       : API number
PROJECT_UPGRADE_TIME .         2021-03-18T21_24_50           : 
group              .         Good                          : 
~Parameter Information Block
#_______________________________________________________________________________
#
#PARAMETER_NAME    .UNIT     VALUE                         : DESCRIPTION
#_______________________________________________________________________________
SET                .         D4417_D                       : 
OTHER              .         Запись производится в присутствии: 
OTHER_10           .         Максимальная температура      : 
OTHER_11           .         Тип промывочной жидкости      : 
OTHER_12           .         Сопротивление ПЖ (Ом*м) при 20°C: 
OTHER_13           .         Плотность ПЖ(г/см3)           : 
OTHER_14           .         Вязкость ПЖ(с)                : 
OTHER_15           .         Водоотдача ПЖ(см3/30мин)      : 
OTHER_16           .         Уровень ПЖ                    : 
OTHER_17           .         Нефть ПЖ (%)                  : 
OTHER_18           .         Барит ПЖ (%)                  : 
OTHER_19           .         Гематит ПЖ (%)                : 
OTHER_2            .         Заказчик ННСН  ЦДНГ-1         : 
OTHER_20           .         КМЦ ПЖ (%)                    : 
OTHER_21           .         Разгазирование ПЖ (да,нет)    : 
OTHER_22           .         Подъемник                     : 
OTHER_23           .         Лаборатория                   : 
OTHER_24           .         Тип кабеля                    : 
OTHER_25           .         Длина кабеля (м)              : 
OTHER_26           .         Цена последней метки          : 
OTHER_27           .         Цена контрольной метки        : 
OTHER_28           .         Диаметр долота (мм)           : 
OTHER_29           .         Глубина бурения (м)           : 
OTHER_3            .         Площадь                       : 
OTHER_30           .         Искусственный забой (м)       : 
OTHER_31           .         Диаметр колонны (мм)          : 
OTHER_32           .         Толщина колонны (мм)          : 
OTHER_33           .         Башмак колонны (м)            : 
OTHER_34           .         Диаметр НКТ (мм)              : 
OTHER_35           .         Толщина НКТ (мм)              : 
OTHER_36           .         Воронка НКТ (м)               : 
OTHER_37           .         Дата цементожа                : 
OTHER_38           .         Тип, количество(т) и плотность цемента: 
OTHER_39           .         Интервалы перфорации (м)      : 
OTHER_4            .         Категория                     : 
OTHER_40           .         Направление, диаметр (мм)     : 
OTHER_41           .         Направление, глубина (м)      : 
OTHER_42           .         Кондуктор, диаметр (мм)       : 
OTHER_43           .         Кондуктор, глубина (м)        : 
OTHER_44           .         Техническая колонна, диаметр (мм): 
OTHER_45           .         Техническая колонна, глубина (м): 
OTHER_46           .         Эксплуатационная колонна, диаметр (мм): 
OTHER_47           .         Эксплуатационная колонна, глубина (м): 
OTHER_48           .         Программа Кедр-02 версия 3.4  : 
OTHER_49           .         Операционная система Windows NT 5.1 build 2600 Service Pack 2: 
OTHER_5            .         Назначение исследований       : 
OTHER_50           .         Программное обеспечение станции MONITOR-386EX 25/12/99 15_08_10   BGF V54 20/09/05 15_32_17   3.3__BGF_9030071: 
OTHER_51           .         Kedr.exe версия 3.4.2.74      : 
OTHER_52           .         KedrData.dll версия 3.4.2.29  : 
OTHER_53           .         Мнемоники версия 3.18 S       : 
OTHER_54           .         Драйвер версия 2.1.1.4        : 
OTHER_55           .         LasInf.dll 4.3.0.35           : 
OTHER_56           .         Прибор_ КСА-Т4                : 
OTHER_57           .         Номер прибора_ 160            : 
OTHER_58           .         Режим_ КСА-Т4                 : 
OTHER_59           .         Форма_ С.А.Б.                 : 
OTHER_6            .         Альтитуда стола ротора        : 
OTHER_60           .         Тарировки_                    : 
OTHER_61           .         <_techsia_sc_> Дата тарировки температуры 25.05.2010: 
OTHER_62           .         Ручной ввод коэффициентов     : 
OTHER_63           .         TM.DEGC = 0.00402*RTM.E.ACP + -0.994: 
OTHER_64           .         <_techsia_sc_> Дата тарировки давления 25.05.2010: 
OTHER_65           .         Ручной ввод коэффициентов     : 
OTHER_66           .         MN.ATM = (2.27521e-006*TM.DEGC + 0.02078)*(RMN.E.ACP + 6.2*TM.DEGC + -1688): 
OTHER_67           .         <_techsia_sc_> Дата тарировки ГК 25.05.2010: 
OTHER_68           .         Ручной ввод коэффициентов     : 
OTHER_69           .         GR.UR/H = RGR.IMP/MIN / 45.5144: 
OTHER_7            .         Вид исследований 3  6         : 
OTHER_70           .         GK.FLT = 0.1*GR.UR/H[-1] + (1-0.1)*GR.UR/H[0]: 
OTHER_8            .         Начало бурения интервала каротажа: 
OTHER_9            .         Окончание бурения интервала каротажа: 
PROJECT_UPGRADE_TIME .         2021-03-18T21_24_50           : 
TLFamily_CCLC      .                                       : 
TLFamily_DEPT      .         Measured Depth                : 
TLFamily_GK        .         Gamma Ray                     : 
TLFamily_GR        .         Gamma Ray                     : 
TLFamily_METKA     .                                       : 
TLFamily_MN        .                                       : 
TLFamily_RCOR      .                                       : 
TLFamily_RGR       .                                       : 
TLFamily_RMN       .                                       : 
TLFamily_RTEN      .                                       : 
TLFamily_RTM       .                                       : 
TLFamily_SPEE      .         Cable Speed                   : 
TLFamily_TIME      .         Time                          : 
TLFamily_TM        .         Temperature                   : 
group              .         prim                          : 
~Curve Information
#_______________________________________________________________________________
#
#LOGNAME           .UNIT     LOG_ID                        : DESCRIPTION
#_______________________________________________________________________________
DEPT               .M                                      : 1 Глубина, м -    0.0 см 
CCLC               .E.ACP                                  : 9 Локатор муфт,  -   20.0 см 
GK                 .FLT                                    : 14 Гамма-активность фильтрованная, мкр./ч -  110.0 см 
GR                 .UR/H                                   : 13 Гамма-активность, мкр./ч -  110.0 см 
METKA              .CU                                     : 3 Метки,  -    0.0 см 
MN                 .ATM                                    : 12 Давление, атм. -  160.0 см 
RCOR               .CM/KM                                  : 5 Коррекция по ролику, см/км -    0.0 см 
RGR                .IMP/MIN                                : 10 Гамма-активность, усл.ед. -  110.0 см 
RMN                .E.ACP                                  : 8 Давление, усл.ед. -  160.0 см 
RTEN               .T                                      : 6 Натяжение кабеля, т -    0.0 см 
RTM                .E.ACP                                  : 7 Температура, усл.ед. -  170.0 см 
SPEE               .M/H                                    : 2 Скорость, м/час -    0.0 см 
TIME               .S                                      : 4 Время, сек -    0.0 см 
TM                 .DEGC                                   : 11 Температура, °C -  170.0 см 
~Ascii
# ...
2660.99999 640        7.43       7.43       0          239.897    -1089      338        12744      0.25       16551      579        64.99      65.541    
2661.199989 313        7.21       7.21       0          239.914    -1089      328        12745      0.25       16551      579        66.31      65.54     
2661.399989 600        7.43       7.43       0          239.917    -1089      338        12745      0.25       16550      581        67.56      65.537    
2661.599989 468        7.65       7.65       0          239.937    -1089      348        12746      0.25       16549      580        68.77      65.533    
2661.799989 493        7.65       7.65       0          239.936    -1089      348        12746      0.25       16548      582        69.95      65.529    
2661.999989 456        7.4        7.4        0          239.96     -1089      337        12747      0.25       16546      582        71.28      65.523    
2662.199988 430        7.4        7.4        0          239.978    -1089      337        12748      0.25       16546      581        72.55      65.521    
2662.399988 313        7.73       7.73       0          239.978    -1089      352        12748      0.25       16546      581        73.73      65.521    
2662.599988 492        7.93       7.93       0          239.997    -1089      361        12749      0.25       16545      581        75         65.517    
2662.799988 281        8.88       8.88       0          240.018    -1089      404        12750      0.25       16544      581        76.23      65.513    
2662.999988 460        8.88       8.88       0          240.018    -1089      404        12750      0.25       16543      582        77.51      65.509    
2663.199987 191        8.63       8.63       0          240.038    -1089      393        12751      0.25       16543      583        78.72      65.509    
2663.399987 521        8.25       8.25       0          240.059    -1089      375        12752      0.25       16542      584        79.94      65.505    
2663.599987 437        7.73       7.73       0          240.058    -1089      352        12752      0.25       16542      585        81.17      65.505    
2663.799987 437        7.73       7.73       0          240.078    -1089      352        12753      0.25       16541      585        82.49      65.5      
2663.999987 457        8.15       8.15       0          240.099    -1089      371        12754      0.25       16540      583        83.69      65.497    
2664.199986 272        8.15       8.15       0          240.119    -1089      371        12755      0.25       16538      583        84.93      65.49     
2664.399986 441        7.98       7.98       0          240.128    -1089      363        12755      0.25       16538      584        86.16      65.489    
2664.599986 223        7.98       7.98       0          240.139    -1089      363        12756      0.25       16537      584        87.41      65.485    
2664.799986 468        7.8        7.8        0          240.142    -1089      355        12756      0.25       16536      584        88.64      65.481    
2664.999986 380        7.8        7.8        0          240.167    -1089      355        12757      0.25       16535      580        90         65.477    
2665.199985 398        8.06       8.06       0          240.179    -1089      367        12758      0.25       16534      554        91.43      65.473    
2665.399985 373        8.14       8.14       0          240.199    -1089      370        12759      0.25       16533      534        92.87      65.469    
2665.599985 200        8.5        8.5        0          240.198    -1089      387        12759      0.25       16531      519        94.38      65.462    
2665.799985 304        8.5        8.5        0          240.218    -1089      387        12760      0.25       16530      511        95.86      65.457    
2665.999985 421        8.57       8.57       2          240.238    -1089      390        12761      0.25       16529      505        97.32      65.452    
2666.199984 286        8.57       8.57       0          240.259    -1093      390        12762      0.25       16528      500        99.06      65.449    
2666.399984 396        8.09       8.09       0          240.267    -1093      368        12762      0.25       16526      499        100.5      65.441    
2666.599984 262        7.05       7.05       0          240.277    -1093      321        12763      0.25       16524      497        102.02     65.432    
2666.799984 221        7.05       7.05       0          240.276    -1093      321        12763      0.25       16523      497        103.45     65.428    
2666.999984 4077       6.64       6.64       0          240.318    -1093      302        12765      0.25       16521      496        104.9      65.421    
2667.199983 1748       6.63       6.63       0          240.309    -1093      302        12765      0.25       16520      496        106.34     65.416    
2667.399983 338        6.42       6.42       0          240.337    -1093      292        12766      0.25       16519      496        107.86     65.412    
2667.599983 201        5.87       5.87       0          240.335    -1093      267        12766      0.25       16517      498        109.28     65.403    
2667.799983 394        5.87       5.87       0          240.376    -1093      267        12768      0.25       16515      497        110.72     65.396    
2667.999983 115        6.04       6.04       0          240.375    -1093      275        12768      0.25       16512      496        112.24     65.385    
2668.199982 186        6.12       6.12       0          240.395    -1093      279        12769      0.25       16511      497        113.64     65.38     
2668.399982 331        6.24       6.24       0          240.402    -1093      284        12769      0.25       16510      497        115.15     65.377    
2668.599982 122        6.66       6.66       0          240.414    -1093      303        12770      0.25       16509      496        116.59     65.372    
2668.799982 211        6.66       6.66       0          240.434    -1093      303        12771      0.25       16508      497        118.05     65.368    
2668.999982 343        7.34       7.34       0          240.454    -1093      334        12772      0.25       16506      496        119.5      65.36     
2669.199981 231        7.34       7.34       0          240.474    -1093      334        12773      0.25       16505      497        120.94     65.355    
2669.399981 92         8.02       8.02       0          240.489    -1093      365        12774      0.25       16502      498        122.44     65.344    
2669.599981 165        7.98       7.98       0          240.492    -1093      363        12774      0.25       16500      497        123.88     65.336    
2669.799981 298        7.91       7.91       0          240.513    -1093      360        12775      0.25       16498      497        125.32     65.33     
2669.999981 104        7.1        7.1        0          240.522    -1093      323        12775      0.25       16497      498        126.75     65.324    
2670.19998 101        7.1        7.1        0          240.538    -1093      323        12776      0.25       16496      498        128.26     65.318    
2670.39998 156        5.91       5.91       0          240.551    -1093      269        12777      0.25       16493      498        129.7      65.308    
2670.59998 193        5.91       5.91       0          240.57     -1093      269        12778      0.25       16491      500        131.14     65.3      
2670.79998 193        6.04       6.04       0          240.585    -1093      275        12779      0.25       16488      500        132.57     65.288    
2670.99998 117        6.7        6.7        0          240.604    -1093      305        12780      0.25       16485      499        134.08     65.277    
2671.199979 221        6.7        6.7        0          240.607    -1093      305        12780      0.25       16484      499        135.53     65.272    
