~Version
 VERS              .         2.0                           : CWLS LOG ASCII STANDARD - VERSION 2.0
 WRAP              .         NO                            : ONE LINE PER DEPTH STEP
 DLM               .         SPACE                         : DELIMITING CHARACTER(SPACE TAB OR COMMA)
~Well Information
#_______________________________________________________________________________
#
#PARAMETER_NAME    .UNIT     VALUE                         : DESCRIPTION
#_______________________________________________________________________________
STRT               .M        749.69                        : First reference value
STOP               .M        1410.72                       : Last reference value
STEP               .M        0                             : Step increment
NULL               .         -9999                         : Missing value
COMP               .                                       : Company
WELL               .         616                           : Well name
FLD                .                                       : Field
LOC                .                                       : Location
CNTY               .                                       : County
STAT               .                                       : State
CTRY               .                                       : Country
SRVC               .                                       : Service Company
DATE               .                                       : Date
API                .                                       : API number
PROJECT_UPGRADE_TIME .         2021-03-18T21_24_50           : 
group              .         Good                          : 
~Parameter Information Block
#_______________________________________________________________________________
#
#PARAMETER_NAME    .UNIT     VALUE                         : DESCRIPTION
#_______________________________________________________________________________
SET                .         D0928                         : 
NPR                .         210404                        : ЗАВ НОМЕР ПРИБОРА
NPRT               .         Каштанов                      : НАЧ ПАРТИИ
PROJECT_UPGRADE_TIME .         2021-03-18T21_24_49           : 
TLFamily_AZIMUTH   .         True Dip Azimuth              : 
TLFamily_DEPTH     .         Measured Depth                : 
TLFamily_DRILL     .                                       : 
TLFamily_METKA     .                                       : 
TLFamily_ZENIT     .                                       : 
group              .         prim                          : 
~Curve Information
#_______________________________________________________________________________
#
#LOGNAME           .UNIT     LOG_ID                        : DESCRIPTION
#_______________________________________________________________________________
DEPTH              .M                                      : 1 ГЛУБИНА 
AZIMUTH            .ГРАД                                   : 4 АЗИМУТ 
DRILL              .ГРАД                                   : 2 ПОВОРОТ 
METKA              .                                       : 5 МАГН МЕТКА 
ZENIT              .ГРАД                                   : 3 ЗЕНИТ 
~Ascii
# ...
1239.72    358.01     142.87     0          33.74     
1239.9     358.65     142.88     0          33.73     
1240.08    357.46     142.9      0          33.74     
1240.26    355.35     142.93     0          33.75     
1240.45    354.83     142.93     0          33.76     
1240.63    354.58     142.93     0          33.77     
1240.81    353.8      142.93     0          33.8      
1240.99    353.23     142.96     0          33.8      
1241.17    353.05     143.01     0          33.82     
1241.36    352.51     143.06     0          33.85     
1241.54    353.04     143.13     0          33.86     
1241.72    353.47     143.18     0          33.89     
1241.9     351.54     143.2      0          33.92     
1242.08    350.18     143.23     0          33.91     
1242.27    349.44     143.24     0          33.92     
1242.45    348.56     143.26     0          33.94     
1242.63    348.3      143.25     0          33.92     
1242.81    348.34     143.2      0          33.91     
1242.99    346.57     143.12     0          33.89     
1243.18    346.88     143.03     0          33.88     
1243.36    346.11     142.92     0          33.87     
1243.54    347.55     142.8      0          33.86     
1243.72    348.12     142.63     0          33.84     
1243.91    348.25     142.42     0          33.85     
1244.09    349.09     142.19     0          33.83     
1244.27    348.43     142.06     0          33.84     
1244.45    349.2      142.02     0          33.83     
1244.64    349.09     142.02     0          33.83     
1244.82    349.45     142.07     0          33.82     
1245       348.4      142.1      0          33.83     
1245.18    346.8      142.12     0          33.82     
1245.37    346.33     142.15     0          33.82     
1245.55    345.96     142.19     0          33.81     
1245.73    348.5      142.24     0          33.8      
1245.91    346.38     142.39     0          33.79     
1246.09    345.17     142.61     0          33.77     
1246.28    344.33     142.86     0          33.74     
1246.46    343.59     143.1      0          33.73     
1246.64    343        143.3      0          33.71     
1246.82    340.38     143.49     0          33.69     
1247.01    339.84     143.67     0          33.67     
1247.19    338.58     143.89     0          33.64     
1247.37    341.3      144.18     0          33.61     
1247.55    341.24     144.56     0          33.6      
1247.73    340.87     145.12     0          33.6      
1247.92    341.28     145.87     0          33.57     
1248.1     340.29     146.82     0          33.59     
1248.28    340.68     147.95     0          33.6      
1248.46    340.9      149.22     0          33.62     
1248.65    340.39     150.61     0          33.65     
1248.83    338.41     152.21     0          33.66     
1249.01    336.88     154.06     0          33.68     
1249.19    334.92     156.17     0          33.7      
1249.38    334        158.6      0          33.71     
1249.56    333.39     161.36     0          33.73     
1249.74    333.39     164.27     0          33.73     
1249.92    333.81     167.32     0          33.74     
1250.1     334.27     170.45     0          33.73     
1250.29    335.03     173.52     0          33.71     
1250.47    334.73     176.42     0          33.69     
1250.65    335.85     178.93     0          33.68     
1250.83    335.58     180.85     0          33.71     
1251.01    336.78     182.02     0          33.72     
1251.2     336.89     182.35     0          33.76     
1251.38    338.91     181.78     0          33.77     
1251.56    340.55     180.33     0          33.77     
1251.74    343.07     178.06     0          33.8      
1251.92    345.32     175.01     0          33.77     
1252.11    346.57     171.22     0          33.83     
1252.29    350.68     166.72     0          33.78     
1252.47    353.21     161.46     0          33.85     
1252.65    356.67     155.34     0          33.86     
1252.83    358.24     148.31     0          33.88     
1253.02    359.81     140.18     0          33.92     
1253.2     0.95       131        0          33.91     
1253.38    2.47       121.2      0          33.95     
1253.56    3.79       111.49     0          33.96     
1253.74    4.13       102.94     0          33.99     
1253.92    7.29       95.98      0          34.02     
1254.11    11.17      90.71      0          34.02     
1254.29    16.28      86.88      0          34.05     
1254.47    20.45      84.45      0          34.03     
1254.65    23.75      83.01      0          34.06     
1254.83    25.66      82.43      0          34.04     
1255.02    27.52      82.72      0          34.06     
1255.2     30.11      83.68      0          34.04     
1255.38    30.99      85.38      0          34.02     
1255.56    32.89      87.73      0          34.02     
1255.74    33.46      90.5       0          34.04     
1255.93    33.48      93.57      0          34.05     
1256.11    34.12      96.84      0          34.05     
1256.29    33.64      100.21     0          34.06     
1256.47    34.31      103.59     0          34.05     
1256.65    33.28      106.79     0          34.03     
1256.84    33.42      109.68     0          34.03     
1257.02    33.52      112.29     0          34.04     
1257.2     30.93      114.71     0          34.02     
1257.38    30.19      116.93     0          34.05     
1257.56    28.36      118.94     0          34.01     
1257.74    23.99      120.74     0          34.06     
1257.93    19.8       122.33     0          34.02     
1258.11    16.29      123.79     0          34.02     
1258.29    12.91      125.12     0          34.01     
1258.47    10.94      126.38     0          34        
1258.65    10.82      127.52     0          34        
1258.83    8.53       128.57     0          34        
1259.02    8.13       129.65     0          33.97     
1259.2     6.2        130.76     0          33.97     
1259.38    5.51       131.85     0          33.93     
1259.56    3.93       132.92     0          33.92     
1259.74    0.95       133.97     0          33.88     
1259.93    359.01     134.93     0          33.9      
1260.11    357.22     135.88     0          33.86     
1260.29    354.98     136.96     0          33.85     
1260.47    352.9      138.24     0          33.81     
1260.65    351.79     139.69     0          33.83     
1260.84    350.47     141.37     0          33.85     
1261.02    349.46     143.3      0          33.87     
1261.2     348.28     145.47     0          33.88     
1261.38    347.82     147.89     0          33.93     
1261.56    347.19     150.52     0          33.94     
1261.74    349.73     153.22     0          33.92     
1261.93    349.13     155.91     0          33.94     
1262.11    349.53     158.71     0          33.94     
1262.29    348.86     161.69     0          33.96     
1262.47    347.54     164.61     0          33.92     
1262.65    348.62     167.19     0          33.89     
1262.84    347.68     169.15     0          33.88     
1263.02    347.62     170.11     0          33.9      
1263.2     348.02     169.98     0          33.92     
1263.38    346.79     168.92     0          33.94     
1263.56    347.31     167.04     0          33.95     
1263.75    347.24     164.45     0          33.96     
1263.93    350.7      161.38     0          33.95     
1264.11    352.4      158.19     0          33.97     
1264.29    354.31     155.12     0          33.93     
1264.47    353.14     152.14     0          33.97     
1264.66    355.67     149.36     0          33.94     
1264.84    356.42     146.81     0          33.94     
1265.02    354.96     144.35     0          33.93     
1265.2     355.97     141.74     0          33.96     
1265.38    355.31     138.89     0          33.98     
1265.57    355.48     135.73     0          33.99     
1265.75    356.86     131.84     0          34.03     
1265.93    358.09     127.11     0          34.04     
1266.11    358.72     121.89     0          34.07     
