~Version
 VERS              .         2.0                           : CWLS LOG ASCII STANDARD - VERSION 2.0
 WRAP              .         NO                            : ONE LINE PER DEPTH STEP
 DLM               .         SPACE                         : DELIMITING CHARACTER(SPACE TAB OR COMMA)
~Well Information
#_______________________________________________________________________________
#
#PARAMETER_NAME    .UNIT     VALUE                         : DESCRIPTION
#_______________________________________________________________________________
STRT               .M        2669.8                        : First reference value
STOP               .M        2775.8                        : Last reference value
STEP               .M        0.2                           : Step increment
NULL               .         -9999                         : Missing value
COMP               .                                       : Company
WELL               .         616                           : Well name
FLD                .                                       : Field
LOC                .                                       : Location
CNTY               .                                       : County
STAT               .                                       : State
CTRY               .                                       : Country
SRVC               .                                       : Service Company
DATE               .                                       : Date
API                .                                       : API number
PROJECT_UPGRADE_TIME .         2021-03-18T21_24_50           : 
group              .         Good                          : 
~Parameter Information Block
#_______________________________________________________________________________
#
#PARAMETER_NAME    .UNIT     VALUE                         : DESCRIPTION
#_______________________________________________________________________________
SET                .         D1812_D                       : 
OTHER              .         Программное обеспечение станции MONITOR-386EX 25/12/99 15_08_10   BGF V52 22/08/01 16_56_30   3.1_SNGF___BGF_N_092049: 
OTHER_10           .         Тарировки_                    : 
OTHER_11           .         TM.GRD = 0.00403*TM$.UE + -1.07: 
OTHER_12           .         MN.ATM = (9.34907e-006*TM.GRD + 0.02171)*(MN$.UE + -7.93*TM.GRD + -1787): 
OTHER_13           .         GK.MKR/H = LM. / 42.4676      : 
OTHER_14           .         GK.FLT = 0.1*GK.MKR/H[-1] + (1-0.1)*GK.MKR/H[0]: 
OTHER_2            .         Kedr.exe версия 3.4.2.51      : 
OTHER_3            .         KedrData.dll версия 3.4.2.24  : 
OTHER_4            .         Драйвер версия 2.1.1.3        : 
OTHER_5            .         Мнемоники версия 3.3 S        : 
OTHER_6            .         Прибор_ КСА-Т4                : 
OTHER_7            .         Номер прибора_ 03             : 
OTHER_8            .         Режим_ КСА-Т4                 : 
OTHER_9            .         Форма_ КВА.                   : 
PROJECT_UPGRADE_TIME .         2021-03-18T21_24_49           : 
TLFamily_DEPT      .         Measured Depth                : 
TLFamily_GK        .         Gamma Ray                     : 
TLFamily_GK$       .                                       : 
TLFamily_GK_2      .         Gamma Ray                     : 
TLFamily_LM        .         Casing Collar locator         : 
TLFamily_METKA     .                                       : 
TLFamily_MN        .                                       : 
TLFamily_MN$       .                                       : 
TLFamily_RCOR      .                                       : 
TLFamily_SPID      .         Spontaneous Potential         : 
TLFamily_TENS      .         Cable Tension                 : 
TLFamily_TIME      .         Time                          : 
TLFamily_TM        .         Temperature                   : 
TLFamily_TM$       .         Temperature                   : 
group              .         prim                          : 
~Curve Information
#_______________________________________________________________________________
#
#LOGNAME           .UNIT     LOG_ID                        : DESCRIPTION
#_______________________________________________________________________________
DEPT               .M                                      : 1 Глубина, м -    0.0 см 
GK                 .MKR/H                                  : 13 Гамма-активность, мкр./ч -  110.0 см 
GK$                .UE                                     : 10 Гамма-активность, усл.ед. -  110.0 см 
GK_2               .FLT                                    : 14 Гамма-активность фильтрованная, мкр./ч -  110.0 см 
LM                 .                                       : 9 Локатор муфт,  -   20.0 см 
METKA              .                                       : 3 Метки,  -    0.0 см 
MN                 .ATM                                    : 12 Давление, атм. -  160.0 см 
MN$                .UE                                     : 8 Давление, усл.ед. -  160.0 см 
RCOR               .CM/KM                                  : 5 Коррекция по ролику, см/км -    0.0 см 
SPID               .M/H                                    : 2 Скорость, м/час -    0.0 см 
TENS               .T                                      : 6 Натяжение кабеля, т -    0.0 см 
TIME               .S                                      : 4 Время, сек -    0.0 см 
TM                 .GRD                                    : 11 Температура, °C -  170.0 см 
TM$                .UE                                     : 7 Температура, усл.ед. -  170.0 см 
~Ascii
# ...
2701       8.22       349        8.04       185        0          248.184    13376      -619       536        0.05       7274.56    50.398     12771     
2701.2     8.22       349        8.22       154        0          248.216    13377      -619       534        0.05       7275.84    50.389     12769     
2701.4     8.9        378        8.87       167        0          248.216    13377      -619       538        0.05       7277.28    50.379     12766     
2701.6     8.9        378        8.9        194        0          248.239    13378      -619       533        0.05       7278.61    50.371     12764     
2701.8     10.1       429        10.05      165        0          248.262    13379      -619       543        0.05       7279.91    50.359     12761     
2702       10.34      439        10.25      144        0          248.281    13380      -619       539        0.05       7281.28    50.349     12759     
2702.2     10.5       446        10.5       187        0          248.308    13381      -619       536        0.05       7282.59    50.343     12758     
2702.4     9.02       383        9.56       143        0          248.327    13382      -619       537        0.05       7283.91    50.336     12756     
2702.6     9.02       383        9.04       129        0          248.353    13383      -619       545        0.05       7285.28    50.326     12753     
2702.8     8.85       376        8.91       133        0          248.354    13383      -619       538        0.05       7286.6     50.32      12752     
2703       8.85       376        8.86       121        0          248.399    13385      -619       528        0.05       7287.98    50.308     12749     
2703.2     10.03      426        9.87       127        0          248.4      13385      -619       528        0.05       7289.35    50.299     12747     
2703.4     10.03      426        10.03      134        0          248.415    13386      -619       536        0.05       7290.62    50.292     12745     
2703.6     10.67      453        10.59      444        0          248.423    13386      -619       540        0.05       7291.99    50.282     12742     
2703.8     10.67      453        10.66      1710       0          248.446    13387      -619       544        0.05       7293.3     50.276     12741     
2704       9.75       414        9.78       691        0          248.469    13388      -619       540        0.05       7294.61    50.264     12738     
2704.2     9.75       414        9.75       214        0          248.492    13389      -619       538        0.05       7296       50.255     12736     
2704.4     10.03      426        10.02      163        0          248.514    13390      -619       536        0.05       7297.31    50.245     12733     
2704.6     10.03      426        10.03      143        0          248.537    13391      -619       539        0.05       7298.69    50.242     12732     
2704.8     10.13      430        10.12      179        0          248.56     13392      -619       545        0.05       7300.01    50.232     12730     
2705       9.51       404        9.71       171        0          248.565    13392      -619       540        0.05       7301.31    50.226     12728     
2705.2     9.51       404        9.52       149        0          248.583    13393      -619       538        0.05       7302.64    50.216     12726     
2705.4     9.44       401        9.47       181        0          248.614    13394      -619       542        0.05       7303.94    50.204     12723     
2705.6     9.44       401        9.44       138        0          248.648    13396      -619       538        0.05       7305.31    50.195     12721     
2705.8     10.43      443        10.16      143        0          248.663    13397      -619       535        0.05       7306.69    50.185     12718     
2706       10.43      443        10.42      178        0          248.675    13397      -619       537        0.05       7307.96    50.175     12716     
2706.2     11.37      483        11.28      154        0          248.698    13398      -619       532        0.05       7309.39    50.163     12713     
2706.4     11.37      483        11.37      117        0          248.72     13399      -619       537        0.05       7310.7     50.155     12711     
2706.6     10.53      447        10.6       75         0          248.721    13399      -619       541        0.05       7312.02    50.151     12710     
2706.8     10.53      447        10.53      104        0          248.744    13400      -619       537        0.05       7313.38    50.142     12708     
2707       10.2       433        10.22      118        0          248.766    13401      -619       535        0.05       7314.65    50.131     12705     
2707.2     10.53      447        10.41      171        0          248.789    13402      -619       539        0.05       7316.02    50.123     12703     
2707.4     11.18      475        11.16      135        0          248.812    13403      -619       537        0.05       7317.35    50.115     12701     
2707.6     11.6       493        11.45      192        0          248.835    13404      -619       534        0.05       7318.64    50.107     12699     
2707.8     12.01      510        11.99      185        0          248.839    13404      -619       527        0.05       7320.08    50.099     12697     
2708       11.65      495        11.78      123        0          248.858    13405      -619       528        0.05       7321.4     50.092     12695     
2708.2     11.3       480        11.32      105        0          248.884    13406      -619       528        0.05       7322.7     50.089     12695     
2708.4     10.9       463        10.99      114        0          248.899    13407      -619       535        0.05       7324.08    50.079     12692     
2708.6     10.9       463        10.9       123        0          248.926    13408      -619       540        0.05       7325.38    50.071     12690     
2708.8     10.93      464        10.92      100        1          248.945    13409      -619       537        0.04       7326.72    50.067     12689     
2709       10.93      464        10.93      132        0          248.949    13409      -619       535        0.05       7328.09    50.056     12686     
2709.2     10.64      452        10.68      133        0          248.972    13410      -619       533        0.05       7329.37    50.051     12685     
2709.4     10.64      452        10.64      143        0          248.995    13411      -619       526        0.05       7330.78    50.042     12683     
2709.6     11.26      478        11.23      135        0          249.017    13412      -619       533        0.05       7332.14    50.034     12681     
2709.8     11.26      478        11.25      147        0          249.033    13413      -619       538        0.05       7333.42    50.026     12679     
2710       12.2       518        12.16      112        2          249.048    13413      -619       541        0.05       7334.78    50.018     12677     
2710.2     12.2       518        12.2       136        0          249.086    13415      -626       545        0.05       7336.57    50.01      12675     
2710.4     12.6       535        12.58      149        0          249.093    13415      -626       553        0.05       7337.91    50.004     12673     
2710.6     12.1       514        12.28      121        0          249.109    13416      -626       544        0.05       7339.23    50.002     12673     
2710.8     12.1       514        12.11      130        0          249.131    13417      -626       539        0.05       7340.63    49.991     12670     
2711       11.96      508        12.01      133        0          249.158    13418      -626       529        0.05       7341.98    49.982     12668     
2711.2     11.96      508        11.96      110        0          249.177    13419      -626       539        0.05       7343.3     49.974     12666     
