~Version
 VERS              .         2.0                           : CWLS LOG ASCII STANDARD - VERSION 2.0
 WRAP              .         NO                            : ONE LINE PER DEPTH STEP
 DLM               .         SPACE                         : DELIMITING CHARACTER(SPACE TAB OR COMMA)
~Well Information
#_______________________________________________________________________________
#
#PARAMETER_NAME    .UNIT     VALUE                         : DESCRIPTION
#_______________________________________________________________________________
STRT               .M        2645.4                        : First reference value
STOP               .M        2753.4                        : Last reference value
STEP               .M        0.2                           : Step increment
NULL               .         -9999                         : Missing value
COMP               .                                       : Company
WELL               .         616                           : Well name
FLD                .                                       : Field
LOC                .                                       : Location
CNTY               .                                       : County
STAT               .                                       : State
CTRY               .                                       : Country
SRVC               .                                       : Service Company
DATE               .                                       : Date
API                .                                       : API number
PROJECT_UPGRADE_TIME .         2021-03-18T21_24_50           : 
group              .         Good                          : 
~Parameter Information Block
#_______________________________________________________________________________
#
#PARAMETER_NAME    .UNIT     VALUE                         : DESCRIPTION
#_______________________________________________________________________________
SET                .         D4410_D                       : 
OTHER              .         Запись производится в присутствии: 
OTHER_10           .         Максимальная температура      : 
OTHER_11           .         Тип промывочной жидкости      : 
OTHER_12           .         Сопротивление ПЖ (Ом*м) при 20°C: 
OTHER_13           .         Плотность ПЖ(г/см3)           : 
OTHER_14           .         Вязкость ПЖ(с)                : 
OTHER_15           .         Водоотдача ПЖ(см3/30мин)      : 
OTHER_16           .         Уровень ПЖ                    : 
OTHER_17           .         Нефть ПЖ (%)                  : 
OTHER_18           .         Барит ПЖ (%)                  : 
OTHER_19           .         Гематит ПЖ (%)                : 
OTHER_2            .         Заказчик ННСН  ЦДНГ-1         : 
OTHER_20           .         КМЦ ПЖ (%)                    : 
OTHER_21           .         Разгазирование ПЖ (да,нет)    : 
OTHER_22           .         Подъемник                     : 
OTHER_23           .         Лаборатория                   : 
OTHER_24           .         Тип кабеля                    : 
OTHER_25           .         Длина кабеля (м)              : 
OTHER_26           .         Цена последней метки          : 
OTHER_27           .         Цена контрольной метки        : 
OTHER_28           .         Диаметр долота (мм)           : 
OTHER_29           .         Глубина бурения (м)           : 
OTHER_3            .         Площадь                       : 
OTHER_30           .         Искусственный забой (м)       : 
OTHER_31           .         Диаметр колонны (мм)          : 
OTHER_32           .         Толщина колонны (мм)          : 
OTHER_33           .         Башмак колонны (м)            : 
OTHER_34           .         Диаметр НКТ (мм)              : 
OTHER_35           .         Толщина НКТ (мм)              : 
OTHER_36           .         Воронка НКТ (м)               : 
OTHER_37           .         Дата цементожа                : 
OTHER_38           .         Тип, количество(т) и плотность цемента: 
OTHER_39           .         Интервалы перфорации (м)      : 
OTHER_4            .         Категория                     : 
OTHER_40           .         Направление, диаметр (мм)     : 
OTHER_41           .         Направление, глубина (м)      : 
OTHER_42           .         Кондуктор, диаметр (мм)       : 
OTHER_43           .         Кондуктор, глубина (м)        : 
OTHER_44           .         Техническая колонна, диаметр (мм): 
OTHER_45           .         Техническая колонна, глубина (м): 
OTHER_46           .         Эксплуатационная колонна, диаметр (мм): 
OTHER_47           .         Эксплуатационная колонна, глубина (м): 
OTHER_48           .         Программа Кедр-02 версия 3.4  : 
OTHER_49           .         Операционная система Windows NT 5.1 build 2600 Service Pack 2: 
OTHER_5            .         Назначение исследований       : 
OTHER_50           .         Программное обеспечение станции MONITOR-386EX 25/12/99 15_08_10   BGF V54 20/09/05 15_32_17   3.3__BGF_9030071: 
OTHER_51           .         Kedr.exe версия 3.4.2.74      : 
OTHER_52           .         KedrData.dll версия 3.4.2.29  : 
OTHER_53           .         Мнемоники версия 3.18 S       : 
OTHER_54           .         Драйвер версия 2.1.1.4        : 
OTHER_55           .         LasInf.dll 4.3.0.35           : 
OTHER_56           .         Прибор_ КСА-Т4                : 
OTHER_57           .         Номер прибора_ 160            : 
OTHER_58           .         Режим_ КСА-Т4                 : 
OTHER_59           .         Форма_ С.А.Б.                 : 
OTHER_6            .         Альтитуда стола ротора        : 
OTHER_60           .         Тарировки_                    : 
OTHER_61           .         <_techsia_sc_> Дата тарировки температуры 25.05.2010: 
OTHER_62           .         Ручной ввод коэффициентов     : 
OTHER_63           .         TM.DEGC = 0.00402*RTM.E.ACP + -0.994: 
OTHER_64           .         <_techsia_sc_> Дата тарировки давления 25.05.2010: 
OTHER_65           .         Ручной ввод коэффициентов     : 
OTHER_66           .         MN.ATM = (2.27521e-006*TM.DEGC + 0.02078)*(RMN.E.ACP + 6.2*TM.DEGC + -1688): 
OTHER_67           .         <_techsia_sc_> Дата тарировки ГК 25.05.2010: 
OTHER_68           .         Ручной ввод коэффициентов     : 
OTHER_69           .         GR.UR/H = RGR.IMP/MIN / 45.5144: 
OTHER_7            .         Вид исследований 3  6         : 
OTHER_70           .         GK.FLT = 0.1*GR.UR/H[-1] + (1-0.1)*GR.UR/H[0]: 
OTHER_8            .         Начало бурения интервала каротажа: 
OTHER_9            .         Окончание бурения интервала каротажа: 
PROJECT_UPGRADE_TIME .         2021-03-18T21_24_50           : 
TLFamily_CCLC      .                                       : 
TLFamily_DEPT      .         Measured Depth                : 
TLFamily_GK        .         Gamma Ray                     : 
TLFamily_GR        .         Gamma Ray                     : 
TLFamily_METKA     .                                       : 
TLFamily_MN        .                                       : 
TLFamily_RCOR      .                                       : 
TLFamily_RGR       .                                       : 
TLFamily_RMN       .                                       : 
TLFamily_RTEN      .                                       : 
TLFamily_RTM       .                                       : 
TLFamily_SPEE      .         Cable Speed                   : 
TLFamily_TIME      .         Time                          : 
TLFamily_TM        .         Temperature                   : 
group              .         prim                          : 
~Curve Information
#_______________________________________________________________________________
#
#LOGNAME           .UNIT     LOG_ID                        : DESCRIPTION
#_______________________________________________________________________________
DEPT               .M                                      : 1 Глубина, м -    0.0 см 
CCLC               .E.ACP                                  : 9 Локатор муфт,  -   20.0 см 
GK                 .FLT                                    : 14 Гамма-активность фильтрованная, мкр./ч -  110.0 см 
GR                 .UR/H                                   : 13 Гамма-активность, мкр./ч -  110.0 см 
METKA              .CU                                     : 3 Метки,  -    0.0 см 
MN                 .ATM                                    : 12 Давление, атм. -  160.0 см 
RCOR               .CM/KM                                  : 5 Коррекция по ролику, см/км -    0.0 см 
RGR                .IMP/MIN                                : 10 Гамма-активность, усл.ед. -  110.0 см 
RMN                .E.ACP                                  : 8 Давление, усл.ед. -  160.0 см 
RTEN               .T                                      : 6 Натяжение кабеля, т -    0.0 см 
RTM                .E.ACP                                  : 7 Температура, усл.ед. -  170.0 см 
SPEE               .M/H                                    : 2 Скорость, м/час -    0.0 см 
TIME               .S                                      : 4 Время, сек -    0.0 см 
TM                 .DEGC                                   : 11 Температура, °C -  170.0 см 
~Ascii
# ...
2655.8     382        8.63       8.63       0          363.026    -1106      393        18636      0.19       16282      583        69.11      64.461    
2656       243        8.39       8.39       2          363.092    -1104      382        18639      0.19       16284      585        70.2       64.466    
2656.2     435        8.39       8.39       0          363.128    -1103      382        18641      0.19       16285      587        71.36      64.471    
2656.4     196        8.26       8.26       0          363.24     -1103      376        18646      0.19       16286      589        72.56      64.476    
2656.6     439        8.26       8.26       0          363.241    -1103      376        18646      0.19       16287      589        73.77      64.48     
2656.8     343        8.94       8.94       0          363.262    -1103      407        18647      0.19       16287      590        75.05      64.478    
2657       462        8.94       8.94       0          363.263    -1103      407        18647      0.19       16288      592        76.26      64.483    
2657.2     4495       9.87       9.87       0          363.284    -1103      449        18648      0.19       16288      593        77.48      64.484    
2657.4     2893       9.87       9.87       0          363.263    -1103      449        18647      0.19       16289      593        78.65      64.488    
2657.6     833        7.98       7.98       0          363.32     -1103      363        18650      0.19       16290      595        79.85      64.492    
2657.8     414        7.98       7.98       0          363.385    -1103      363        18653      0.19       16291      595        81.13      64.496    
2658       445        7.24       7.24       0          363.413    -1103      330        18654      0.19       16292      597        82.33      64.501    
2658.2     200        7.12       7.12       0          363.393    -1103      324        18653      0.19       16294      598        83.49      64.508    
2658.4     351        7.62       7.62       1          363.401    -1103      347        18653      0.19       16296      598        84.7       64.515    
2658.6     297        7.62       7.62       0          363.469    -1103      347        18656      0.19       16297      599        85.94      64.52     
2658.8     361        7.12       7.12       0          363.494    -1103      324        18658      0.19       16299      599        87.13      64.528    
2659       399        6.75       6.75       0          363.501    -1103      307        18658      0.19       16300      599        88.34      64.532    
2659.2     110        6.67       6.67       0          363.544    -1103      304        18660      0.19       16302      601        89.55      64.54     
2659.4     319        6.66       6.66       1          363.566    -1103      303        18661      0.19       16303      602        90.72      64.542    
2659.6     384        6.76       6.76       0          363.567    -1103      308        18661      0.19       16304      602        91.96      64.548    
2659.8     172        7.27       7.27       0          363.575    -1103      331        18661      0.19       16306      603        93.16      64.555    
2660       396        7.63       7.63       0          363.611    -1103      347        18663      0.19       16307      603        94.34      64.56     
2660.2     250        7.98       7.98       0          363.632    -1103      363        18664      0.19       16309      603        95.52      64.568    
2660.4     204        7.98       7.98       0          363.63     -1103      363        18664      0.19       16309      603        96.78      64.568    
2660.6     431        7.69       7.69       0          363.655    -1103      350        18665      0.19       16310      603        97.98      64.572    
2660.8     425        7.69       7.69       0          363.677    -1103      350        18666      0.19       16311      604        99.14      64.578    
2661       122        7.27       7.27       0          363.72     -1103      331        18668      0.19       16313      605        100.28     64.584    
2661.2     413        7.27       7.27       0          363.762    -1103      331        18670      0.19       16314      606        101.53     64.588    
2661.4     450        7.34       7.34       0          363.795    -1103      334        18672      0.19       16315      607        102.75     64.592    
2661.6     196        7.34       7.34       0          363.826    -1103      334        18673      0.19       16315      607        103.9      64.592    
2661.8     177        7.69       7.69       0          363.862    -1103      350        18675      0.19       16316      609        105.08     64.597    
2662       386        7.69       7.69       0          363.89     -1103      350        18676      0.19       16317      611        106.25     64.602    
2662.2     397        8.33       8.33       0          363.894    -1103      379        18676      0.19       16319      612        107.45     64.607    
2662.4     153        8.33       8.33       0          363.954    -1103      379        18679      0.19       16320      614        108.6      64.612    
2662.6     232        7.89       7.89       0          364.022    -1103      359        18682      0.19       16321      615        109.76     64.616    
2662.8     405        7.89       7.89       0          364.068    -1103      359        18684      0.19       16322      616        110.95     64.62     
2663       277        7.12       7.12       0          364.103    -1103      324        18686      0.19       16323      616        112.11     64.624    
2663.2     132        7.12       7.12       0          364.071    -1103      324        18684      0.19       16324      616        113.31     64.629    
2663.4     137        7.05       7.05       0          364.098    -1103      321        18686      0.19       16326      619        114.46     64.637    
2663.6     169        6.9        6.9        0          364.163    -1103      314        18689      0.19       16327      621        115.6      64.641    
2663.8     344        7.43       7.43       0          364.191    -1103      338        18690      0.19       16329      621        116.76     64.649    
2664       274        8.15       8.15       0          364.154    -1103      371        18688      0.19       16331      622        117.97     64.658    
2664.2     237        8.15       8.15       0          364.207    -1103      371        18691      0.19       16332      623        119.07     64.661    
2664.4     344        7.93       7.93       0          364.236    -1103      361        18692      0.19       16333      624        120.26     64.665    
2664.6     305        7.93       7.93       0          364.236    -1103      361        18692      0.19       16334      624        121.36     64.67     
2664.8     438        7.27       7.27       0          364.298    -1103      331        18695      0.19       16336      625        122.52     64.675    
2665       284        7.27       7.27       0          364.345    -1103      331        18697      0.19       16337      626        123.72     64.681    
2665.2     226        7.43       7.43       0          364.408    -1103      338        18700      0.19       16338      627        124.86     64.685    
2665.4     291        7.43       7.43       0          364.43     -1103      338        18701      0.19       16338      628        126.01     64.685    
2665.6     233        7.87       7.87       0          364.491    -1103      358        18704      0.19       16340      627        127.16     64.691    
2665.8     359        7.87       7.87       0          364.488    -1103      358        18704      0.19       16341      627        128.36     64.697    
2666       286        7.96       7.96       2          364.393    -1107      362        18699      0.19       16341      626        129.74     64.697    
