~Version
 VERS              .         2.0                           : CWLS LOG ASCII STANDARD - VERSION 2.0
 WRAP              .         NO                            : ONE LINE PER DEPTH STEP
 DLM               .         SPACE                         : DELIMITING CHARACTER(SPACE TAB OR COMMA)
~Well Information
#_______________________________________________________________________________
#
#PARAMETER_NAME    .UNIT     VALUE                         : DESCRIPTION
#_______________________________________________________________________________
STRT               .M        2654.8                        : First reference value
STOP               .M        2761.6                        : Last reference value
STEP               .M        0.2000001                     : Step increment
NULL               .         -9999                         : Missing value
COMP               .                                       : Company
WELL               .         616                           : Well name
FLD                .                                       : Field
LOC                .                                       : Location
CNTY               .                                       : County
STAT               .                                       : State
CTRY               .                                       : Country
SRVC               .                                       : Service Company
DATE               .                                       : Date
API                .                                       : API number
PROJECT_UPGRADE_TIME .         2021-03-18T21_24_50           : 
group              .         Good                          : 
~Parameter Information Block
#_______________________________________________________________________________
#
#PARAMETER_NAME    .UNIT     VALUE                         : DESCRIPTION
#_______________________________________________________________________________
SET                .         D8107_D                       : 
OTHER              .         Программное обеспечение станции MONITOR-386EX 25/12/99 15_08_10   BGF V52 22/08/01 16_56_30   4_SNGF_BGF_N_011645: 
OTHER_10           .         Тарировки_                    : 
OTHER_11           .         TM.GRD = 0.00412*TM$.UE + -2.13: 
OTHER_12           .         MN.ATM = (5.87652e-006*TM.GRD + 0.01993)*(MN$.UE + -2.72*TM.GRD + -1925): 
OTHER_13           .         GK.MKR/H = GK$.UE / 57.4657   : 
OTHER_2            .         Kedr.exe версия 3.4.2.51      : 
OTHER_3            .         KedrData.dll версия 3.4.2.24  : 
OTHER_4            .         Драйвер версия 2.1.0.2        : 
OTHER_5            .         Мнемоники версия 3.3 S        : 
OTHER_6            .         Прибор_ АКП4-90               : 
OTHER_7            .         Номер прибора_ 53             : 
OTHER_8            .         Режим_ АКП4_90                : 
OTHER_9            .         Форма_ ПК-53ое                : 
PROJECT_UPGRADE_TIME .         2021-03-18T21_24_50           : 
TLFamily_DEPT      .         Measured Depth                : 
TLFamily_GK        .         Gamma Ray                     : 
TLFamily_GK$       .                                       : 
TLFamily_LM        .         Casing Collar locator         : 
TLFamily_METKA     .                                       : 
TLFamily_METKA_1   .                                       : 
TLFamily_MN        .                                       : 
TLFamily_MN$       .                                       : 
TLFamily_RCOR      .                                       : 
TLFamily_SPID      .         Spontaneous Potential         : 
TLFamily_TENS      .         Cable Tension                 : 
TLFamily_TIME      .         Time                          : 
TLFamily_TM        .         Temperature                   : 
TLFamily_TM$       .         Temperature                   : 
group              .         prim                          : 
~Curve Information
#_______________________________________________________________________________
#
#LOGNAME           .UNIT     LOG_ID                        : DESCRIPTION
#_______________________________________________________________________________
DEPT               .M                                      : 1 Глубина, м -    0.0 см 
GK                 .MKR/H                                  : 13 Гамма-активность, мкр./ч -   65.0 см 
GK$                .UE                                     : 10 Гамма-активность, усл.ед. -   65.0 см 
LM                 .                                       : 9 Локатор муфт,  -   30.0 см 
METKA              .                                       : 3 Метки,  -    0.0 см 
METKA_1            .                                       : 14 Маркеры - 65 см 
MN                 .ATM                                    : 12 Давление, атм. -  140.0 см 
MN$                .UE                                     : 8 Давление, усл.ед. -  140.0 см 
RCOR               .CM/KM                                  : 5 Коррекция по ролику, см/км -    0.0 см 
SPID               .M/H                                    : 2 Скорость, м/час -    0.0 см 
TENS               .T                                      : 6 Натяжение кабеля, т -    0.0 см 
TIME               .S                                      : 4 Время, сек -    0.0 см 
TM                 .GRD                                    : 11 Температура, °C -  145.0 см 
TM$                .UE                                     : 7 Температура, усл.ед. -  145.0 см 
~Ascii
# ...
2748.4     5.53       318        1197       0          0          252.035    14571      0          -632       1.01       15271.5    58.611     14743     
2748.6     6.18       355        3150       0          0          252.035    14571      0          -637       1.02       15270.36   58.723     14770     
2748.8     6.18       355        11986      0          0          252.069    14573      0          -636       1.01       15269.25   58.858     14803     
2749       6.17       355        21020      0          0          252.103    14574      0          -635       1.01       15268.15   59.011     14840     
2749.2     6.12       351        691        0          0          252.098    14574      0          -633       1.03       15267.01   59.134     14870     
2749.4     5.62       323        759        0          0          252.134    14576      0          -630       1.01       15265.87   59.294     14909     
2749.6     5.61       322        1182       0          0          252.134    14576      0          -627       1.03       15264.73   59.504     14960     
2749.8     5.39       310        254        2          0          252.151    14577      0          -637       1.01       15263.62   59.594     14982     
2750       5.28       303        865        0          0          252.164    14578      0          -636       1.01       15262.82   59.689     15005     
2750.2     5.66       325        691        0          0          252.154    14577      0          -635       1.01       15261.67   59.785     15028     
2750.4     5.95       342        266        0          0          252.174    14578      0          -632       1.01       15260.55   59.862     15047     
2750.6     5.94       341        747        0          0          252.244    14581      0          -630       1.01       15259.4    59.944     15066     
2750.8     5.85       336        394        0          0          252.271    14583      0          -633       1.01       15258.26   60.031     15088     
2751       5.84       336        658        0          0          252.277    14583      0          -638       1.01       15257.17   60.083     15100     
2751.2     5.68       326        1037       0          0          252.314    14585      0          -638       1.01       15256.03   60.166     15120     
2751.4     5.57       320        507        0          0          252.33     14586      0          -637       1.01       15254.88   60.239     15138     
2751.6     5.83       335        902        0          0          252.374    14588      0          -636       1.01       15253.78   60.307     15155     
2751.8     6.06       348        540        0          0          252.391    14589      0          -634       1.01       15252.65   60.397     15176     
2752       6.07       349        308        0          0          252.376    14588      0          -632       1.01       15251.51   60.534     15210     
2752.2     6.14       353        769        0          0          252.413    14590      0          -629       1.01       15250.37   60.626     15232     
2752.4     6.11       351        646        0          0          252.413    14590      0          -630       1.01       15249.23   60.714     15253     
2752.6     5.93       341        1443       0          0          252.473    14593      0          -628       1.01       15248.08   60.787     15271     
2752.8     5.91       339        1303       0          0          252.473    14593      0          -638       1.01       15246.97   60.842     15284     
2753       5.36       308        1616       0          0          252.508    14595      0          -638       1.01       15245.83   60.899     15298     
2753.2     5.36       308        1128       0          0          252.473    14593      0          -637       1.01       15244.69   60.954     15312     
2753.4     5.38       309        1204       0          0          252.547    14597      0          -636       1.01       15243.56   61.005     15324     
2753.6     5.39       310        934        0          0          252.553    14597      0          -634       1.01       15242.45   61.091     15345     
2753.8     5.66       325        875        0          0          252.583    14599      0          -632       1.01       15241.31   61.174     15365     
2754       6.14       353        804        0          0          252.629    14601      0          -629       1.01       15240.17   61.248     15383     
2754.2     6.17       355        741        0          0          252.593    14599      0          -633       1.01       15239.05   61.281     15391     
2754.4     6.23       358        606        0          0          252.647    14602      0          -631       1.01       15237.91   61.302     15396     
2754.6     6.19       356        1201       0          0          252.653    14602      0          -628       1.01       15236.79   61.314     15399     
2754.8     5.93       341        1311       0          0          252.679    14603      0          -633       1.01       15235.64   61.329     15403     
2755       5.93       341        1254       0          0          252.681    14603      0          -635       1.01       15234.5    61.342     15406     
2755.2     5.85       336        1499       0          0          252.704    14605      0          -634       1.01       15233.41   61.355     15409     
2755.4     5.82       334        582        0          0          252.752    14607      0          -631       0.99       15232.26   61.367     15412     
2755.6     5.59       321        725        0          0          252.732    14606      0          -628       0.99       15231.12   61.379     15415     
2755.8     5.53       318        1254       0          0          252.802    14610      0          -631       0.99       15230.03   61.387     15417     
2756       5.51       317        507        0          0          252.744    14607      0          -627       0.99       15228.88   61.395     15419     
2756.2     5.45       313        1218       0          0          252.809    14610      0          -622       0.99       15227.73   61.403     15421     
2756.4     5.57       320        1273       0          0          252.815    14610      0          -622       0.99       15226.59   61.407     15422     
2756.6     5.93       341        2223       0          0          252.824    14611      0          -616       0.99       15225.44   61.415     15424     
2756.8     5.92       340        2615       0          0          252.898    14614      0          -607       0.99       15224.29   61.421     15425     
2757       5.74       330        4057       0          0          252.872    14613      0          -609       0.99       15223.13   61.432     15428     
2757.2     5.67       326        3296       0          0          252.895    14614      0          -598       0.99       15221.98   61.442     15430     
2757.4     4.87       280        3707       0          0          252.895    14614      0          -591       0.99       15220.88   61.458     15434     
2757.6     4.87       280        2068       0          0          252.955    14617      0          -572       0.99       15219.74   61.481     15440     
2757.8     4.83       278        1154       0          0          252.932    14616      0          -553       0.99       15218.54   61.505     15445     
2758       4.82       277        1530       0          0          252.997    14619      0          -536       0.99       15217.38   61.532     15452     
2758.2     5.11       294        3028       0          0          253.008    14620      0          -517       0.94       15216.11   61.55      15456     
2758.4     5.36       308        879        0          0          253        14619      0          -506       0.91       15214.84   61.562     15459     
2758.6     5.38       309        294        0          0          253.085    14624      0          -493       0.91       15213.57   61.573     15462     
