~Version
 VERS              .         2.0                           : CWLS LOG ASCII STANDARD - VERSION 2.0
 WRAP              .         NO                            : ONE LINE PER DEPTH STEP
 DLM               .         SPACE                         : DELIMITING CHARACTER(SPACE TAB OR COMMA)
~Well Information
#_______________________________________________________________________________
#
#PARAMETER_NAME    .UNIT     VALUE                         : DESCRIPTION
#_______________________________________________________________________________
STRT               .M        2648.8                        : First reference value
STOP               .M        2755.39984                    : Last reference value
STEP               .M        0.1999997                     : Step increment
NULL               .         -9999                         : Missing value
COMP               .                                       : Company
WELL               .         616                           : Well name
FLD                .                                       : Field
LOC                .                                       : Location
CNTY               .                                       : County
STAT               .                                       : State
CTRY               .                                       : Country
SRVC               .                                       : Service Company
DATE               .                                       : Date
API                .                                       : API number
PROJECT_UPGRADE_TIME .         2021-03-18T21_24_50           : 
group              .         Good                          : 
~Parameter Information Block
#_______________________________________________________________________________
#
#PARAMETER_NAME    .UNIT     VALUE                         : DESCRIPTION
#_______________________________________________________________________________
SET                .         D7023_D                       : 
OTHER              .         Kedr.exe версия 2.1.2.32      : 
OTHER_10           .         TM.GRD = 0.00404*TM$.UE + 0.07: 
OTHER_11           .         MN.ATM = (6.33279e-006*TM.GRD + 0.02401)*(MN$.UE + 2.72*TM.GRD + -2018): 
OTHER_12           .         GK.MKR/H = GK$.UE / 43.5489 + 0: 
OTHER_13           .         RES.SM = 0.00476*CRES.UE - 1.51709: 
OTHER_14           .         PL.GSM3 = 0 + 0 * (PL.UE / 1) +  0 * (PL.UE / 1)^2: 
OTHER_15           .         Постоянная времени ГГП = 6 сек: 
OTHER_16           .         Постоянная времени ГК = 6 сек : 
OTHER_2            .         KedrData.dll версия 3.2.2.14  : 
OTHER_3            .         LasInf.dll версия 3.2.0.13    : 
OTHER_4            .         Драйвер версия 1.2.0.5        : 
OTHER_5            .         Прибор_ КСА-M1                : 
OTHER_6            .         Номер прибора_ 155+р204       : 
OTHER_7            .         Режим_ КСА-М1 + ГГП + Резистивиметр: 
OTHER_8            .         Форма_ 223\2                  : 
OTHER_9            .         Тарировки_                    : 
PROJECT_UPGRADE_TIME .         2021-03-18T21_24_50           : 
TLFamily_CRES      .                                       : 
TLFamily_DEPT      .         Measured Depth                : 
TLFamily_GK        .         Gamma Ray                     : 
TLFamily_GK$       .                                       : 
TLFamily_LM        .         Casing Collar locator         : 
TLFamily_METKA     .                                       : 
TLFamily_MN        .                                       : 
TLFamily_MN$       .                                       : 
TLFamily_PL        .                                       : 
TLFamily_PL_2      .                                       : 
TLFamily_RCOR      .                                       : 
TLFamily_RES       .         Mud Resistivity               : 
TLFamily_SPID      .         Spontaneous Potential         : 
TLFamily_STD       .                                       : 
TLFamily_TIME      .         Time                          : 
TLFamily_TM        .         Temperature                   : 
TLFamily_TM$       .         Temperature                   : 
TLFamily_VGD       .         Gas Volume                    : 
group              .         prim                          : 
~Curve Information
#_______________________________________________________________________________
#
#LOGNAME           .UNIT     LOG_ID                        : DESCRIPTION
#_______________________________________________________________________________
DEPT               .M                                      : 1 Глубина, м -    0.0 см 
CRES               .UE                                     : 9 Проводимость, усл.ед. -  222.0 см 
GK                 .MKR/H                                  : 16 Гамма-активность, мкр./ч -  106.0 см 
GK$                .UE                                     : 13 Гамма-активность, усл.ед. -  106.0 см 
LM                 .                                       : 11 Локатор муфт,  -   16.0 см 
METKA              .                                       : 3 Метки,  -    0.0 см 
MN                 .ATM                                    : 15 Давление, атм. -  160.0 см 
MN$                .UE                                     : 7 Давление, усл.ед. -  160.0 см 
PL                 .UE                                     : 10 Плотность, усл.ед. -  270.0 см 
PL_2               .GSM3                                   : 18 Плотность, г./см3 -  270.0 см 
RCOR               .CM/KM                                  : 5 Коррекция по ролику, см/км -    0.0 см 
RES                .SM                                     : 17 Проводимость,  -  222.0 см 
SPID               .M/H                                    : 2 Скорость, м/час -    0.0 см 
STD                .                                       : 12 Приток,  -  170.0 см 
TIME               .S                                      : 4 Время, сек -    0.0 см 
TM                 .GRD                                    : 14 Температура, °C -  180.0 см 
TM$                .UE                                     : 6 Температура, усл.ед. -  180.0 см 
VGD                .                                       : 8 Влагомер,  -  170.0 см 
~Ascii
# ...
2738.999865 1224       10.69      476        69         0          370.606    17112      14         0          0          4.3107     545        9884       15290.58   50.604     12508      6708      
2739.199864 1227       10.81      476        109        0          367.971    17003      14         0          0          4.325      510        9909       15291.86   50.73      12540      6707      
2739.399864 1229       10.94      486        149        0          367.348    16976      15         0          0          4.3329     580        9932       15293.18   50.847     12569      6707      
2739.599864 1232       11.05      486        114        0          369.532    17065      14         0          0          4.348      510        9953       15294.45   50.978     12601      6706      
2739.799864 1231       11.31      510        100        0          369.789    17075      14         0          0          4.3401     580        9974       15295.72   51.121     12636      6704      
2739.999863 1233       11.51      510        100        0          371.358    17139      14         0          0          4.352      580        9994       15297.01   51.227     12663      6696      
2740.199863 1233       11.91      540        101        1          371.729    17153      13         0          0          4.352      580        10019      15298.92   51.332     12689      6704      
2740.399863 1232       12.15      540        104        0          372.567    17186      14         0          0          4.3488     510        10045      15300.19   51.467     12722      6701      
2740.599862 1240       12.11      521        138        0          371.112    17126      14         0          0          4.3853     580        10078      15301.53   51.62      12760      6701      
2740.799862 1243       12.04      521        105        0          371.991    17161      14         0          0          4.3996     580        10114      15302.79   51.707     12782      6694      
2740.999862 1246       11.25      444        114        0          371.417    17137      13         0          0          4.4159     580        10144      15304.13   51.811     12807      6693      
2741.199861 1246       10.57      439        103        0          371.659    17145      14         0          0          4.4123     580        10179      15305.4    51.96      12844      6685      
2741.399861 1249       10.33      439        97         0          370.868    17112      14         0          0          4.4302     522        10218      15306.73   52.153     12892      6681      
2741.599861 1251       10.29      450        98         0          370.505    17097      13         0          0          4.4361     580        10253      15308      52.27      12921      6687      
2741.799861 1252       10.31      450        123        0          371.051    17118      14         0          0          4.4424     580        10294      15309.34   52.381     12948      6681      
2741.99986 1257       9.99       412        121        0          372.75     17186      14         0          0          4.4662     557        10322      15310.67   52.597     13002      6682      
2742.19986 1261       9.73       412        97         0          372.15     17161      14         0          0          4.4866     522        10346      15311.94   52.715     13031      6686      
2742.39986 1263       9.66       421        104        0          373.372    17210      14         0          0          4.4948     580        10373      15313.21   52.894     13075      6686      
2742.599859 1266       9.66       421        115        0          371.762    17142      14         0          0          4.5083     580        10403      15314.55   53.043     13112      6688      
2742.799859 1267       9.99       458        127        0          371.458    17129      14         0          0          4.5115     557        10436      15315.88   53.234     13159      6684      
2742.999859 1269       10.25      458        110        0          370.63     17094      13         0          0          4.5254     580        10469      15317.12   53.331     13184      6675      
2743.199858 1273       10.46      466        118        0          370.719    17097      14         0          0          4.5424     580        10503      15318.44   53.509     13228      6675      
2743.399858 1273       10.58      465        146        0          370.13     17072      14         0          0          4.5424     522        10533      15319.71   53.64      13260      6678      
2743.599858 1279       10.58      461        146        0          369.828    17059      14         0          0          4.5686     580        10559      15321.01   53.728     13282      6675      
2743.799858 1280       10.58      461        104        0          369.691    17052      14         0          0          4.5764     510        10578      15322.31   53.861     13315      6673      
2743.999857 1282       10.34      437        126        0          369.489    17043      14         0          0          4.5852     580        10598      15323.58   53.991     13347      6672      
2744.199857 1285       10.19      437        97         0          370.272    17075      14         0          0          4.5995     580        10622      15324.9    54.105     13375      6673      
2744.399857 1287       10.33      456        89         0          371.517    17125      14         0          0          4.6114     510        10648      15326.18   54.244     13409      6669      
2744.599856 1293       10.41      459        82         0          371.765    17134      14         0          0          4.6362     545        10672      15327.45   54.333     13431      6684      
2744.799856 1296       10.51      462        57         0          371.881    17138      14         0          0          4.6519     580        10695      15328.79   54.468     13465      6689      
2744.999856 1298       10.46      441        80         0          372.273    17153      14         0          0          4.6598     510        10714      15330.05   54.61      13500      6685      
2745.199855 1299       10.25      437        79         0          372.555    17164      14         0          0          4.6682     580        10739      15331.34   54.73      13530      6689      
2745.399855 1301       10.16      441        99         0          373.303    17194      14         0          0          4.6757     540        10768      15332.65   54.857     13561      6682      
2745.599855 1304       10.24      449        111        0          373.236    17190      14         0          0          4.6884     580        10796      15333.95   55.03      13604      6690      
2745.799855 1307       10.17      425        121        0          373.749    17210      14         0          0          4.7035     568        10825      15335.21   55.201     13646      6688      
2745.999854 1308       9.91       420        126        0          372.735    17167      14         0          0          4.7106     580        10856      15336.48   55.317     13675      6687      
2746.199854 1311       9.67       400        126        0          372.504    17156      14         0          0          4.7256     580        10896      15337.82   55.469     13713      6677      
2746.399854 1313       9.44       400        95         0          371.415    17110      14         0          0          4.7344     545        10936      15339.09   55.79      13792      6685      
2746.599853 1318       9.33       403        238        0          371.582    17115      14         0          0          4.7566     580        10974      15340.38   56.005     13845      6681      
2746.799853 1319       9.3        403        106        0          371.414    17107      14         0          0          4.763      580        11015      15341.69   56.246     13905      6674      
2746.999853 1322       8.99       344        148        0          371.39     17105      14         0          0          4.7756     510        11054      15342.96   56.468     13960      6662      
