~Version
 VERS              .         2.0                           : CWLS LOG ASCII STANDARD - VERSION 2.0
 WRAP              .         NO                            : ONE LINE PER DEPTH STEP
 DLM               .         SPACE                         : DELIMITING CHARACTER(SPACE TAB OR COMMA)
~Well Information
#_______________________________________________________________________________
#
#PARAMETER_NAME    .UNIT     VALUE                         : DESCRIPTION
#_______________________________________________________________________________
STRT               .M        2657.95                       : First reference value
STOP               .M        2764.750053                   : Last reference value
STEP               .M        0.2000001                     : Step increment
NULL               .         -9999                         : Missing value
COMP               .                                       : Company
WELL               .         616                           : Well name
FLD                .                                       : Field
LOC                .                                       : Location
CNTY               .                                       : County
STAT               .                                       : State
CTRY               .                                       : Country
SRVC               .                                       : Service Company
DATE               .                                       : Date
API                .                                       : API number
PROJECT_UPGRADE_TIME .         2021-03-18T21_24_50           : 
group              .         Good                          : 
~Parameter Information Block
#_______________________________________________________________________________
#
#PARAMETER_NAME    .UNIT     VALUE                         : DESCRIPTION
#_______________________________________________________________________________
SET                .         D7022_D_2                     : 
NPR                .         155                           : Номер прибора
OTHER              .         Kedr.exe версия 2.1.2.32      : 
OTHER_10           .         TM.GRD = 0.00404*TM$.UE + 0.07: 
OTHER_11           .         MN.ATM = (6.33279e-006*TM.GRD + 0.02401)*(MN$.UE + 2.72*TM.GRD + -2018): 
OTHER_12           .         GK.MKR/H = GK$.UE / 43.5489 + 0: 
OTHER_13           .         RES.SM = 0.00476*CRES.UE - 1.51709: 
OTHER_14           .         PL.GSM3 = 0 + 0 * (PL.UE / 1) +  0 * (PL.UE / 1)^2: 
OTHER_15           .         Постоянная времени ГГП = 6 сек: 
OTHER_16           .         Постоянная времени ГК = 6 сек : 
OTHER_2            .         KedrData.dll версия 3.2.2.14  : 
OTHER_3            .         LasInf.dll версия 3.2.0.13    : 
OTHER_4            .         Драйвер версия 1.2.0.5        : 
OTHER_5            .         Прибор_ КСА-M1                : 
OTHER_6            .         Номер прибора_ 155+р204       : 
OTHER_7            .         Режим_ КСА-М1 + ГГП + Резистивиметр: 
OTHER_8            .         Форма_ 223\2                  : 
OTHER_9            .         Тарировки_                    : 
PR                 .         КСА-Т7 М1                     : Тип прибора
PROJECT_UPGRADE_TIME .         2021-03-18T21_24_50           : 
PRTY               .         ПП-223_2                      : Номер партии
SRV                .         ЦКРС                          : Заказчик
SRVC               .         Лузин  А.Б.                   : Начальник партии
TLFamily_DEPT      .         Measured Depth                : 
TLFamily_LM        .         Casing Collar locator         : 
TLFamily_MN        .                                       : 
TLFamily_SPID      .         Spontaneous Potential         : 
TLFamily_TM        .         Temperature                   : 
group              .         second                        : 
~Curve Information
#_______________________________________________________________________________
#
#LOGNAME           .UNIT     LOG_ID                        : DESCRIPTION
#_______________________________________________________________________________
DEPT               .M                                      : Depth curve 
LM                 .е.ацп                                  : Локация муфт 
MN                 .атм                                    : Манометрия, атм 
SPID               .м/ч                                    : Скорость записи,м/час 
TM                 .град.С                                 : Термометрия,град.С 
~Ascii
# ...
2715.550029 71.005     343.45     544.994    50.49     
2715.750029 93.994     342.39     567.994    50.48     
2715.950029 71.006     342        510.014    50.47     
2716.150029 60.003     341.77     579.983    50.44     
2716.350029 73.997     341.1      550.007    50.43     
2716.550029 76         340.95     510.01     50.41     
2716.750029 70.001     340.3      569.986    50.4      
2716.950029 89.995     341.33     579.998    50.39     
2717.15003 91         341.94     580        50.38     
2717.35003 94.999     343.46     510.017    50.36     
2717.55003 77.004     343.37     510        50.35     
2717.75003 88.997     343.62     579.983    50.33     
2717.95003 85.001     343.64     580        50.32     
2718.15003 81.001     343.95     568.003    50.31     
2718.35003 120.99     344.04     579.997    50.28     
2718.55003 113.002    343.51     580        50.28     
2718.75003 115.999    342.56     545.008    50.27     
2718.95003 106.002    342.4      567.994    50.26     
2719.150031 112.998    341.81     579.997    50.25     
2719.350031 106.002    341.25     540.01     50.24     
2719.550031 136.993    341.36     533.002    50.23     
2719.750031 146.998    340.6      579.989    50.21     
2719.950031 120.006    341.02     520.014    50.19     
2720.150031 105.004    341.74     549.993    50.17     
2720.350031 94.003     343.06     510.01     50.15     
2720.550031 98.999     343.21     579.983    50.14     
2720.750031 113.996    343.95     522.014    50.13     
2720.950032 96.004     343.68     530.998    50.12     
2721.150032 98.999     343.83     579.988    50.11     
2721.350032 90.002     344.21     580        50.1      
2721.550032 99.998     344.19     570.002    50.09     
2721.750032 76.006     343.7      545.006    50.05     
2721.950032 114.991    343.1      522.006    50.04     
2722.150032 217.975    342.41     579.986    50.03     
2722.350032 245.993    342.28     580        50.01     
2722.550032 180.016    341.97     545.008    49.98     
2722.750032 156.006    341.77     522.006    49.96     
2722.950032 93.015     341.01     579.986    49.95     
2723.150033 151.986    342.34     560.005    49.94     
2723.350033 390.943    343.12     579.995    49.93     
2723.550033 674.932    345.24     568.003    49.93     
2723.750033 507.04     344.6      579.997    49.92     
2723.950033 2084.623   344.72     533.011    49.9      
2724.150033 3564.646   344.87     533        49.9      
2724.350033 1030.606   345.21     579.989    49.89     
2724.550033 248.187    345.48     580        49.87     
2724.750033 234.003    345.16     557.006    49.86     
2724.950033 235        344.71     579.994    49.83     
2725.150034 156.019    344.02     580        49.81     
2725.350034 81.018     343.85     510.017    49.8      
2725.550034 70.003     344.07     579.983    49.79     
2725.750034 74.999     343.23     510.017    49.8      
2725.950034 60.004     342.61     521.997    49.79     
2726.150034 63.999     343.09     579.986    49.78     
2726.350034 71.998     343.91     556.006    49.77     
2726.550034 56.004     345.75     579.994    49.75     
2726.750034 86.993     345.87     617.991    49.74     
2726.950034 120.992    347.38     580.009    49.72     
2727.150035 98.005     346.22     545.008    49.7      
2727.350035 95.001     346.34     521.006    49.68     
2727.550035 73.005     346.66     579.986    49.67     
2727.750035 74         347.18     580        49.66     
2727.950035 62.003     346.25     557.005    49.65     
2728.150035 73.997     345.68     567.997    49.64     
2728.350035 219.965    345.57     570        49.62     
2728.550035 314.977    345.44     579.998    49.6      
2728.750035 519.951    344.8      557.005    49.58     
2728.950036 285.056    344.02     579.995    49.57     
2729.150036 500.948    344.4      568.003    49.55     
2729.350036 654.963    345.17     579.997    49.54     
2729.550036 476.043    347.44     580        49.52     
2729.750036 593.972    347.29     580        49.49     
2729.950036 660.984    348.73     580        49.48     
2730.150036 562.024    347.51     530.012    49.45     
2730.350036 690.969    347.83     579.988    49.43     
2730.550036 235.109    348        568.003    49.37     
2730.750036 161.018    347.92     545.005    49.29     
2730.950036 171.997    347.26     579.992    49.13     
2731.150037 151.005    346.91     580        49        
2731.350037 145.001    346.81     580        48.83     
2731.550037 120.006    348.33     580        48.65     
2731.750037 147.993    348.45     580        48.44     
2731.950037 151.999    348.67     580        48.28     
2732.150037 120.008    349.06     580        48.13     
2732.350037 158.991    348.19     545.008    48.02     
2732.550037 212.987    348        567.995    47.88     
2732.750037 220.998    347.92     510.014    47.77     
2732.950037 135.021    347.9      559.988    47.7      
2733.150038 119.004    347.51     579.995    47.62     
2733.350038 140.995    346.74     580        47.58     
2733.550038 382.942    346.5      510.017    47.51     
2733.750038 264.028    347        567.986    47.45     
2733.950038 106.038    347.79     579.997    47.41     
2734.150038 287.957    349.43     560.005    47.36     
2734.350038 162.03     347.75     510.012    47.34     
2734.550038 110.012    349.52     579.983    47.34     
2734.750038 112        348.81     545.008    47.33     
2734.950038 157.989    348.96     579.992    47.27     
2735.150039 4002.083   350.93     580        47.25     
2735.350039 5486.646   350.01     530.012    47.22     
2735.550039 1344.988   349.99     510.005    47.21     
2735.750039 386.228    349.63     579.983    47.2      
2735.950039 138.059    350        580        47.18     
2736.150039 101.009    349.69     580        47.18     
2736.350039 106.999    349.04     580        47.17     
2736.550039 118.997    348.29     568.003    47.16     
2736.750039 104.004    348.11     579.997    47.17     
2736.95004 84.005     348.51     522.014    47.16     
2737.15004 95.997     349.56     544.995    47.17     
2737.35004 110.996    348.17     579.992    47.2      
2737.55004 149.991    347.33     520.014    47.22     
2737.75004 111.009    348.82     567.989    47.25     
2737.95004 115.999    349.52     579.997    47.3      
2738.15004 134.995    351.67     533.011    47.36     
2738.35004 131.001    351.55     579.989    47.39     
2738.55004 112.005    352.42     580        47.42     
2738.75004 105.002    351.15     510.017    47.43     
2738.95004 99.001     351.39     579.983    47.44     
2739.150041 129.993    351.53     580        47.44     
2739.350041 117.003    351.43     534.011    47.45     
2739.550041 114.001    350.64     579.989    47.45     
2739.750041 90.006     350.46     510.017    47.46     
2739.950041 114.994    349.91     556.989    47.48     
2740.150041 125.997    349.82     510.011    47.5      
2740.350041 134.998    349.59     567.986    47.5      
2740.550041 126.002    348.83     579.997    47.53     
2740.750041 118.002    349.2      557.005    47.55     
2740.950041 130.997    349.92     579.995    47.58     
2741.150042 118.003    351.79     580        47.6      
2741.350042 117        352.09     545.008    47.63     
2741.550042 119        350.45     579.992    47.66     
2741.750042 93.006     349.71     520.014    47.71     
2741.950042 103.997    350.13     559.99     47.75     
2742.150042 132.993    350.76     579.995    47.79     
2742.350042 128.001    351.59     580        47.83     
2742.550042 140.997    352.32     580        47.89     
2742.750042 115.006    353.49     580        47.95     
2742.950042 112.001    352.08     545.008    48        
2743.150043 149.991    352.5      522.005    48.06     
2743.350043 123.006    353.66     579.986    48.11     
2743.550043 125.999    352.74     580        48.17     
2743.750043 159.992    352.79     545.008    48.22     
2743.950043 145.004    352.7      579.992    48.29     
2744.150043 119.006    352.81     510.017    48.36     
