~Version
 VERS              .         2.0                           : CWLS LOG ASCII STANDARD - VERSION 2.0
 WRAP              .         NO                            : ONE LINE PER DEPTH STEP
 DLM               .         SPACE                         : DELIMITING CHARACTER(SPACE TAB OR COMMA)
~Well Information
#_______________________________________________________________________________
#
#PARAMETER_NAME    .UNIT     VALUE                         : DESCRIPTION
#_______________________________________________________________________________
STRT               .M        2656.6                        : First reference value
STOP               .M        2765.2                        : Last reference value
STEP               .M        0.1999997                     : Step increment
NULL               .         -9999                         : Missing value
COMP               .                                       : Company
WELL               .         616                           : Well name
FLD                .                                       : Field
LOC                .                                       : Location
CNTY               .                                       : County
STAT               .                                       : State
CTRY               .                                       : Country
SRVC               .                                       : Service Company
DATE               .                                       : Date
API                .                                       : API number
PROJECT_UPGRADE_TIME .         2021-03-18T21_24_50           : 
group              .         Good                          : 
~Parameter Information Block
#_______________________________________________________________________________
#
#PARAMETER_NAME    .UNIT     VALUE                         : DESCRIPTION
#_______________________________________________________________________________
SET                .         D8102_D                       : 
OTHER              .         Программное обеспечение станции MONITOR-386EX 25/12/99 15_08_10   BGF V52 22/08/01 16_56_30   4_SNGF_BGF_N_011645: 
OTHER_10           .         Тарировки_                    : 
OTHER_11           .         TM.GRD = 0.00412*TM$.UE + -2.13: 
OTHER_12           .         MN.ATM = (5.87652e-006*TM.GRD + 0.01993)*(MN$.UE + -2.72*TM.GRD + -1925): 
OTHER_13           .         GK.MKR/H = GK$.UE / 57.4657   : 
OTHER_2            .         Kedr.exe версия 3.4.2.51      : 
OTHER_3            .         KedrData.dll версия 3.4.2.24  : 
OTHER_4            .         Драйвер версия 2.1.0.2        : 
OTHER_5            .         Мнемоники версия 3.3 S        : 
OTHER_6            .         Прибор_ АКП4-90               : 
OTHER_7            .         Номер прибора_ 53             : 
OTHER_8            .         Режим_ АКП4_90                : 
OTHER_9            .         Форма_ ПК-53ое                : 
PROJECT_UPGRADE_TIME .         2021-03-18T21_24_50           : 
TLFamily_DEPT      .         Measured Depth                : 
TLFamily_GK        .         Gamma Ray                     : 
TLFamily_GK$       .                                       : 
TLFamily_LM        .         Casing Collar locator         : 
TLFamily_METKA     .                                       : 
TLFamily_METKA_1   .                                       : 
TLFamily_MN        .                                       : 
TLFamily_MN$       .                                       : 
TLFamily_RCOR      .                                       : 
TLFamily_SPID      .         Spontaneous Potential         : 
TLFamily_TENS      .         Cable Tension                 : 
TLFamily_TIME      .         Time                          : 
TLFamily_TM        .         Temperature                   : 
TLFamily_TM$       .         Temperature                   : 
group              .         prim                          : 
~Curve Information
#_______________________________________________________________________________
#
#LOGNAME           .UNIT     LOG_ID                        : DESCRIPTION
#_______________________________________________________________________________
DEPT               .M                                      : 1 Глубина, м -    0.0 см 
GK                 .MKR/H                                  : 13 Гамма-активность, мкр./ч -   65.0 см 
GK$                .UE                                     : 10 Гамма-активность, усл.ед. -   65.0 см 
LM                 .                                       : 9 Локатор муфт,  -   30.0 см 
METKA              .                                       : 3 Метки,  -    0.0 см 
METKA_1            .                                       : 14 Маркеры - 65 см 
MN                 .ATM                                    : 12 Давление, атм. -  140.0 см 
MN$                .UE                                     : 8 Давление, усл.ед. -  140.0 см 
RCOR               .CM/KM                                  : 5 Коррекция по ролику, см/км -    0.0 см 
SPID               .M/H                                    : 2 Скорость, м/час -    0.0 см 
TENS               .T                                      : 6 Натяжение кабеля, т -    0.0 см 
TIME               .S                                      : 4 Время, сек -    0.0 см 
TM                 .GRD                                    : 11 Температура, °C -  145.0 см 
TM$                .UE                                     : 7 Температура, усл.ед. -  145.0 см 
~Ascii
# ...
2739.8     6.8        391        516        0          0          251.277    14533      -2         -307       0.73       414.61     49.973     12646     
2740       6.67       383        312        0          0          251.258    14532      -2         -303       0.73       412.24     50.151     12690     
2740.2     6.89       396        449        0          0          251.277    14533      -2         -314       0.73       409.98     50.333     12734     
2740.4     7.31       420        254        0          0          251.317    14535      -2         -316       0.75       407.71     50.467     12766     
2740.6     7.42       426        347        2          0          251.317    14535      0          -313       0.72       405.19     50.563     12790     
2740.8     7.37       424        183        0          0          251.324    14535      0          -306       0.73       402.79     50.618     12803     
2741       8.11       466        227        0          0          251.39     14539      0          -305       0.73       400.53     50.758     12837     
2741.2     8.02       461        624        0          0          251.412    14540      0          -311       0.73       398.25     50.863     12862     
2741.4     7.52       432        209        0          0          251.417    14540      0          -306       0.74       395.86     50.992     12894     
2741.6     7.5        431        182        0          0          251.417    14540      0          -300       0.73       393.59     51.126     12926     
2741.8     7.41       426        94         0          0          251.457    14542      0          -307       0.73       391.32     51.272     12962     
2742       7.06       406        125        0          0          251.463    14542      0          -307       0.73       388.99     51.427     12999     
2742.2     7.05       405        283        0          0          251.477    14543      0          -314       0.73       386.66     51.565     13033     
2742.4     7.48       430        291        0          0          251.477    14543      0          -309       0.73       384.39     51.692     13064     
2742.6     7.47       429        373        0          0          251.517    14545      0          -311       0.73       382.09     51.83      13097     
2742.8     7.46       429        533        0          0          251.543    14546      0          -317       0.73       379.73     51.969     13131     
2743       7.23       415        275        0          0          251.55     14547      0          -314       0.73       377.46     52.109     13165     
2743.2     6.87       395        195        0          0          251.556    14547      0          -309       0.73       375.19     52.27      13204     
2743.4     6.32       363        251        0          0          251.596    14549      0          -310       0.73       372.93     52.444     13246     
2743.6     6.24       359        215        0          0          251.61     14550      0          -308       0.73       370.53     52.608     13286     
2743.8     6.84       393        484        0          0          251.63     14551      0          -307       0.73       368.26     52.74      13318     
2744       7.64       439        241        0          0          251.636    14551      0          -310       0.73       365.93     52.895     13356     
2744.2     7.73       444        334        0          0          251.656    14552      0          -310       0.73       363.6      53.088     13402     
2744.4     7.64       439        295        0          0          251.696    14554      0          -312       0.73       361.33     53.217     13434     
2744.6     7.64       439        353        0          0          251.636    14551      0          -308       0.73       358.94     53.291     13452     
2744.8     7.24       416        472        0          0          251.656    14552      0          -314       0.73       356.66     53.522     13508     
2745       6.98       401        947        0          0          251.676    14553      0          -310       0.73       354.4      53.674     13545     
2745.2     6.93       398        251        0          0          251.703    14554      0          -310       0.73       352        53.787     13572     
2745.4     7.38       424        211        0          0          251.696    14554      0          -311       0.73       349.74     53.923     13605     
2745.6     7.9        454        249        0          0          251.743    14556      0          -310       0.73       347.47     54.198     13672     
2745.8     7.81       449        415        0          0          251.756    14557      0          -312       0.73       345.13     54.312     13700     
2746       7.43       427        409        0          0          251.815    14560      0          -312       0.73       342.81     54.524     13751     
2746.2     7.28       419        177        0          0          251.816    14560      0          -305       0.73       340.54     54.704     13795     
2746.4     6.97       400        215        0          0          251.816    14560      0          -307       0.73       338.23     54.913     13845     
2746.6     7.05       405        518        0          0          251.835    14561      0          -309       0.73       335.86     55.106     13892     
2746.8     6.8        391        931        0          0          251.855    14562      0          -310       0.71       333.6      55.279     13934     
2747       6.48       372        403        0          0          251.876    14563      0          -308       0.71       331.33     55.431     13971     
2747.2     7.03       404        112        0          0          251.935    14566      0          -308       0.73       328.94     55.641     14022     
2747.4     7.17       412        159        0          0          251.948    14567      0          -309       0.73       326.66     55.814     14064     
2747.6     6.79       390        564        0          0          251.948    14567      0          -318       0.71       324.37     56.012     14112     
2747.8     6.87       395        349        0          0          251.97     14568      0          -321       0.72       322.08     56.134     14142     
2748       6.67       383        225        0          0          251.995    14569      0          -313       0.71       319.8      56.31      14184     
2748.2     6.43       370        457        0          0          252.035    14571      0          -309       0.71       317.52     56.446     14217     
2748.4     5.86       337        559        0          0          252.035    14571      0          -306       0.71       315.17     56.639     14264     
2748.6     5.49       315        838        0          0          252.048    14572      0          -315       0.72       312.89     56.903     14328     
2748.8     4.85       279        76         0          0          252.035    14571      0          -319       0.71       310.54     57.015     14356     
2749       4.95       285        170        0          0          252.055    14572      0          -318       0.71       308.26     57.186     14397     
2749.2     5.49       316        373        0          0          252.055    14572      0          -313       0.71       305.98     57.451     14461     
2749.4     5.01       288        614        0          0          252.068    14573      0          -315       0.71       303.67     57.523     14479     
2749.6     5.68       327        7177       0          0          252.161    14577      0          -310       0.71       301.39     57.692     14520     
2749.8     6.63       381        24273      0          0          252.104    14574      0          -311       0.71       299.1      57.87      14563     
2750       6.44       370        513        0          0          252.184    14579      0          -307       0.71       296.76     58.092     14617     
