~Version
 VERS              .         2.0                           : CWLS LOG ASCII STANDARD - VERSION 2.0
 WRAP              .         NO                            : ONE LINE PER DEPTH STEP
 DLM               .         SPACE                         : DELIMITING CHARACTER(SPACE TAB OR COMMA)
~Well Information
#_______________________________________________________________________________
#
#PARAMETER_NAME    .UNIT     VALUE                         : DESCRIPTION
#_______________________________________________________________________________
STRT               .M        2654.8                        : First reference value
STOP               .M        2761.6                        : Last reference value
STEP               .M        0.2000001                     : Step increment
NULL               .         -9999                         : Missing value
COMP               .                                       : Company
WELL               .         616                           : Well name
FLD                .                                       : Field
LOC                .                                       : Location
CNTY               .                                       : County
STAT               .                                       : State
CTRY               .                                       : Country
SRVC               .                                       : Service Company
DATE               .                                       : Date
API                .                                       : API number
PROJECT_UPGRADE_TIME .         2021-03-18T21_24_50           : 
group              .         Good                          : 
~Parameter Information Block
#_______________________________________________________________________________
#
#PARAMETER_NAME    .UNIT     VALUE                         : DESCRIPTION
#_______________________________________________________________________________
SET                .         D8107_D                       : 
OTHER              .         Программное обеспечение станции MONITOR-386EX 25/12/99 15_08_10   BGF V52 22/08/01 16_56_30   4_SNGF_BGF_N_011645: 
OTHER_10           .         Тарировки_                    : 
OTHER_11           .         TM.GRD = 0.00412*TM$.UE + -2.13: 
OTHER_12           .         MN.ATM = (5.87652e-006*TM.GRD + 0.01993)*(MN$.UE + -2.72*TM.GRD + -1925): 
OTHER_13           .         GK.MKR/H = GK$.UE / 57.4657   : 
OTHER_2            .         Kedr.exe версия 3.4.2.51      : 
OTHER_3            .         KedrData.dll версия 3.4.2.24  : 
OTHER_4            .         Драйвер версия 2.1.0.2        : 
OTHER_5            .         Мнемоники версия 3.3 S        : 
OTHER_6            .         Прибор_ АКП4-90               : 
OTHER_7            .         Номер прибора_ 53             : 
OTHER_8            .         Режим_ АКП4_90                : 
OTHER_9            .         Форма_ ПК-53ое                : 
PROJECT_UPGRADE_TIME .         2021-03-18T21_24_50           : 
TLFamily_DEPT      .         Measured Depth                : 
TLFamily_GK        .         Gamma Ray                     : 
TLFamily_GK$       .                                       : 
TLFamily_LM        .         Casing Collar locator         : 
TLFamily_METKA     .                                       : 
TLFamily_METKA_1   .                                       : 
TLFamily_MN        .                                       : 
TLFamily_MN$       .                                       : 
TLFamily_RCOR      .                                       : 
TLFamily_SPID      .         Spontaneous Potential         : 
TLFamily_TENS      .         Cable Tension                 : 
TLFamily_TIME      .         Time                          : 
TLFamily_TM        .         Temperature                   : 
TLFamily_TM$       .         Temperature                   : 
group              .         prim                          : 
~Curve Information
#_______________________________________________________________________________
#
#LOGNAME           .UNIT     LOG_ID                        : DESCRIPTION
#_______________________________________________________________________________
DEPT               .M                                      : 1 Глубина, м -    0.0 см 
GK                 .MKR/H                                  : 13 Гамма-активность, мкр./ч -   65.0 см 
GK$                .UE                                     : 10 Гамма-активность, усл.ед. -   65.0 см 
LM                 .                                       : 9 Локатор муфт,  -   30.0 см 
METKA              .                                       : 3 Метки,  -    0.0 см 
METKA_1            .                                       : 14 Маркеры - 65 см 
MN                 .ATM                                    : 12 Давление, атм. -  140.0 см 
MN$                .UE                                     : 8 Давление, усл.ед. -  140.0 см 
RCOR               .CM/KM                                  : 5 Коррекция по ролику, см/км -    0.0 см 
SPID               .M/H                                    : 2 Скорость, м/час -    0.0 см 
TENS               .T                                      : 6 Натяжение кабеля, т -    0.0 см 
TIME               .S                                      : 4 Время, сек -    0.0 см 
TM                 .GRD                                    : 11 Температура, °C -  145.0 см 
TM$                .UE                                     : 7 Температура, усл.ед. -  145.0 см 
~Ascii
# ...
2738       6.51       374        363        0          0          251.018    14520      -3         -622       1.03       15330.85   49.775     12598     
2738.2     6.52       374        734        0          0          251.098    14524      -3         -616       1.03       15329.72   49.869     12621     
2738.4     6.66       383        493        0          0          251.098    14524      -3         -622       1.03       15328.54   49.971     12646     
2738.6     6.79       390        149        0          0          251.058    14522      -3         -616       1.03       15327.4    50.079     12672     
2738.8     6.83       392        262        0          0          251.158    14527      -3         -621       1.03       15326.23   50.199     12701     
2739       6.86       394        289        0          0          251.158    14527      -3         -629       1.03       15325.08   50.285     12722     
2739.2     6.91       397        259        0          0          251.138    14526      -3         -625       1.03       15323.93   50.41      12752     
2739.4     7.09       407        695        0          0          251.198    14529      -3         -621       1.03       15322.81   50.545     12785     
2739.6     7.14       410        525        0          0          251.198    14529      -3         -620       1.03       15321.65   50.742     12833     
2739.8     7.66       440        714        2          0          251.238    14531      -1         -631       1.04       15320.4    50.934     12880     
2740       7.65       440        625        0          0          251.254    14532      0          -630       1.03       15319.2    51.049     12907     
2740.2     7.6        437        293        0          0          251.263    14532      0          -626       1.03       15318.06   51.204     12945     
2740.4     7.6        437        276        0          0          251.317    14535      0          -627       1.03       15316.92   51.319     12973     
2740.6     7.39       425        313        0          0          251.311    14535      0          -629       1.03       15315.79   51.377     12987     
2740.8     7.34       422        591        0          0          251.289    14534      0          -626       1.03       15314.6    51.504     13018     
2741       6.58       378        478        0          0          251.337    14536      0          -621       1.03       15313.47   51.658     13055     
2741.2     6.58       378        96         0          0          251.357    14537      0          -628       1.03       15312.33   51.766     13081     
2741.4     6.72       386        297        0          0          251.394    14539      0          -624       1.03       15311.14   51.962     13129     
2741.6     6.84       393        692        0          0          251.42     14540      0          -632       1.03       15310.06   52.098     13162     
2741.8     6.86       394        223        0          0          251.417    14540      0          -629       1.03       15308.87   52.268     13203     
2742       6.95       400        571        0          0          251.434    14541      0          -626       1.03       15307.73   52.423     13241     
2742.2     6.85       394        572        0          0          251.457    14542      0          -628       1.03       15306.59   52.666     13300     
2742.4     6.42       369        98         0          0          251.457    14542      0          -637       1.03       15305.42   52.956     13370     
2742.6     6.46       371        276        0          0          251.437    14541      0          -637       1.03       15304.33   53.101     13406     
2742.8     6.91       397        685        0          0          251.468    14543      0          -635       1.03       15303.19   53.235     13438     
2743       6.92       398        839        0          0          251.437    14541      0          -634       1.03       15302.02   53.422     13483     
2743.2     7.01       403        216        0          0          251.477    14543      0          -631       1.03       15300.93   53.684     13547     
2743.4     7.01       403        251        0          0          251.497    14544      0          -628       1.01       15299.79   54.072     13641     
2743.6     7          402        637        0          0          251.537    14546      0          -638       1.03       15298.65   54.402     13721     
2743.8     7          402        1188       0          0          251.596    14549      0          -637       1.03       15297.53   54.594     13768     
2744       7.02       403        581        0          0          251.593    14549      0          -636       1.03       15296.38   54.839     13828     
2744.2     7.08       407        377        0          0          251.62     14550      0          -634       1.03       15295.25   55.003     13867     
2744.4     7.09       407        1313       0          0          251.676    14553      0          -633       1.03       15294.12   55.149     13903     
2744.6     7.1        408        530        0          0          251.656    14552      0          -637       1.03       15292.98   55.361     13954     
2744.8     7.06       406        85         0          0          251.716    14555      0          -636       1.03       15291.85   55.502     13988     
2745       6.66       383        187        0          0          251.713    14555      0          -635       1.03       15290.71   55.751     14049     
2745.2     6.59       379        358        0          0          251.716    14555      0          -633       1.03       15289.58   56.057     14123     
2745.4     5.85       336        452        0          0          251.739    14556      0          -631       1.03       15288.48   56.225     14164     
2745.6     5.85       336        185        0          0          251.792    14559      0          -635       1.03       15287.29   56.445     14217     
2745.8     5.95       342        505        0          0          251.776    14558      0          -633       1.01       15286.15   56.612     14258     
2746       6.02       346        1654       0          0          251.819    14560      0          -631       1.01       15285.1    56.737     14288     
2746.2     6.1        351        1376       0          0          251.833    14561      0          -627       1.01       15283.97   56.877     14322     
2746.4     6.4        368        87         0          0          251.818    14560      0          -638       1.01       15282.82   56.989     14349     
2746.6     6.28       361        285        0          0          251.875    14563      0          -637       1.01       15281.69   57.146     14387     
2746.8     5.76       331        892        0          0          251.855    14562      0          -636       1.01       15280.54   57.421     14454     
2747       5.72       328        513        0          0          251.898    14564      0          -635       1.01       15279.4    57.567     14490     
2747.2     5.04       290        346        0          0          251.915    14565      0          -633       1.01       15278.31   57.735     14530     
2747.4     5.02       288        489        0          0          251.915    14565      0          -631       1.01       15277.17   57.948     14582     
2747.6     4.54       261        797        0          0          251.955    14567      0          -628       1.01       15276.02   58.07      14612     
2747.8     4.55       262        998        0          0          251.992    14569      0          -634       1.01       15274.94   58.21      14646     
2748       4.79       275        188        0          0          251.972    14568      0          -636       1.02       15273.76   58.336     14676     
2748.2     5.22       300        629        0          0          251.995    14569      0          -634       1.01       15272.64   58.445     14703     
