~Version
 VERS              .         2.0                           : CWLS LOG ASCII STANDARD - VERSION 2.0
 WRAP              .         NO                            : ONE LINE PER DEPTH STEP
 DLM               .         SPACE                         : DELIMITING CHARACTER(SPACE TAB OR COMMA)
~Well Information
#_______________________________________________________________________________
#
#PARAMETER_NAME    .UNIT     VALUE                         : DESCRIPTION
#_______________________________________________________________________________
STRT               .M        2650.6                        : First reference value
STOP               .M        2759.999891                   : Last reference value
STEP               .M        0.1999998                     : Step increment
NULL               .         -9999                         : Missing value
COMP               .                                       : Company
WELL               .         616                           : Well name
FLD                .                                       : Field
LOC                .                                       : Location
CNTY               .                                       : County
STAT               .                                       : State
CTRY               .                                       : Country
SRVC               .                                       : Service Company
DATE               .                                       : Date
API                .                                       : API number
PROJECT_UPGRADE_TIME .         2021-03-18T21_24_50           : 
group              .         Good                          : 
~Parameter Information Block
#_______________________________________________________________________________
#
#PARAMETER_NAME    .UNIT     VALUE                         : DESCRIPTION
#_______________________________________________________________________________
SET                .         D4417_D                       : 
OTHER              .         Запись производится в присутствии: 
OTHER_10           .         Максимальная температура      : 
OTHER_11           .         Тип промывочной жидкости      : 
OTHER_12           .         Сопротивление ПЖ (Ом*м) при 20°C: 
OTHER_13           .         Плотность ПЖ(г/см3)           : 
OTHER_14           .         Вязкость ПЖ(с)                : 
OTHER_15           .         Водоотдача ПЖ(см3/30мин)      : 
OTHER_16           .         Уровень ПЖ                    : 
OTHER_17           .         Нефть ПЖ (%)                  : 
OTHER_18           .         Барит ПЖ (%)                  : 
OTHER_19           .         Гематит ПЖ (%)                : 
OTHER_2            .         Заказчик ННСН  ЦДНГ-1         : 
OTHER_20           .         КМЦ ПЖ (%)                    : 
OTHER_21           .         Разгазирование ПЖ (да,нет)    : 
OTHER_22           .         Подъемник                     : 
OTHER_23           .         Лаборатория                   : 
OTHER_24           .         Тип кабеля                    : 
OTHER_25           .         Длина кабеля (м)              : 
OTHER_26           .         Цена последней метки          : 
OTHER_27           .         Цена контрольной метки        : 
OTHER_28           .         Диаметр долота (мм)           : 
OTHER_29           .         Глубина бурения (м)           : 
OTHER_3            .         Площадь                       : 
OTHER_30           .         Искусственный забой (м)       : 
OTHER_31           .         Диаметр колонны (мм)          : 
OTHER_32           .         Толщина колонны (мм)          : 
OTHER_33           .         Башмак колонны (м)            : 
OTHER_34           .         Диаметр НКТ (мм)              : 
OTHER_35           .         Толщина НКТ (мм)              : 
OTHER_36           .         Воронка НКТ (м)               : 
OTHER_37           .         Дата цементожа                : 
OTHER_38           .         Тип, количество(т) и плотность цемента: 
OTHER_39           .         Интервалы перфорации (м)      : 
OTHER_4            .         Категория                     : 
OTHER_40           .         Направление, диаметр (мм)     : 
OTHER_41           .         Направление, глубина (м)      : 
OTHER_42           .         Кондуктор, диаметр (мм)       : 
OTHER_43           .         Кондуктор, глубина (м)        : 
OTHER_44           .         Техническая колонна, диаметр (мм): 
OTHER_45           .         Техническая колонна, глубина (м): 
OTHER_46           .         Эксплуатационная колонна, диаметр (мм): 
OTHER_47           .         Эксплуатационная колонна, глубина (м): 
OTHER_48           .         Программа Кедр-02 версия 3.4  : 
OTHER_49           .         Операционная система Windows NT 5.1 build 2600 Service Pack 2: 
OTHER_5            .         Назначение исследований       : 
OTHER_50           .         Программное обеспечение станции MONITOR-386EX 25/12/99 15_08_10   BGF V54 20/09/05 15_32_17   3.3__BGF_9030071: 
OTHER_51           .         Kedr.exe версия 3.4.2.74      : 
OTHER_52           .         KedrData.dll версия 3.4.2.29  : 
OTHER_53           .         Мнемоники версия 3.18 S       : 
OTHER_54           .         Драйвер версия 2.1.1.4        : 
OTHER_55           .         LasInf.dll 4.3.0.35           : 
OTHER_56           .         Прибор_ КСА-Т4                : 
OTHER_57           .         Номер прибора_ 160            : 
OTHER_58           .         Режим_ КСА-Т4                 : 
OTHER_59           .         Форма_ С.А.Б.                 : 
OTHER_6            .         Альтитуда стола ротора        : 
OTHER_60           .         Тарировки_                    : 
OTHER_61           .         <_techsia_sc_> Дата тарировки температуры 25.05.2010: 
OTHER_62           .         Ручной ввод коэффициентов     : 
OTHER_63           .         TM.DEGC = 0.00402*RTM.E.ACP + -0.994: 
OTHER_64           .         <_techsia_sc_> Дата тарировки давления 25.05.2010: 
OTHER_65           .         Ручной ввод коэффициентов     : 
OTHER_66           .         MN.ATM = (2.27521e-006*TM.DEGC + 0.02078)*(RMN.E.ACP + 6.2*TM.DEGC + -1688): 
OTHER_67           .         <_techsia_sc_> Дата тарировки ГК 25.05.2010: 
OTHER_68           .         Ручной ввод коэффициентов     : 
OTHER_69           .         GR.UR/H = RGR.IMP/MIN / 45.5144: 
OTHER_7            .         Вид исследований 3  6         : 
OTHER_70           .         GK.FLT = 0.1*GR.UR/H[-1] + (1-0.1)*GR.UR/H[0]: 
OTHER_8            .         Начало бурения интервала каротажа: 
OTHER_9            .         Окончание бурения интервала каротажа: 
PROJECT_UPGRADE_TIME .         2021-03-18T21_24_50           : 
TLFamily_CCLC      .                                       : 
TLFamily_DEPT      .         Measured Depth                : 
TLFamily_GK        .         Gamma Ray                     : 
TLFamily_GR        .         Gamma Ray                     : 
TLFamily_METKA     .                                       : 
TLFamily_MN        .                                       : 
TLFamily_RCOR      .                                       : 
TLFamily_RGR       .                                       : 
TLFamily_RMN       .                                       : 
TLFamily_RTEN      .                                       : 
TLFamily_RTM       .                                       : 
TLFamily_SPEE      .         Cable Speed                   : 
TLFamily_TIME      .         Time                          : 
TLFamily_TM        .         Temperature                   : 
group              .         prim                          : 
~Curve Information
#_______________________________________________________________________________
#
#LOGNAME           .UNIT     LOG_ID                        : DESCRIPTION
#_______________________________________________________________________________
DEPT               .M                                      : 1 Глубина, м -    0.0 см 
CCLC               .E.ACP                                  : 9 Локатор муфт,  -   20.0 см 
GK                 .FLT                                    : 14 Гамма-активность фильтрованная, мкр./ч -  110.0 см 
GR                 .UR/H                                   : 13 Гамма-активность, мкр./ч -  110.0 см 
METKA              .CU                                     : 3 Метки,  -    0.0 см 
MN                 .ATM                                    : 12 Давление, атм. -  160.0 см 
RCOR               .CM/KM                                  : 5 Коррекция по ролику, см/км -    0.0 см 
RGR                .IMP/MIN                                : 10 Гамма-активность, усл.ед. -  110.0 см 
RMN                .E.ACP                                  : 8 Давление, усл.ед. -  160.0 см 
RTEN               .T                                      : 6 Натяжение кабеля, т -    0.0 см 
RTM                .E.ACP                                  : 7 Температура, усл.ед. -  170.0 см 
SPEE               .M/H                                    : 2 Скорость, м/час -    0.0 см 
TIME               .S                                      : 4 Время, сек -    0.0 см 
TM                 .DEGC                                   : 11 Температура, °C -  170.0 см 
~Ascii
# ...
2702.599948 91         10.35      10.35      0          243.21     -1088      471        12924      0.25       15832      502        360.99     62.649    
2702.799948 86         10.35      10.35      0          243.222    -1088      471        12925      0.25       15823      502        362.45     62.615    
2702.999948 89         10.17      10.17      0          243.236    -1088      463        12926      0.25       15806      501        363.86     62.546    
2703.199947 3859       10.17      10.17      0          243.25     -1088      463        12927      0.25       15798      501        365.31     62.512    
2703.399947 2585       9.12       9.12       0          243.265    -1088      415        12928      0.25       15787      501        366.75     62.469    
2703.599947 496        9.12       9.12       0          243.286    -1088      415        12930      0.25       15775      501        368.19     62.422    
2703.799947 208        9.89       9.89       0          243.29     -1088      450        12930      0.25       15756      501        369.69     62.345    
2703.999947 140        10.05      10.05      0          243.295    -1088      457        12931      0.25       15739      500        371.13     62.277    
2704.199946 76         10.15      10.15      0          243.323    -1088      462        12933      0.25       15720      500        372.57     62.2      
2704.399946 107        9.45       9.45       0          243.34     -1088      430        12934      0.25       15707      499        374.01     62.146    
2704.599946 84         9.45       9.45       0          243.341    -1088      430        12934      0.25       15695      500        375.52     62.101    
2704.799946 80         9.8        9.8        0          243.367    -1088      446        12936      0.25       15683      501        376.95     62.053    
2704.999946 75         9.8        9.8        0          243.381    -1088      446        12937      0.25       15673      502        378.34     62.013    
2705.199945 105        9.78       9.78       0          243.394    -1088      445        12938      0.25       15661      503        379.75     61.963    
2705.399945 130        10.17      10.17      0          243.409    -1088      463        12939      0.25       15649      503        381.2      61.916    
2705.599945 138        10.94      10.94      0          243.423    -1088      498        12940      0.25       15641      502        382.7      61.881    
2705.799945 202        11.64      11.64      0          243.436    -1088      530        12941      0.25       15628      503        384.14     61.833    
2705.999945 128        11.64      11.64      2          243.448    -1088      530        12942      0.25       15614      502        385.58     61.773    
2706.199944 85         10.52      10.52      0          243.46     -1091      479        12943      0.25       15600      499        387.22     61.718    
2706.399944 139        10.49      10.49      0          243.472    -1091      477        12944      0.25       15586      502        388.67     61.662    
2706.599944 104        10.44      10.44      0          243.488    -1091      475        12945      0.25       15574      503        390.11     61.615    
2706.799944 50         11.42      11.42      0          243.502    -1091      520        12946      0.25       15564      502        391.55     61.574    
2706.999944 79         11.42      11.42      0          243.537    -1091      520        12948      0.25       15555      502        392.98     61.539    
2707.199943 58         11.25      11.25      0          243.53     -1091      512        12948      0.25       15539      498        394.49     61.473    
2707.399943 63         11.25      11.25      0          243.561    -1091      512        12950      0.25       15526      494        396.01     61.42     
2707.599943 67         11.29      11.29      0          243.553    -1091      514        12950      0.25       15515      492        397.44     61.375    
2707.799943 66         11.48      11.48      0          243.584    -1091      523        12952      0.25       15497      493        398.87     61.306    
2707.999943 58         11.58      11.58      0          243.6      -1091      527        12953      0.25       15486      494        400.31     61.26     
2708.199942 98         10.61      10.61      0          243.612    -1091      483        12954      0.25       15475      493        401.91     61.215    
2708.399942 66         10.61      10.61      0          243.635    -1091      483        12956      0.25       15460      493        403.35     61.156    
2708.599942 80         10.57      10.57      0          243.631    -1091      481        12956      0.25       15441      492        404.77     61.079    
2708.799942 107        10.69      10.69      0          243.643    -1091      487        12957      0.25       15424      491        406.25     61.009    
2708.999942 79         11.18      11.18      0          243.678    -1091      509        12959      0.25       15412      493        407.73     60.963    
2709.199941 97         11.12      11.12      1          243.677    -1091      506        12959      0.25       15403      493        409.24     60.924    
2709.399941 86         11.12      11.12      0          243.71     -1091      506        12961      0.25       15395      493        410.67     60.893    
2709.599941 48         10.66      10.66      0          243.718    -1091      485        12962      0.25       15381      492        412.11     60.838    
2709.799941 84         10.66      10.66      0          243.729    -1091      485        12963      0.25       15363      492        413.56     60.764    
2709.999941 45         10.41      10.41      0          243.758    -1091      474        12965      0.25       15348      492        415.12     60.704    
2710.19994 67         10.77      10.77      0          243.776    -1091      490        12966      0.25       15336      492        416.57     60.655    
2710.39994 150        10.77      10.77      0          243.779    -1091      490        12967      0.25       15323      491        418.01     60.604    
2710.59994 90         11.05      11.05      0          243.799    -1091      503        12968      0.25       15310      492        419.52     60.552    
2710.79994 84         11.05      11.05      0          243.814    -1091      503        12969      0.25       15294      491        420.95     60.489    
2710.99994 49         11.84      11.84      0          243.827    -1091      539        12970      0.25       15284      490        422.5      60.449    
2711.199939 75         11.84      11.84      0          243.841    -1091      539        12971      0.25       15272      490        423.98     60.399    
2711.399939 80         11.84      11.84      0          243.854    -1091      539        12972      0.25       15260      490        425.42     60.351    
2711.599939 58         10.72      10.72      0          243.866    -1091      488        12973      0.25       15248      491        426.84     60.305    
2711.799939 77         10.72      10.72      0          243.895    -1091      488        12975      0.25       15230      490        428.43     60.231    
2711.999939 88         10.19      10.19      0          243.908    -1091      464        12976      0.25       15212      489        429.87     60.157    
2712.199938 91         9.82       9.82       0          243.937    -1091      447        12978      0.25       15197      490        431.33     60.098    
2712.399938 65         9.27       9.27       0          243.928    -1091      422        12978      0.25       15179      490        432.83     60.025    
2712.599938 87         11.97      11.97      0          243.962    -1091      545        12980      0.25       15166      490        434.26     59.972    
2712.799938 127        11.97      11.97      0          243.996    -1091      545        12982      0.25       15155      490        435.85     59.931    
