~Version
 VERS              .         2.0                           : CWLS LOG ASCII STANDARD - VERSION 2.0
 WRAP              .         NO                            : ONE LINE PER DEPTH STEP
 DLM               .         SPACE                         : DELIMITING CHARACTER(SPACE TAB OR COMMA)
~Well Information
#_______________________________________________________________________________
#
#PARAMETER_NAME    .UNIT     VALUE                         : DESCRIPTION
#_______________________________________________________________________________
STRT               .M        2654.8                        : First reference value
STOP               .M        2761.6                        : Last reference value
STEP               .M        0.2000001                     : Step increment
NULL               .         -9999                         : Missing value
COMP               .                                       : Company
WELL               .         616                           : Well name
FLD                .                                       : Field
LOC                .                                       : Location
CNTY               .                                       : County
STAT               .                                       : State
CTRY               .                                       : Country
SRVC               .                                       : Service Company
DATE               .                                       : Date
API                .                                       : API number
PROJECT_UPGRADE_TIME .         2021-03-18T21_24_50           : 
group              .         Good                          : 
~Parameter Information Block
#_______________________________________________________________________________
#
#PARAMETER_NAME    .UNIT     VALUE                         : DESCRIPTION
#_______________________________________________________________________________
SET                .         D8107_D                       : 
OTHER              .         Программное обеспечение станции MONITOR-386EX 25/12/99 15_08_10   BGF V52 22/08/01 16_56_30   4_SNGF_BGF_N_011645: 
OTHER_10           .         Тарировки_                    : 
OTHER_11           .         TM.GRD = 0.00412*TM$.UE + -2.13: 
OTHER_12           .         MN.ATM = (5.87652e-006*TM.GRD + 0.01993)*(MN$.UE + -2.72*TM.GRD + -1925): 
OTHER_13           .         GK.MKR/H = GK$.UE / 57.4657   : 
OTHER_2            .         Kedr.exe версия 3.4.2.51      : 
OTHER_3            .         KedrData.dll версия 3.4.2.24  : 
OTHER_4            .         Драйвер версия 2.1.0.2        : 
OTHER_5            .         Мнемоники версия 3.3 S        : 
OTHER_6            .         Прибор_ АКП4-90               : 
OTHER_7            .         Номер прибора_ 53             : 
OTHER_8            .         Режим_ АКП4_90                : 
OTHER_9            .         Форма_ ПК-53ое                : 
PROJECT_UPGRADE_TIME .         2021-03-18T21_24_50           : 
TLFamily_DEPT      .         Measured Depth                : 
TLFamily_GK        .         Gamma Ray                     : 
TLFamily_GK$       .                                       : 
TLFamily_LM        .         Casing Collar locator         : 
TLFamily_METKA     .                                       : 
TLFamily_METKA_1   .                                       : 
TLFamily_MN        .                                       : 
TLFamily_MN$       .                                       : 
TLFamily_RCOR      .                                       : 
TLFamily_SPID      .         Spontaneous Potential         : 
TLFamily_TENS      .         Cable Tension                 : 
TLFamily_TIME      .         Time                          : 
TLFamily_TM        .         Temperature                   : 
TLFamily_TM$       .         Temperature                   : 
group              .         prim                          : 
~Curve Information
#_______________________________________________________________________________
#
#LOGNAME           .UNIT     LOG_ID                        : DESCRIPTION
#_______________________________________________________________________________
DEPT               .M                                      : 1 Глубина, м -    0.0 см 
GK                 .MKR/H                                  : 13 Гамма-активность, мкр./ч -   65.0 см 
GK$                .UE                                     : 10 Гамма-активность, усл.ед. -   65.0 см 
LM                 .                                       : 9 Локатор муфт,  -   30.0 см 
METKA              .                                       : 3 Метки,  -    0.0 см 
METKA_1            .                                       : 14 Маркеры - 65 см 
MN                 .ATM                                    : 12 Давление, атм. -  140.0 см 
MN$                .UE                                     : 8 Давление, усл.ед. -  140.0 см 
RCOR               .CM/KM                                  : 5 Коррекция по ролику, см/км -    0.0 см 
SPID               .M/H                                    : 2 Скорость, м/час -    0.0 см 
TENS               .T                                      : 6 Натяжение кабеля, т -    0.0 см 
TIME               .S                                      : 4 Время, сек -    0.0 см 
TM                 .GRD                                    : 11 Температура, °C -  145.0 см 
TM$                .UE                                     : 7 Температура, усл.ед. -  145.0 см 
~Ascii
# ...
2717.2     4.82       277        229        0          0          249.115    14425      -9         -630       1.05       15450.85   44.523     11324     
2717.4     4.85       278        772        0          0          249.165    14427      -9         -626       1.05       15449.72   44.497     11317     
2717.6     5.44       313        793        0          0          249.145    14426      -9         -628       1.05       15448.59   44.464     11309     
2717.8     6.2        356        685        0          0          249.198    14429      -9         -630       1.05       15447.46   44.444     11304     
2718       6.58       378        2444       0          0          249.21     14429      -9         -626       1.05       15446.28   44.416     11298     
2718.2     7.03       404        699        0          0          249.188    14428      -9         -627       1.05       15445.08   44.393     11292     
2718.4     6.95       400        326        0          0          249.262    14432      -9         -622       1.05       15443.96   44.379     11289     
2718.6     6.7        385        306        0          1          249.245    14431      -9         -623       1.04       15442.83   44.346     11281     
2718.8     6.61       380        47         0          0          249.265    14432      -9         -615       1.05       15441.62   44.335     11278     
2719       5.72       329        116        0          0          249.284    14433      -9         -610       1.05       15440.49   44.326     11276     
2719.2     5.59       321        164        0          0          249.301    14434      -9         -614       1.03       15439.36   44.299     11269     
2719.4     4.4        253        140        0          0          249.291    14433      -9         -616       1.03       15438.23   44.298     11269     
2719.6     4.4        253        457        0          0          249.331    14435      -9         -611       1.05       15437.05   44.288     11267     
2719.8     4.34       249        545        2          0          249.318    14435      -9         -624       1.05       15435.88   44.282     11265     
2720       4.34       249        716        0          0          249.371    14437      -6         -626       1.05       15434.55   44.282     11265     
2720.2     4.4        253        1226       0          1          249.404    14439      -6         -621       1.05       15433.4    44.274     11263     
2720.4     4.51       259        173        0          0          249.364    14437      -6         -624       1.05       15432.28   44.269     11262     
2720.6     4.49       258        183        0          0          249.447    14441      -6         -622       1.05       15431.12   44.27      11262     
2720.8     4.49       258        375        0          0          249.444    14441      -6         -623       1.03       15430      44.258     11259     
2721       4.59       264        673        0          0          249.438    14441      -6         -617       1.05       15428.78   44.274     11263     
2721.2     4.84       278        985        0          0          249.521    14445      -6         -620       1.05       15427.66   44.299     11269     
2721.4     4.82       277        2370       0          0          249.504    14444      -6         -627       1.05       15426.48   44.342     11280     
2721.6     4.66       268        613        0          0          249.532    14445      -6         -624       1.05       15425.36   44.381     11289     
2721.8     4.6        264        262        0          0          249.529    14445      -6         -631       1.05       15424.22   44.397     11293     
2722       4.19       241        85         0          1          249.563    14447      -6         -628       1.05       15423.05   44.435     11302     
2722.2     4.21       242        348        0          0          249.593    14449      -6         -624       1.05       15421.96   44.516     11322     
2722.4     4.61       265        278        0          0          249.643    14451      -6         -626       1.05       15420.79   44.591     11340     
2722.6     4.62       265        183        0          0          249.603    14449      -6         -628       1.05       15419.6    44.636     11351     
2722.8     4.8        276        563        0          0          249.663    14452      -6         -624       1.05       15418.48   44.69      11364     
2723       4.97       286        883        0          0          249.666    14452      -6         -625       1.05       15417.29   44.698     11366     
2723.2     5.24       301        294        0          0          249.683    14453      -6         -627       1.05       15416.12   44.762     11382     
2723.4     5.45       313        856        0          0          249.723    14455      -6         -622       1.05       15415      44.798     11390     
2723.6     5.42       312        389        0          0          249.723    14455      -6         -624       1.05       15413.84   44.813     11394     
2723.8     5.36       308        585        0          0          249.763    14457      -6         -617       1.05       15412.72   44.865     11406     
2724       5.37       308        635        0          0          249.786    14458      -6         -620       1.05       15411.56   44.908     11417     
2724.2     5.43       312        327        0          0          249.763    14457      -6         -627       1.03       15410.38   44.926     11421     
2724.4     5.48       315        468        0          0          249.816    14460      -6         -625       1.05       15409.21   44.955     11429     
2724.6     5.85       336        725        0          0          249.842    14461      -6         -619       1.03       15408.09   44.951     11427     
2724.8     5.83       335        549        0          0          249.823    14460      -6         -619       1.03       15406.89   44.993     11438     
2725       5.43       312        576        0          0          249.882    14463      -6         -626       1.03       15405.77   45.033     11447     
2725.2     5.4        310        663        0          0          249.872    14462      -6         -620       1.05       15404.64   45.046     11451     
2725.4     4.89       281        171        0          0          249.874    14463      -6         -627       1.05       15403.46   45.103     11464     
2725.6     4.88       280        394        0          0          249.936    14466      -6         -623       1.03       15402.33   45.151     11476     
2725.8     4.65       267        532        0          0          249.922    14465      -6         -624       1.03       15401.2    45.168     11480     
2726       4.45       256        1847       0          0          249.955    14467      -6         -618       1.05       15400.02   45.213     11491     
2726.2     4.45       256        6597       0          0          249.962    14467      -6         -624       1.03       15398.9    45.246     11499     
2726.4     4.43       254        22812      0          0          249.962    14467      -6         -626       1.03       15397.7    45.267     11504     
2726.6     4.58       263        2345       0          0          249.962    14467      -6         -621       1.04       15396.57   45.333     11520     
2726.8     5.01       288        2224       0          0          249.962    14467      -6         -623       1.05       15395.42   45.374     11530     
2727       5.04       289        112        0          0          249.962    14467      -6         -629       1.04       15394.24   45.426     11543     
2727.2     5.29       304        289        0          0          250.065    14472      -6         -625       1.03       15393.11   45.465     11552     
2727.4     5.3        305        257        0          0          250.082    14473      -6         -620       1.03       15391.98   45.498     11560     
