~Version
 VERS              .         2.0                           : CWLS LOG ASCII STANDARD - VERSION 2.0
 WRAP              .         NO                            : ONE LINE PER DEPTH STEP
 DLM               .         SPACE                         : DELIMITING CHARACTER(SPACE TAB OR COMMA)
~Well Information
#_______________________________________________________________________________
#
#PARAMETER_NAME    .UNIT     VALUE                         : DESCRIPTION
#_______________________________________________________________________________
STRT               .M        2689.5                        : First reference value
STOP               .M        2741.9                        : Last reference value
STEP               .M        0.09999981                    : Step increment
NULL               .         -9999                         : Missing value
COMP               .                                       : Company
WELL               .         616                           : Well name
FLD                .                                       : Field
LOC                .                                       : Location
CNTY               .                                       : County
STAT               .                                       : State
CTRY               .                                       : Country
SRVC               .                                       : Service Company
DATE               .                                       : Date
API                .                                       : API number
PROJECT_UPGRADE_TIME .         2021-03-18T21_24_50           : 
group              .         Good                          : 
~Parameter Information Block
#_______________________________________________________________________________
#
#PARAMETER_NAME    .UNIT     VALUE                         : DESCRIPTION
#_______________________________________________________________________________
SET                .         D7030_D                       : 
OTHER              .         Kedr.exe версия 2.1.2.32      : 
OTHER_10           .         RGD. = 0.647457 * RGD. + 2.35279: 
OTHER_2            .         KedrData.dll версия 3.2.2.14  : 
OTHER_3            .         LasInf.dll версия 3.2.0.13    : 
OTHER_4            .         Драйвер версия 1.2.0.6        : 
OTHER_5            .         Прибор_ Расходомер            : 
OTHER_6            .         Номер прибора_ 963            : 
OTHER_7            .         Режим_ Расходомер             : 
OTHER_8            .         Форма_ Саня                   : 
OTHER_9            .         Тарировки_                    : 
PROJECT_UPGRADE_TIME .         2021-03-18T21_24_50           : 
TLFamily_DEPT      .         Measured Depth                : 
TLFamily_METKA     .                                       : 
TLFamily_RCOR      .                                       : 
TLFamily_RGD       .                                       : 
TLFamily_RGD_2     .                                       : 
TLFamily_SPID      .         Spontaneous Potential         : 
TLFamily_TIME      .         Time                          : 
group              .         prim                          : 
~Curve Information
#_______________________________________________________________________________
#
#LOGNAME           .UNIT     LOG_ID                        : DESCRIPTION
#_______________________________________________________________________________
DEPT               .M                                      : 1 Глубина, м -    0.0 см 
METKA              .                                       : 3 Метки,  -    0.0 см 
RCOR               .CM/KM                                  : 5 Коррекция по ролику, см/км -    0.0 см 
RGD                .                                       : 6 Расход, усл.ед. -   49.0 см 
RGD_2              .                                       : 7 Расход, м3/сут -   49.0 см 
SPID               .M/H                                    : 2 Скорость, м/час -    0.0 см 
TIME               .S                                      : 4 Время, сек -    0.0 см 
~Ascii
# ...
2720.7     0          0          45         31.76      -190       43421.13  
2720.8     0          0          29         21.43      -190       43419.25  
2720.9     0          0          22         16.79      -130       43417.25  
2721       0          0          39         27.63      -190       43415.25  
2721.1     0          0          27         19.73      -190       43413.24  
2721.2     0          0          19         14.85      -190       43411.13  
2721.3     0          0          12         9.95       -190       43409.24  
2721.4     0          0          27         19.99      -190       43407.13  
2721.5     0          0          18         13.93      -190       43405     
2721.6     0          0          26         19.51      -190       43403.12  
2721.7     0          0          34         24.53      -190       43401.25  
2721.8     0          0          14         11.34      -190       43399.25  
2721.9     0          0          19         14.56      -190       43397.24  
2722       0          0          22         16.84      -190       43395.24  
2722.1     0          0          14         11.51      -190       43393.23  
2722.2     0          0          19         14.96      -190       43391.25  
2722.3     0          0          20         15.37      -190       43389.25  
2722.4     0          0          15         12.12      -190       43387.25  
2722.5     0          0          35         25.03      -130       43385.25  
2722.6     0          0          31         22.43      -190       43383.24  
2722.7     0          0          12         10.41      -190       43381.24  
2722.8     0          0          29         21.04      -190       43379.24  
2722.9     0          0          17         13.1       -190       43377.23  
2723       0          0          10         9.11       -190       43375.23  
2723.1     0          0          24         18.05      -190       43373.24  
2723.2     0          0          15         11.87      -190       43371.25  
2723.3     0          0          21         15.84      -190       43369.24  
2723.4     0          0          20         15.61      -190       43367.24  
2723.5     0          0          12         10.41      -190       43365.24  
2723.6     0          0          29         21.1       -190       43363.23  
2723.7     0          0          20         14.98      -190       43361.23  
2723.8     0          0          14         11.22      -190       43359.23  
2723.9     0          0          32         22.94      -190       43357.25  
2724       0          0          23         17.52      -130       43355.24  
2724.1     0          0          21         16.17      -190       43353.23  
2724.2     0          0          31         22.56      -190       43351.24  
2724.3     0          0          18         14.21      -190       43349.37  
2724.4     0          0          22         16.64      -190       43347.49  
2724.5     0          0          16         12.63      -190       43345.49  
2724.6     0          0          21         16.11      -130       43343.48  
2724.7     0          0          23         17.14      -190       43341.48  
2724.8     0          0          13         11.07      -190       43339.48  
2724.9     0          0          31         22.61      -190       43337.48  
2725       0          0          27         19.52      -190       43335.48  
2725.1     0          0          14         11.36      -189       43333.46  
2725.2     0          0          16         12.56      -190       43331.49  
2725.3     0          0          22         16.48      -190       43329.48  
2725.4     0          0          11         9.34       -190       43327.48  
2725.5     0          0          12         9.96       -190       43325.48  
2725.6     0          0          27         20.02      -190       43323.47  
2725.7     0          0          22         16.89      -130       43321.47  
2725.8     0          0          14         11.25      -190       43319.47  
2725.9     0          0          14         11.16      -190       43317.47  
2726       0          0          13         10.53      -190       43315.48  
2726.1     0          0          31         22.39      -190       43313.48  
2726.2     0          0          24         17.97      -190       43311.48  
2726.3     0          0          16         12.79      -190       43309.48  
2726.4     0          0          37         26.6       -130       43307.47  
2726.5     0          0          25         18.86      -130       43305.47  
2726.6     0          0          41         28.87      -190       43303.46  
2726.7     0          0          23         17.16      -190       43301.48  
2726.8     0          0          40         28.12      -190       43299.47  
2726.9     0          0          22         16.72      -190       43297.47  
2727       0          0          12         10.45      -130       43295.47  
2727.1     0          0          29         21.08      -190       43293.46  
2727.2     0          0          21         16.14      -190       43291.46  
2727.3     0          0          14         11.63      -190       43289.48  
2727.4     0          0          20         15.28      -190       43287.48  
2727.5     0          0          21         16.13      -130       43285.47  
2727.6     0          0          13         10.56      -190       43283.46  
2727.7     0          0          29         21.39      -130       43281.47  
2727.8     0          0          20         15.38      -190       43279.46  
2727.9     0          0          14         11.19      -190       43277.59  
2728       0          0          32         22.87      -130       43275.46  
2728.1     0          0          20         15.08      -190       43273.34  
2728.2     0          0          15         11.99      -190       43271.34  
2728.3     0          0          33         23.65      -190       43269.34  
2728.4     0          0          27         19.78      -190       43267.34  
2728.5     0          0          28         20.44      -190       43265.34  
2728.6     0          0          22         16.33      -159       43263.34  
2728.7     0          0          32         22.89      -190       43261.34  
2728.8     0          0          53         36.91      -190       43259.45  
2728.9     0          0          28         20.26      -190       43257.45  
2729       0          0          26         18.94      -190       43255.47  
2729.1     0          0          24         17.69      -190       43253.46  
2729.2     0          0          18         14.06      -190       43251.46  
2729.3     0          0          12         10.28      -190       43249.46  
2729.4     0          0          28         20.74      -190       43247.46  
2729.5     0          0          23         17.3       -190       43245.45  
2729.6     0          0          21         15.68      -190       43243.45  
2729.7     0          0          31         22.57      -190       43241.45  
2729.8     0          0          50         34.71      -130       43239.47  
2729.9     0          0          34         24.53      -190       43237.46  
2730       1          0          26         19.26      -190       43235.46  
2730.1     0          0          23         17.46      -190       43230.71  
2730.2     0          0          29         21.11      -130       43228.71  
2730.3     0          0          20         15.07      -190       43226.71  
2730.4     0          0          16         12.62      -190       43224.7   
2730.5     0          0          27         19.91      -130       43222.7   
2730.6     0          0          24         17.89      -190       43220.7   
2730.7     0          0          20         15.11      -190       43218.7   
2730.8     0          0          21         15.72      -190       43216.7   
2730.9     0          0          14         11.63      -130       43214.71  
2731       0          0          33         23.9       -190       43212.83  
