~Version
 VERS              .         2.0                           : CWLS LOG ASCII STANDARD - VERSION 2.0
 WRAP              .         NO                            : ONE LINE PER DEPTH STEP
 DLM               .         SPACE                         : DELIMITING CHARACTER(SPACE TAB OR COMMA)
~Well Information
#_______________________________________________________________________________
#
#PARAMETER_NAME    .UNIT     VALUE                         : DESCRIPTION
#_______________________________________________________________________________
STRT               .M        2659.6                        : First reference value
STOP               .M        2768.6                        : Last reference value
STEP               .M        0.2                           : Step increment
NULL               .         -9999                         : Missing value
COMP               .                                       : Company
WELL               .         616                           : Well name
FLD                .                                       : Field
LOC                .                                       : Location
CNTY               .                                       : County
STAT               .                                       : State
CTRY               .                                       : Country
SRVC               .                                       : Service Company
DATE               .                                       : Date
API                .                                       : API number
PROJECT_UPGRADE_TIME .         2021-03-18T21_24_50           : 
group              .         Good                          : 
~Parameter Information Block
#_______________________________________________________________________________
#
#PARAMETER_NAME    .UNIT     VALUE                         : DESCRIPTION
#_______________________________________________________________________________
SET                .         D1166_D                       : 
OTHER              .         Программное обеспечение станции MONITOR-386EX 25/12/99 15_08_10   BGF V52 22/08/01 16_56_30   3.2_BGF_N_3070031: 
OTHER_10           .         Тарировки_                    : 
OTHER_11           .         TM.GRD = 0.00403*TM$.UE + -1.19: 
OTHER_12           .         MN.ATM = (7.1e-006*TM.GRD + 0.02017)*(MN$.UE + -3.03*TM.GRD + -1833): 
OTHER_13           .         Id error                      : 
OTHER_2            .         Kedr.exe версия 3.4.2.51      : 
OTHER_3            .         KedrData.dll версия 3.4.2.24  : 
OTHER_4            .         Драйвер версия 2.1.1.8        : 
OTHER_5            .         Мнемоники версия 3.3 S        : 
OTHER_6            .         Прибор_ КСА-М1                : 
OTHER_7            .         Номер прибора_ 265            : 
OTHER_8            .         Режим_ КСА-М1                 : 
OTHER_9            .         Форма_ ТЕРМОМЕТР              : 
PROJECT_UPGRADE_TIME .         2021-03-18T21_24_49           : 
TLFamily_DEPT      .         Measured Depth                : 
TLFamily_GK        .         Gamma Ray                     : 
TLFamily_GK$       .                                       : 
TLFamily_LM        .         Casing Collar locator         : 
TLFamily_METKA     .                                       : 
TLFamily_MN        .                                       : 
TLFamily_MN$       .                                       : 
TLFamily_RCOR      .                                       : 
TLFamily_SPID      .         Spontaneous Potential         : 
TLFamily_STD       .                                       : 
TLFamily_TENS      .         Cable Tension                 : 
TLFamily_TIME      .         Time                          : 
TLFamily_TM        .         Temperature                   : 
TLFamily_TM$       .         Temperature                   : 
TLFamily_VGD       .         Gas Volume                    : 
group              .         prim                          : 
~Curve Information
#_______________________________________________________________________________
#
#LOGNAME           .UNIT     LOG_ID                        : DESCRIPTION
#_______________________________________________________________________________
DEPT               .M                                      : 1 Глубина, м -    0.0 см 
GK                 .MKR/H                                  : 15 Гамма-активность, мкр./ч -  110.0 см 
GK$                .UE                                     : 12 Гамма-активность, усл.ед. -  110.0 см 
LM                 .                                       : 10 Локатор муфт,  -   20.0 см 
METKA              .                                       : 3 Метки,  -    0.0 см 
MN                 .ATM                                    : 14 Давление, атм. -  160.0 см 
MN$                .UE                                     : 8 Давление, усл.ед. -  160.0 см 
RCOR               .CM/KM                                  : 5 Коррекция по ролику, см/км -    0.0 см 
SPID               .M/H                                    : 2 Скорость, м/час -    0.0 см 
STD                .                                       : 11 Приток,  -  170.0 см 
TENS               .T                                      : 6 Натяжение кабеля, т -    0.0 см 
TIME               .S                                      : 4 Время, сек -    0.0 см 
TM                 .GRD                                    : 13 Температура, °C -  180.0 см 
TM$                .UE                                     : 7 Температура, усл.ед. -  180.0 см 
VGD                .                                       : 9 Влагомер,  -  170.0 см 
~Ascii
# ...
2757.6     6.29       272        1          0          364.928    19642      -1400      601        32373      0          22481.1    90.4       22727      6542      
2757.8     6.35       273        1          0          365.351    19662      -1400      609        32373      0          22482.27   90.404     22728      6544      
2758       6.45       283        1          0          366.33     19709      -1400      607        32373      0          22483.48   90.404     22728      6544      
2758.2     7          311        1          0          364.84     19637      -1400      605        32373      0          22484.68   90.41      22730      6543      
2758.4     7.19       311        1          0          365.68     19678      -1400      608        32373      0          22485.81   90.409     22729      6544      
2758.6     7.68       341        1          0          366.73     19728      -1400      610        32373      0          22487.02   90.416     22731      6544      
2758.8     7.87       341        598        0          364.545    19623      -1400      608        32373      0          22488.23   90.426     22734      6543      
2759       7.36       303        953        0          365.524    19670      -1400      611        32372      0          22489.39   90.437     22736      6543      
2759.2     7.18       303        47         0          366.301    19707      -1400      609        32373      0          22490.55   90.468     22744      6544      
2759.4     6.71       272        1          0          364.873    19639      -1400      608        32373      0          22491.75   90.502     22752      6543      
2759.6     6.48       272        1          0          365.864    19686      -1400      603        32373      0          22492.95   90.541     22762      6544      
2759.8     6.54       286        1          0          366.043    19694      -1400      612        32373      0          22494.09   90.577     22771      6544      
2760       6.64       286        1          2          365.509    19669      -1400      609        32373      0          22495.28   90.614     22780      6545      
2760.2     6.77       295        1          0          364.96     19642      -1400      602        32373      0          22496.54   90.651     22789      6544      
2760.4     6.86       295        1          0          365.255    19656      -1400      602        32374      0          22497.73   90.718     22806      6545      
2760.6     7.02       312        1          0          366.804    19730      -1400      602        32374      0          22498.88   90.788     22823      6544      
2760.8     7.21       312        1          0          365.262    19656      -1400      604        32373      0          22500.08   90.878     22846      6544      
2761       7.29       315        1          0          365.935    19688      -1400      595        32372      0          22501.25   90.948     22863      6545      
2761.2     7.48       323        1          0          367.146    19746      -1400      602        32373      0          22502.41   91         22876      6546      
2761.4     7.66       340        1          0          365.145    19650      -1400      606        32373      0          22503.6    91.042     22886      6546      
2761.6     7.89       342        1          0          365.849    19684      -1400      602        32373      0          22504.79   91.065     22892      6546      
2761.8     7.97       343        1          0          366.474    19714      -1400      602        32373      0          22506      91.084     22897      6546      
2762       8.14       351        1          0          365.045    19645      -1400      607        32372      0          22507.14   91.106     22902      6545      
2762.2     8.18       351        1          0          365.616    19672      -1400      609        32372      0          22508.34   91.117     22905      6546      
2762.4     7.89       328        1          0          366.078    19695      -1400      598        32373      0          22509.54   91.125     22907      6547      
2762.6     7.74       328        1          0          365.459    19665      -1400      599        32373      0          22510.67   91.132     22909      6547      
2762.8     7.19       295        1          0          364.61     19624      -1400      605        32372      0          22511.86   91.139     22911      6547      
2763       7          295        1          0          365.106    19648      -1400      599        32373      0          22513.07   91.149     22913      6548      
2763.2     6.6        269        1          0          367.093    19743      -1400      600        32373      0          22514.27   91.152     22914      6548      
2763.4     6.39       269        1          0          365.693    19676      -1400      608        32372      0          22515.39   91.159     22916      6549      
2763.6     6.33       270        1          0          366.073    19694      -1400      610        32373      0          22516.55   91.166     22917      6549      
2763.8     6.32       270        1          0          367.382    19757      -1400      595        32373      0          22517.8    91.174     22919      6549      
2764       6.57       292        1          0          365.236    19654      -1400      600        32372      0          22518.99   91.179     22920      6549      
2764.2     6.74       292        1          0          366.363    19708      -1400      610        32373      0          22520.14   91.19      22923      6549      
2764.4     7.03       321        1          0          367.044    19741      -1400      602        32373      0          22521.35   91.194     22924      6549      
2764.6     7.34       321        1          0          364.281    19608      -1400      605        32372      0          22522.55   91.202     22926      6550      
2764.8     7.37       312        1          0          366.053    19693      -1400      602        32372      0          22523.68   91.21      22928      6549      
2765       7.32       312        1          0          365.932    19687      -1400      606        32372      0          22524.89   91.214     22929      6549      
2765.2     7.27       308        1          0          366.412    19710      -1400      601        32373      0          22526.08   91.219     22930      6550      
2765.4     7.18       305        1          0          365.403    19662      -1400      601        32373      0          22527.27   91.225     22932      6550      
2765.6     7.18       309        1          0          365.78     19680      -1400      606        32373      0          22528.4    91.233     22934      6550      
2765.8     7.68       339        1          0          367.714    19773      -1400      596        32373      0          22529.65   91.234     22934      6551      
2766       7.8        333        1          0          365.807    19681      -1400      596        32372      0          22530.86   91.242     22936      6551      
2766.2     7.61       322        1          0          366.367    19708      -1400      596        32372      0          22531.97   91.246     22937      6551      
2766.4     7.56       322        1          0          367.966    19785      -1400      601        32372      0          22533.21   91.248     22937      6551      
2766.6     7.44       315        1          -9999      365.902    19686      -1400      587        32373      0          22534.39   91.254     22939      6550      
2766.8     7.39       315        -9999      -9999      366.546    19717      -9999      -9999      32372      -9999      -9999      91.258     22940      6552      
2767       7.6        333        -9999      -9999      367.505    19763      -9999      -9999      32373      -9999      -9999      91.262     22941      6552      
2767.2     7.73       333        -9999      -9999      365.09     19647      -9999      -9999      32373      -9999      -9999      91.267     22942      6551      
