~Version
 VERS              .         2.0                           : CWLS LOG ASCII STANDARD - VERSION 2.0
 WRAP              .         NO                            : ONE LINE PER DEPTH STEP
 DLM               .         SPACE                         : DELIMITING CHARACTER(SPACE TAB OR COMMA)
~Well Information
#_______________________________________________________________________________
#
#PARAMETER_NAME    .UNIT     VALUE                         : DESCRIPTION
#_______________________________________________________________________________
STRT               .M        2648.8                        : First reference value
STOP               .M        2753.600052                   : Last reference value
STEP               .M        0.2000001                     : Step increment
NULL               .         -9999                         : Missing value
COMP               .                                       : Company
WELL               .         616                           : Well name
FLD                .                                       : Field
LOC                .                                       : Location
CNTY               .                                       : County
STAT               .                                       : State
CTRY               .                                       : Country
SRVC               .                                       : Service Company
DATE               .                                       : Date
API                .                                       : API number
PROJECT_UPGRADE_TIME .         2021-03-18T21_24_50           : 
group              .         Good                          : 
~Parameter Information Block
#_______________________________________________________________________________
#
#PARAMETER_NAME    .UNIT     VALUE                         : DESCRIPTION
#_______________________________________________________________________________
SET                .         D7027_D                       : 
OTHER              .         Kedr.exe версия 2.1.2.32      : 
OTHER_10           .         TM.GRD = 0.00404*TM$.UE + 0.07: 
OTHER_11           .         MN.ATM = (6.33279e-006*TM.GRD + 0.02401)*(MN$.UE + 2.72*TM.GRD + -2018): 
OTHER_12           .         GK.MKR/H = GK$.UE / 43.5489 + 0: 
OTHER_13           .         RES.SM = 0.00476*CRES.UE - 1.51709: 
OTHER_14           .         PL.GSM3 = 0 + 0 * (PL.UE / 1) +  0 * (PL.UE / 1)^2: 
OTHER_15           .         Постоянная времени ГГП = 6 сек: 
OTHER_16           .         Постоянная времени ГК = 6 сек : 
OTHER_2            .         KedrData.dll версия 3.2.2.14  : 
OTHER_3            .         LasInf.dll версия 3.2.0.13    : 
OTHER_4            .         Драйвер версия 1.2.0.5        : 
OTHER_5            .         Прибор_ КСА-M1                : 
OTHER_6            .         Номер прибора_ 155+р204       : 
OTHER_7            .         Режим_ КСА-М1 + ГГП + Резистивиметр: 
OTHER_8            .         Форма_ 223\2                  : 
OTHER_9            .         Тарировки_                    : 
PROJECT_UPGRADE_TIME .         2021-03-18T21_24_50           : 
TLFamily_CRES      .                                       : 
TLFamily_DEPT      .         Measured Depth                : 
TLFamily_GK        .         Gamma Ray                     : 
TLFamily_GK$       .                                       : 
TLFamily_LM        .         Casing Collar locator         : 
TLFamily_METKA     .                                       : 
TLFamily_MN        .                                       : 
TLFamily_MN$       .                                       : 
TLFamily_PL        .                                       : 
TLFamily_PL_2      .                                       : 
TLFamily_RCOR      .                                       : 
TLFamily_RES       .         Mud Resistivity               : 
TLFamily_SPID      .         Spontaneous Potential         : 
TLFamily_STD       .                                       : 
TLFamily_TIME      .         Time                          : 
TLFamily_TM        .         Temperature                   : 
TLFamily_TM$       .         Temperature                   : 
TLFamily_VGD       .         Gas Volume                    : 
group              .         prim                          : 
~Curve Information
#_______________________________________________________________________________
#
#LOGNAME           .UNIT     LOG_ID                        : DESCRIPTION
#_______________________________________________________________________________
DEPT               .M                                      : 1 Глубина, м -    0.0 см 
CRES               .UE                                     : 9 Проводимость, усл.ед. -  222.0 см 
GK                 .MKR/H                                  : 16 Гамма-активность, мкр./ч -  106.0 см 
GK$                .UE                                     : 13 Гамма-активность, усл.ед. -  106.0 см 
LM                 .                                       : 11 Локатор муфт,  -   16.0 см 
METKA              .                                       : 3 Метки,  -    0.0 см 
MN                 .ATM                                    : 15 Давление, атм. -  160.0 см 
MN$                .UE                                     : 7 Давление, усл.ед. -  160.0 см 
PL                 .UE                                     : 10 Плотность, усл.ед. -  270.0 см 
PL_2               .GSM3                                   : 18 Плотность, г./см3 -  270.0 см 
RCOR               .CM/KM                                  : 5 Коррекция по ролику, см/км -    0.0 см 
RES                .SM                                     : 17 Проводимость,  -  222.0 см 
SPID               .M/H                                    : 2 Скорость, м/час -    0.0 см 
STD                .                                       : 12 Приток,  -  170.0 см 
TIME               .S                                      : 4 Время, сек -    0.0 см 
TM                 .GRD                                    : 14 Температура, °C -  180.0 см 
TM$                .UE                                     : 6 Температура, усл.ед. -  180.0 см 
VGD                .                                       : 8 Влагомер,  -  170.0 см 
~Ascii
# ...
2657.000004 1284       7.81       328        95         0          244.451    11893      13         0          0          4.5941     557        11173      18050.17   57.087     14113      6595      
2657.200004 1285       7.69       332        113        0          244.451    11893      14         0          0          4.6011     510        11171      18051.49   57.072     14109      6601      
2657.400004 1284       7.68       334        77         0          244.474    11894      14         0          0          4.5947     580        11172      18052.75   57.067     14108      6607      
2657.600004 1281       7.68       336        202        0          244.473    11894      14         0          0          4.5805     545        11170      18054.07   57.062     14107      6599      
2657.800005 1266       7.79       344        138        0          244.496    11895      14         0          0          4.5092     580        11169      18055.34   57.05      14104      6596      
2658.000005 1209       7.92       363        95         0          244.519    11896      14         0          0          4.2398     580        11165      18056.65   57.042     14102      6600      
2658.200005 1200       8.23       372        86         0          244.542    11897      14         0          0          4.197      560        11163      18057.95   57.03      14099      6597      
2658.400005 1198       8.53       403        71         0          244.549    11897      13         0          0          4.187      580        11161      18059.22   57.021     14097      6597      
2658.600005 1199       8.89       403        103        0          244.564    11898      14         0          0          4.1878     580        11158      18060.54   57.012     14095      6596      
2658.800005 1197       9.14       419        83         0          244.563    11898      14         0          0          4.1791     510        11157      18061.8    57.003     14092      6605      
2659.000005 1198       9.41       422        64         0          244.587    11899      14         0          0          4.1854     510        11155      18063.12   56.998     14091      6607      
2659.200005 1197       9.59       430        83         0          244.61     11900      14         0          0          4.179      580        11153      18064.45   56.993     14090      6597      
2659.400005 1196       9.73       430        5641       0          244.633    11901      14         0          0          4.1743     568        11150      18065.72   56.983     14087      6609      
2659.600005 1198       9.45       381        4142       0          244.632    11901      14         0          0          4.1838     580        11149      18066.97   56.975     14085      6599      
2659.800006 1199       9.1        381        1018       0          244.655    11902      14         0          0          4.1893     580        11147      18068.3    56.965     14083      6594      
2660.000006 1198       8.59       342        260        0          244.666    11903      14         0          0          4.1861     557        11145      18069.62   56.952     14080      6595      
2660.200006 1199       8.22       342        109        1          244.697    11904      14         0          0          4.1886     545        11144      18071.54   56.941     14077      6602      
2660.400006 1198       8.14       356        107        0          244.7      11904      14         0          0          4.1854     522        11140      18072.85   56.93      14074      6601      
2660.600006 1200       8.16       356        108        0          244.723    11905      14         0          0          4.1933     580        11140      18074.17   56.925     14073      6604      
2660.800006 1198       8.09       347        84         0          244.746    11906      14         0          0          4.1878     557        11138      18075.44   56.915     14071      6607      
2661.000006 1199       8.03       347        91         0          244.765    11907      14         0          0          4.1901     580        11137      18076.68   56.906     14068      6608      
2661.200006 1198       8.42       378        77         0          244.768    11907      14         0          0          4.1854     580        11134      18078      56.893     14065      6602      
2661.400006 1197       8.62       395        117        0          244.791    11908      14         0          0          4.1806     522        11132      18079.33   56.885     14063      6606      
2661.600006 1197       8.88       398        91         0          244.806    11909      14         0          0          4.1806     545        11131      18080.65   56.872     14060      6608      
2661.800007 1198       8.98       394        107        0          244.825    11910      14         0          0          4.184      580        11127      18081.96   56.866     14058      6610      
2662.000007 1197       9.01       394        74         0          244.836    11910      14         0          0          4.1806     580        11125      18083.23   56.854     14055      6609      
2662.200007 1196       9.13       408        61         0          244.86     11911      14         0          0          4.1775     580        11125      18084.55   56.848     14054      6608      
2662.400007 1197       9.25       408        82         0          244.882    11912      14         0          0          4.1806     510        11121      18085.86   56.839     14052      6610      
2662.600007 1196       9.12       376        88         0          244.881    11912      14         0          0          4.1782     580        11119      18087.14   56.827     14049      6615      
2662.800007 1197       8.88       376        75         0          244.904    11913      14         0          0          4.1806     580        11117      18088.45   56.816     14046      6610      
2663.000007 1196       8.3        318        101        0          244.927    11914      14         0          0          4.1759     510        11115      18089.72   56.804     14043      6611      
2663.200007 1196       7.8        318        68         0          244.95     11915      14         0          0          4.1767     580        11114      18091.03   56.796     14041      6611      
2663.400007 1196       7.26       288        137        0          244.948    11915      14         0          0          4.1735     580        11110      18092.35   56.788     14039      6602      
2663.600007 1196       6.94       288        91         0          244.972    11916      14         0          0          4.1759     510        11110      18093.6    56.772     14035      6611      
2663.800007 1194       6.44       257        99         0          244.994    11917      14         0          0          4.1663     580        11107      18094.91   56.763     14033      6610      
2664.000008 1195       6.17       257        117        0          244.993    11917      14         0          0          4.173      580        11105      18096.2    56.751     14030      6609      
2664.200008 1195       5.86       238        87         0          245.016    11918      14         0          0          4.1711     580        11104      18097.49   56.739     14027      6609      
2664.400008 1195       5.66       238        73         0          245.039    11919      14         0          0          4.1711     510        11101      18098.84   56.731     14025      6609      
2664.600008 1195       5.69       249        74         0          245.062    11920      14         0          0          4.1711     580        11100      18100.16   56.722     14023      6611      
2664.800008 1195       5.81       273        47         0          245.085    11921      14         0          0          4.1691     580        11097      18101.46   56.709     14020      6612      
2665.000008 1194       6.31       297        104        0          245.083    11921      14         0          0          4.1663     533        11096      18102.77   56.7       14017      6609      
