~Version
 VERS              .         2.0                           : CWLS LOG ASCII STANDARD - VERSION 2.0
 WRAP              .         NO                            : ONE LINE PER DEPTH STEP
 DLM               .         SPACE                         : DELIMITING CHARACTER(SPACE TAB OR COMMA)
~Well Information
#_______________________________________________________________________________
#
#PARAMETER_NAME    .UNIT     VALUE                         : DESCRIPTION
#_______________________________________________________________________________
STRT               .M        2644.6                        : First reference value
STOP               .M        2752.399784                   : Last reference value
STEP               .M        0.1999996                     : Step increment
NULL               .         -9999                         : Missing value
COMP               .                                       : Company
WELL               .         616                           : Well name
FLD                .                                       : Field
LOC                .                                       : Location
CNTY               .                                       : County
STAT               .                                       : State
CTRY               .                                       : Country
SRVC               .                                       : Service Company
DATE               .                                       : Date
API                .                                       : API number
PROJECT_UPGRADE_TIME .         2021-03-18T21_24_50           : 
group              .         Good                          : 
~Parameter Information Block
#_______________________________________________________________________________
#
#PARAMETER_NAME    .UNIT     VALUE                         : DESCRIPTION
#_______________________________________________________________________________
SET                .         D4410_D_2                     : 
COMM               .                                       : 
OTHER              .         Запись производится в присутствии: 
OTHER_10           .         Максимальная температура      : 
OTHER_11           .         Тип промывочной жидкости      : 
OTHER_12           .         Сопротивление ПЖ (Ом*м) при 20°C: 
OTHER_13           .         Плотность ПЖ(г/см3)           : 
OTHER_14           .         Вязкость ПЖ(с)                : 
OTHER_15           .         Водоотдача ПЖ(см3/30мин)      : 
OTHER_16           .         Уровень ПЖ                    : 
OTHER_17           .         Нефть ПЖ (%)                  : 
OTHER_18           .         Барит ПЖ (%)                  : 
OTHER_19           .         Гематит ПЖ (%)                : 
OTHER_2            .         Заказчик ННСН  ЦДНГ-1         : 
OTHER_20           .         КМЦ ПЖ (%)                    : 
OTHER_21           .         Разгазирование ПЖ (да,нет)    : 
OTHER_22           .         Подъемник                     : 
OTHER_23           .         Лаборатория                   : 
OTHER_24           .         Тип кабеля                    : 
OTHER_25           .         Длина кабеля (м)              : 
OTHER_26           .         Цена последней метки          : 
OTHER_27           .         Цена контрольной метки        : 
OTHER_28           .         Диаметр долота (мм)           : 
OTHER_29           .         Глубина бурения (м)           : 
OTHER_3            .         Площадь                       : 
OTHER_30           .         Искусственный забой (м)       : 
OTHER_31           .         Диаметр колонны (мм)          : 
OTHER_32           .         Толщина колонны (мм)          : 
OTHER_33           .         Башмак колонны (м)            : 
OTHER_34           .         Диаметр НКТ (мм)              : 
OTHER_35           .         Толщина НКТ (мм)              : 
OTHER_36           .         Воронка НКТ (м)               : 
OTHER_37           .         Дата цементожа                : 
OTHER_38           .         Тип, количество(т) и плотность цемента: 
OTHER_39           .         Интервалы перфорации (м)      : 
OTHER_4            .         Категория                     : 
OTHER_40           .         Направление, диаметр (мм)     : 
OTHER_41           .         Направление, глубина (м)      : 
OTHER_42           .         Кондуктор, диаметр (мм)       : 
OTHER_43           .         Кондуктор, глубина (м)        : 
OTHER_44           .         Техническая колонна, диаметр (мм): 
OTHER_45           .         Техническая колонна, глубина (м): 
OTHER_46           .         Эксплуатационная колонна, диаметр (мм): 
OTHER_47           .         Эксплуатационная колонна, глубина (м): 
OTHER_48           .         Программа Кедр-02 версия 3.4  : 
OTHER_49           .         Операционная система Windows NT 5.1 build 2600 Service Pack 2: 
OTHER_5            .         Назначение исследований       : 
OTHER_50           .         Программное обеспечение станции MONITOR-386EX 25/12/99 15_08_10   BGF V54 20/09/05 15_32_17   3.3__BGF_9030071: 
OTHER_51           .         Kedr.exe версия 3.4.2.74      : 
OTHER_52           .         KedrData.dll версия 3.4.2.29  : 
OTHER_53           .         Мнемоники версия 3.18 S       : 
OTHER_54           .         Драйвер версия 2.1.1.4        : 
OTHER_55           .         LasInf.dll 4.3.0.35           : 
OTHER_56           .         Прибор_ КСА-Т4                : 
OTHER_57           .         Номер прибора_ 160            : 
OTHER_58           .         Режим_ КСА-Т4                 : 
OTHER_59           .         Форма_ С.А.Б.                 : 
OTHER_6            .         Альтитуда стола ротора        : 
OTHER_60           .         Тарировки_                    : 
OTHER_61           .         <_techsia_sc_> Дата тарировки температуры 25.05.2010: 
OTHER_62           .         Ручной ввод коэффициентов     : 
OTHER_63           .         TM.DEGC = 0.00402*RTM.E.ACP + -0.994: 
OTHER_64           .         <_techsia_sc_> Дата тарировки давления 25.05.2010: 
OTHER_65           .         Ручной ввод коэффициентов     : 
OTHER_66           .         MN.ATM = (2.27521e-006*TM.DEGC + 0.02078)*(RMN.E.ACP + 6.2*TM.DEGC + -1688): 
OTHER_67           .         <_techsia_sc_> Дата тарировки ГК 25.05.2010: 
OTHER_68           .         Ручной ввод коэффициентов     : 
OTHER_69           .         GR.UR/H = RGR.IMP/MIN / 45.5144: 
OTHER_7            .         Вид исследований 3  6         : 
OTHER_70           .         GK.FLT = 0.1*GR.UR/H[-1] + (1-0.1)*GR.UR/H[0]: 
OTHER_8            .         Начало бурения интервала каротажа: 
OTHER_9            .         Окончание бурения интервала каротажа: 
PROJECT_UPGRADE_TIME .         2021-03-18T21_24_50           : 
PRTY               .         ПП-601-1                      : N партии
SRVC               .         Барковский                    : Начальник партии
TLFamily_DEPT      .         Measured Depth                : 
TLFamily_LM        .         Casing Collar locator         : 
TLFamily_MN        .                                       : 
TLFamily_TM        .         Temperature                   : 
group              .         second                        : 
~Curve Information
#_______________________________________________________________________________
#
#LOGNAME           .UNIT     LOG_ID                        : DESCRIPTION
#_______________________________________________________________________________
DEPT               .M                                      : Depth curve 
LM                 .е.ацп                                  : Локатор муфт,е.ацп 
MN                 .атм                                    : 12 Давление, атм. -  160.0 см 
TM                 .град.C                                 : Термограмма по стволу скважины,град.C 
~Ascii
# ...
2716.199857 84.996     370.667    64.555    
2716.399856 75.999     370.759    64.548    
2716.599856 73.012     370.758    64.548    
2716.799856 98.002     370.701    64.543    
2716.999855 102.022    370.741    64.534    
2717.199855 145.983    370.736    64.515    
2717.399854 111.01     370.819    64.487    
2717.599854 131.001    370.804    64.476    
2717.799854 134.021    370.825    64.463    
2717.999853 176.989    370.867    64.46     
2718.199853 154.975    370.927    64.46     
2718.399852 104.973    370.936    64.46     
2718.599852 51.002     370.969    64.456    
2718.799852 56.017     371.009    64.456    
2718.999851 90.996     371.041    64.452    
2719.199851 81.997     371.067    64.444    
2719.39985 75.005     371.172    64.44     
2719.59985 84.986     371.183    64.427    
2719.79985 56.009     371.139    64.413    
2719.999849 75.009     371.138    64.405    
2720.199849 92.994     371.158    64.396    
2720.399848 80.99      371.161    64.394    
2720.599848 59.999     371.184    64.384    
2720.799848 57         371.308    64.38     
2720.999847 57.001     371.364    64.379    
2721.199847 60.006     371.321    64.373    
2721.399846 71.995     371.362    64.365    
2721.599846 61.997     371.382    64.359    
2721.799846 55.017     371.424    64.359    
2721.999845 89.981     371.444    64.357    
2722.199845 51.021     371.55     64.349    
2722.399844 92.993     371.65     64.339    
2722.599844 79.014     371.399    64.335    
2722.799844 107.99     371.237    64.333    
2722.999843 87.021     371.229    64.325    
2723.199843 129.073    371.227    64.313    
2723.399842 276.996    371.045    64.303    
2723.599842 268.056    370.932    64.285    
2723.799842 381.094    370.929    64.283    
2723.999841 572.999    370.966    64.278    
2724.199841 2593.079   370.91     64.271    
2724.39984 730.796    370.868    64.262    
2724.59984 319.083    370.882    64.251    
2724.79984 486.959    370.975    64.241    
2724.999839 403.948    371.184    64.221    
2725.199839 297.899    371.134    64.206    
2725.399838 94.013     371.253    64.198    
2725.599838 119.981    371.311    64.19     
2725.799838 81.989     371.399    64.182    
2725.999837 59.004     371.622    64.178    
2726.199837 67.042     371.655    64.174    
2726.399836 152.037    371.64     64.167    
2726.599836 225.958    371.659    64.151    
2726.799836 141.015    371.868    64.142    
2726.999835 171.996    372.098    64.142    
2727.199835 163.981    372.037    64.136    
2727.399834 126.04     372.167    64.13     
2727.599834 206.957    372.013    64.134    
2727.799834 121.03     372.38     64.124    
2727.999833 181.016    372.531    64.113    
2728.199833 212.951    372.585    64.097    
2728.399832 113        372.704    64.071    
2728.599832 114.014    372.352    64.056    
2728.799832 141.99     372.289    64.039    
2728.999831 121.007    372.277    64.021    
2729.199831 135.988    372.379    64.009    
2729.39983 111.983    372.391    63.989    
2729.59983 77.009     372.331    63.976    
2729.79983 95.989     372.454    63.961    
2729.999829 73.011     372.432    63.953    
2730.199829 95.04      372.611    63.953    
2730.399828 175.981    372.682    63.965    
2730.599828 137.999    372.955    63.953    
2730.799828 135.974    372.824    63.024    
2730.999827 83.001     372.538    61.221    
2731.199827 86.002     372.344    59.544    
2731.399826 89.991     372.21     58.245    
2731.599826 71.987     371.706    57.376    
2731.799826 45.004     371.881    56.54     
2731.999825 53.999     371.762    55.694    
2732.199825 52.018     371.71     54.892    
2732.399824 88.001     371.488    54.325    
2732.599824 90.153     371.52     53.947    
2732.799824 398.886    371.508    53.71     
2732.999823 167.949    371.401    53.518    
2733.199823 64.003     371.37     53.412    
2733.399822 70.994     371.485    53.354    
2733.599822 59.144     371.616    53.324    
2733.799822 348.899    371.497    53.291    
2733.999821 144.059    371.513    53.145    
2734.199821 263.998    371.544    52.742    
2734.39982 258.916    371.561    52.094    
2734.59982 88.985     371.472    51.504    
2734.79982 59         371.384    51.152    
2734.999819 59.216     371.491    51.029    
2735.199819 498.359    371.495    50.933    
2735.399818 5260.126   371.376    50.818    
2735.599818 1475.583   371.466    50.707    
2735.799818 632.779    371.535    50.612    
2735.999817 186.942    371.59     50.548    
2736.199817 69.992     371.619    50.477    
2736.399816 53.995     371.352    50.441    
2736.599816 44.001     371.43     50.421    
2736.799816 45.998     371.487    50.364    
2736.999815 42         371.961    50.281    
2737.199815 42.008     371.726    50.237    
2737.399814 57.996     371.651    50.21     
2737.599814 50.008     371.577    50.209    
2737.799814 66.99      371.789    50.193    
2737.999813 46.998     372.021    50.158    
2738.199813 41.997     371.855    50.14     
2738.399812 36.007     371.827    50.147    
2738.599812 50.008     372.122    50.148    
2738.799812 67.004     372.13     50.14     
2738.999811 75.992     372.27     50.117    
2739.199811 59.996     372.348    50.109    
2739.39981 51.996     372.367    50.104    
2739.59981 43.008     372.582    50.092    
2739.79981 59.994     372.808    50.1      
2739.999809 47.009     372.923    50.081    
2740.199809 65.994     372.919    50.053    
2740.399808 54.006     373.04     50.032    
2740.599808 65.994     373.102    50.032    
2740.799808 54.001     373.233    50.035    
2740.999807 55.993     373.226    50.051    
2741.199807 41.999     373.368    50.064    
2741.399806 40.001     373.431    50.068    
2741.599806 41.999     373.329    50.071    
2741.799806 40.011     373.199    50.088    
2741.999805 62.994     373.39     50.1      
2742.199805 50.999     373.328    50.118    
2742.399804 47.995     373.627    50.144    
2742.599804 37.009     373.622    50.166    
2742.799804 54.994     373.766    50.187    
2742.999803 41.992     373.679    50.21     
2743.199803 24.998     373.758    50.241    
2743.399802 20         373.859    50.27     
2743.599802 20.015     373.935    50.304    
2743.799802 49.999     374.007    50.34     
2743.999801 48.002     374.029    50.371    
2744.199801 52.024     374.126    50.392    
2744.3998  100        374.136    50.421    
2744.5998  99.975     374.2      50.463    
2744.7998  49.992     374.33     50.518    
2744.999799 34.009     374.367    50.55     
2745.199799 52.015     374.431    50.584    
2745.399798 82.99      374.545    50.613    
2745.599798 63.036     374.584    50.659    
2745.799798 135.971    374.523    50.72     
2745.999797 77.986     374.587    50.776    
2746.199797 53.642     374.644    50.821    
2746.399796 9409.338   374.611    50.868    
2746.599796 6056.838   374.695    50.903    
2746.799796 1698.319   374.738    50.935    
2746.999795 325.901    374.785    50.973    
2747.199795 126.014    374.779    51.032    
2747.399794 153.967    374.813    51.085    
2747.599794 87.978     374.75     51.133    
2747.799794 44.005     374.752    51.182    
2747.999793 55.091     374.712    51.212    
2748.199793 238.988    374.726    51.242    
2748.399792 214.943    374.704    51.277    
2748.599792 100.995    374.577    51.3      
2748.799792 90.028     374.558    51.317    
2748.999791 147.004    374.662    51.322    
2749.199791 155.956    374.745    51.318    
2749.39979 67.99      374.789    51.326    
2749.59979 48.001     374.868    51.455    
2749.79979 50.996     374.925    51.582    
2749.999789 42.001     375.013    51.63     
2750.199789 44.015     375.039    51.711    
2750.399788 74.997     375.089    51.751    
2750.599788 68.987     375.079    51.775    
2750.799788 43.012     375.164    51.873    
2750.999787 68.011     375.078    52.061    
2751.199787 -9999      375.158    52.158    
2751.399786 -9999      375.191    52.261    
2751.599786 -9999      375.256    52.436    
2751.799786 -9999      375.239    52.484    
