~Version
 VERS              .         2.0                           : CWLS LOG ASCII STANDARD - VERSION 2.0
 WRAP              .         NO                            : ONE LINE PER DEPTH STEP
 DLM               .         SPACE                         : DELIMITING CHARACTER(SPACE TAB OR COMMA)
~Well Information
#_______________________________________________________________________________
#
#PARAMETER_NAME    .UNIT     VALUE                         : DESCRIPTION
#_______________________________________________________________________________
STRT               .M        3.8                           : First reference value
STOP               .M        216                           : Last reference value
STEP               .M        0.2                           : Step increment
NULL               .         -9999                         : Missing value
COMP               .                                       : Company
WELL               .         616                           : Well name
FLD                .                                       : Field
LOC                .                                       : Location
CNTY               .                                       : County
STAT               .                                       : State
CTRY               .                                       : Country
SRVC               .                                       : Service Company
DATE               .                                       : Date
API                .                                       : API number
PROJECT_UPGRADE_TIME .         2021-03-18T21_24_50           : 
group              .         Good                          : 
~Parameter Information Block
#_______________________________________________________________________________
#
#PARAMETER_NAME    .UNIT     VALUE                         : DESCRIPTION
#_______________________________________________________________________________
SET                .         D1350_D                       : 
OTHER              .         Программное обеспечение станции MONITOR-386EX 25/12/99 15_08_10   BGF V52 22/08/01 16_56_30   3.1_SNGF__BGF_								111238: 
OTHER_10           .         Тарировки_                    : 
OTHER_11           .         <_techsia_sc_> Постоянная времени фильтра  0.5 сек, kf=0.181269: 
OTHER_12           .         TM.GRD = 0.00428968*TM$.UE + -0.3284: 
OTHER_13           .         GK.MKR/H = GK$.UE / 40.16     : 
OTHER_14           .         NKT. = NKT$.UE / 1            : 
OTHER_2            .         Kedr.exe версия 3.3.2.43      : 
OTHER_3            .         KedrData.dll версия 3.3.2.22  : 
OTHER_4            .         Драйвер версия 2.1.1.3        : 
OTHER_5            .         Мнемоники версия 3.3 S        : 
OTHER_6            .         Прибор_ РК4-38                : 
OTHER_7            .         Номер прибора_ 35с            : 
OTHER_8            .         Режим_ РК4-38                 : 
OTHER_9            .         Форма_ 3                      : 
PROJECT_UPGRADE_TIME .         2021-03-18T21_24_49           : 
TLFamily_DEPT      .         Measured Depth                : 
TLFamily_GK        .         Gamma Ray                     : 
TLFamily_GK$       .                                       : 
TLFamily_LM        .         Casing Collar locator         : 
TLFamily_METKA     .                                       : 
TLFamily_NKT       .         Neutron Far                   : 
TLFamily_NKT$      .         Neutron Far                   : 
TLFamily_RCOR      .                                       : 
TLFamily_SPID      .         Spontaneous Potential         : 
TLFamily_TENS      .         Cable Tension                 : 
TLFamily_TIME      .         Time                          : 
TLFamily_TM        .         Temperature                   : 
TLFamily_TM$       .         Temperature                   : 
group              .         prim                          : 
~Curve Information
#_______________________________________________________________________________
#
#LOGNAME           .UNIT     LOG_ID                        : DESCRIPTION
#_______________________________________________________________________________
DEPT               .M                                      : 1 Глубина, м -    0.0 см 
GK                 .MKR/H                                  : 12 Гамма-активность, мкр./ч -   23.0 см 
GK$                .UE                                     : 10 Гамма-активность, усл.ед. -   23.0 см 
LM                 .                                       : 8 Локатор муфт,  -  180.0 см 
METKA              .                                       : 3 Метки,  -    0.0 см 
NKT                .                                       : 13 НКТ, прив. -  160.0 см 
NKT$               .UE                                     : 9 НКТ, усл.ед. -  160.0 см 
RCOR               .CM/KM                                  : 5 Коррекция по ролику, см/км -    0.0 см 
SPID               .M/H                                    : 2 Скорость, м/час -    0.0 см 
TENS               .T                                      : 6 Натяжение кабеля, т -    0.0 см 
TIME               .S                                      : 4 Время, сек -    0.0 см 
TM                 .GRD                                    : 11 Температура, °C -  193.0 см 
TM$                .UE                                     : 7 Температура, усл.ед. -  193.0 см 
~Ascii
# ...
26.2       2.86       87         31         0          0          0          7013       -321       0          3854.22    8.747      2116      
26.4       3.41       114        34         0          0          0          7013       -324       0          3851.96    8.757      2118      
26.6       3.88       156        31         0          0          0          7013       -319       0          3849.7     8.74       2114      
26.8       3.71       161        32         0          0          0          7013       -324       0          3847.48    8.74       2114      
27         3.37       133        28         0          0          0          7013       -335       0          3845.26    8.736      2113      
27.2       3.51       136        38         0          0          0          7013       -323       0          3843.05    8.74       2114      
27.4       3.85       151        26         0          0          0          7013       -321       0          3840.93    8.743      2115      
27.6       4.13       163        26         0          0          0          7013       -322       0          3838.72    8.74       2114      
27.8       4.35       166        25         1          0          0          7013       -330       0          3836.41    8.741      2114      
28         4.66       173        25         0          0          0          7013       -317       0          3834.28    8.743      2115      
28.2       4.85       194        25         0          0          0          7013       -328       0          3832.08    8.741      2114      
28.4       5          191        26         0          0          0          7013       -316       0          3829.87    8.744      2115      
28.6       5.29       210        28         1          0          0          7013       -311       0          3827.73    8.736      2113      
28.8       5.27       220        28         0          0          0          7013       -317       0          3825.44    8.74       2114      
29         4.79       190        30         0          0          0          7013       -314       0          3823.13    8.74       2114      
29.2       4.96       206        28         0          0          0          7013       -317       0          3820.86    8.738      2114      
29.4       4.43       178        28         0          0          0          7013       -336       0          3818.59    8.736      2113      
29.6       4.41       177        27         0          0          0          7013       -329       0          3816.38    8.731      2112      
29.8       4.43       177        25         0          0          0          7013       -323       0          3814.21    8.731      2112      
30         4.13       185        25         2          0          0          7013       -323       0          3812.03    8.727      2111      
30.2       3.99       148        26         0          0          0          7013       -319       0          3810.06    8.727      2111      
30.4       4.39       166        25         0          0          0          7013       -319       0          3808.64    8.727      2111      
30.6       4.73       174        25         0          0          0          7013       -324       0          3806.32    8.723      2110      
30.8       4.55       198        26         0          0          0          7013       -319       0          3804.18    8.723      2110      
31         4          185        28         0          0          0          7013       -320       0          3801.99    8.723      2110      
31.2       3.9        144        27         0          0          0          7013       -320       0          3799.72    8.723      2110      
31.4       4.37       161        28         0          0          0          7013       -320       0          3797.36    8.719      2109      
31.6       4.91       199        29         0          0          0          7013       -321       0          3795.2     8.721      2110      
31.8       4.83       193        28         0          0          0          7013       -321       0          3793.03    8.719      2109      
32         4.89       195        25         0          0          0          7013       -323       0          3790.71    8.714      2108      
32.2       5.03       201        30         0          0          0          7013       -326       0          3788.5     8.714      2108      
32.4       5.1        205        25         0          0          0          7013       -334       0          3786.28    8.71       2107      
32.6       4.92       208        25         1          0          0          7013       -327       0          3784.08    8.706      2106      
32.8       4.72       197        26         0          0          0          7013       -315       0          3781.91    8.706      2106      
33         4.54       188        27         0          0          0          7013       -319       0          3779.75    8.719      2109      
33.2       4.26       181        29         0          0          0          7013       -318       0          3777.53    8.749      2116      
33.4       3.9        159        28         0          0          0          7013       -312       0          3775.22    8.712      2107      
33.6       3.79       152        31         0          0          0          7013       -320       0          3773.01    8.744      2115      
33.8       3.83       150        32         0          0          0          7013       -320       0          3770.74    8.704      2106      
34         4.1        165        32         0          0          0          7013       -321       0          3768.47    8.704      2106      
34.2       4.08       164        28         0          0          0          7013       -321       0          3766.32    8.74       2114      
34.4       4.12       163        25         0          0          0          7013       -323       0          3764.05    8.733      2112      
34.6       4.38       162        27         0          0          0          7013       -327       0          3761.79    8.706      2106      
34.8       4.54       181        27         0          0          0          7013       -321       0          3759.58    8.693      2103      
35         4.56       184        29         0          0          0          7013       -329       0          3757.41    8.689      2102      
35.2       4.45       186        46         0          0          0          7013       -343       0          3755.14    8.68       2100      
35.4       4.18       167        201        1          0          0          7013       -314       0          3752.93    8.68       2100      
35.6       4.24       169        1545       0          0          0          7013       -322       0          3750.77    8.689      2102      
35.8       4.31       177        9694       0          0          0          7013       -327       0          3748.5     8.681      2100      
36         3.97       161        3195       0          0          0          7013       -313       0          3746.24    8.673      2098      
36.2       3.82       158        90         0          0          0          7013       -316       0          3744.12    8.674      2099      
36.4       3.9        151        31         0          0          0          7013       -323       0          3741.76    8.668      2097      
36.6       4.27       154        26         0          0          0          7013       -313       0          3739.44    8.669      2098      
36.8       4.57       184        26         0          0          0          7013       -326       0          3737.23    8.667      2097      
37         4.53       184        27         0          0          0          7013       -328       0          3735.01    8.67       2098      
37.2       4.51       174        45         0          0          0          7013       -313       0          3732.91    8.667      2097      
