~Version
 VERS              .         2.0                           : CWLS LOG ASCII STANDARD - VERSION 2.0
 WRAP              .         NO                            : ONE LINE PER DEPTH STEP
 DLM               .         SPACE                         : DELIMITING CHARACTER(SPACE TAB OR COMMA)
~Well Information
#_______________________________________________________________________________
#
#PARAMETER_NAME    .UNIT     VALUE                         : DESCRIPTION
#_______________________________________________________________________________
STRT               .M        1.8                           : First reference value
STOP               .M        2776                          : Last reference value
STEP               .M        0.2                           : Step increment
NULL               .         -9999                         : Missing value
COMP               .                                       : Company
WELL               .         616                           : Well name
FLD                .                                       : Field
LOC                .                                       : Location
CNTY               .                                       : County
STAT               .                                       : State
CTRY               .                                       : Country
SRVC               .                                       : Service Company
DATE               .                                       : Date
API                .                                       : API number
PROJECT_UPGRADE_TIME .         2021-03-18T21_24_50           : 
group              .         Good                          : 
~Parameter Information Block
#_______________________________________________________________________________
#
#PARAMETER_NAME    .UNIT     VALUE                         : DESCRIPTION
#_______________________________________________________________________________
SET                .         D1799_D                       : 
OTHER              .         Программное обеспечение станции MONITOR-386EX 25/12/99 15_08_10   BGF V52 22/08/01 16_56_30   3.1_SNGF___BGF_N_092049: 
OTHER_10           .         Тарировки_                    : 
OTHER_11           .         TM.GRD = 0.00403*TM$.UE + -1.07: 
OTHER_12           .         MN.ATM = (9.34907e-006*TM.GRD + 0.02171)*(MN$.UE + -7.93*TM.GRD + -1787): 
OTHER_13           .         GK.MKR/H = LM. / 42.4676      : 
OTHER_14           .         GK.FLT = 0.1*GK.MKR/H[-1] + (1-0.1)*GK.MKR/H[0]: 
OTHER_2            .         Kedr.exe версия 3.4.2.51      : 
OTHER_3            .         KedrData.dll версия 3.4.2.24  : 
OTHER_4            .         Драйвер версия 2.1.1.3        : 
OTHER_5            .         Мнемоники версия 3.3 S        : 
OTHER_6            .         Прибор_ КСА-Т4                : 
OTHER_7            .         Номер прибора_ 03             : 
OTHER_8            .         Режим_ КСА-Т4                 : 
OTHER_9            .         Форма_ КВА.                   : 
PROJECT_UPGRADE_TIME .         2021-03-18T21_24_49           : 
TLFamily_DEPT      .         Measured Depth                : 
TLFamily_GK        .         Gamma Ray                     : 
TLFamily_GK$       .                                       : 
TLFamily_GK_2      .         Gamma Ray                     : 
TLFamily_LM        .         Casing Collar locator         : 
TLFamily_METKA     .                                       : 
TLFamily_MN        .                                       : 
TLFamily_MN$       .                                       : 
TLFamily_RCOR      .                                       : 
TLFamily_SPID      .         Spontaneous Potential         : 
TLFamily_TENS      .         Cable Tension                 : 
TLFamily_TIME      .         Time                          : 
TLFamily_TM        .         Temperature                   : 
TLFamily_TM$       .         Temperature                   : 
group              .         prim                          : 
~Curve Information
#_______________________________________________________________________________
#
#LOGNAME           .UNIT     LOG_ID                        : DESCRIPTION
#_______________________________________________________________________________
DEPT               .M                                      : 1 Глубина, м -    0.0 см 
GK                 .MKR/H                                  : 13 Гамма-активность, мкр./ч -  110.0 см 
GK$                .UE                                     : 10 Гамма-активность, усл.ед. -  110.0 см 
GK_2               .FLT                                    : 14 Гамма-активность фильтрованная, мкр./ч -  110.0 см 
LM                 .                                       : 9 Локатор муфт,  -   20.0 см 
METKA              .                                       : 3 Метки,  -    0.0 см 
MN                 .ATM                                    : 12 Давление, атм. -  160.0 см 
MN$                .UE                                     : 8 Давление, усл.ед. -  160.0 см 
RCOR               .CM/KM                                  : 5 Коррекция по ролику, см/км -    0.0 см 
SPID               .M/H                                    : 2 Скорость, м/час -    0.0 см 
TENS               .T                                      : 6 Натяжение кабеля, т -    0.0 см 
TIME               .S                                      : 4 Время, сек -    0.0 см 
TM                 .GRD                                    : 11 Температура, °C -  170.0 см 
TM$                .UE                                     : 7 Температура, усл.ед. -  170.0 см 
~Ascii
# ...
2217       9.82       417        9.86       667        0          199.125    11189      -1253      1973       -0.01      4352.85    56.466     14277     
2217.2     9.82       417        9.84       7782       0          199.145    11190      -1253      1970       -0.01      4353.22    56.466     14277     
2217.4     9.82       417        9.83       4882       0          199.168    11191      -1253      1970       -0.01      4353.57    56.466     14277     
2217.6     9.82       417        9.82       3151       0          199.212    11193      -1253      1971       -0.01      4353.95    56.466     14277     
2217.8     9.6        408        9.68       2076       0          199.212    11193      -1253      1967       -0.01      4354.33    56.464     14277     
2218       9.21       391        9.39       1447       0          199.233    11194      -1253      1967       -0.01      4354.68    56.464     14276     
2218.2     9.21       391        9.27       1071       0          199.254    11195      -1253      1968       -0.01      4355.04    56.466     14277     
2218.4     9.21       391        9.23       853        0          199.275    11196      -1253      1974       -0.01      4355.4     56.466     14277     
2218.6     9.21       391        9.22       1552       0          199.297    11197      -1253      1970       -0.01      4355.77    56.466     14277     
2218.8     9.21       391        9.21       1108       0          199.319    11198      -1253      1959       -0.01      4356.14    56.465     14277     
2219       9.21       391        9.21       830        0          199.34     11199      -1253      1960       -0.01      4356.5     56.462     14276     
2219.2     9.33       396        9.28       718        0          199.346    11199      -1253      1958       -0.01      4356.88    56.462     14276     
2219.4     10.01      425        9.74       641        0          199.379    11201      -1253      1949       -0.01      4357.24    56.462     14276     
2219.6     10.01      425        9.91       611        0          199.39     11201      -1253      1950       -0.01      4357.59    56.462     14276     
2219.8     10.01      425        9.97       581        0          199.405    11202      -1253      1956       -0.01      4357.95    56.462     14276     
2220       10.01      425        9.99       548        0          199.426    11203      -1253      1958       -0.01      4358.31    56.462     14276     
2220.2     10.01      425        10         548        2          199.435    11203      -1253      1961       -0.01      4358.7     56.462     14276     
2220.4     10.01      425        10.01      547        0          199.46     11204      -1253      1963       -0.01      4359.06    56.462     14276     
2220.6     10.01      425        10.01      505        0          199.479    11205      -1253      1964       -0.01      4359.41    56.462     14276     
2220.8     10.38      441        10.25      533        0          199.492    11206      -1253      1964       -0.01      4359.77    56.462     14276     
2221       10.38      441        10.33      546        0          199.526    11207      -1253      1963       -0.01      4360.13    56.462     14276     
2221.2     10.38      441        10.36      601        0          199.557    11209      -1253      1972       -0.01      4360.5     56.462     14276     
2221.4     10.38      441        10.38      595        0          199.568    11209      -1253      1976       -0.01      4360.87    56.462     14276     
2221.6     10.38      441        10.38      606        0          199.578    11209      -1253      1972       -0.01      4361.24    56.462     14276     
2221.8     10.38      441        10.38      545        0          199.601    11210      -1253      1973       -0.01      4361.62    56.462     14276     
2222       10.25      435        10.3       510        0          199.613    11211      -1253      1974       -0.01      4361.98    56.462     14276     
2222.2     10.22      434        10.25      583        0          199.628    11212      -1253      1974       -0.01      4362.33    56.462     14276     
2222.4     10.22      434        10.23      566        0          199.665    11213      -1253      1975       -0.01      4362.71    56.459     14275     
2222.6     10.22      434        10.22      581        0          199.686    11214      -1253      1974       -0.01      4363.06    56.462     14276     
2222.8     10.22      434        10.22      582        0          199.709    11215      -1253      1970       -0.01      4363.43    56.462     14276     
2223       10.22      434        10.22      594        0          199.724    11216      -1253      1971       -0.01      4363.8     56.459     14275     
2223.2     10.22      434        10.22      581        0          199.73     11216      -1253      1971       -0.01      4364.16    56.458     14275     
2223.4     11.07      470        10.76      585        0          199.759    11218      -1253      1967       -0.01      4364.53    56.458     14275     
2223.6     11.37      483        11.13      533        0          199.791    11219      -1253      1968       -0.01      4364.86    56.458     14275     
2223.8     11.37      483        11.28      519        0          199.8      11219      -1253      1969       -0.01      4365.23    56.461     14276     
2224       11.37      483        11.34      512        0          199.836    11221      -1253      1977       -0.01      4365.63    56.459     14275     
2224.2     11.37      483        11.36      478        0          199.839    11221      -1253      1966       -0.01      4365.97    56.458     14275     
2224.4     11.37      483        11.37      526        0          199.861    11222      -1253      1955       -0.01      4366.34    56.458     14275     
2224.6     11.37      483        11.37      585        0          199.883    11223      -1253      1964       -0.01      4366.72    56.458     14275     
2224.8     11.53      490        11.47      566        0          199.904    11224      -1253      1960       -0.01      4367.07    56.458     14275     
2225       11.68      496        11.6       615        0          199.926    11225      -1253      1956       -0.01      4367.43    56.458     14275     
2225.2     11.68      496        11.65      580        0          199.947    11226      -1253      1958       -0.01      4367.77    56.458     14275     
2225.4     11.68      496        11.67      537        0          199.969    11227      -1253      1960       -0.01      4368.14    56.458     14275     
2225.6     11.68      496        11.68      522        0          199.992    11228      -1253      1962       -0.01      4368.53    56.458     14275     
2225.8     11.68      496        11.68      540        0          200.013    11229      -1253      1959       -0.01      4368.88    56.456     14275     
2226       11.53      490        11.58      489        0          200.013    11229      -1253      1960       -0.01      4369.25    56.456     14274     
2226.2     11.3       480        11.41      500        0          200.035    11230      -1253      1962       -0.01      4369.61    56.458     14275     
2226.4     11.3       480        11.34      554        0          200.056    11231      -1253      1959       -0.01      4369.98    56.458     14275     
2226.6     11.3       480        11.32      570        0          200.078    11232      -1253      1960       -0.01      4370.36    56.458     14275     
2226.8     11.3       480        11.31      638        0          200.099    11233      -1253      1962       -0.01      4370.71    56.457     14275     
2227       11.3       480        11.3       590        0          200.12     11234      -1253      1963       -0.01      4371.07    56.455     14274     
2227.2     11.3       480        11.3       771        0          200.144    11235      -1253      1965       -0.01      4371.46    56.457     14275     
