~Version
 VERS              .         2.0                           : CWLS LOG ASCII STANDARD - VERSION 2.0
 WRAP              .         NO                            : ONE LINE PER DEPTH STEP
 DLM               .         SPACE                         : DELIMITING CHARACTER(SPACE TAB OR COMMA)
~Well Information
#_______________________________________________________________________________
#
#PARAMETER_NAME    .UNIT     VALUE                         : DESCRIPTION
#_______________________________________________________________________________
STRT               .M        549.2                         : First reference value
STOP               .M        805.2                         : Last reference value
STEP               .M        0.2                           : Step increment
NULL               .         -9999                         : Missing value
COMP               .                                       : Company
WELL               .         616                           : Well name
FLD                .                                       : Field
LOC                .                                       : Location
CNTY               .                                       : County
STAT               .                                       : State
CTRY               .                                       : Country
SRVC               .                                       : Service Company
DATE               .                                       : Date
API                .                                       : API number
PROJECT_UPGRADE_TIME .         2021-03-18T21_24_50           : 
group              .         Good                          : 
~Parameter Information Block
#_______________________________________________________________________________
#
#PARAMETER_NAME    .UNIT     VALUE                         : DESCRIPTION
#_______________________________________________________________________________
SET                .         616_4                         : 
CONF               .         00                            : 
END                .         0                             : 
ERR                .         0                             : 
GS00               .M        0803.23                       : 
GS01               .M        0546.74                       : 
MM00               .M        0120.00                       : 
NOKG               .         0                             : 
NPR                .         980402                        : 
PART               .         Палагутин                     : 
PROJECT_UPGRADE_TIME .         2021-03-18T21_24_49           : 
PRZK               .         Шакиров                       : 
TLFamily_AZIMUTH   .         True Dip Azimuth              : 
TLFamily_DEPTH     .         Measured Depth                : 
TLFamily_METKA     .                                       : 
TLFamily_ROLL      .                                       : 
TLFamily_SPEED     .         Spontaneous Potential         : 
TLFamily_ZENIT     .                                       : 
VPRG               .         310                           : 
WAY                .         UP                            : 
group              .         prim                          : 
~Curve Information
#_______________________________________________________________________________
#
#LOGNAME           .UNIT     LOG_ID                        : DESCRIPTION
#_______________________________________________________________________________
DEPTH              .M                                      :  
AZIMUTH            .DEG                                    :  
METKA              .                                       :  
ROLL               .DEG                                    :  
SPEED              .M/H                                    :  
ZENIT              .DEG                                    :  
~Ascii
# ...
793.2      257.18     0          210.46     108        32.13     
793.4      255.68     0          203.63     144        32.07     
793.6      254.62     0          197        144        31.89     
793.8      253.84     0          185.91     144        31.53     
794        254.88     0          180.71     144        31.69     
794.2      254.76     0          175.09     144        31.62     
794.4      254.68     0          170.64     144        31.65     
794.6      253.7      0          165.06     144        31.45     
794.8      253.9      0          161.26     144        31.61     
795        254.28     0          153.29     144        31.53     
795.2      254.98     0          129.76     108        31.46     
795.4      254.67     0          105.81     144        31.47     
795.6      254.24     0          77.48      144        31.62     
795.8      254.41     0          58.9       144        31.62     
796        254.44     0          47.17      144        31.71     
796.2      255.05     0          17.85      144        31.93     
796.4      254.9      0          348.06     144        31.62     
796.6      255.14     0          319.84     144        31.62     
796.8      254.94     0          293.56     144        31.6      
797        255.49     0          267.96     144        31.83     
797.2      254.16     0          247.57     144        31.69     
797.4      254.35     0          241.37     144        31.71     
797.6      254.53     0          238.42     144        31.75     
797.8      255.01     0          231.72     144        31.86     
798        254.56     0          209.14     144        31.83     
798.2      254.71     0          195.43     108        31.74     
798.4      255.08     0          183.87     144        31.69     
798.6      255.22     0          170.62     144        31.64     
798.8      255.48     0          159.87     144        31.65     
799        256.1      0          131.18     144        31.56     
799.2      257.07     0          94.21      144        31.75     
799.4      255.84     0          56.1       144        31.87     
799.6      255.63     0          24.42      144        31.93     
799.8      256.44     0          351.14     144        31.69     
800        256.8      0          321.71     144        31.59     
800.2      257.42     0          292.04     108        31.77     
800.4      257.09     0          264.43     108        31.8      
800.6      256.84     0          245.2      144        31.81     
800.8      257.89     0          238.06     144        31.9      
801        258.34     0          219.48     144        32.05     
801.2      259.51     0          191.69     144        31.89     
801.4      259.99     0          172.11     144        31.7      
801.6      261.58     0          151.31     144        31.4      
801.8      263.66     0          103.66     144        31.58     
802        263.73     0          55.78      144        31.83     
802.2      265.4      0          3.84       144        31.68     
802.4      267.77     1          310.68     216        31.27     
802.6      270.57     0          262.64     144        31.75     
802.8      275.35     0          233.33     144        32.02     
803        279.11     0          183.65     144        31.65     
803.2      286.21     0          148.38     144        31.12     
803.4      310.91     0          62.1       468        32.43     
803.6      313.92     0          10.02      504        30.56     
803.8      338.21     0          298.05     468        31.29     
804        350.82     0          241.73     504        32.86     
804.2      354.95     0          191.93     432        30.9      
804.4      231.56     0          144.78     504        30.88     
804.6      189.12     0          91.36      468        32.68     
804.8      170.01     0          36.92      468        32.96     
805        182.47     0          351.09     468        31.84     
805.2      185.84     0          342.99     432        32.17     
