~Version
 VERS              .         2.0                           : CWLS LOG ASCII STANDARD - VERSION 2.0
 WRAP              .         NO                            : ONE LINE PER DEPTH STEP
 DLM               .         SPACE                         : DELIMITING CHARACTER(SPACE TAB OR COMMA)
~Well Information
#_______________________________________________________________________________
#
#PARAMETER_NAME    .UNIT     VALUE                         : DESCRIPTION
#_______________________________________________________________________________
STRT               .M        2659.6                        : First reference value
STOP               .M        2768.6                        : Last reference value
STEP               .M        0.2                           : Step increment
NULL               .         -9999                         : Missing value
COMP               .                                       : Company
WELL               .         616                           : Well name
FLD                .                                       : Field
LOC                .                                       : Location
CNTY               .                                       : County
STAT               .                                       : State
CTRY               .                                       : Country
SRVC               .                                       : Service Company
DATE               .                                       : Date
API                .                                       : API number
PROJECT_UPGRADE_TIME .         2021-03-18T21_24_50           : 
group              .         Good                          : 
~Parameter Information Block
#_______________________________________________________________________________
#
#PARAMETER_NAME    .UNIT     VALUE                         : DESCRIPTION
#_______________________________________________________________________________
SET                .         D1166_D                       : 
OTHER              .         Программное обеспечение станции MONITOR-386EX 25/12/99 15_08_10   BGF V52 22/08/01 16_56_30   3.2_BGF_N_3070031: 
OTHER_10           .         Тарировки_                    : 
OTHER_11           .         TM.GRD = 0.00403*TM$.UE + -1.19: 
OTHER_12           .         MN.ATM = (7.1e-006*TM.GRD + 0.02017)*(MN$.UE + -3.03*TM.GRD + -1833): 
OTHER_13           .         Id error                      : 
OTHER_2            .         Kedr.exe версия 3.4.2.51      : 
OTHER_3            .         KedrData.dll версия 3.4.2.24  : 
OTHER_4            .         Драйвер версия 2.1.1.8        : 
OTHER_5            .         Мнемоники версия 3.3 S        : 
OTHER_6            .         Прибор_ КСА-М1                : 
OTHER_7            .         Номер прибора_ 265            : 
OTHER_8            .         Режим_ КСА-М1                 : 
OTHER_9            .         Форма_ ТЕРМОМЕТР              : 
PROJECT_UPGRADE_TIME .         2021-03-18T21_24_49           : 
TLFamily_DEPT      .         Measured Depth                : 
TLFamily_GK        .         Gamma Ray                     : 
TLFamily_GK$       .                                       : 
TLFamily_LM        .         Casing Collar locator         : 
TLFamily_METKA     .                                       : 
TLFamily_MN        .                                       : 
TLFamily_MN$       .                                       : 
TLFamily_RCOR      .                                       : 
TLFamily_SPID      .         Spontaneous Potential         : 
TLFamily_STD       .                                       : 
TLFamily_TENS      .         Cable Tension                 : 
TLFamily_TIME      .         Time                          : 
TLFamily_TM        .         Temperature                   : 
TLFamily_TM$       .         Temperature                   : 
TLFamily_VGD       .         Gas Volume                    : 
group              .         prim                          : 
~Curve Information
#_______________________________________________________________________________
#
#LOGNAME           .UNIT     LOG_ID                        : DESCRIPTION
#_______________________________________________________________________________
DEPT               .M                                      : 1 Глубина, м -    0.0 см 
GK                 .MKR/H                                  : 15 Гамма-активность, мкр./ч -  110.0 см 
GK$                .UE                                     : 12 Гамма-активность, усл.ед. -  110.0 см 
LM                 .                                       : 10 Локатор муфт,  -   20.0 см 
METKA              .                                       : 3 Метки,  -    0.0 см 
MN                 .ATM                                    : 14 Давление, атм. -  160.0 см 
MN$                .UE                                     : 8 Давление, усл.ед. -  160.0 см 
RCOR               .CM/KM                                  : 5 Коррекция по ролику, см/км -    0.0 см 
SPID               .M/H                                    : 2 Скорость, м/час -    0.0 см 
STD                .                                       : 11 Приток,  -  170.0 см 
TENS               .T                                      : 6 Натяжение кабеля, т -    0.0 см 
TIME               .S                                      : 4 Время, сек -    0.0 см 
TM                 .GRD                                    : 13 Температура, °C -  180.0 см 
TM$                .UE                                     : 7 Температура, усл.ед. -  180.0 см 
VGD                .                                       : 9 Влагомер,  -  170.0 см 
~Ascii
# ...
2728.2     6.28       272        1          0          362.568    19536      -1400      592        32174      0          22305.28   87.665     22048      6532      
2728.4     6.17       251        1          0          363.728    19591      -1400      594        32197      0          22306.53   87.744     22068      6531      
2728.6     5.76       238        1          0          360.91     19456      -1400      590        32221      0          22307.73   87.819     22087      6532      
2728.8     5.7        246        1          0          362.309    19523      -1400      593        32254      0          22308.95   87.916     22111      6530      
2729       5.74       246        1          0          363.387    19574      -1400      596        32294      0          22310.1    88.041     22142      6530      
2729.2     6.02       280        1          0          361.385    19477      -1400      591        32339      0          22311.35   88.163     22172      6530      
2729.4     6.58       293        1          0          362.152    19514      -1400      587        32390      0          22312.53   88.327     22213      6530      
2729.6     6.78       294        1          0          362.151    19513      -1400      593        32374      0          22313.75   88.478     22250      6529      
2729.8     6.86       295        1          0          361.757    19494      -1400      593        32374      0          22314.95   88.634     22289      6529      
2730       6.77       281        1          2          362.085    19509      -1400      600        32374      0          22316.21   88.748     22317      6529      
2730.2     6.54       275        1          0          362.248    19517      -1400      599        32374      0          22317.49   88.901     22355      6529      
2730.4     6.54       284        1          0          362.807    19543      -1400      604        32373      0          22318.67   89.029     22387      6530      
2730.6     7.01       310        1          0          362.06     19507      -1400      591        32373      0          22319.93   89.154     22418      6528      
2730.8     7.18       310        1          0          362.586    19532      -1400      590        32373      0          22321.13   89.263     22445      6529      
2731       7.57       333        1          0          363.56     19578      -1400      598        32373      0          22322.32   89.396     22478      6529      
2731.2     7.7        330        1          0          361.977    19502      -1400      602        32373      0          22323.46   89.521     22509      6528      
2731.4     7.65       326        1          0          362.912    19547      -1400      598        32373      0          22324.73   89.607     22530      6529      
2731.6     7.63       326        1          0          364.309    19614      -1400      599        32373      0          22325.98   89.65      22541      6528      
2731.8     7.66       328        1          0          362.152    19510      -1400      603        32374      0          22327.14   89.692     22551      6528      
2732       7.67       328        1          0          362.869    19544      -1400      599        32373      0          22328.38   89.746     22565      6527      
2732.2     7.39       307        1          0          364.141    19605      -1400      600        32373      0          22329.57   89.784     22574      6527      
2732.4     7.25       307        1          0          362.012    19503      -1400      595        32374      0          22330.77   89.823     22584      6528      
2732.6     7.25       310        1          0          363.107    19556      -1400      600        32373      0          22331.93   89.848     22590      6528      
2732.8     7.25       310        1          0          363.704    19584      -1400      596        32373      0          22333.2    89.874     22596      6528      
2733       7.95       363        1          0          361.22     19465      -1400      597        32373      0          22334.36   89.894     22602      6528      
2733.2     8.32       363        1          0          362.913    19546      -1400      598        32374      0          22335.55   89.917     22607      6528      
2733.4     8.49       368        1          0          363.328    19566      -1400      605        32374      0          22336.75   89.932     22611      6528      
2733.6     8.57       368        1          0          362.31     19517      -1400      598        32374      0          22338.02   89.943     22614      6528      
2733.8     8.21       339        1          0          361.969    19501      -1400      600        32373      0          22339.21   89.954     22616      6528      
2734       8.02       339        1          0          361.707    19488      -1400      601        32374      0          22340.37   89.957     22617      6528      
2734.2     7.91       334        1          0          363.448    19572      -1400      595        32373      0          22341.64   89.964     22619      6529      
2734.4     7.84       334        1          0          362.5      19526      -1400      603        32372      0          22342.8    89.967     22620      6528      
2734.6     7.97       353        1          0          362.768    19539      -1400      603        32373      0          22344      89.969     22620      6530      
2734.8     8.21       356        1          0          364.167    19606      -1400      600        32373      0          22345.19   89.973     22621      6529      
2735       8.51       379        1          0          362.581    19530      -1400      597        32374      0          22346.39   89.973     22621      6528      
2735.2     8.76       379        1          0          363.36     19567      -1400      599        32373      0          22347.6    89.973     22621      6529      
2735.4     8.75       370        1          0          364.993    19646      -1400      599        32373      0          22348.79   89.977     22622      6529      
2735.6     8.66       368        1          0          362.263    19515      -1400      594        32372      0          22350.02   89.981     22623      6529      
2735.8     8.59       364        1          0          363.237    19562      -1400      602        32373      0          22351.18   89.981     22623      6529      
2736       8.1        337        1          0          364.395    19617      -1400      602        32373      0          22352.39   89.983     22624      6529      
2736.2     7.63       297        1          0          362.125    19508      -1400      607        32373      0          22353.59   89.985     22624      6530      
2736.4     6.94       281        1          0          363.154    19558      -1400      603        32374      0          22354.81   89.989     22625      6530      
2736.6     6.69       282        1          0          363.452    19572      -1400      606        32373      0          22355.97   89.991     22626      6530      
2736.8     6.67       285        1462       0          362.478    19525      -1400      604        32373      0          22357.18   89.993     22626      6530      
2737       6.67       285        153        0          363.142    19557      -1400      601        32373      0          22358.4    89.997     22627      6530      
2737.2     7.43       341        1          0          363.52     19575      -1400      599        32373      0          22359.57   89.997     22627      6531      
2737.4     7.81       341        1          0          363.164    19558      -1400      604        32373      0          22360.77   89.997     22627      6532      
2737.6     8.38       370        1          0          362.27     19515      -1400      603        32374      0          22362      90.001     22628      6531      
2737.8     8.57       370        1          0          362.734    19537      -1400      600        32373      0          22363.15   90.005     22629      6531      
