~Version
 VERS              .         2.0                           : CWLS LOG ASCII STANDARD - VERSION 2.0
 WRAP              .         NO                            : ONE LINE PER DEPTH STEP
 DLM               .         SPACE                         : DELIMITING CHARACTER(SPACE TAB OR COMMA)
~Well Information
#_______________________________________________________________________________
#
#PARAMETER_NAME    .UNIT     VALUE                         : DESCRIPTION
#_______________________________________________________________________________
STRT               .M        2648.8                        : First reference value
STOP               .M        2753.600052                   : Last reference value
STEP               .M        0.2000001                     : Step increment
NULL               .         -9999                         : Missing value
COMP               .                                       : Company
WELL               .         616                           : Well name
FLD                .                                       : Field
LOC                .                                       : Location
CNTY               .                                       : County
STAT               .                                       : State
CTRY               .                                       : Country
SRVC               .                                       : Service Company
DATE               .                                       : Date
API                .                                       : API number
PROJECT_UPGRADE_TIME .         2021-03-18T21_24_50           : 
group              .         Good                          : 
~Parameter Information Block
#_______________________________________________________________________________
#
#PARAMETER_NAME    .UNIT     VALUE                         : DESCRIPTION
#_______________________________________________________________________________
SET                .         D7027_D                       : 
OTHER              .         Kedr.exe версия 2.1.2.32      : 
OTHER_10           .         TM.GRD = 0.00404*TM$.UE + 0.07: 
OTHER_11           .         MN.ATM = (6.33279e-006*TM.GRD + 0.02401)*(MN$.UE + 2.72*TM.GRD + -2018): 
OTHER_12           .         GK.MKR/H = GK$.UE / 43.5489 + 0: 
OTHER_13           .         RES.SM = 0.00476*CRES.UE - 1.51709: 
OTHER_14           .         PL.GSM3 = 0 + 0 * (PL.UE / 1) +  0 * (PL.UE / 1)^2: 
OTHER_15           .         Постоянная времени ГГП = 6 сек: 
OTHER_16           .         Постоянная времени ГК = 6 сек : 
OTHER_2            .         KedrData.dll версия 3.2.2.14  : 
OTHER_3            .         LasInf.dll версия 3.2.0.13    : 
OTHER_4            .         Драйвер версия 1.2.0.5        : 
OTHER_5            .         Прибор_ КСА-M1                : 
OTHER_6            .         Номер прибора_ 155+р204       : 
OTHER_7            .         Режим_ КСА-М1 + ГГП + Резистивиметр: 
OTHER_8            .         Форма_ 223\2                  : 
OTHER_9            .         Тарировки_                    : 
PROJECT_UPGRADE_TIME .         2021-03-18T21_24_50           : 
TLFamily_CRES      .                                       : 
TLFamily_DEPT      .         Measured Depth                : 
TLFamily_GK        .         Gamma Ray                     : 
TLFamily_GK$       .                                       : 
TLFamily_LM        .         Casing Collar locator         : 
TLFamily_METKA     .                                       : 
TLFamily_MN        .                                       : 
TLFamily_MN$       .                                       : 
TLFamily_PL        .                                       : 
TLFamily_PL_2      .                                       : 
TLFamily_RCOR      .                                       : 
TLFamily_RES       .         Mud Resistivity               : 
TLFamily_SPID      .         Spontaneous Potential         : 
TLFamily_STD       .                                       : 
TLFamily_TIME      .         Time                          : 
TLFamily_TM        .         Temperature                   : 
TLFamily_TM$       .         Temperature                   : 
TLFamily_VGD       .         Gas Volume                    : 
group              .         prim                          : 
~Curve Information
#_______________________________________________________________________________
#
#LOGNAME           .UNIT     LOG_ID                        : DESCRIPTION
#_______________________________________________________________________________
DEPT               .M                                      : 1 Глубина, м -    0.0 см 
CRES               .UE                                     : 9 Проводимость, усл.ед. -  222.0 см 
GK                 .MKR/H                                  : 16 Гамма-активность, мкр./ч -  106.0 см 
GK$                .UE                                     : 13 Гамма-активность, усл.ед. -  106.0 см 
LM                 .                                       : 11 Локатор муфт,  -   16.0 см 
METKA              .                                       : 3 Метки,  -    0.0 см 
MN                 .ATM                                    : 15 Давление, атм. -  160.0 см 
MN$                .UE                                     : 7 Давление, усл.ед. -  160.0 см 
PL                 .UE                                     : 10 Плотность, усл.ед. -  270.0 см 
PL_2               .GSM3                                   : 18 Плотность, г./см3 -  270.0 см 
RCOR               .CM/KM                                  : 5 Коррекция по ролику, см/км -    0.0 см 
RES                .SM                                     : 17 Проводимость,  -  222.0 см 
SPID               .M/H                                    : 2 Скорость, м/час -    0.0 см 
STD                .                                       : 12 Приток,  -  170.0 см 
TIME               .S                                      : 4 Время, сек -    0.0 см 
TM                 .GRD                                    : 14 Температура, °C -  180.0 см 
TM$                .UE                                     : 6 Температура, усл.ед. -  180.0 см 
VGD                .                                       : 8 Влагомер,  -  170.0 см 
~Ascii
# ...
2689.800021 1231       8.46       388        43         0          247.277    12025      14         0          0          4.3425     580        10590      18264.93   54.102     13374      6621      
2690.000021 1233       8.72       398        28         0          247.296    12026      14         0          0          4.352      557        10580      18266.24   54.073     13367      6626      
2690.200021 1234       9.13       417        21         1          247.318    12027      14         0          0          4.3568     580        10569      18268.22   54.039     13359      6625      
2690.400021 1235       9.36       417        137        0          247.337    12028      14         0          0          4.3615     568        10562      18269.48   54.015     13353      6624      
2690.600021 1235       9.51       421        123        0          247.356    12029      14         0          0          4.3615     510        10555      18270.81   53.98      13344      6633      
2690.800021 1235       9.55       413        112        0          247.372    12030      14         0          0          4.3615     580        10549      18272.13   53.934     13333      6634      
2691.000021 1234       9.33       397        92         0          247.391    12031      14         0          0          4.3568     580        10542      18273.43   53.873     13317      6635      
2691.200021 1233       9.22       400        95         0          247.391    12031      14         0          0          4.352      510        10534      18274.71   53.832     13307      6636      
2691.400021 1233       9.2        400        82         0          247.425    12033      14         0          0          4.352      580        10529      18276.02   53.801     13300      6636      
2691.600021 1233       9.52       439        78         0          247.447    12034      14         0          0          4.352      580        10520      18277.28   53.779     13294      6627      
2691.800022 1230       9.8        439        80         0          247.477    12035      14         0          0          4.3386     522        10513      18278.61   53.759     13289      6623      
2692.000022 1229       10         446        68         0          247.496    12036      14         0          0          4.333      568        10511      18279.92   53.745     13286      6623      
2692.200022 1229       10.12      446        82         0          247.521    12037      14         0          0          4.333      580        10506      18281.17   53.731     13282      6625      
2692.400022 1233       10.07      436        95         0          247.542    12038      14         0          0          4.3504     540        10502      18282.47   53.708     13277      6627      
2692.600022 1233       10.04      436        5235       0          247.557    12039      14         0          0          4.3496     580        10498      18283.78   53.683     13270      6630      
2692.800022 1232       9.7        404        2032       0          247.581    12040      14         0          0          4.3472     580        10493      18285.09   53.65      13262      6632      
2693.000022 1232       9.5        407        507        0          247.576    12040      14         0          0          4.3472     545        10490      18286.41   53.604     13251      6637      
2693.200022 1231       9.57       420        163        0          247.598    12041      14         0          0          4.3425     533        10485      18287.67   53.569     13242      6636      
2693.400022 1232       9.66       432        56         0          247.619    12042      14         0          0          4.3472     580        10483      18288.99   53.549     13237      6633      
2693.600022 1231       9.85       438        52         0          247.641    12043      14         0          0          4.3425     580        10481      18290.32   53.529     13232      6635      
2693.800023 1230       9.86       418        58         0          247.661    12044      14         0          0          4.3377     545        10478      18291.57   53.506     13227      6634      
2694.000023 1229       9.73       418        60         0          247.681    12045      14         0          0          4.3353     580        10473      18292.89   53.477     13220      6636      
2694.200023 1229       9.58       399        140        0          247.678    12045      14         0          0          4.333      568        10469      18294.2    53.442     13211      6631      
2694.400023 1228       9.27       390        113        0          247.723    12047      14         0          0          4.3282     580        10464      18295.47   53.419     13205      6633      
2694.600023 1227       9.13       393        81         0          247.719    12047      14         0          0          4.3234     533        10457      18296.79   53.392     13198      6632      
2694.800023 1227       9.08       393        46         0          247.765    12049      14         0          0          4.3211     580        10449      18298.1    53.362     13191      6634      
2695.000023 1226       9.23       418        36         0          247.761    12049      14         0          0          4.3195     580        10441      18299.37   53.336     13185      6631      
2695.200023 1226       9.41       418        32         0          247.781    12050      14         0          0          4.3187     580        10434      18300.64   53.309     13178      6636      
2695.400023 1226       9.79       471        44         0          247.803    12051      14         0          0          4.3187     557        10431      18301.93   53.278     13170      6633      
2695.600023 1225       10.31      471        45         0          247.825    12052      14         0          0          4.3139     580        10427      18303.27   53.257     13165      6636      
2695.800023 1225       10.84      507        43         0          247.845    12053      14         0          0          4.3139     533        10423      18304.59   53.237     13160      6631      
2696.000024 1225       11.23      507        108        0          247.864    12054      14         0          0          4.3131     510        10416      18305.87   53.205     13152      6629      
2696.200024 1223       11.31      494        50         0          247.884    12055      14         0          0          4.302      580        10412      18307.15   53.164     13142      6630      
2696.400024 1225       11.33      494        26         0          247.906    12056      14         0          0          4.312      580        10406      18308.48   53.134     13135      6632      
2696.600024 1226       11.33      493        24         0          247.928    12057      14         0          0          4.3187     580        10399      18309.73   53.115     13130      6634      
2696.800024 1225       11.32      493        17         0          247.947    12058      14         0          0          4.3155     580        10395      18311.06   53.094     13125      6630      
2697.000024 1226       11.19      479        9          0          247.958    12059      14         0          0          4.3187     580        10387      18312.38   53.056     13115      6626      
2697.200024 1226       11.1       479        81         0          247.987    12060      14         0          0          4.3187     580        10380      18313.63   53.013     13105      6632      
2697.400024 1225       11.04      478        41         0          247.991    12060      14         0          0          4.3139     510        10372      18314.96   52.99      13099      6635      
2697.600024 1225       10.99      475        48         0          248.004    12061      14         0          0          4.3123     580        10365      18316.23   52.96      13092      6636      
2697.800025 1223       10.89      470        55         0          248.044    12063      14         0          0          4.306      580        10359      18317.53   52.934     13085      6633      
