~Version
 VERS              .         2.0                           : CWLS LOG ASCII STANDARD - VERSION 2.0
 WRAP              .         NO                            : ONE LINE PER DEPTH STEP
 DLM               .         SPACE                         : DELIMITING CHARACTER(SPACE TAB OR COMMA)
~Well Information
#_______________________________________________________________________________
#
#PARAMETER_NAME    .UNIT     VALUE                         : DESCRIPTION
#_______________________________________________________________________________
STRT               .M        2670                          : First reference value
STOP               .M        2776                          : Last reference value
STEP               .M        0.2                           : Step increment
NULL               .         -9999                         : Missing value
COMP               .                                       : Company
WELL               .         616                           : Well name
FLD                .                                       : Field
LOC                .                                       : Location
CNTY               .                                       : County
STAT               .                                       : State
CTRY               .                                       : Country
SRVC               .                                       : Service Company
DATE               .                                       : Date
API                .                                       : API number
PROJECT_UPGRADE_TIME .         2021-03-18T21_24_50           : 
group              .         Good                          : 
~Parameter Information Block
#_______________________________________________________________________________
#
#PARAMETER_NAME    .UNIT     VALUE                         : DESCRIPTION
#_______________________________________________________________________________
SET                .         D1803_D                       : 
OTHER              .         Программное обеспечение станции MONITOR-386EX 25/12/99 15_08_10   BGF V52 22/08/01 16_56_30   3.1_SNGF___BGF_N_092049: 
OTHER_10           .         Тарировки_                    : 
OTHER_11           .         TM.GRD = 0.00403*TM$.UE + -1.07: 
OTHER_12           .         MN.ATM = (9.34907e-006*TM.GRD + 0.02171)*(MN$.UE + -7.93*TM.GRD + -1787): 
OTHER_13           .         GK.MKR/H = LM. / 42.4676      : 
OTHER_14           .         GK.FLT = 0.1*GK.MKR/H[-1] + (1-0.1)*GK.MKR/H[0]: 
OTHER_2            .         Kedr.exe версия 3.4.2.51      : 
OTHER_3            .         KedrData.dll версия 3.4.2.24  : 
OTHER_4            .         Драйвер версия 2.1.1.3        : 
OTHER_5            .         Мнемоники версия 3.3 S        : 
OTHER_6            .         Прибор_ КСА-Т4                : 
OTHER_7            .         Номер прибора_ 03             : 
OTHER_8            .         Режим_ КСА-Т4                 : 
OTHER_9            .         Форма_ КВА.                   : 
PROJECT_UPGRADE_TIME .         2021-03-18T21_24_49           : 
TLFamily_DEPT      .         Measured Depth                : 
TLFamily_GK        .         Gamma Ray                     : 
TLFamily_GK$       .                                       : 
TLFamily_GK_2      .         Gamma Ray                     : 
TLFamily_LM        .         Casing Collar locator         : 
TLFamily_METKA     .                                       : 
TLFamily_MN        .                                       : 
TLFamily_MN$       .                                       : 
TLFamily_RCOR      .                                       : 
TLFamily_SPID      .         Spontaneous Potential         : 
TLFamily_TENS      .         Cable Tension                 : 
TLFamily_TIME      .         Time                          : 
TLFamily_TM        .         Temperature                   : 
TLFamily_TM$       .         Temperature                   : 
group              .         prim                          : 
~Curve Information
#_______________________________________________________________________________
#
#LOGNAME           .UNIT     LOG_ID                        : DESCRIPTION
#_______________________________________________________________________________
DEPT               .M                                      : 1 Глубина, м -    0.0 см 
GK                 .MKR/H                                  : 13 Гамма-активность, мкр./ч -  110.0 см 
GK$                .UE                                     : 10 Гамма-активность, усл.ед. -  110.0 см 
GK_2               .FLT                                    : 14 Гамма-активность фильтрованная, мкр./ч -  110.0 см 
LM                 .                                       : 9 Локатор муфт,  -   20.0 см 
METKA              .                                       : 3 Метки,  -    0.0 см 
MN                 .ATM                                    : 12 Давление, атм. -  160.0 см 
MN$                .UE                                     : 8 Давление, усл.ед. -  160.0 см 
RCOR               .CM/KM                                  : 5 Коррекция по ролику, см/км -    0.0 см 
SPID               .M/H                                    : 2 Скорость, м/час -    0.0 см 
TENS               .T                                      : 6 Натяжение кабеля, т -    0.0 см 
TIME               .S                                      : 4 Время, сек -    0.0 см 
TM                 .GRD                                    : 11 Температура, °C -  170.0 см 
TM$                .UE                                     : 7 Температура, усл.ед. -  170.0 см 
~Ascii
# ...
2753.2     11.07      470        11.07      203        0          334.983    17290      -673       569        0.01       2047.77    51.051     12933     
2753.4     10.5       446        10.53      172        0          335.644    17320      -673       575        0.03       2049       51.227     12977     
2753.6     10.41      442        10.45      218        0          335.613    17319      -673       567        0.03       2050.33    51.398     13019     
2753.8     9.98       424        10         219        0          335.623    17320      -673       567        0.03       2051.5     51.606     13071     
2754       9.98       424        9.98       231        0          335.179    17300      -673       571        0.03       2052.74    51.767     13111     
2754.2     11.35      482        11.28      216        0          336.076    17341      -673       574        0.01       2054.02    51.934     13152     
2754.4     11.35      482        11.35      246        0          335.168    17300      -673       569        0.01       2055.26    52.039     13178     
2754.6     11.63      494        11.61      232        0          335.233    17303      -673       565        0.01       2056.46    52.248     13230     
2754.8     11.63      494        11.63      228        0          335.563    17318      -673       572        0.02       2057.69    52.424     13274     
2755       10.97      466        11         220        0          336.115    17343      -673       575        0.01       2058.95    52.606     13319     
2755.2     10.97      466        10.97      274        0          335.191    17302      -673       563        0.01       2060.26    52.767     13359     
2755.4     11.04      469        11.04      205        0          336.084    17343      -673       568        0.02       2061.46    52.98      13412     
2755.6     11.04      469        11.04      249        0          335.644    17323      -673       577        0.03       2062.7     53.132     13450     
2755.8     11.35      482        11.34      218        0          335.286    17307      -673       571        0.01       2063.97    53.288     13488     
2756       11.35      482        11.35      273        0          335.801    17330      -673       567        0.02       2065.17    53.408     13518     
2756.2     10.62      451        10.67      227        0          335.314    17309      -673       566        0.01       2066.41    53.536     13550     
2756.4     10.62      451        10.62      253        0          335.394    17313      -673       570        0.03       2067.65    53.718     13595     
2756.6     9.37       398        9.43       219        0          335.816    17332      -673       567        0.02       2068.99    53.932     13648     
2756.8     9.37       398        9.37       315        0          336.26     17352      -673       570        0.01       2070.19    54.148     13702     
2757       9.98       424        9.94       288        0          335.051    17298      -673       573        0.02       2071.39    54.363     13755     
2757.2     9.98       424        9.98       321        0          336.353    17357      -673       574        0.01       2072.66    54.567     13806     
2757.4     10.13      430        10.11      297        0          336.393    17359      -673       566        0.01       2073.91    54.768     13855     
2757.6     10.13      430        10.12      303        0          337.031    17388      -673       571        0.02       2075.12    54.906     13890     
2757.8     9.56       406        9.59       309        0          335.758    17331      -673       571        0.01       2076.36    55.096     13937     
2758       9.56       406        9.56       266        0          336.95     17385      -673       572        0.01       2077.69    55.294     13986     
2758.2     9.16       389        9.2        254        0          335.101    17302      -673       570        0.02       2078.89    55.559     14052     
2758.4     9.16       389        9.16       248        0          336.619    17371      -673       573        0.03       2080.12    55.773     14105     
2758.6     8.88       377        8.9        309        0          336.165    17351      -673       568        0.01       2081.4     55.992     14159     
2758.8     8.88       377        8.88       301        0          336.621    17372      -673       562        0.03       2082.63    56.284     14232     
2759       8.36       355        8.41       265        0          335.449    17320      -673       560        0.03       2083.83    56.559     14300     
2759.2     8.36       355        8.36       5793       0          336.849    17383      -673       569        0.03       2085.07    56.815     14363     
2759.4     7.89       335        7.92       3688       0          335.159    17307      -673       572        0.02       2086.31    57.011     14412     
2759.6     7.89       335        7.89       948        0          336.441    17365      -673       561        0.01       2087.63    57.211     14462     
2759.8     8.34       354        8.29       341        0          336.138    17352      -673       567        0.01       2088.83    57.478     14528     
2760       8.34       354        8.33       268        2          336.873    17385      -673       572        0.04       2090.05    57.708     14585     
2760.2     8.92       379        8.89       308        0          335.839    17339      -679       593        0          2091.68    57.902     14633     
2760.4     8.92       379        8.92       237        0          337.028    17393      -679       589        0.03       2092.92    58.07      14675     
2760.6     9.73       413        9.64       214        0          336.465    17368      -679       587        0.03       2094.14    58.264     14723     
2760.8     9.73       413        9.72       219        0          337.266    17404      -679       585        0.03       2095.39    58.472     14775     
2761       9.47       402        9.48       327        0          336.561    17373      -679       577        0.03       2096.69    58.626     14813     
2761.2     9.47       402        9.47       247        0          337.494    17415      -679       578        0.03       2097.91    58.774     14850     
2761.4     9.82       417        9.8        213        0          336.698    17380      -679       582        0.01       2099.18    58.951     14894     
2761.6     9.81       417        9.81       222        0          337.509    17416      -679       591        0.03       2100.38    59.164     14946     
2761.8     9.8        416        9.8        190        0          335.983    17348      -679       588        0.03       2101.61    59.416     15009     
2762       9.55       406        9.64       200        0          337.245    17405      -679       586        0.03       2102.89    59.601     15055     
2762.2     8.1        344        8.17       194        0          336.919    17391      -679       584        0.03       2104.11    59.808     15106     
2762.4     8.25       350        8.2        197        0          337.902    17435      -679       582        0.03       2105.38    60.002     15154     
2762.6     8.41       357        8.4        246        0          336.59     17377      -679       587        0.03       2106.66    60.157     15193     
2762.8     8.41       357        8.41       215        0          337.619    17423      -679       592        0.03       2107.87    60.317     15233     
2763       8.52       362        8.52       196        0          337.053    17398      -679       588        0.03       2109.08    60.416     15257     
2763.2     8.55       363        8.54       178        0          337.879    17435      -679       586        0.03       2110.34    60.504     15279     
2763.4     8.59       365        8.59       202        0          337.219    17406      -679       580        0.03       2111.52    60.591     15300     
