~Version
 VERS              .         2.0                           : CWLS LOG ASCII STANDARD - VERSION 2.0
 WRAP              .         NO                            : ONE LINE PER DEPTH STEP
 DLM               .         SPACE                         : DELIMITING CHARACTER(SPACE TAB OR COMMA)
~Well Information
#_______________________________________________________________________________
#
#PARAMETER_NAME    .UNIT     VALUE                         : DESCRIPTION
#_______________________________________________________________________________
STRT               .M        2650.8                        : First reference value
STOP               .M        2752.199899                   : Last reference value
STEP               .M        0.1999998                     : Step increment
NULL               .         -9999                         : Missing value
COMP               .                                       : Company
WELL               .         616                           : Well name
FLD                .                                       : Field
LOC                .                                       : Location
CNTY               .                                       : County
STAT               .                                       : State
CTRY               .                                       : Country
SRVC               .                                       : Service Company
DATE               .                                       : Date
API                .                                       : API number
PROJECT_UPGRADE_TIME .         2021-03-18T21_24_50           : 
group              .         Good                          : 
~Parameter Information Block
#_______________________________________________________________________________
#
#PARAMETER_NAME    .UNIT     VALUE                         : DESCRIPTION
#_______________________________________________________________________________
SET                .         D4415_D                       : 
OTHER              .         Запись производится в присутствии: 
OTHER_10           .         Максимальная температура      : 
OTHER_11           .         Тип промывочной жидкости      : 
OTHER_12           .         Сопротивление ПЖ (Ом*м) при 20°C: 
OTHER_13           .         Плотность ПЖ(г/см3)           : 
OTHER_14           .         Вязкость ПЖ(с)                : 
OTHER_15           .         Водоотдача ПЖ(см3/30мин)      : 
OTHER_16           .         Уровень ПЖ                    : 
OTHER_17           .         Нефть ПЖ (%)                  : 
OTHER_18           .         Барит ПЖ (%)                  : 
OTHER_19           .         Гематит ПЖ (%)                : 
OTHER_2            .         Заказчик ННСН  ЦДНГ-1         : 
OTHER_20           .         КМЦ ПЖ (%)                    : 
OTHER_21           .         Разгазирование ПЖ (да,нет)    : 
OTHER_22           .         Подъемник                     : 
OTHER_23           .         Лаборатория                   : 
OTHER_24           .         Тип кабеля                    : 
OTHER_25           .         Длина кабеля (м)              : 
OTHER_26           .         Цена последней метки          : 
OTHER_27           .         Цена контрольной метки        : 
OTHER_28           .         Диаметр долота (мм)           : 
OTHER_29           .         Глубина бурения (м)           : 
OTHER_3            .         Площадь                       : 
OTHER_30           .         Искусственный забой (м)       : 
OTHER_31           .         Диаметр колонны (мм)          : 
OTHER_32           .         Толщина колонны (мм)          : 
OTHER_33           .         Башмак колонны (м)            : 
OTHER_34           .         Диаметр НКТ (мм)              : 
OTHER_35           .         Толщина НКТ (мм)              : 
OTHER_36           .         Воронка НКТ (м)               : 
OTHER_37           .         Дата цементожа                : 
OTHER_38           .         Тип, количество(т) и плотность цемента: 
OTHER_39           .         Интервалы перфорации (м)      : 
OTHER_4            .         Категория                     : 
OTHER_40           .         Направление, диаметр (мм)     : 
OTHER_41           .         Направление, глубина (м)      : 
OTHER_42           .         Кондуктор, диаметр (мм)       : 
OTHER_43           .         Кондуктор, глубина (м)        : 
OTHER_44           .         Техническая колонна, диаметр (мм): 
OTHER_45           .         Техническая колонна, глубина (м): 
OTHER_46           .         Эксплуатационная колонна, диаметр (мм): 
OTHER_47           .         Эксплуатационная колонна, глубина (м): 
OTHER_48           .         Программа Кедр-02 версия 3.4  : 
OTHER_49           .         Операционная система Windows NT 5.1 build 2600 Service Pack 2: 
OTHER_5            .         Назначение исследований       : 
OTHER_50           .         Программное обеспечение станции MONITOR-386EX 25/12/99 15_08_10   BGF V54 20/09/05 15_32_17   3.3__BGF_9030071: 
OTHER_51           .         Kedr.exe версия 3.4.2.74      : 
OTHER_52           .         KedrData.dll версия 3.4.2.29  : 
OTHER_53           .         Мнемоники версия 3.18 S       : 
OTHER_54           .         Драйвер версия 2.1.1.4        : 
OTHER_55           .         LasInf.dll 4.3.0.35           : 
OTHER_56           .         Прибор_ КСА-Т4                : 
OTHER_57           .         Номер прибора_ 160            : 
OTHER_58           .         Режим_ КСА-Т4                 : 
OTHER_59           .         Форма_ С.А.Б.                 : 
OTHER_6            .         Альтитуда стола ротора        : 
OTHER_60           .         Тарировки_                    : 
OTHER_61           .         <_techsia_sc_> Дата тарировки температуры 25.05.2010: 
OTHER_62           .         Ручной ввод коэффициентов     : 
OTHER_63           .         TM.DEGC = 0.00402*RTM.E.ACP + -0.994: 
OTHER_64           .         <_techsia_sc_> Дата тарировки давления 25.05.2010: 
OTHER_65           .         Ручной ввод коэффициентов     : 
OTHER_66           .         MN.ATM = (2.27521e-006*TM.DEGC + 0.02078)*(RMN.E.ACP + 6.2*TM.DEGC + -1688): 
OTHER_67           .         <_techsia_sc_> Дата тарировки ГК 25.05.2010: 
OTHER_68           .         Ручной ввод коэффициентов     : 
OTHER_69           .         GR.UR/H = RGR.IMP/MIN / 45.5144: 
OTHER_7            .         Вид исследований 3  6         : 
OTHER_70           .         GK.FLT = 0.1*GR.UR/H[-1] + (1-0.1)*GR.UR/H[0]: 
OTHER_8            .         Начало бурения интервала каротажа: 
OTHER_9            .         Окончание бурения интервала каротажа: 
PROJECT_UPGRADE_TIME .         2021-03-18T21_24_50           : 
TLFamily_CCLC      .                                       : 
TLFamily_DEPT      .         Measured Depth                : 
TLFamily_GK        .         Gamma Ray                     : 
TLFamily_GR        .         Gamma Ray                     : 
TLFamily_METKA     .                                       : 
TLFamily_MN        .                                       : 
TLFamily_RCOR      .                                       : 
TLFamily_RGR       .                                       : 
TLFamily_RMN       .                                       : 
TLFamily_RTEN      .                                       : 
TLFamily_RTM       .                                       : 
TLFamily_SPEE      .         Cable Speed                   : 
TLFamily_TIME      .         Time                          : 
TLFamily_TM        .         Temperature                   : 
group              .         prim                          : 
~Curve Information
#_______________________________________________________________________________
#
#LOGNAME           .UNIT     LOG_ID                        : DESCRIPTION
#_______________________________________________________________________________
DEPT               .M                                      : 1 Глубина, м -    0.0 см 
CCLC               .E.ACP                                  : 9 Локатор муфт,  -   20.0 см 
GK                 .FLT                                    : 14 Гамма-активность фильтрованная, мкр./ч -  110.0 см 
GR                 .UR/H                                   : 13 Гамма-активность, мкр./ч -  110.0 см 
METKA              .CU                                     : 3 Метки,  -    0.0 см 
MN                 .ATM                                    : 12 Давление, атм. -  160.0 см 
RCOR               .CM/KM                                  : 5 Коррекция по ролику, см/км -    0.0 см 
RGR                .IMP/MIN                                : 10 Гамма-активность, усл.ед. -  110.0 см 
RMN                .E.ACP                                  : 8 Давление, усл.ед. -  160.0 см 
RTEN               .T                                      : 6 Натяжение кабеля, т -    0.0 см 
RTM                .E.ACP                                  : 7 Температура, усл.ед. -  170.0 см 
SPEE               .M/H                                    : 2 Скорость, м/час -    0.0 см 
TIME               .S                                      : 4 Время, сек -    0.0 см 
TM                 .DEGC                                   : 11 Температура, °C -  170.0 см 
~Ascii
# ...
2692.399958 1237       10.24      10.24      0          242.533    -1090      466        12878      0.25       16290      594        255.14     64.49     
2692.599958 859        10.24      10.24      0          242.554    -1090      466        12879      0.25       16286      595        256.33     64.474    
2692.799958 230        8.96       8.96       0          242.559    -1090      408        12879      0.25       16281      594        257.59     64.456    
2692.999958 73         8.96       8.96       0          242.593    -1090      408        12881      0.25       16279      595        258.8      64.448    
2693.199958 34         9.08       9.08       0          242.606    -1090      413        12882      0.25       16277      596        260.01     64.439    
2693.399957 29         9.1        9.1        0          242.609    -1090      414        12882      0.25       16273      596        261.19     64.422    
2693.599957 28         9.24       9.24       0          242.628    -1090      421        12883      0.25       16269      596        262.4      64.406    
2693.799957 38         9.6        9.6        0          242.647    -1090      437        12884      0.25       16265      595        263.69     64.392    
2693.999957 50         9.97       9.97       0          242.666    -1090      454        12885      0.25       16262      596        264.88     64.379    
2694.199957 62         10.04      10.04      0          242.684    -1090      457        12886      0.25       16259      595        266.09     64.366    
2694.399956 42         10.09      10.09      0          242.703    -1090      459        12887      0.25       16255      595        267.3      64.351    
2694.599956 45         10.41      10.41      0          242.722    -1090      474        12888      0.25       16250      594        268.56     64.332    
2694.799956 43         9.91       9.91       0          242.741    -1090      451        12889      0.25       16248      595        269.75     64.324    
2694.999956 35         9.58       9.58       0          242.76     -1090      436        12890      0.25       16246      593        270.95     64.314    
2695.199956 38         9.58       9.58       0          242.76     -1090      436        12890      0.25       16241      594        272.17     64.296    
2695.399955 47         10.19      10.19      0          242.781    -1090      464        12891      0.25       16237      595        273.41     64.28     
2695.599955 30         10.19      10.19      0          242.803    -1090      464        12892      0.25       16233      593        274.66     64.263    
2695.799955 29         10.39      10.39      0          242.813    -1090      473        12893      0.25       16230      593        275.86     64.251    
2695.999955 29         10.39      10.39      2          242.849    -1090      473        12895      0.25       16227      594        277.06     64.238    
2696.199955 43         10.57      10.57      0          242.851    -1093      481        12895      0.25       16224      594        278.49     64.225    
2696.399954 56         10.57      10.57      0          242.87     -1093      481        12896      0.25       16220      594        279.71     64.209    
2696.599954 31         11.27      11.27      0          242.887    -1093      513        12897      0.25       16216      594        280.91     64.194    
2696.799954 34         11.27      11.27      0          242.9      -1093      513        12898      0.25       16212      595        282.11     64.177    
2696.999954 36         12.46      12.46      0          242.923    -1093      567        12899      0.25       16206      594        283.34     64.155    
2697.199954 92         12.46      12.46      0          242.961    -1093      567        12901      0.25       16201      594        284.54     64.133    
2697.399953 83         13.8       13.8       0          242.959    -1093      628        12901      0.25       16196      596        285.81     64.115    
2697.599953 84         13.8       13.8       0          242.991    -1093      628        12903      0.25       16192      595        287.02     64.098    
2697.799953 61         14.19      14.19      0          243.003    -1093      646        12903      0.25       16187      595        288.22     64.076    
2697.999953 158        14.19      14.19      0          243.012    -1093      646        12904      0.25       16181      595        289.41     64.054    
2698.199953 138        12.44      12.44      0          243.029    -1093      566        12905      0.25       16175      595        290.65     64.031    
2698.399952 57         12.44      12.44      0          243.047    -1093      566        12906      0.25       16170      595        291.87     64.009    
2698.599952 79         9.82       9.82       0          243.065    -1093      447        12907      0.25       16166      594        293.12     63.995    
2698.799952 103        9.82       9.82       0          243.084    -1093      447        12908      0.25       16162      594        294.33     63.978    
2698.999952 65         9.01       9.01       0          243.103    -1093      410        12909      0.25       16159      594        295.52     63.965    
2699.199952 96         9.01       9.01       0          243.1      -1093      410        12909      0.25       16155      595        296.78     63.948    
2699.399951 83         9.01       9.01       0          243.117    -1093      410        12910      0.25       16150      594        297.99     63.928    
2699.599951 74         9.01       9.01       0          243.134    -1093      410        12911      0.25       16143      595        299.17     63.902    
2699.799951 48         9.03       9.03       0          243.15     -1093      411        12912      0.25       16136      594        300.41     63.873    
2699.999951 35         9.03       9.03       0          243.166    -1093      411        12913      0.25       16127      593        301.63     63.838    
2700.199951 24         8.66       8.66       0          243.183    -1093      394        12914      0.25       16120      594        302.89     63.808    
2700.39995 25         8.66       8.66       0          243.203    -1093      394        12915      0.25       16110      594        304.1      63.767    
2700.59995 45         8.2        8.2        0          243.213    -1093      373        12916      0.25       16102      593        305.28     63.737    
2700.79995 122        8.2        8.2        0          243.231    -1093      373        12917      0.25       16098      594        306.46     63.719    
2700.99995 65         8.06       8.06       0          243.249    -1093      367        12918      0.25       16093      595        307.75     63.7      
2701.19995 66         8.06       8.06       0          243.265    -1093      367        12919      0.25       16086      596        308.94     63.672    
2701.399949 100        8.52       8.52       0          243.281    -1093      388        12920      0.25       16078      596        310.14     63.641    
2701.599949 109        8.52       8.52       0          243.29     -1093      388        12921      0.25       16070      595        311.33     63.607    
2701.799949 103        8.96       8.96       0          243.314    -1093      408        12922      0.25       16063      597        312.57     63.578    
2701.999949 83         9.03       9.03       0          243.33     -1093      411        12923      0.25       16057      596        313.8      63.555    
2702.199949 101        9.6        9.6        0          243.345    -1093      437        12924      0.25       16048      596        315.04     63.52     
2702.399948 98         9.6        9.6        0          243.363    -1093      437        12925      0.25       16039      595        316.23     63.484    
2702.599948 142        10.51      10.51      0          243.38     -1093      479        12926      0.25       16035      594        317.45     63.468    
