~Version
 VERS              .         2.0                           : CWLS LOG ASCII STANDARD - VERSION 2.0
 WRAP              .         NO                            : ONE LINE PER DEPTH STEP
 DLM               .         SPACE                         : DELIMITING CHARACTER(SPACE TAB OR COMMA)
~Well Information
#_______________________________________________________________________________
#
#PARAMETER_NAME    .UNIT     VALUE                         : DESCRIPTION
#_______________________________________________________________________________
STRT               .M        2649.4                        : First reference value
STOP               .M        2758.800164                   : Last reference value
STEP               .M        0.2000003                     : Step increment
NULL               .         -9999                         : Missing value
COMP               .                                       : Company
WELL               .         616                           : Well name
FLD                .                                       : Field
LOC                .                                       : Location
CNTY               .                                       : County
STAT               .                                       : State
CTRY               .                                       : Country
SRVC               .                                       : Service Company
DATE               .                                       : Date
API                .                                       : API number
PROJECT_UPGRADE_TIME .         2021-03-18T21_24_50           : 
group              .         Good                          : 
~Parameter Information Block
#_______________________________________________________________________________
#
#PARAMETER_NAME    .UNIT     VALUE                         : DESCRIPTION
#_______________________________________________________________________________
SET                .         D4417_D_2                     : 
COMM               .                                       : 
OTHER              .         Запись производится в присутствии: 
OTHER_10           .         Максимальная температура      : 
OTHER_11           .         Тип промывочной жидкости      : 
OTHER_12           .         Сопротивление ПЖ (Ом*м) при 20°C: 
OTHER_13           .         Плотность ПЖ(г/см3)           : 
OTHER_14           .         Вязкость ПЖ(с)                : 
OTHER_15           .         Водоотдача ПЖ(см3/30мин)      : 
OTHER_16           .         Уровень ПЖ                    : 
OTHER_17           .         Нефть ПЖ (%)                  : 
OTHER_18           .         Барит ПЖ (%)                  : 
OTHER_19           .         Гематит ПЖ (%)                : 
OTHER_2            .         Заказчик ННСН  ЦДНГ-1         : 
OTHER_20           .         КМЦ ПЖ (%)                    : 
OTHER_21           .         Разгазирование ПЖ (да,нет)    : 
OTHER_22           .         Подъемник                     : 
OTHER_23           .         Лаборатория                   : 
OTHER_24           .         Тип кабеля                    : 
OTHER_25           .         Длина кабеля (м)              : 
OTHER_26           .         Цена последней метки          : 
OTHER_27           .         Цена контрольной метки        : 
OTHER_28           .         Диаметр долота (мм)           : 
OTHER_29           .         Глубина бурения (м)           : 
OTHER_3            .         Площадь                       : 
OTHER_30           .         Искусственный забой (м)       : 
OTHER_31           .         Диаметр колонны (мм)          : 
OTHER_32           .         Толщина колонны (мм)          : 
OTHER_33           .         Башмак колонны (м)            : 
OTHER_34           .         Диаметр НКТ (мм)              : 
OTHER_35           .         Толщина НКТ (мм)              : 
OTHER_36           .         Воронка НКТ (м)               : 
OTHER_37           .         Дата цементожа                : 
OTHER_38           .         Тип, количество(т) и плотность цемента: 
OTHER_39           .         Интервалы перфорации (м)      : 
OTHER_4            .         Категория                     : 
OTHER_40           .         Направление, диаметр (мм)     : 
OTHER_41           .         Направление, глубина (м)      : 
OTHER_42           .         Кондуктор, диаметр (мм)       : 
OTHER_43           .         Кондуктор, глубина (м)        : 
OTHER_44           .         Техническая колонна, диаметр (мм): 
OTHER_45           .         Техническая колонна, глубина (м): 
OTHER_46           .         Эксплуатационная колонна, диаметр (мм): 
OTHER_47           .         Эксплуатационная колонна, глубина (м): 
OTHER_48           .         Программа Кедр-02 версия 3.4  : 
OTHER_49           .         Операционная система Windows NT 5.1 build 2600 Service Pack 2: 
OTHER_5            .         Назначение исследований       : 
OTHER_50           .         Программное обеспечение станции MONITOR-386EX 25/12/99 15_08_10   BGF V54 20/09/05 15_32_17   3.3__BGF_9030071: 
OTHER_51           .         Kedr.exe версия 3.4.2.74      : 
OTHER_52           .         KedrData.dll версия 3.4.2.29  : 
OTHER_53           .         Мнемоники версия 3.18 S       : 
OTHER_54           .         Драйвер версия 2.1.1.4        : 
OTHER_55           .         LasInf.dll 4.3.0.35           : 
OTHER_56           .         Прибор_ КСА-Т4                : 
OTHER_57           .         Номер прибора_ 160            : 
OTHER_58           .         Режим_ КСА-Т4                 : 
OTHER_59           .         Форма_ С.А.Б.                 : 
OTHER_6            .         Альтитуда стола ротора        : 
OTHER_60           .         Тарировки_                    : 
OTHER_61           .         <_techsia_sc_> Дата тарировки температуры 25.05.2010: 
OTHER_62           .         Ручной ввод коэффициентов     : 
OTHER_63           .         TM.DEGC = 0.00402*RTM.E.ACP + -0.994: 
OTHER_64           .         <_techsia_sc_> Дата тарировки давления 25.05.2010: 
OTHER_65           .         Ручной ввод коэффициентов     : 
OTHER_66           .         MN.ATM = (2.27521e-006*TM.DEGC + 0.02078)*(RMN.E.ACP + 6.2*TM.DEGC + -1688): 
OTHER_67           .         <_techsia_sc_> Дата тарировки ГК 25.05.2010: 
OTHER_68           .         Ручной ввод коэффициентов     : 
OTHER_69           .         GR.UR/H = RGR.IMP/MIN / 45.5144: 
OTHER_7            .         Вид исследований 3  6         : 
OTHER_70           .         GK.FLT = 0.1*GR.UR/H[-1] + (1-0.1)*GR.UR/H[0]: 
OTHER_8            .         Начало бурения интервала каротажа: 
OTHER_9            .         Окончание бурения интервала каротажа: 
PROJECT_UPGRADE_TIME .         2021-03-18T21_24_50           : 
PRTY               .         ПП-601-1                      : N партии
SRVC               .         Барковский                    : Начальник партии
TLFamily_DEPT      .         Measured Depth                : 
TLFamily_LM        .         Casing Collar locator         : 
TLFamily_MN        .                                       : 
TLFamily_TM        .         Temperature                   : 
group              .         second                        : 
~Curve Information
#_______________________________________________________________________________
#
#LOGNAME           .UNIT     LOG_ID                        : DESCRIPTION
#_______________________________________________________________________________
DEPT               .M                                      : Depth curve 
LM                 .е.ацп                                  : Локатор муфт,е.ацп 
MN                 .атм                                    : 12 Давление, атм. -  160.0 см 
TM                 .град.C                                 : Термограмма по стволу скважины,град.C 
~Ascii
# ...
2685.200054 537.855    241.935    64.793    
2685.400054 3292.662   241.957    64.792    
2685.600054 912.157    241.975    64.788    
2685.800055 263.315    241.993    64.765    
2686.000055 120.069    242.009    64.753    
2686.200055 105.007    242.022    64.747    
2686.400056 81.012     242.031    64.736    
2686.600056 88.996     242.05     64.724    
2686.800056 85.002     242.069    64.713    
2687.000056 95.995     242.089    64.701    
2687.200057 125.985    242.108    64.694    
2687.400057 190.968    242.126    64.679    
2687.600057 101.044    242.144    64.664    
2687.800058 116.992    242.165    64.649    
2688.000058 65.025     242.185    64.648    
2688.200058 67.999     242.203    64.636    
2688.400058 76.996     242.199    64.613    
2688.600059 97.99      242.221    64.592    
2688.800059 128.985    242.235    64.576    
2689.000059 87.02      242.275    64.557    
2689.20006 174.957    242.283    64.552    
2689.40006 178.998    242.314    64.539    
2689.60006 161.009    242.31     64.526    
2689.800061 111.024    242.328    64.501    
2690.000061 90.01      242.346    64.473    
2690.200061 90         242.364    64.462    
2690.400061 85.002     242.382    64.44     
2690.600062 93.996     242.399    64.423    
2690.800062 141.977    242.417    64.396    
2691.000062 89.026     242.434    64.379    
2691.200063 1309.408   242.451    64.354    
2691.400063 590.349    242.445    64.321    
2691.600063 113.231    242.474    64.279    
2691.800064 34.038     242.488    64.25     
2692.000064 27.003     242.5      64.233    
2692.200064 27         242.534    64.214    
2692.400065 35.996     242.53     64.186    
2692.600065 58.989     242.545    64.154    
2692.800065 46.006     242.567    64.113    
2693.000065 59.993     242.598    64.089    
2693.200066 33.013     242.595    64.07     
2693.400066 40.996     242.613    64.043    
2693.600066 36.002     242.632    64.032    
2693.800067 41.997     242.65     64.017    
2694.000067 38.002     242.668    63.993    
2694.200067 43.997     242.7      63.971    
2694.400068 33.005     242.709    63.93     
2694.600068 30.001     242.719    63.9      
2694.800068 31.999     242.73     63.861    
2695.000068 48.992     242.747    63.833    
2695.200069 58.995     242.757    63.817    
2695.400069 36.011     242.76     63.787    
2695.600069 36         242.777    63.755    
2695.80007 40.998     242.793    63.729    
2696.00007 79.981     242.827    63.701    
2696.20007 81         242.841    63.681    
2696.400071 76.002     242.847    63.666    
2696.600071 54.011     242.863    63.644    
2696.800071 107.974    242.872    63.609    
2697.000071 69.019     242.887    63.586    
2697.200072 62.003     242.921    63.572    
2697.400072 87.987     242.932    63.546    
2697.600072 99.994     242.951    63.524    
2697.800073 57.021     242.968    63.512    
2698.000073 71.993     242.984    63.484    
2698.200073 90.991     243.002    63.453    
2698.400073 110.99     243.018    63.435    
2698.600074 85.013     243.032    63.396    
2698.800074 71.007     243.044    63.341    
2699.000074 33.018     243.056    63.287    
2699.200075 27.003     243.063    63.205    
2699.400075 31.998     243.076    63.137    
2699.600075 86.973     243.094    63.101    
2699.800076 83.002     243.108    63.082    
2700.000076 62.01      243.118    63.016    
2700.200076 113.975    243.13     62.946    
2700.400077 89.012     243.141    62.897    
2700.600077 77.006     243.15     62.82     
2700.800077 85.996     243.155    62.743    
2701.000077 60.013     243.177    62.695    
2701.200078 90.985     243.193    62.677    
2701.400078 91         243.21     62.649    
2701.600078 86.002     243.222    62.615    
2701.800079 88.999     243.236    62.546    
2702.000079 3857.174   243.25     62.512    
2702.200079 2585.617   243.265    62.469    
2702.40008 497.012    243.286    62.422    
2702.60008 208.139    243.29     62.345    
2702.80008 140.033    243.295    62.277    
2703.00008 76.031     243.323    62.2      
2703.200081 106.985    243.34     62.146    
2703.400081 84.011     243.341    62.101    
2703.600081 80.002     243.367    62.053    
2703.800082 75.002     243.381    62.013    
2704.000082 104.985    243.394    61.963    
2704.200082 129.988    243.409    61.916    
2704.400083 137.996    243.423    61.881    
2704.600083 201.969    243.436    61.833    
2704.800083 128.036    243.448    61.773    
2705.000083 85.021     243.46     61.718    
2705.200084 138.974    243.472    61.662    
2705.400084 104.017    243.488    61.615    
2705.600084 50.026     243.502    61.574    
2705.800085 78.986     243.537    61.539    
2706.000085 58.01      243.53     61.473    
2706.200085 62.998     243.561    61.42     
2706.400085 66.998     243.553    61.375    
2706.600086 66         243.584    61.306    
2706.800086 58.004     243.6      61.26     
2707.000086 97.981     243.612    61.215    
2707.200087 66.015     243.635    61.156    
2707.400087 79.993     243.631    61.079    
2707.600087 106.987    243.643    61.009    
2707.800088 79.014     243.678    60.963    
2708.000088 96.991     243.677    60.924    
2708.200088 86.005     243.71     60.893    
2708.400089 48.018     243.718    60.838    
2708.600089 83.983     243.729    60.764    
2708.800089 45.019     243.758    60.704    
2709.000089 66.989     243.776    60.655    
2709.20009 149.96     243.779    60.604    
2709.40009 90.029     243.799    60.552    
2709.60009 84.003     243.814    60.489    
2709.800091 49.017     243.827    60.449    
2710.000091 74.987     243.841    60.399    
2710.200091 79.998     243.854    60.351    
2710.400092 58.011     243.866    60.305    
2710.600092 76.991     243.895    60.231    
2710.800092 87.995     243.908    60.157    
2711.000092 90.999     243.937    60.098    
2711.200093 65.013     243.928    60.025    
2711.400093 86.989     243.962    59.972    
2711.600093 126.981    243.996    59.931    
2711.800094 50.037     244.008    59.871    
2712.000094 67.991     244.02     59.808    
2712.200094 70.999     244.033    59.756    
2712.400095 161.956    244.049    59.72     
2712.600095 112.024    244.043    59.676    
2712.800095 64.023     244.096    59.649    
2713.000095 154.956    244.095    59.609    
2713.200096 2522.855   244.11     59.577    
2713.400096 750.858    244.125    59.538    
2713.600096 179.276    244.147    59.483    
2713.800097 159.01     244.17     59.436    
2714.000097 106.026    244.183    59.381    
2714.200097 102.002    244.205    59.329    
2714.400097 46.027     244.215    59.283    
2714.600098 70.988     244.246    59.246    
2714.800098 57.007     244.256    59.19     
2715.000098 123.968    244.272    59.123    
2715.200099 111.006    244.282    59.065    
2715.400099 97.007     244.312    59.031    
2715.600099 98.999     244.327    58.967    
2715.8001  72.013     244.338    58.903    
2716.0001  62.005     244.365    58.832    
2716.2001  71.995     244.363    58.784    
2716.400101 41.015     244.393    58.729    
2716.600101 36.002     244.409    58.693    
2716.800101 71.983     244.425    58.643    
2717.000101 131.971    244.443    58.616    
2717.200102 266.935    244.48     58.597    
2717.400102 102.08     244.491    58.545    
2717.600102 111.995    244.504    58.492    
2717.800103 124.994    244.512    58.422    
2718.000103 139.993    244.521    58.341    
2718.200103 81.029     244.554    58.274    
2718.400104 66.007     244.568    58.229    
2718.600104 165.952    244.581    58.18     
2718.800104 106.029    244.614    58.132    
2719.000104 62.021     244.627    58.072    
2719.200105 69.996     244.641    58.021    
2719.400105 75.997     244.669    57.987    
2719.600105 69.003     244.669    57.939    
2719.800106 75.997     244.703    57.889    
2720.000106 79.998     244.718    57.841    
2720.200106 90.995     244.733    57.81     
2720.400107 97.997     244.752    57.759    
2720.600107 62.017     244.778    57.693    
2720.800107 138.963    244.791    57.647    
