~Version
 VERS              .         2.0                           : CWLS LOG ASCII STANDARD - VERSION 2.0
 WRAP              .         NO                            : ONE LINE PER DEPTH STEP
 DLM               .         SPACE                         : DELIMITING CHARACTER(SPACE TAB OR COMMA)
~Well Information
#_______________________________________________________________________________
#
#PARAMETER_NAME    .UNIT     VALUE                         : DESCRIPTION
#_______________________________________________________________________________
STRT               .M        2669.2                        : First reference value
STOP               .M        2776.2                        : Last reference value
STEP               .M        0.2                           : Step increment
NULL               .         -9999                         : Missing value
COMP               .                                       : Company
WELL               .         616                           : Well name
FLD                .                                       : Field
LOC                .                                       : Location
CNTY               .                                       : County
STAT               .                                       : State
CTRY               .                                       : Country
SRVC               .                                       : Service Company
DATE               .                                       : Date
API                .                                       : API number
PROJECT_UPGRADE_TIME .         2021-03-18T21_24_50           : 
group              .         Good                          : 
~Parameter Information Block
#_______________________________________________________________________________
#
#PARAMETER_NAME    .UNIT     VALUE                         : DESCRIPTION
#_______________________________________________________________________________
SET                .         D1809_D                       : 
OTHER              .         Программное обеспечение станции MONITOR-386EX 25/12/99 15_08_10   BGF V52 22/08/01 16_56_30   3.1_SNGF___BGF_N_092049: 
OTHER_10           .         Тарировки_                    : 
OTHER_11           .         TM.GRD = 0.00403*TM$.UE + -1.07: 
OTHER_12           .         MN.ATM = (9.34907e-006*TM.GRD + 0.02171)*(MN$.UE + -7.93*TM.GRD + -1787): 
OTHER_13           .         GK.MKR/H = LM. / 42.4676      : 
OTHER_14           .         GK.FLT = 0.1*GK.MKR/H[-1] + (1-0.1)*GK.MKR/H[0]: 
OTHER_2            .         Kedr.exe версия 3.4.2.51      : 
OTHER_3            .         KedrData.dll версия 3.4.2.24  : 
OTHER_4            .         Драйвер версия 2.1.1.3        : 
OTHER_5            .         Мнемоники версия 3.3 S        : 
OTHER_6            .         Прибор_ КСА-Т4                : 
OTHER_7            .         Номер прибора_ 03             : 
OTHER_8            .         Режим_ КСА-Т4                 : 
OTHER_9            .         Форма_ КВА.                   : 
PROJECT_UPGRADE_TIME .         2021-03-18T21_24_49           : 
TLFamily_DEPT      .         Measured Depth                : 
TLFamily_GK        .         Gamma Ray                     : 
TLFamily_GK$       .                                       : 
TLFamily_GK_2      .         Gamma Ray                     : 
TLFamily_LM        .         Casing Collar locator         : 
TLFamily_METKA     .                                       : 
TLFamily_MN        .                                       : 
TLFamily_MN$       .                                       : 
TLFamily_RCOR      .                                       : 
TLFamily_SPID      .         Spontaneous Potential         : 
TLFamily_TENS      .         Cable Tension                 : 
TLFamily_TIME      .         Time                          : 
TLFamily_TM        .         Temperature                   : 
TLFamily_TM$       .         Temperature                   : 
group              .         prim                          : 
~Curve Information
#_______________________________________________________________________________
#
#LOGNAME           .UNIT     LOG_ID                        : DESCRIPTION
#_______________________________________________________________________________
DEPT               .M                                      : 1 Глубина, м -    0.0 см 
GK                 .MKR/H                                  : 13 Гамма-активность, мкр./ч -  110.0 см 
GK$                .UE                                     : 10 Гамма-активность, усл.ед. -  110.0 см 
GK_2               .FLT                                    : 14 Гамма-активность фильтрованная, мкр./ч -  110.0 см 
LM                 .                                       : 9 Локатор муфт,  -   20.0 см 
METKA              .                                       : 3 Метки,  -    0.0 см 
MN                 .ATM                                    : 12 Давление, атм. -  160.0 см 
MN$                .UE                                     : 8 Давление, усл.ед. -  160.0 см 
RCOR               .CM/KM                                  : 5 Коррекция по ролику, см/км -    0.0 см 
SPID               .M/H                                    : 2 Скорость, м/час -    0.0 см 
TENS               .T                                      : 6 Натяжение кабеля, т -    0.0 см 
TIME               .S                                      : 4 Время, сек -    0.0 см 
TM                 .GRD                                    : 11 Температура, °C -  170.0 см 
TM$                .UE                                     : 7 Температура, усл.ед. -  170.0 см 
~Ascii
# ...
2742       15.85      673        15.83      205        0          252.827    13589      -672       577        0.05       6725.23    51.667     13086     
2742.2     16.37      695        16.3       199        0          252.843    13589      -672       584        0.05       6726.49    51.527     13051     
2742.4     16.37      695        16.36      211        0          252.875    13590      -672       588        0.07       6727.74    51.394     13018     
2742.6     16.65      707        16.61      221        0          252.915    13591      -672       592        0.07       6728.94    51.288     12992     
2742.8     16.65      707        16.65      198        0          252.932    13592      -672       588        0.07       6730.19    51.196     12969     
2743       14.95      635        15.35      210        0          252.96     13593      -672       586        0.07       6731.49    51.102     12946     
2743.2     14.95      635        14.97      202        0          252.98     13594      -672       578        0.07       6732.75    51.018     12925     
2743.4     12.03      511        12.39      234        0          252.991    13594      -672       579        0.07       6734       50.963     12911     
2743.6     12.03      511        12.05      219        0          253.021    13595      -672       583        0.07       6735.21    50.912     12899     
2743.8     11.66      495        11.74      189        0          253.057    13597      -672       578        0.07       6736.44    50.833     12879     
2744       11.66      495        11.66      194        0          253.072    13597      -672       570        0.07       6737.69    50.753     12859     
2744.2     12.39      526        12.2       162        0          253.099    13598      -672       569        0.07       6738.94    50.694     12845     
2744.4     12.39      526        12.38      158        0          253.126    13599      -672       572        0.07       6740.13    50.621     12827     
2744.6     11.89      505        11.95      161        0          253.078    13597      -672       569        0.07       6741.44    50.55      12809     
2744.8     11.89      505        11.89      189        0          253.18     13601      -672       572        0.05       6742.69    50.48      12791     
2745       11.56      491        11.63      184        0          253.185    13601      -672       574        0.05       6743.95    50.409     12774     
2745.2     11.56      491        11.56      141        0          253.228    13603      -672       576        0.05       6745.2     50.337     12756     
2745.4     11.14      473        11.27      156        0          253.24     13603      -672       577        0.05       6746.42    50.264     12738     
2745.6     11.14      473        11.14      156        0          253.267    13604      -672       571        0.07       6747.64    50.189     12719     
2745.8     10.83      460        10.87      142        0          253.292    13605      -672       565        0.07       6748.89    50.135     12706     
2746       10.83      460        10.83      130        0          253.319    13606      -672       561        0.07       6750.18    50.086     12694     
2746.2     10.83      460        10.83      198        0          253.332    13606      -672       567        0.07       6751.39    50.002     12673     
2746.4     10.83      460        10.83      207        0          253.365    13608      -672       571        0.07       6752.64    49.934     12656     
2746.6     10.62      451        10.69      219        0          253.375    13608      -672       573        0.07       6753.89    49.891     12645     
2746.8     10.62      451        10.62      195        0          253.4      13609      -672       575        0.07       6755.14    49.854     12636     
2747       10.95      465        10.89      209        0          253.425    13610      -672       577        0.07       6756.39    49.818     12627     
2747.2     10.95      465        10.95      192        0          253.448    13611      -672       578        0.07       6757.62    49.787     12620     
2747.4     10.29      437        10.46      165        0          253.472    13612      -672       589        0.07       6758.89    49.762     12614     
2747.6     10.29      437        10.3       189        0          253.496    13613      -672       587        0.07       6760.16    49.745     12609     
2747.8     10.31      438        10.31      191        0          253.495    13613      -672       588        0.07       6761.37    49.736     12607     
2748       10.31      438        10.31      185        0          253.518    13614      -672       593        0.07       6762.59    49.734     12606     
2748.2     10.5       446        10.46      2715       0          253.539    13615      -672       589        0.07       6763.86    49.743     12609     
2748.4     10.5       446        10.5       1110       0          253.56     13616      -672       587        0.07       6765.11    49.761     12613     
2748.6     10.64      452        10.61      327        0          253.58     13617      -672       585        0.07       6766.32    49.779     12617     
2748.8     10.64      452        10.64      189        0          253.601    13618      -672       583        0.07       6767.61    49.798     12622     
2749       11.66      495        11.28      150        0          253.622    13619      -672       573        0.07       6768.9     49.821     12628     
2749.2     11.66      495        11.64      129        0          253.62     13619      -672       565        0.07       6770.11    49.843     12633     
2749.4     11.7       497        11.69      129        0          253.649    13620      -672       560        0.07       6771.31    49.868     12640     
2749.6     11.7       497        11.7       132        0          253.66     13621      -672       570        0.07       6772.55    49.897     12647     
2749.8     10.78      458        11.06      118        0          253.658    13621      -672       573        0.07       6773.8     49.938     12657     
2750       10.78      458        10.8       97         2          253.699    13623      -672       575        0.05       6775.05    49.982     12668     
2750.2     10.93      464        10.91      119        0          253.696    13623      -678       577        0.05       6776.67    50.026     12679     
2750.4     10.93      464        10.93      78         0          253.737    13625      -678       571        0.05       6777.99    50.074     12691     
2750.6     11.75      499        11.54      97         0          253.734    13625      -678       574        0.05       6779.25    50.118     12702     
2750.8     11.75      499        11.74      109        0          253.753    13626      -678       576        0.05       6780.44    50.159     12712     
2751       11.37      483        11.5       96         0          253.769    13627      -678       572        0.05       6781.69    50.206     12724     
2751.2     11.37      483        11.38      113        0          253.77     13627      -678       564        0.07       6782.93    50.242     12732     
2751.4     11.47      487        11.46      92         0          253.787    13628      -678       561        0.07       6784.18    50.286     12743     
2751.6     11.47      487        11.47      113        0          253.8      13629      -678       570        0.06       6785.38    50.373     12765     
2751.8     12.17      517        12.12      124        0          253.818    13630      -678       568        0.05       6786.68    50.49      12794     
2752       12.17      517        12.17      93         0          253.834    13631      -678       570        0.05       6787.94    50.574     12815     
2752.2     12.08      513        12.09      109        0          253.827    13631      -678       573        0.05       6789.19    50.665     12837     
