~Version
 VERS              .         2.0                           : CWLS LOG ASCII STANDARD - VERSION 2.0
 WRAP              .         NO                            : ONE LINE PER DEPTH STEP
 DLM               .         SPACE                         : DELIMITING CHARACTER(SPACE TAB OR COMMA)
~Well Information
#_______________________________________________________________________________
#
#PARAMETER_NAME    .UNIT     VALUE                         : DESCRIPTION
#_______________________________________________________________________________
STRT               .M        2733.1                        : First reference value
STOP               .M        2798.6                        : Last reference value
STEP               .M        0.1                           : Step increment
NULL               .         -9999                         : Missing value
COMP               .                                       : Company
WELL               .         616                           : Well name
FLD                .                                       : Field
LOC                .                                       : Location
CNTY               .                                       : County
STAT               .                                       : State
CTRY               .                                       : Country
SRVC               .                                       : Service Company
DATE               .                                       : Date
API                .                                       : API number
PROJECT_UPGRADE_TIME .         2021-03-18T21_24_50           : 
group              .         Good                          : 
~Parameter Information Block
#_______________________________________________________________________________
#
#PARAMETER_NAME    .UNIT     VALUE                         : DESCRIPTION
#_______________________________________________________________________________
SET                .         D2661_D                       : 
OTHER              .         Программное обеспечение станции MONITOR-386EX 25/12/99 15_08_10   BGF V50 26/12/00 07_26_01   3.1_SNGF___BGF_N_092085: 
OTHER_10           .         Тарировки_                    : 
OTHER_11           .         IK1.GRD = IK1$.UE - -5.96     : 
OTHER_12           .         IK5.GRD = IK5$.UE - -0.74     : 
OTHER_13           .         IK4.GRD = IK4$.UE - -0.9      : 
OTHER_14           .         IK3.GRD = IK3$.UE - -1.28     : 
OTHER_15           .         IK2.GRD = IK2$.UE - -3.55     : 
OTHER_2            .         Kedr.exe версия 3.3.2.32      : 
OTHER_3            .         KedrData.dll версия 3.3.2.17  : 
OTHER_4            .         Драйвер версия 2.1.0.4        : 
OTHER_5            .         Мнемоники версия 3.3 S        : 
OTHER_6            .         Прибор_ Викиз                 : 
OTHER_7            .         Номер прибора_ 0006012        : 
OTHER_8            .         Режим_ Викиз                  : 
OTHER_9            .         Форма_ ВИКИЗ                  : 
PROJECT_UPGRADE_TIME .         2021-03-18T21_24_49           : 
TLFamily_DEPT      .         Measured Depth                : 
TLFamily_IK1       .         Extra Shallow Resistivity     : 
TLFamily_IK1$      .         Extra Shallow Resistivity     : 
TLFamily_IK2       .         Shallow Resistivity           : 
TLFamily_IK2$      .         Shallow Resistivity           : 
TLFamily_IK3       .         Medium Resistivity            : 
TLFamily_IK3$      .         Medium Resistivity            : 
TLFamily_IK4       .         Deep Resistivity              : 
TLFamily_IK4$      .         Deep Resistivity              : 
TLFamily_IK5       .         Resistivity 20                : 
TLFamily_IK5$      .         Resistivity 20                : 
TLFamily_METKA     .                                       : 
TLFamily_PS        .         Spontaneous Potential         : 
TLFamily_RCOR      .                                       : 
TLFamily_SPID      .         Spontaneous Potential         : 
TLFamily_TENS      .         Cable Tension                 : 
TLFamily_TIME      .         Time                          : 
group              .         prim                          : 
~Curve Information
#_______________________________________________________________________________
#
#LOGNAME           .UNIT     LOG_ID                        : DESCRIPTION
#_______________________________________________________________________________
DEPT               .M                                      : 1 Глубина, м -    0.0 см 
IK1                .GRD                                    : 13 3Ф0.5, град. -  226.0 см 
IK1$               .UE                                     : 7 3Ф0.5, усл.ед. -  226.0 см 
IK2                .GRD                                    : 17 3Ф0.7, град. -  240.0 см 
IK2$               .UE                                     : 11 3Ф0.7, усл.ед. -  240.0 см 
IK3                .GRD                                    : 16 3Ф1.0, град. -  260.0 см 
IK3$               .UE                                     : 10 3Ф1.0, усл.ед. -  260.0 см 
IK4                .GRD                                    : 15 3Ф1.4, град. -  288.0 см 
IK4$               .UE                                     : 9 3Ф1.4, усл.ед. -  288.0 см 
IK5                .GRD                                    : 14 3Ф2.0, град. -  328.0 см 
IK5$               .UE                                     : 8 3Ф2.0, усл.ед. -  328.0 см 
METKA              .                                       : 3 Метки,  -    0.0 см 
PS                 .mV                                     : 12 ПС, мВ -  372.0 см 
RCOR               .CM/KM                                  : 5 Коррекция по ролику, см/км -    0.0 см 
SPID               .M/H                                    : 2 Скорость, м/час -    0.0 см 
TENS               .T                                      : 6 Натяжение кабеля, т -    0.0 см 
TIME               .S                                      : 4 Время, сек -    0.0 см 
~Ascii
2733.1     -9999      -9999      -9999      -9999      -9999      -9999      -9999      -9999      -9999      -9999      -9999      -9999      -9999      -9999      -9999      -9999     
2733.2     -9999      -9999      -9999      -9999      -9999      -9999      -9999      -9999      -9999      -9999      -9999      -9999      -9999      -9999      -9999      -9999     
2733.3     -9999      -9999      -9999      -9999      -9999      -9999      -9999      -9999      -9999      -9999      0          -9999      -304       -1803      0          34482.66  
2733.4     -9999      -9999      -9999      -9999      -9999      -9999      -9999      -9999      -9999      -9999      0          -9999      -304       -1807      0          34482.42  
2733.5     -9999      -9999      -9999      -9999      -9999      -9999      -9999      -9999      -9999      -9999      0          -9999      -304       -1812      0          34482.23  
2733.6     -9999      -9999      -9999      -9999      -9999      -9999      -9999      -9999      -9999      -9999      0          -9999      -304       -1817      0          34482.05  
2733.7     -9999      -9999      -9999      -9999      -9999      -9999      -9999      -9999      -9999      -9999      0          -9999      -304       -1824      0          34481.82  
2733.8     -9999      -9999      -9999      -9999      -9999      -9999      -9999      -9999      -9999      -9999      0          -9999      -304       -1824      0          34481.63  
2733.9     -9999      -9999      -9999      -9999      -9999      -9999      -9999      -9999      -9999      -9999      0          -9999      -304       -1816      0          34481.45  
2734       -9999      -9999      -9999      -9999      -9999      -9999      -9999      -9999      -9999      -9999      0          -9999      -304       -1806      0          34481.26  
2734.1     -9999      -9999      -9999      -9999      -9999      -9999      -9999      -9999      -9999      -9999      0          -9999      -304       -1801      0          34481.05  
2734.2     -9999      -9999      -9999      -9999      -9999      -9999      -9999      -9999      -9999      -9999      0          -9999      -304       -1804      0          34480.87  
2734.3     -9999      -9999      -9999      -9999      -9999      -9999      -9999      -9999      -9999      -9999      0          -9999      -304       -1807      0          34480.67  
2734.4     -9999      -9999      -9999      -9999      -9999      -9999      -9999      -9999      -9999      -9999      0          -9999      -304       -1812      0          34480.45  
2734.5     -9999      -9999      -9999      -9999      -9999      -9999      -9999      -9999      -9999      -9999      0          -9999      -304       -1817      0          34480.27  
2734.6     -9999      -9999      -9999      -9999      -9999      -9999      -9999      -9999      -9999      -9999      0          -9999      -304       -1824      0          34480.08  
2734.7     -9999      -9999      -9999      -9999      -9999      -9999      -9999      -9999      -9999      -9999      0          -9999      -304       -1816      0          34479.86  
2734.8     -9999      -9999      -9999      -9999      -9999      -9999      -9999      -9999      -9999      -9999      0          -9999      -304       -1806      0          34479.68  
2734.9     -9999      -9999      -9999      -9999      -9999      -9999      -9999      -9999      -9999      -9999      0          -9999      -304       -1793      0          34479.47  
2735       -9999      -9999      -9999      -9999      -9999      -9999      -9999      -9999      -9999      -9999      0          -9999      -304       -1794      0          34479.28  
2735.1     -9999      -9999      -9999      -9999      -9999      -9999      -9999      -9999      -9999      -9999      0          -9999      -304       -1795      0          34479.1   
2735.2     -9999      -9999      -9999      -9999      -9999      -9999      -9999      -9999      -9999      -9999      0          -9999      -304       -1796      0          34478.88  
2735.3     -9999      -9999      -9999      -9999      -9999      -9999      -9999      -9999      -9999      -9999      0          -9999      -304       -1797      0          34478.7   
2735.4     -9999      -9999      -9999      -9999      -9999      -9999      -9999      -9999      -9999      -9999      0          -9999      -304       -1799      0          34478.48  
2735.5     -9999      -9999      -9999      -9999      -9999      -9999      -9999      -9999      -9999      -9999      0          -9999      -304       -1802      0          34478.32  
2735.6     9.4        3.44       -9999      -9999      -9999      -9999      -9999      -9999      -9999      -9999      0          -9999      -304       -1804      0          34478.11  
2735.7     9.46       3.5        -9999      -9999      -9999      -9999      -9999      -9999      -9999      -9999      0          -9999      -304       -1808      0          34477.89  
2735.8     9.5        3.54       11.15      7.6        -9999      -9999      -9999      -9999      -9999      -9999      0          -9999      -304       -1813      0          34477.7   
2735.9     9.53       3.57       11.21      7.66       -9999      -9999      -9999      -9999      -9999      -9999      0          -9999      -304       -1818      0          34477.51  
2736       9.57       3.61       11.25      7.7        12.69      11.41      -9999      -9999      -9999      -9999      0          -9999      -304       -1825      0          34477.31  
2736.1     9.56       3.6        11.27      7.72       12.72      11.44      -9999      -9999      -9999      -9999      0          -9999      -304       -1822      0          34477.1   
2736.2     9.54       3.58       11.27      7.72       12.75      11.47      12.81      11.91      -9999      -9999      0          -9999      -304       -1813      0          34476.91  
2736.3     9.53       3.57       11.28      7.73       12.81      11.53      12.89      11.99      -9999      -9999      0          -9999      -304       -1801      0          34476.71  
2736.4     9.59       3.63       11.33      7.78       12.91      11.63      13.02      12.12      -9999      -9999      0          -9999      -304       -1801      0          34476.5   
2736.5     9.69       3.73       11.42      7.87       13.05      11.77      13.18      12.28      -9999      -9999      0          -9999      -304       -1804      0          34476.32  
2736.6     9.81       3.85       11.53      7.98       13.2       11.92      13.4       12.5       13.11      12.37      0          -9999      -304       -1807      0          34476.13  
2736.7     9.94       3.98       11.65      8.1        13.37      12.09      13.6       12.7       13.31      12.57      0          -9999      -304       -1812      0          34475.91  
2736.8     10.09      4.13       11.83      8.28       13.53      12.25      13.8       12.9       13.49      12.75      0          -9999      -304       -1818      0          34475.71  
2736.9     10.27      4.31       11.98      8.43       13.72      12.44      14.02      13.12      13.66      12.92      0          -9999      -304       -1821      0          34475.53  
2737       10.48      4.52       12.16      8.61       13.92      12.64      14.21      13.31      13.86      13.12      0          -9999      -304       -1812      0          34475.34  
2737.1     10.67      4.71       12.36      8.81       14.05      12.77      14.36      13.46      14.01      13.27      0          281.41     -304       -1798      0          34475.11  
2737.2     10.89      4.93       12.53      8.98       14.19      12.91      14.49      13.59      14.13      13.39      0          281.57     -304       -1790      0          34474.93  
2737.3     11.07      5.11       12.64      9.09       14.28      13         14.6       13.7       14.25      13.51      0          281.16     -304       -1790      0          34474.74  
