~Version
 VERS              .         2.0                           : CWLS LOG ASCII STANDARD - VERSION 2.0
 WRAP              .         NO                            : ONE LINE PER DEPTH STEP
 DLM               .         SPACE                         : DELIMITING CHARACTER(SPACE TAB OR COMMA)
~Well Information
#_______________________________________________________________________________
#
#PARAMETER_NAME    .UNIT     VALUE                         : DESCRIPTION
#_______________________________________________________________________________
STRT               .M        2648.8                        : First reference value
STOP               .M        2755.39984                    : Last reference value
STEP               .M        0.1999997                     : Step increment
NULL               .         -9999                         : Missing value
COMP               .                                       : Company
WELL               .         616                           : Well name
FLD                .                                       : Field
LOC                .                                       : Location
CNTY               .                                       : County
STAT               .                                       : State
CTRY               .                                       : Country
SRVC               .                                       : Service Company
DATE               .                                       : Date
API                .                                       : API number
PROJECT_UPGRADE_TIME .         2021-03-18T21_24_50           : 
group              .         Good                          : 
~Parameter Information Block
#_______________________________________________________________________________
#
#PARAMETER_NAME    .UNIT     VALUE                         : DESCRIPTION
#_______________________________________________________________________________
SET                .         D7023_D                       : 
OTHER              .         Kedr.exe версия 2.1.2.32      : 
OTHER_10           .         TM.GRD = 0.00404*TM$.UE + 0.07: 
OTHER_11           .         MN.ATM = (6.33279e-006*TM.GRD + 0.02401)*(MN$.UE + 2.72*TM.GRD + -2018): 
OTHER_12           .         GK.MKR/H = GK$.UE / 43.5489 + 0: 
OTHER_13           .         RES.SM = 0.00476*CRES.UE - 1.51709: 
OTHER_14           .         PL.GSM3 = 0 + 0 * (PL.UE / 1) +  0 * (PL.UE / 1)^2: 
OTHER_15           .         Постоянная времени ГГП = 6 сек: 
OTHER_16           .         Постоянная времени ГК = 6 сек : 
OTHER_2            .         KedrData.dll версия 3.2.2.14  : 
OTHER_3            .         LasInf.dll версия 3.2.0.13    : 
OTHER_4            .         Драйвер версия 1.2.0.5        : 
OTHER_5            .         Прибор_ КСА-M1                : 
OTHER_6            .         Номер прибора_ 155+р204       : 
OTHER_7            .         Режим_ КСА-М1 + ГГП + Резистивиметр: 
OTHER_8            .         Форма_ 223\2                  : 
OTHER_9            .         Тарировки_                    : 
PROJECT_UPGRADE_TIME .         2021-03-18T21_24_50           : 
TLFamily_CRES      .                                       : 
TLFamily_DEPT      .         Measured Depth                : 
TLFamily_GK        .         Gamma Ray                     : 
TLFamily_GK$       .                                       : 
TLFamily_LM        .         Casing Collar locator         : 
TLFamily_METKA     .                                       : 
TLFamily_MN        .                                       : 
TLFamily_MN$       .                                       : 
TLFamily_PL        .                                       : 
TLFamily_PL_2      .                                       : 
TLFamily_RCOR      .                                       : 
TLFamily_RES       .         Mud Resistivity               : 
TLFamily_SPID      .         Spontaneous Potential         : 
TLFamily_STD       .                                       : 
TLFamily_TIME      .         Time                          : 
TLFamily_TM        .         Temperature                   : 
TLFamily_TM$       .         Temperature                   : 
TLFamily_VGD       .         Gas Volume                    : 
group              .         prim                          : 
~Curve Information
#_______________________________________________________________________________
#
#LOGNAME           .UNIT     LOG_ID                        : DESCRIPTION
#_______________________________________________________________________________
DEPT               .M                                      : 1 Глубина, м -    0.0 см 
CRES               .UE                                     : 9 Проводимость, усл.ед. -  222.0 см 
GK                 .MKR/H                                  : 16 Гамма-активность, мкр./ч -  106.0 см 
GK$                .UE                                     : 13 Гамма-активность, усл.ед. -  106.0 см 
LM                 .                                       : 11 Локатор муфт,  -   16.0 см 
METKA              .                                       : 3 Метки,  -    0.0 см 
MN                 .ATM                                    : 15 Давление, атм. -  160.0 см 
MN$                .UE                                     : 7 Давление, усл.ед. -  160.0 см 
PL                 .UE                                     : 10 Плотность, усл.ед. -  270.0 см 
PL_2               .GSM3                                   : 18 Плотность, г./см3 -  270.0 см 
RCOR               .CM/KM                                  : 5 Коррекция по ролику, см/км -    0.0 см 
RES                .SM                                     : 17 Проводимость,  -  222.0 см 
SPID               .M/H                                    : 2 Скорость, м/час -    0.0 см 
STD                .                                       : 12 Приток,  -  170.0 см 
TIME               .S                                      : 4 Время, сек -    0.0 см 
TM                 .GRD                                    : 14 Температура, °C -  180.0 см 
TM$                .UE                                     : 6 Температура, усл.ед. -  180.0 см 
VGD                .                                       : 8 Влагомер,  -  170.0 см 
~Ascii
# ...
2722.599889 1160       7.51       335        164        0          366.731    16959      14         0          0          4.0045     569        9764       15183.42   49.871     12327      6714      
2722.799889 1159       7.6        335        172        0          366.754    16961      13         0          0          3.9997     520        9730       15184.74   49.755     12298      6715      
2722.999889 1158       7.78       347        165        0          366.253    16941      14         0          0          3.9934     580        9697       15186.02   49.612     12263      6716      
2723.199888 1157       7.87       347        109        0          365.931    16928      14         0          0          3.9902     545        9671       15187.28   49.517     12239      6718      
2723.399888 1157       7.92       347        93         0          365.281    16902      14         0          0          3.9902     510        9650       15188.61   49.455     12224      6718      
2723.599888 1157       7.94       347        103        0          365.323    16904      14         0          0          3.9902     510        9633       15189.99   49.405     12212      6710      
2723.799888 1157       8.14       364        164        0          365.385    16907      13         0          0          3.9889     580        9616       15191.27   49.281     12181      6717      
2723.999887 1156       8.26       366        122        0          367.289    16986      13         0          0          3.9878     510        9597       15192.61   49.168     12153      6718      
2724.199887 1157       8.39       371        93         0          364.917    16889      13         0          0          3.991      580        9584       15193.88   49.101     12136      6719      
2724.399887 1157       8.4        359        263        0          366.012    16934      14         0          0          3.9902     580        9571       15195.13   49.033     12120      6715      
2724.599886 1157       8.3        357        138        0          366.086    16938      14         0          0          3.9918     510        9565       15196.46   49.025     12118      6716      
2724.799886 1157       8.25       358        97         0          366.475    16954      14         0          0          3.9902     557        9557       15197.73   48.969     12104      6713      
2724.999886 1156       8.24       358        90         0          368.06     17019      13         0          0          3.9863     510        9553       15199.07   48.94      12096      6712      
2725.199885 1157       8.37       391        125        0          367.995    17017      14         0          0          3.9902     568        9546       15200.34   48.901     12087      6711      
2725.399885 1157       8.66       391        5563       0          368.244    17028      14         0          0          3.991      580        9541       15201.62   48.845     12073      6709      
2725.599885 1158       8.62       358        4864       0          367.643    17003      14         0          0          3.995      580        9534       15202.96   48.788     12059      6709      
2725.799885 1157       8.43       358        752        0          368.335    17032      14         0          0          3.9902     570        9528       15204.24   48.741     12047      6714      
2725.999884 1159       8.2        342        229        0          367.636    17003      14         0          0          3.999      570        9525       15205.53   48.716     12041      6713      
2726.199884 1158       8.03       342        122        0          367.12     16982      14         0          0          3.995      580        9521       15206.82   48.678     12032      6715      
2726.399884 1158       8.03       357        82         0          366.385    16952      14         0          0          3.995      557        9516       15208.14   48.649     12024      6717      
2726.599883 1158       8.11       357        81         0          365.818    16929      14         0          0          3.995      570        9509       15209.42   48.612     12015      6722      
2726.799883 1159       8.18       360        86         0          366.028    16938      13         0          0          3.9997     570        9505       15210.74   48.578     12007      6716      
2726.999883 1159       8.22       360        72         0          366.825    16971      14         0          0          3.9997     580        9499       15212.02   48.537     11997      6716      
2727.199882 1160       8.66       407        79         0          365.392    16912      14         0          0          4.0045     580        9494       15213.35   48.508     11990      6711      
2727.399882 1159       9          407        110        0          364.89     16892      14         0          0          3.9997     510        9489       15214.62   48.483     11983      6718      
2727.599882 1158       9.67       453        91         0          365.922    16934      14         0          0          3.995      570        9488       15215.95   48.481     11983      6715      
2727.799882 1158       10.02      453        97         0          366.135    16943      13         0          0          3.9934     580        9487       15217.22   48.485     11984      6718      
2727.999881 1159       10.31      465        84         0          367.989    17019      14         0          0          3.9997     510        9481       15218.55   48.471     11980      6720      
2728.199881 1160       10.49      465        88         0          368.244    17029      14         0          0          4.0053     522        9478       15219.83   48.508     11990      6720      
2728.399881 1158       10.38      445        101        0          369.664    17088      14         0          0          3.995      580        9475       15221.14   48.504     11989      6719      
2728.59988 1158       10.3       445        112        0          368.362    17035      14         0          0          3.995      580        9470       15222.41   48.443     11974      6721      
2728.79988 1158       10.24      443        95         0          369.098    17066      14         0          0          3.993      557        9462       15223.75   48.402     11963      6719      
2728.99988 1157       10.36      478        104        0          368.668    17048      14         0          0          3.991      510        9452       15225.08   48.341     11948      6720      
2729.199879 1159       10.86      496        88         0          368.891    17058      14         0          0          3.9997     522        9444       15226.35   48.285     11934      6720      
2729.399879 1158       11.15      503        107        0          367.932    17019      14         0          0          3.9934     552        9433       15227.65   48.22      11918      6720      
2729.599879 1158       11.74      538        87         0          367.34     16995      14         0          0          3.995      580        9425       15228.96   48.174     11907      6720      
2729.799878 1158       12.07      545        83         0          367.12     16986      14         0          0          3.9942     520        9417       15230.23   48.13      11896      6720      
2729.999878 1159       12.33      548        60         0          367.129    16987      14         0          0          3.9997     568        9409       15231.56   48.087     11885      6719      
2730.199878 1159       12.71      601        109        1          366.282    16952      14         0          0          3.9997     580        9405       15233.5    48.059     11878      6720      
2730.399878 1159       13.25      601        115        0          365.558    16922      14         0          0          3.9997     580        9397       15234.76   48.029     11871      6720      
2730.599877 1160       13.79      641        112        0          365.991    16940      14         0          0          4.0045     550        9390       15236.06   48.002     11864      6720      
