~Version
 VERS              .         2.0                           : CWLS LOG ASCII STANDARD - VERSION 2.0
 WRAP              .         NO                            : ONE LINE PER DEPTH STEP
 DLM               .         SPACE                         : DELIMITING CHARACTER(SPACE TAB OR COMMA)
~Well Information
#_______________________________________________________________________________
#
#PARAMETER_NAME    .UNIT     VALUE                         : DESCRIPTION
#_______________________________________________________________________________
STRT               .M        2670                          : First reference value
STOP               .M        2776                          : Last reference value
STEP               .M        0.2                           : Step increment
NULL               .         -9999                         : Missing value
COMP               .                                       : Company
WELL               .         616                           : Well name
FLD                .                                       : Field
LOC                .                                       : Location
CNTY               .                                       : County
STAT               .                                       : State
CTRY               .                                       : Country
SRVC               .                                       : Service Company
DATE               .                                       : Date
API                .                                       : API number
PROJECT_UPGRADE_TIME .         2021-03-18T21_24_50           : 
group              .         Good                          : 
~Parameter Information Block
#_______________________________________________________________________________
#
#PARAMETER_NAME    .UNIT     VALUE                         : DESCRIPTION
#_______________________________________________________________________________
SET                .         D1803_D                       : 
OTHER              .         Программное обеспечение станции MONITOR-386EX 25/12/99 15_08_10   BGF V52 22/08/01 16_56_30   3.1_SNGF___BGF_N_092049: 
OTHER_10           .         Тарировки_                    : 
OTHER_11           .         TM.GRD = 0.00403*TM$.UE + -1.07: 
OTHER_12           .         MN.ATM = (9.34907e-006*TM.GRD + 0.02171)*(MN$.UE + -7.93*TM.GRD + -1787): 
OTHER_13           .         GK.MKR/H = LM. / 42.4676      : 
OTHER_14           .         GK.FLT = 0.1*GK.MKR/H[-1] + (1-0.1)*GK.MKR/H[0]: 
OTHER_2            .         Kedr.exe версия 3.4.2.51      : 
OTHER_3            .         KedrData.dll версия 3.4.2.24  : 
OTHER_4            .         Драйвер версия 2.1.1.3        : 
OTHER_5            .         Мнемоники версия 3.3 S        : 
OTHER_6            .         Прибор_ КСА-Т4                : 
OTHER_7            .         Номер прибора_ 03             : 
OTHER_8            .         Режим_ КСА-Т4                 : 
OTHER_9            .         Форма_ КВА.                   : 
PROJECT_UPGRADE_TIME .         2021-03-18T21_24_49           : 
TLFamily_DEPT      .         Measured Depth                : 
TLFamily_GK        .         Gamma Ray                     : 
TLFamily_GK$       .                                       : 
TLFamily_GK_2      .         Gamma Ray                     : 
TLFamily_LM        .         Casing Collar locator         : 
TLFamily_METKA     .                                       : 
TLFamily_MN        .                                       : 
TLFamily_MN$       .                                       : 
TLFamily_RCOR      .                                       : 
TLFamily_SPID      .         Spontaneous Potential         : 
TLFamily_TENS      .         Cable Tension                 : 
TLFamily_TIME      .         Time                          : 
TLFamily_TM        .         Temperature                   : 
TLFamily_TM$       .         Temperature                   : 
group              .         prim                          : 
~Curve Information
#_______________________________________________________________________________
#
#LOGNAME           .UNIT     LOG_ID                        : DESCRIPTION
#_______________________________________________________________________________
DEPT               .M                                      : 1 Глубина, м -    0.0 см 
GK                 .MKR/H                                  : 13 Гамма-активность, мкр./ч -  110.0 см 
GK$                .UE                                     : 10 Гамма-активность, усл.ед. -  110.0 см 
GK_2               .FLT                                    : 14 Гамма-активность фильтрованная, мкр./ч -  110.0 см 
LM                 .                                       : 9 Локатор муфт,  -   20.0 см 
METKA              .                                       : 3 Метки,  -    0.0 см 
MN                 .ATM                                    : 12 Давление, атм. -  160.0 см 
MN$                .UE                                     : 8 Давление, усл.ед. -  160.0 см 
RCOR               .CM/KM                                  : 5 Коррекция по ролику, см/км -    0.0 см 
SPID               .M/H                                    : 2 Скорость, м/час -    0.0 см 
TENS               .T                                      : 6 Натяжение кабеля, т -    0.0 см 
TIME               .S                                      : 4 Время, сек -    0.0 см 
TM                 .GRD                                    : 11 Температура, °C -  170.0 см 
TM$                .UE                                     : 7 Температура, усл.ед. -  170.0 см 
~Ascii
# ...
2742.8     15.09      641        15.1       329        0          333.299    17207      -667       563        0.03       1982.75    46.761     11869     
2743       14.58      619        14.6       294        0          333.113    17199      -667       558        0.01       1983.95    46.827     11885     
2743.2     14.58      619        14.58      302        0          333.623    17222      -667       570        0.03       1985.25    46.886     11900     
2743.4     13.52      574        13.6       321        0          332.891    17189      -667       560        0.01       1986.55    46.929     11910     
2743.6     13.51      574        13.52      248        0          333.758    17228      -667       566        0.03       1987.77    46.992     11926     
2743.8     11.61      493        11.69      255        0          333.022    17195      -667       574        0.03       1988.97    47.048     11940     
2744       11.61      493        11.61      280        0          333.439    17214      -667       581        0.03       1990.23    47.115     11957     
2744.2     10.83      460        10.89      316        0          333.2      17203      -667       588        0.03       1991.45    47.173     11971     
2744.4     10.88      462        10.87      242        0          333.673    17225      -667       586        0.03       1992.72    47.233     11986     
2744.6     11.18      475        11.17      278        0          332.858    17188      -667       584        0.03       1993.92    47.276     11996     
2744.8     11.18      475        11.18      256        0          333.615    17222      -667       576        0.01       1995.22    47.326     12009     
2745       11.75      499        11.71      298        0          333.451    17215      -667       582        0.03       1996.45    47.368     12019     
2745.2     11.75      499        11.75      283        0          332.878    17189      -667       587        0.01       1997.66    47.397     12027     
2745.4     11         467        11.08      302        0          333.168    17202      -667       591        0.03       1998.93    47.421     12032     
2745.6     11         467        11         259        0          333.903    17236      -667       591        0.03       2000.17    47.472     12045     
2745.8     10.5       446        10.53      244        0          333.378    17212      -667       588        0.03       2001.41    47.517     12056     
2746       10.5       446        10.5       302        0          333.558    17220      -667       586        0.01       2002.61    47.551     12065     
2746.2     10.78      458        10.76      275        0          333.898    17235      -667       584        0.03       2003.9     47.584     12073     
2746.4     10.78      458        10.78      265        0          333.262    17207      -667       587        0.03       2005.17    47.649     12089     
2746.6     10.05      427        10.09      260        0          333.786    17231      -667       591        0.03       2006.37    47.692     12100     
2746.8     10.05      427        10.06      224        0          334.148    17247      -667       589        0.01       2007.62    47.742     12112     
2747       9.7        412        9.74       225        0          333.988    17240      -667       586        0.03       2008.89    47.81      12129     
2747.2     9.7        412        9.7        264        0          333.382    17213      -667       584        0.03       2010.09    47.894     12150     
2747.4     9.94       422        9.93       285        0          334.497    17263      -667       583        0.03       2011.31    47.958     12166     
2747.6     9.94       422        9.94       221        0          332.566    17176      -667       592        0.03       2012.57    48.022     12182     
2747.8     10.5       446        10.45      188        0          334.387    17258      -667       580        0.03       2013.88    48.091     12199     
2748       10.5       446        10.5       2681       0          333.37     17213      -667       588        0.03       2015.08    48.16      12216     
2748.2     9.51       404        9.65       1522       0          334.606    17268      -667       586        0.03       2016.33    48.214     12229     
2748.4     9.51       404        9.52       432        0          332.776    17186      -667       584        0.03       2017.58    48.297     12250     
2748.6     9.42       400        9.43       260        0          334.647    17271      -667       583        0.03       2018.8     48.398     12275     
2748.8     9.42       400        9.42       256        0          333.077    17200      -667       582        0.02       2020.03    48.479     12295     
2749       12.1       514        11.78      172        0          334.343    17257      -667       585        0.03       2021.28    48.551     12313     
2749.2     12.1       514        12.09      202        0          333.773    17232      -667       586        0.01       2022.57    48.624     12331     
2749.4     12.01      510        12.02      174        0          335.045    17289      -667       585        0.03       2023.81    48.709     12352     
2749.6     12.01      510        12.01      204        0          333.614    17225      -667       583        0.01       2025.02    48.803     12376     
2749.8     10.95      465        11.09      161        0          334.574    17268      -667       582        0.01       2026.28    48.905     12401     
2750       10.95      465        10.96      239        2          334.25     17254      -667       582        0.01       2027.52    48.992     12422     
2750.2     11.35      482        11.32      243        0          335.029    17289      -673       581        0          2029.1     49.118     12453     
2750.4     11.35      482        11.35      149        0          334.35     17259      -673       591        0.01       2030.34    49.236     12483     
2750.6     11.96      508        11.89      191        0          335.398    17306      -673       593        0.03       2031.63    49.402     12524     
2750.8     11.96      508        11.96      157        0          334.53     17267      -673       585        0.01       2032.91    49.528     12555     
2751       11.51      489        11.54      157        0          335.212    17298      -673       583        0.03       2034.11    49.648     12585     
2751.2     11.51      489        11.51      161        0          334.91     17285      -673       582        0.03       2035.36    49.727     12605     
2751.4     11.3       480        11.31      185        0          335.656    17318      -673       582        0.03       2036.58    49.877     12642     
2751.6     11.3       480        11.3       221        0          334.712    17276      -673       583        0.03       2037.83    49.981     12668     
2751.8     11.94      507        11.9       219        0          335.757    17323      -673       585        0.03       2039.06    50.123     12703     
2752       11.94      507        11.94      215        0          334.4      17262      -673       585        0.03       2040.31    50.201     12722     
2752.2     12.46      529        12.44      189        0          335.457    17310      -673       587        0.03       2041.58    50.329     12754     
2752.4     12.46      529        12.46      204        0          334.212    17254      -673       585        0.03       2042.82    50.483     12792     
2752.6     12.01      510        12.04      192        0          335.297    17303      -673       584        0.03       2044.05    50.627     12828     
2752.8     12.01      510        12.01      201        0          335.171    17298      -673       582        0.03       2045.31    50.737     12855     
2753       11.07      470        11.1       184        0          335.866    17330      -673       578        0.03       2046.52    50.91      12898     
