~Version
 VERS              .         2.0                           : CWLS LOG ASCII STANDARD - VERSION 2.0
 WRAP              .         NO                            : ONE LINE PER DEPTH STEP
 DLM               .         SPACE                         : DELIMITING CHARACTER(SPACE TAB OR COMMA)
~Well Information
#_______________________________________________________________________________
#
#PARAMETER_NAME    .UNIT     VALUE                         : DESCRIPTION
#_______________________________________________________________________________
STRT               .M        2733.1                        : First reference value
STOP               .M        2798.6                        : Last reference value
STEP               .M        0.1                           : Step increment
NULL               .         -9999                         : Missing value
COMP               .                                       : Company
WELL               .         616                           : Well name
FLD                .                                       : Field
LOC                .                                       : Location
CNTY               .                                       : County
STAT               .                                       : State
CTRY               .                                       : Country
SRVC               .                                       : Service Company
DATE               .                                       : Date
API                .                                       : API number
PROJECT_UPGRADE_TIME .         2021-03-18T21_24_50           : 
group              .         Good                          : 
~Parameter Information Block
#_______________________________________________________________________________
#
#PARAMETER_NAME    .UNIT     VALUE                         : DESCRIPTION
#_______________________________________________________________________________
SET                .         D2661_D                       : 
OTHER              .         Программное обеспечение станции MONITOR-386EX 25/12/99 15_08_10   BGF V50 26/12/00 07_26_01   3.1_SNGF___BGF_N_092085: 
OTHER_10           .         Тарировки_                    : 
OTHER_11           .         IK1.GRD = IK1$.UE - -5.96     : 
OTHER_12           .         IK5.GRD = IK5$.UE - -0.74     : 
OTHER_13           .         IK4.GRD = IK4$.UE - -0.9      : 
OTHER_14           .         IK3.GRD = IK3$.UE - -1.28     : 
OTHER_15           .         IK2.GRD = IK2$.UE - -3.55     : 
OTHER_2            .         Kedr.exe версия 3.3.2.32      : 
OTHER_3            .         KedrData.dll версия 3.3.2.17  : 
OTHER_4            .         Драйвер версия 2.1.0.4        : 
OTHER_5            .         Мнемоники версия 3.3 S        : 
OTHER_6            .         Прибор_ Викиз                 : 
OTHER_7            .         Номер прибора_ 0006012        : 
OTHER_8            .         Режим_ Викиз                  : 
OTHER_9            .         Форма_ ВИКИЗ                  : 
PROJECT_UPGRADE_TIME .         2021-03-18T21_24_49           : 
TLFamily_DEPT      .         Measured Depth                : 
TLFamily_IK1       .         Extra Shallow Resistivity     : 
TLFamily_IK1$      .         Extra Shallow Resistivity     : 
TLFamily_IK2       .         Shallow Resistivity           : 
TLFamily_IK2$      .         Shallow Resistivity           : 
TLFamily_IK3       .         Medium Resistivity            : 
TLFamily_IK3$      .         Medium Resistivity            : 
TLFamily_IK4       .         Deep Resistivity              : 
TLFamily_IK4$      .         Deep Resistivity              : 
TLFamily_IK5       .         Resistivity 20                : 
TLFamily_IK5$      .         Resistivity 20                : 
TLFamily_METKA     .                                       : 
TLFamily_PS        .         Spontaneous Potential         : 
TLFamily_RCOR      .                                       : 
TLFamily_SPID      .         Spontaneous Potential         : 
TLFamily_TENS      .         Cable Tension                 : 
TLFamily_TIME      .         Time                          : 
group              .         prim                          : 
~Curve Information
#_______________________________________________________________________________
#
#LOGNAME           .UNIT     LOG_ID                        : DESCRIPTION
#_______________________________________________________________________________
DEPT               .M                                      : 1 Глубина, м -    0.0 см 
IK1                .GRD                                    : 13 3Ф0.5, град. -  226.0 см 
IK1$               .UE                                     : 7 3Ф0.5, усл.ед. -  226.0 см 
IK2                .GRD                                    : 17 3Ф0.7, град. -  240.0 см 
IK2$               .UE                                     : 11 3Ф0.7, усл.ед. -  240.0 см 
IK3                .GRD                                    : 16 3Ф1.0, град. -  260.0 см 
IK3$               .UE                                     : 10 3Ф1.0, усл.ед. -  260.0 см 
IK4                .GRD                                    : 15 3Ф1.4, град. -  288.0 см 
IK4$               .UE                                     : 9 3Ф1.4, усл.ед. -  288.0 см 
IK5                .GRD                                    : 14 3Ф2.0, град. -  328.0 см 
IK5$               .UE                                     : 8 3Ф2.0, усл.ед. -  328.0 см 
METKA              .                                       : 3 Метки,  -    0.0 см 
PS                 .mV                                     : 12 ПС, мВ -  372.0 см 
RCOR               .CM/KM                                  : 5 Коррекция по ролику, см/км -    0.0 см 
SPID               .M/H                                    : 2 Скорость, м/час -    0.0 см 
TENS               .T                                      : 6 Натяжение кабеля, т -    0.0 см 
TIME               .S                                      : 4 Время, сек -    0.0 см 
~Ascii
# ...
2750.3     16.68      10.72      15.69      12.14      15.44      14.16      14.83      13.93      14.61      13.87      0          332.76     -299       -1806      0          34448.91  
2750.4     16.49      10.53      15.55      12         15.33      14.05      14.73      13.83      14.54      13.8       0          333.01     -299       -1796      0          34448.72  
2750.5     16.34      10.38      15.41      11.86      15.23      13.95      14.67      13.77      14.45      13.71      0          333.33     -299       -1798      0          34448.5   
2750.6     16.24      10.28      15.32      11.77      15.17      13.89      14.6       13.7       14.39      13.65      0          333.45     -299       -1800      0          34448.31  
2750.7     16.15      10.19      15.26      11.71      15.11      13.83      14.54      13.64      14.33      13.59      0          333.35     -299       -1802      0          34448.13  
2750.8     16.01      10.05      15.16      11.61      15         13.72      14.46      13.56      14.25      13.51      0          333.39     -299       -1806      0          34447.91  
2750.9     15.87      9.91       15.04      11.49      14.9       13.62      14.37      13.47      14.18      13.44      0          333.34     -299       -1810      0          34447.72  
2751       15.83      9.87       15         11.45      14.8       13.52      14.25      13.35      14.09      13.35      0          333.07     -299       -1815      0          34447.52  
2751.1     15.72      9.76       14.91      11.36      14.67      13.39      14.15      13.25      13.98      13.24      0          332.91     -299       -1820      0          34447.33  
2751.2     15.58      9.62       14.77      11.22      14.53      13.25      14.02      13.12      13.88      13.14      0          332.54     -299       -1829      0          34447.13  
2751.3     15.44      9.48       14.66      11.11      14.39      13.11      13.89      12.99      13.79      13.05      0          332.29     -299       -1826      0          34446.94  
2751.4     15.28      9.32       14.54      10.99      14.25      12.97      13.76      12.86      13.69      12.95      0          332.13     -299       -1817      0          34446.75  
2751.5     15.21      9.25       14.44      10.89      14.15      12.87      13.65      12.75      13.62      12.88      0          331.9      -299       -1806      0          34446.54  
2751.6     15.12      9.16       14.28      10.73      14.04      12.76      13.57      12.67      13.57      12.83      0          331.62     -299       -1808      0          34446.35  
2751.7     14.89      8.93       14.08      10.53      13.91      12.63      13.51      12.61      13.55      12.81      0          331.69     -299       -1812      0          34446.16  
2751.8     14.74      8.78       13.97      10.42      13.86      12.58      13.49      12.59      13.57      12.83      0          332.04     -299       -1817      0          34445.94  
2751.9     14.67      8.71       13.96      10.41      13.94      12.66      13.57      12.67      13.65      12.91      0          333.1      -299       -1807      0          34445.75  
2752       14.92      8.96       14.23      10.68      14.19      12.91      13.81      12.91      13.8       13.06      0          333.85     -299       -1794      0          34445.56  
2752.1     15.82      9.86       14.78      11.23      14.67      13.39      14.12      13.22      14.02      13.28      0          333.72     -299       -1780      0          34445.37  
2752.2     16.24      10.28      15.18      11.63      14.98      13.7       14.37      13.47      14.19      13.45      0          334.16     -299       -1777      0          34445.16  
2752.3     16.45      10.49      15.35      11.8       15.1       13.82      14.51      13.61      14.32      13.58      0          334.53     -299       -1774      0          34444.96  
2752.4     16.52      10.56      15.4       11.85      15.14      13.86      14.54      13.64      14.39      13.65      0          334.92     -299       -1774      0          34444.78  
2752.5     16.6       10.64      15.44      11.89      15.15      13.87      14.53      13.63      14.4       13.66      0          334.94     -299       -1787      0          34444.56  
2752.6     16.61      10.65      15.5       11.95      15.15      13.87      14.51      13.61      14.38      13.64      0          334.89     -299       -1801      0          34444.37  
2752.7     16.57      10.61      15.56      12.01      15.16      13.88      14.49      13.59      14.37      13.63      0          334.83     -299       -1811      0          34444.16  
2752.8     16.52      10.56      15.62      12.07      15.18      13.9       14.48      13.58      14.35      13.61      0          334.69     -299       -1816      0          34443.97  
2752.9     16.46      10.5       15.65      12.1       15.21      13.93      14.5       13.6       14.34      13.6       0          334.35     -299       -1823      0          34443.77  
2753       16.44      10.48      15.66      12.11      15.26      13.98      14.51      13.61      14.33      13.59      0          334.09     -299       -1819      0          34443.57  
2753.1     16.44      10.48      15.66      12.11      15.31      14.03      14.53      13.63      14.33      13.59      0          333.75     -299       -1808      0          34443.38  
2753.2     16.41      10.45      15.6       12.05      15.31      14.03      14.55      13.65      14.32      13.58      0          333.46     -299       -1793      0          34443.16  
2753.3     16.38      10.42      15.54      11.99      15.28      14         14.56      13.66      14.31      13.57      0          333.03     -299       -1794      0          34442.97  
2753.4     16.34      10.38      15.49      11.94      15.24      13.96      14.57      13.67      14.3       13.56      0          332.58     -299       -1795      0          34442.78  
2753.5     16.32      10.36      15.44      11.89      15.21      13.93      14.6       13.7       14.29      13.55      0          332.39     -299       -1797      0          34442.58  
2753.6     16.33      10.37      15.43      11.88      15.2       13.92      14.63      13.73      14.29      13.55      0          332.37     -299       -1798      0          34442.39  
2753.7     16.38      10.42      15.46      11.91      15.21      13.93      14.65      13.75      14.29      13.55      0          332.59     -299       -1800      0          34442.2   
2753.8     16.45      10.49      15.48      11.93      15.22      13.94      14.64      13.74      14.28      13.54      0          333.06     -299       -1803      0          34441.98  
2753.9     16.47      10.51      15.45      11.9       15.18      13.9       14.59      13.69      14.27      13.53      0          333.33     -299       -1806      0          34441.79  
2754       16.38      10.42      15.34      11.79      15.08      13.8       14.48      13.58      14.22      13.48      0          333.65     -299       -1810      0          34441.59  
2754.1     16.18      10.22      15.19      11.64      14.91      13.63      14.34      13.44      14.14      13.4       0          333.84     -299       -1815      0          34441.39  
2754.2     16.01      10.05      15.03      11.48      14.77      13.49      14.2       13.3       14.04      13.3       0          334.11     -299       -1822      0          34441.18  
2754.3     15.84      9.88       14.9       11.35      14.63      13.35      14.07      13.17      13.93      13.19      0          334.11     -299       -1830      0          34440.98  
2754.4     15.61      9.65       14.78      11.23      14.48      13.2       13.91      13.01      13.82      13.08      0          333.96     -299       -1829      0          34440.8   
2754.5     15.44      9.48       14.67      11.12      14.36      13.08      13.8       12.9       13.71      12.97      0          333.48     -299       -1820      0          34440.58  
