~Version
 VERS              .         2.0                           : CWLS LOG ASCII STANDARD - VERSION 2.0
 WRAP              .         NO                            : ONE LINE PER DEPTH STEP
 DLM               .         SPACE                         : DELIMITING CHARACTER(SPACE TAB OR COMMA)
~Well Information
#_______________________________________________________________________________
#
#PARAMETER_NAME    .UNIT     VALUE                         : DESCRIPTION
#_______________________________________________________________________________
STRT               .M        47.8                          : First reference value
STOP               .M        2693.8                        : Last reference value
STEP               .M        0.2                           : Step increment
NULL               .         -9999                         : Missing value
COMP               .                                       : Company
WELL               .         616                           : Well name
FLD                .                                       : Field
LOC                .                                       : Location
CNTY               .                                       : County
STAT               .                                       : State
CTRY               .                                       : Country
SRVC               .                                       : Service Company
DATE               .                                       : Date
API                .                                       : API number
PROJECT_UPGRADE_TIME .         2021-03-18T21_24_50           : 
group              .         Good                          : 
~Parameter Information Block
#_______________________________________________________________________________
#
#PARAMETER_NAME    .UNIT     VALUE                         : DESCRIPTION
#_______________________________________________________________________________
SET                .         D1172_D                       : 
OTHER              .         Программное обеспечение станции MONITOR-386EX 25/12/99 15_08_10   BGF V52 22/08/01 16_56_30   3.2_BGF_N_3070031: 
OTHER_10           .         Тарировки_                    : 
OTHER_11           .         TM.GRD = 0.00403*TM$.UE + -1.19: 
OTHER_12           .         MN.ATM = (7.1e-006*TM.GRD + 0.02017)*(MN$.UE + -3.03*TM.GRD + -1833): 
OTHER_13           .         Id error                      : 
OTHER_2            .         Kedr.exe версия 3.4.2.51      : 
OTHER_3            .         KedrData.dll версия 3.4.2.24  : 
OTHER_4            .         Драйвер версия 2.1.1.8        : 
OTHER_5            .         Мнемоники версия 3.3 S        : 
OTHER_6            .         Прибор_ КСА-М1                : 
OTHER_7            .         Номер прибора_ 265            : 
OTHER_8            .         Режим_ КСА-М1                 : 
OTHER_9            .         Форма_ ТЕРМОМЕТР              : 
PROJECT_UPGRADE_TIME .         2021-03-18T21_24_49           : 
TLFamily_DEPT      .         Measured Depth                : 
TLFamily_GK        .         Gamma Ray                     : 
TLFamily_GK$       .                                       : 
TLFamily_LM        .         Casing Collar locator         : 
TLFamily_METKA     .                                       : 
TLFamily_MN        .                                       : 
TLFamily_MN$       .                                       : 
TLFamily_RCOR      .                                       : 
TLFamily_SPID      .         Spontaneous Potential         : 
TLFamily_STD       .                                       : 
TLFamily_TENS      .         Cable Tension                 : 
TLFamily_TIME      .         Time                          : 
TLFamily_TM        .         Temperature                   : 
TLFamily_TM$       .         Temperature                   : 
TLFamily_VGD       .         Gas Volume                    : 
group              .         prim                          : 
~Curve Information
#_______________________________________________________________________________
#
#LOGNAME           .UNIT     LOG_ID                        : DESCRIPTION
#_______________________________________________________________________________
DEPT               .M                                      : 1 Глубина, м -    0.0 см 
GK                 .MKR/H                                  : 15 Гамма-активность, мкр./ч -  110.0 см 
GK$                .UE                                     : 12 Гамма-активность, усл.ед. -  110.0 см 
LM                 .                                       : 10 Локатор муфт,  -   20.0 см 
METKA              .                                       : 3 Метки,  -    0.0 см 
MN                 .ATM                                    : 14 Давление, атм. -  160.0 см 
MN$                .UE                                     : 8 Давление, усл.ед. -  160.0 см 
RCOR               .CM/KM                                  : 5 Коррекция по ролику, см/км -    0.0 см 
SPID               .M/H                                    : 2 Скорость, м/час -    0.0 см 
STD                .                                       : 11 Приток,  -  170.0 см 
TENS               .T                                      : 6 Натяжение кабеля, т -    0.0 см 
TIME               .S                                      : 4 Время, сек -    0.0 см 
TM                 .GRD                                    : 13 Температура, °C -  180.0 см 
TM$                .UE                                     : 7 Температура, усл.ед. -  180.0 см 
VGD                .                                       : 9 Влагомер,  -  170.0 см 
~Ascii
# ...
929.8      8.58       371        35         0          87.726     6226       -1400      -1952      7883       0          32560.65   28.871     7459       6559      
930        8.53       371        36         2          87.745     6227       -1400      -1955      7887       0          32560.29   28.878     7461       6559      
930.2      8.46       371        48         0          87.754     6227       -1400      -1959      7892       0          32559.88   28.886     7463       6559      
930.4      8.36       371        52         0          87.773     6228       -1400      -1963      7895       0          32559.53   28.894     7465       6558      
930.6      8.2        371        57         0          87.792     6229       -1400      -1961      7895       0          32559.16   28.895     7465       6559      
930.8      7.96       349        54         0          87.811     6230       -1400      -1959      7897       0          32558.8    28.898     7466       6559      
931        7.86       336        57         0          87.825     6231       -1400      -1957      7902       0          32558.42   28.915     7470       6559      
931.2      7.87       336        65         0          87.829     6231       -1400      -1955      7904       0          32558.07   28.921     7472       6559      
931.4      7.87       336        60         0          87.847     6232       -1400      -1952      7906       0          32557.71   28.932     7474       6559      
931.6      7.87       336        54         0          87.866     6233       -1400      -1954      7908       0          32557.34   28.939     7476       6559      
931.8      7.88       336        69         0          87.888     6234       -1400      -1958      7909       0          32556.97   28.947     7478       6558      
932        7.89       336        78         0          87.907     6235       -1400      -1957      7913       0          32556.61   28.955     7480       6559      
932.2      7.91       337        85         0          87.926     6236       -1400      -1959      7917       0          32556.23   28.959     7481       6559      
932.4      7.92       338        101        0          87.945     6237       -1400      -1963      7920       0          32555.87   28.971     7484       6559      
932.6      7.93       338        142        0          87.965     6238       -1400      -1964      7922       0          32555.51   28.974     7485       6559      
932.8      7.94       338        53         0          87.983     6239       -1400      -1962      7924       0          32555.16   28.982     7487       6559      
933        7.96       338        53         0          88.017     6241       -1400      -1960      7926       0          32554.79   28.99      7489       6559      
933.2      7.99       338        46         0          88.026     6241       -1400      -1958      7928       0          32554.41   28.997     7491       6559      
933.4      8.03       339        37         0          88.055     6242       -1400      -1958      7932       0          32554.04   29.002     7492       6559      
933.6      8.08       346        46         0          88.067     6243       -1400      -1962      7935       0          32553.68   29.011     7494       6559      
933.8      8.08       346        40         0          88.093     6244       -1400      -1965      7936       0          32553.31   29.02      7496       6559      
934        8.07       346        28         0          88.119     6246       -1400      -1964      7939       0          32552.96   29.028     7498       6559      
934.2      8.06       346        33         0          88.138     6247       -1400      -1962      7941       0          32552.59   29.033     7500       6559      
934.4      8.05       346        41         0          88.12      6246       -1400      -1961      7943       0          32552.21   29.039     7501       6559      
934.6      8.03       346        30         0          88.127     6246       -1400      -1965      7948       0          32551.86   29.047     7503       6559      
934.8      8          346        30         0          88.196     6249       -1400      -1963      7954       0          32551.5    29.054     7505       6559      
935        7.95       343        21         0          88.215     6250       -1400      -1961      7959       0          32551.12   29.062     7507       6559      
935.2      7.92       342        25         0          88.234     6251       -1400      -1965      7961       0          32550.76   29.069     7508       6559      
935.4      7.87       342        19         0          88.254     6252       -1400      -1957      7963       0          32550.4    29.075     7510       6559      
935.6      7.81       342        26         0          88.272     6253       -1400      -1959      7966       0          32550.05   29.086     7513       6559      
935.8      7.72       342        36         0          88.288     6254       -1400      -1964      7969       0          32549.68   29.093     7514       6559      
936        7.58       342        47         0          88.291     6254       -1400      -1963      7973       0          32549.31   29.1       7516       6560      
936.2      7.38       327        55         0          88.31      6255       -1400      -1962      7976       0          32548.94   29.105     7517       6560      
936.4      7.24       310        79         0          88.349     6257       -1400      -1960      7980       0          32548.58   29.112     7519       6559      
936.6      7.23       310        36         0          88.349     6257       -1400      -1961      7983       0          32548.21   29.12      7521       6559      
936.8      7.22       310        53         0          88.367     6258       -1400      -1962      7984       0          32547.84   29.128     7523       6559      
937        7.2        310        41         0          88.386     6259       -1400      -1960      7987       0          32547.47   29.135     7525       6560      
937.2      7.18       310        36         0          88.42      6261       -1400      -1961      7990       0          32547.11   29.139     7526       6560      
937.4      7.14       310        36         0          88.429     6261       -1400      -1963      7994       0          32546.75   29.149     7528       6559      
937.6      7.09       309        44         0          88.444     6262       -1400      -1961      7998       0          32546.38   29.155     7530       6559      
937.8      7.02       298        63         0          88.463     6263       -1400      -1957      8000       0          32546.02   29.162     7531       6560      
938        7.05       298        93         0          88.482     6264       -1400      -1951      8002       0          32545.65   29.169     7533       6559      
938.2      7.09       298        128        0          88.501     6265       -1400      -1954      8002       0          32545.29   29.177     7535       6559      
938.4      7.14       298        193        0          88.51      6265       -1400      -1956      8006       0          32544.92   29.185     7537       6559      
938.6      7.22       298        296        0          88.53      6266       -1400      -1955      8010       0          32544.54   29.192     7539       6559      
938.8      7.35       298        441        0          88.559     6267       -1400      -1958      8016       0          32544.2    29.2       7541       6559      
939        7.54       320        672        0          88.57      6268       -1400      -1962      8018       0          32543.83   29.206     7542       6559      
939.2      7.58       325        1023       0          88.577     6268       -1400      -1960      8021       0          32543.48   29.211     7544       6559      
939.4      7.56       325        1543       0          88.602     6270       -1400      -1964      8023       0          32543.09   29.218     7545       6559      
