~Version
 VERS              .         2.0                           : CWLS LOG ASCII STANDARD - VERSION 2.0
 WRAP              .         NO                            : ONE LINE PER DEPTH STEP
 DLM               .         SPACE                         : DELIMITING CHARACTER(SPACE TAB OR COMMA)
~Well Information
#_______________________________________________________________________________
#
#PARAMETER_NAME    .UNIT     VALUE                         : DESCRIPTION
#_______________________________________________________________________________
STRT               .M        2664.6                        : First reference value
STOP               .M        2772.999892                   : Last reference value
STEP               .M        0.1999998                     : Step increment
NULL               .         -9999                         : Missing value
COMP               .                                       : Company
WELL               .         616                           : Well name
FLD                .                                       : Field
LOC                .                                       : Location
CNTY               .                                       : County
STAT               .                                       : State
CTRY               .                                       : Country
SRVC               .                                       : Service Company
DATE               .                                       : Date
API                .                                       : API number
PROJECT_UPGRADE_TIME .         2021-03-18T21_24_50           : 
group              .         Good                          : 
~Parameter Information Block
#_______________________________________________________________________________
#
#PARAMETER_NAME    .UNIT     VALUE                         : DESCRIPTION
#_______________________________________________________________________________
SET                .         D8102_D_2                     : 
COMM               .                                       : 
OTHER              .         Программное обеспечение станции MONITOR-386EX 25/12/99 15_08_10   BGF V52 22/08/01 16_56_30   4_SNGF_BGF_N_011645: 
OTHER_10           .         Тарировки_                    : 
OTHER_11           .         TM.GRD = 0.00412*TM$.UE + -2.13: 
OTHER_12           .         MN.ATM = (5.87652e-006*TM.GRD + 0.01993)*(MN$.UE + -2.72*TM.GRD + -1925): 
OTHER_13           .         GK.MKR/H = GK$.UE / 57.4657   : 
OTHER_2            .         Kedr.exe версия 3.4.2.51      : 
OTHER_3            .         KedrData.dll версия 3.4.2.24  : 
OTHER_4            .         Драйвер версия 2.1.0.2        : 
OTHER_5            .         Мнемоники версия 3.3 S        : 
OTHER_6            .         Прибор_ АКП4-90               : 
OTHER_7            .         Номер прибора_ 53             : 
OTHER_8            .         Режим_ АКП4_90                : 
OTHER_9            .         Форма_ ПК-53ое                : 
PROJECT_UPGRADE_TIME .         2021-03-18T21_24_50           : 
PRTY               .         ПРП-614                       : N партии
SRVC               .         Глухов М.В.                   : Начальник партии
TLFamily_DEPT      .         Measured Depth                : 
TLFamily_GK        .         Russian Gamma Ray             : 
TLFamily_LM        .         Casing Collar locator         : 
TLFamily_MN        .                                       : 
group              .         second                        : 
~Curve Information
#_______________________________________________________________________________
#
#LOGNAME           .UNIT     LOG_ID                        : DESCRIPTION
#_______________________________________________________________________________
DEPT               .M                                      : Depth curve 
GK                 .мкР/ч                                  : Естественная гамма-активность,мкР/ч 
LM                 .е.ацп                                  : Локатор муфт,е.ацп 
MN                 .атм                                    : 12 Давление, атм. -  140.0 см 
~Ascii
2664.6000977 -9999      -9999      -9999     
2664.8     -9999      -9999      -9999     
2665       -9999      -9999      -9999     
2665.199999 -9999      155.032    -9999     
2665.399999 5.569      219.904    -9999     
2665.599999 4.54       22.999     -9999     
2665.799999 4.18       21.01      -9999     
2665.999999 5.03       42.017     -9999     
2666.199998 5.58       77.014     243.006   
2666.399998 5.06       106.053    243.02    
2666.599998 4.32       214.932    243.026   
2666.799998 4.91       74.998     243.046   
2666.999998 5.38       70.061     243.093   
2667.199997 6.01       193.952    243.126   
2667.399997 6.49       95.025     243.126   
2667.599997 5.71       146.036    243.146   
2667.799997 5.88       220.161    243.186   
2667.999997 6.21       549.901    243.226   
2668.199996 6.01       347.883    243.219   
2668.399996 5.9        109.044    243.232   
2668.599996 5.26       200.028    243.252   
2668.799996 4.69       2313.405   243.305   
2668.999996 4.45       21544.93   243.306   
2669.199995 5.07       5040.606   243.335   
2669.399995 5.22       143.023    243.345   
2669.599995 5.44       191.047    243.385   
2669.799995 6          287.066    243.392   
2669.999995 6.13       421.837    243.425   
2670.199994 5.79       89.038     243.425   
2670.399994 6.2        166.031    243.445   
2670.599994 6.4        230.006    243.485   
2670.799994 6.77       242.989    243.505   
2670.999994 6.75       220.255    243.505   
2671.199993 6.42       741.381    243.525   
2671.399993 6.75       1519.368   243.545   
2671.599993 6.02       225.998    243.565   
2671.799993 5.48       220.936    243.591   
2671.999993 4.96       91.023     243.605   
2672.199992 4.4        137.978    243.624   
2672.399992 4.5        92.05      243.644   
2672.599992 4.44       193.947    243.684   
2672.799992 4.14       85.022     243.697   
2672.999992 3.86       128.982    243.704   
2673.199991 3.79       93.022     243.744   
2673.399991 3.94       136.985    243.774   
2673.599991 4.01       106.985    243.777   
2673.799991 4.14       76.035     243.804   
2673.999991 4.31       147.972    243.824   
2674.19999 4.5        90.999     243.863   
2674.39999 4.92       89.031     243.883   
2674.59999 4.76       153.015    243.883   
2674.79999 4.47       183.969    243.89    
2674.99999 4.61       121.006    243.913   
2675.199989 4.72       134.041    243.963   
2675.399989 4.7        217.971    243.983   
2675.599989 4.7        159.073    243.983   
2675.799989 4.52       309.009    243.983   
2675.999989 4.02       327.932    244.023   
2676.199988 4.02       188.048    244.063   
2676.399988 4.21       286.983    244.063   
2676.599988 4.79       252.963    244.076   
2676.799988 5          177.035    244.122   
2676.999988 5.04       247.96     244.113   
2677.199987 4.95       166.026    244.156   
2677.399987 4.76       218.988    244.142   
2677.599987 4.65       194.002    244.182   
2677.799987 4.38       198.012    244.182   
2677.999987 4.34       221.987    244.182   
2678.199986 4.65       195.97     244.222   
2678.399986 4.82       134.015    244.242   
2678.599986 4.8        165.03     244.282   
2678.799986 4.89       226.977    244.295   
2678.999986 4.96       180.078    244.302   
2679.199985 4.51       339.917    244.302   
2679.399985 4.93       171.032    244.368   
2679.599985 5.34       237.108    244.362   
2679.799985 4.58       457.3      244.382   
2679.999985 4.42       1075.619   244.402   
2680.199984 5.19       12553.71   244.422   
2680.399984 5.74       20119.35   244.461   
2680.599984 5.53       414.921    244.481   
2680.799984 5.6        253.03     244.481   
2680.999984 5.84       313.897    244.495   
2681.199983 6          104.012    244.534   
2681.399983 5.76       129.075    244.561   
2681.599983 5.79       281.952    244.581   
2681.799983 5.92       183.044    244.581   
2681.999983 5.93       272.932    244.611   
2682.199982 6.23       134.045    244.641   
2682.399982 6.16       225.003    244.661   
2682.599982 5.85       231.002    244.681   
2682.799982 6.07       236.036    244.674   
2682.999982 6.73       310.074    244.72    
2683.199981 6.52       460.867    244.74    
2683.399981 6.06       189.022    244.76    
2683.599981 6.32       233.981    244.76    
2683.799981 5.9        195.992    244.785   
2683.999981 5.64       179.034    244.8     
2684.19998 5.53       249.033    244.813   
2684.39998 5.61       316.951    244.82    
2684.59998 5.85       216.976    244.82    
2684.79998 5.99       169.019    244.88    
2684.99998 6.22       207.001    244.92    
2685.199979 6.76       210.053    244.933   
2685.399979 6.9        317.943    244.925   
2685.599979 6.18       201.021    244.98    
2685.799979 6.07       244.007    245.019   
2685.999979 6.33       259.028    245.019   
2686.199978 6.16       316.963    245.019   
2686.399978 6.18       241.032    245.054   
2686.599978 6.66       306.994    245.079   
2686.799978 7.27       294.918    245.132   
2686.999978 6.89       128.057    245.139   
2687.199977 6.09       244.012    245.139   
2687.399977 6.42       268.036    245.159   
2687.599977 6.72       340.979    245.199   
2687.799977 6.64       299.054    245.219   
2687.999977 6.98       408.868    245.252   
2688.199976 6.93       140.012    245.259   
2688.399976 6.81       164.036    245.338   
2688.599976 6.9        236.984    245.298   
2688.799976 7.03       203.979    245.325   
2688.999976 6.71       161.055    245.318   
2689.199975 6.34       273        245.345   
2689.399975 6.86       274.11     245.425   
2689.599975 7.44       497.964    245.418   
2689.799975 7.39       424.892    245.418   
2689.999975 7.08       204.01     245.438   
2690.199974 7.09       224.984    245.448   
2690.399974 7.16       193.046    245.558   
2690.599974 7.25       285.996    245.518   
2690.799974 7.19       278.05     245.518   
2690.999974 6.38       380.088    245.597   
2691.199973 6.31       2608.27    245.617   
2691.399973 7.08       23535.16   245.651   
2691.599973 7.27       1442.433   245.67    
2691.799973 7.27       285.97     245.617   
2691.999973 7.01       225.042    245.71    
2692.199972 6.49       310.98     245.737   
2692.399972 6.4        271.058    245.717   
2692.599972 6.61       389.928    245.776   
2692.799972 6.56       243.975    245.803   
2692.999972 6.69       194.026    245.843   
2693.199971 6.69       247.105    245.857   
2693.399971 6.63       462.001    245.883   
2693.599971 6.85       463.936    245.876   
2693.799971 7.14       332.981    245.916   
2693.999971 7.31       295.062    245.949   
2694.19997 7.21       421.049    245.956   
2694.39997 7.06       520.857    245.976   
2694.59997 7          230        245.916   
2694.79997 6.88       230.053    245.976   
2694.99997 6.56       337.983    246.056   
2695.199969 7.35       303.047    246.062   
2695.399969 8.23       397.931    246.076   
2695.599969 8.69       256.982    246.036   
2695.799969 9          221.075    246.122   
2695.999969 8.51       372.974    246.156   
2696.199968 8.37       318.979    246.149   
2696.399968 8.059      276.979    246.175   
2696.599968 6.469      235.079    246.215   
2696.799968 5.33       396.985    246.255   
2696.999968 5.52       366.996    246.255   
2697.199967 5.18       357.933    246.268   
2697.399967 4.86       221.019    246.295   
2697.599967 5.31       259.125    246.335   
2697.799967 5.35       512.902    246.368   
2697.999967 5.49       312.992    246.375   
2698.199966 5.48       296.961    246.375   
2698.399966 5.48       218.028    246.415   
2698.599966 5.38       275.063    246.454   
2698.799966 5.11       403.921    246.454   
2698.999966 5.06       242.973    246.474   
2699.199965 5.51       189.023    246.494   
2699.399965 5.63       236.061    246.544   
2699.599965 5.78       360.988    246.554   
2699.799965 6.21       335.968    246.554   
2699.999965 6.67       270.038    246.554   
2700.199964 6.44       346.996    246.614   
