~Version
 VERS              .         2.0                           : CWLS LOG ASCII STANDARD - VERSION 2.0
 WRAP              .         NO                            : ONE LINE PER DEPTH STEP
 DLM               .         SPACE                         : DELIMITING CHARACTER(SPACE TAB OR COMMA)
~Well Information
#_______________________________________________________________________________
#
#PARAMETER_NAME    .UNIT     VALUE                         : DESCRIPTION
#_______________________________________________________________________________
STRT               .M        1.8                           : First reference value
STOP               .M        2776                          : Last reference value
STEP               .M        0.2                           : Step increment
NULL               .         -9999                         : Missing value
COMP               .                                       : Company
WELL               .         616                           : Well name
FLD                .                                       : Field
LOC                .                                       : Location
CNTY               .                                       : County
STAT               .                                       : State
CTRY               .                                       : Country
SRVC               .                                       : Service Company
DATE               .                                       : Date
API                .                                       : API number
PROJECT_UPGRADE_TIME .         2021-03-18T21_24_50           : 
group              .         Good                          : 
~Parameter Information Block
#_______________________________________________________________________________
#
#PARAMETER_NAME    .UNIT     VALUE                         : DESCRIPTION
#_______________________________________________________________________________
SET                .         D1799_D                       : 
OTHER              .         Программное обеспечение станции MONITOR-386EX 25/12/99 15_08_10   BGF V52 22/08/01 16_56_30   3.1_SNGF___BGF_N_092049: 
OTHER_10           .         Тарировки_                    : 
OTHER_11           .         TM.GRD = 0.00403*TM$.UE + -1.07: 
OTHER_12           .         MN.ATM = (9.34907e-006*TM.GRD + 0.02171)*(MN$.UE + -7.93*TM.GRD + -1787): 
OTHER_13           .         GK.MKR/H = LM. / 42.4676      : 
OTHER_14           .         GK.FLT = 0.1*GK.MKR/H[-1] + (1-0.1)*GK.MKR/H[0]: 
OTHER_2            .         Kedr.exe версия 3.4.2.51      : 
OTHER_3            .         KedrData.dll версия 3.4.2.24  : 
OTHER_4            .         Драйвер версия 2.1.1.3        : 
OTHER_5            .         Мнемоники версия 3.3 S        : 
OTHER_6            .         Прибор_ КСА-Т4                : 
OTHER_7            .         Номер прибора_ 03             : 
OTHER_8            .         Режим_ КСА-Т4                 : 
OTHER_9            .         Форма_ КВА.                   : 
PROJECT_UPGRADE_TIME .         2021-03-18T21_24_49           : 
TLFamily_DEPT      .         Measured Depth                : 
TLFamily_GK        .         Gamma Ray                     : 
TLFamily_GK$       .                                       : 
TLFamily_GK_2      .         Gamma Ray                     : 
TLFamily_LM        .         Casing Collar locator         : 
TLFamily_METKA     .                                       : 
TLFamily_MN        .                                       : 
TLFamily_MN$       .                                       : 
TLFamily_RCOR      .                                       : 
TLFamily_SPID      .         Spontaneous Potential         : 
TLFamily_TENS      .         Cable Tension                 : 
TLFamily_TIME      .         Time                          : 
TLFamily_TM        .         Temperature                   : 
TLFamily_TM$       .         Temperature                   : 
group              .         prim                          : 
~Curve Information
#_______________________________________________________________________________
#
#LOGNAME           .UNIT     LOG_ID                        : DESCRIPTION
#_______________________________________________________________________________
DEPT               .M                                      : 1 Глубина, м -    0.0 см 
GK                 .MKR/H                                  : 13 Гамма-активность, мкр./ч -  110.0 см 
GK$                .UE                                     : 10 Гамма-активность, усл.ед. -  110.0 см 
GK_2               .FLT                                    : 14 Гамма-активность фильтрованная, мкр./ч -  110.0 см 
LM                 .                                       : 9 Локатор муфт,  -   20.0 см 
METKA              .                                       : 3 Метки,  -    0.0 см 
MN                 .ATM                                    : 12 Давление, атм. -  160.0 см 
MN$                .UE                                     : 8 Давление, усл.ед. -  160.0 см 
RCOR               .CM/KM                                  : 5 Коррекция по ролику, см/км -    0.0 см 
SPID               .M/H                                    : 2 Скорость, м/час -    0.0 см 
TENS               .T                                      : 6 Натяжение кабеля, т -    0.0 см 
TIME               .S                                      : 4 Время, сек -    0.0 см 
TM                 .GRD                                    : 11 Температура, °C -  170.0 см 
TM$                .UE                                     : 7 Температура, усл.ед. -  170.0 см 
~Ascii
# ...
1842.6     8.31       353        8.23       941        0          163.419    9571       -1200      2040       -0.03      3677.18    53.819     13620     
1842.8     8.31       353        8.28       903        0          163.44     9572       -1200      2040       -0.03      3677.57    53.823     13621     
1843       8.31       353        8.3        754        0          163.46     9573       -1200      2035       -0.03      3677.89    53.827     13622     
1843.2     8.31       353        8.31       779        0          163.481    9573       -1200      2030       -0.03      3678.25    53.827     13622     
1843.4     8.31       353        8.31       812        0          163.501    9574       -1200      2031       -0.03      3678.59    53.83      13623     
1843.6     8.31       353        8.31       900        0          163.522    9575       -1200      2027       -0.03      3678.96    53.831     13623     
1843.8     8.31       353        8.31       889        0          163.543    9576       -1200      2022       -0.03      3679.31    53.834     13624     
1844       8.33       354        8.32       729        0          163.562    9577       -1200      2024       -0.03      3679.65    53.838     13625     
1844.2     8.34       354        8.33       676        0          163.584    9578       -1200      2027       -0.03      3680.02    53.839     13625     
1844.4     8.34       354        8.33       702        0          163.602    9579       -1200      2029       -0.03      3680.39    53.842     13626     
1844.6     8.34       354        8.33       659        0          163.603    9579       -1200      2026       -0.03      3680.73    53.843     13626     
1844.8     8.34       354        8.34       734        0          163.624    9580       -1200      2026       -0.04      3681.08    53.845     13627     
1845       8.34       354        8.34       703        0          163.644    9581       -1200      2028       -0.04      3681.43    53.847     13627     
1845.2     8.34       354        8.34       754        0          163.666    9582       -1200      2030       -0.03      3681.77    53.848     13627     
1845.4     8.41       357        8.38       754        0          163.687    9583       -1200      2029       -0.03      3682.14    53.851     13628     
1845.6     8.62       366        8.53       802        0          163.707    9584       -1200      2024       -0.03      3682.49    53.852     13628     
1845.8     8.62       366        8.58       787        0          163.729    9585       -1200      2022       -0.03      3682.83    53.855     13629     
1846       8.62       366        8.61       1118       0          163.75     9586       -1200      2025       -0.03      3683.18    53.856     13629     
1846.2     8.62       366        8.61       1050       0          163.77     9587       -1200      2027       -0.03      3683.54    53.86      13630     
1846.4     8.62       366        8.62       923        0          163.791    9588       -1200      2030       -0.03      3683.89    53.863     13631     
1846.6     8.62       366        8.62       786        0          163.799    9588       -1200      2031       -0.03      3684.22    53.867     13632     
1846.8     9.18       390        8.97       2288       0          163.819    9589       -1200      2033       -0.03      3684.61    53.867     13632     
1847       9.3        395        9.17       2571       0          163.844    9590       -1200      2035       -0.03      3684.94    53.867     13632     
1847.2     9.3        395        9.25       1951       0          163.852    9590       -1200      2036       -0.03      3685.29    53.871     13633     
1847.4     9.3        395        9.28       1781       0          163.878    9592       -1200      2037       -0.03      3685.63    53.871     13633     
1847.6     9.3        395        9.29       1365       0          163.91     9593       -1200      2039       -0.03      3686.01    53.874     13634     
1847.8     9.3        395        9.3        1378       0          163.913    9593       -1200      2035       -0.03      3686.38    53.878     13635     
1848       9.3        395        9.3        1123       0          163.934    9594       -1200      2034       -0.03      3686.71    53.882     13636     
1848.2     9.31       395        9.31       988        0          163.953    9595       -1200      2036       -0.03      3687.07    53.885     13637     
1848.4     9.32       396        9.32       841        0          163.976    9596       -1200      2037       -0.03      3687.42    53.889     13638     
1848.6     9.32       396        9.32       900        0          163.995    9597       -1200      2035       -0.03      3687.77    53.891     13638     
1848.8     9.32       396        9.32       900        0          164.016    9598       -1200      2030       -0.03      3688.14    53.891     13638     
1849       9.32       396        9.32       792        0          164.036    9599       -1200      2028       -0.03      3688.49    53.892     13638     
1849.2     9.32       396        9.32       782        0          164.058    9600       -1200      2028       -0.03      3688.83    53.896     13639     
1849.4     9.32       396        9.32       823        0          164.079    9601       -1200      2023       -0.03      3689.18    53.9       13640     
1849.6     9.32       396        9.32       709        0          164.084    9601       -1200      2020       -0.03      3689.52    53.904     13641     
1849.8     9.48       403        9.42       681        0          164.097    9602       -1200      2023       -0.03      3689.88    53.907     13642     
1850       9.49       403        9.47       679        0          164.118    9603       -1200      2026       -0.03      3690.24    53.908     13642     
1850.2     9.49       403        9.48       758        2          164.138    9603       -1203      2028       -0.03      3690.65    53.911     13643     
1850.4     9.49       403        9.49       768        0          164.16     9604       -1203      2030       -0.03      3691.02    53.915     13644     
1850.6     9.49       403        9.49       1035       0          164.181    9605       -1203      2032       -0.03      3691.35    53.915     13644     
1850.8     9.49       403        9.49       818        0          164.194    9606       -1203      2034       -0.03      3691.7     53.915     13644     
1851       8.99       382        9.18       890        0          164.2      9606       -1203      2035       -0.03      3692.09    53.919     13645     
1851.2     8.69       369        8.86       836        0          164.22     9607       -1203      2030       -0.03      3692.42    53.922     13646     
1851.4     8.69       369        8.75       996        0          164.241    9608       -1203      2026       -0.03      3692.77    53.923     13646     
1851.6     8.69       369        8.71       1136       0          164.262    9609       -1203      2032       -0.03      3693.12    53.926     13647     
1851.8     8.69       369        8.7        3975       0          164.286    9610       -1203      2029       -0.03      3693.48    53.93      13648     
1852       8.69       369        8.69       4631       0          164.307    9611       -1203      2025       -0.03      3693.82    53.934     13649     
1852.2     8.69       369        8.69       3222       0          164.326    9612       -1203      2025       -0.03      3694.18    53.935     13649     
1852.4     8.4        357        8.51       2535       0          164.347    9613       -1203      2027       -0.03      3694.52    53.935     13649     
1852.6     7.94       337        8.16       1935       0          164.371    9614       -1203      2029       -0.03      3694.87    53.935     13649     
1852.8     7.94       337        8.02       1935       0          164.39     9615       -1203      2028       -0.04      3695.23    53.937     13649     
