~Version
 VERS              .         2.0                           : CWLS LOG ASCII STANDARD - VERSION 2.0
 WRAP              .         NO                            : ONE LINE PER DEPTH STEP
 DLM               .         SPACE                         : DELIMITING CHARACTER(SPACE TAB OR COMMA)
~Well Information
#_______________________________________________________________________________
#
#PARAMETER_NAME    .UNIT     VALUE                         : DESCRIPTION
#_______________________________________________________________________________
STRT               .M        749.69                        : First reference value
STOP               .M        1410.72                       : Last reference value
STEP               .M        0                             : Step increment
NULL               .         -9999                         : Missing value
COMP               .                                       : Company
WELL               .         616                           : Well name
FLD                .                                       : Field
LOC                .                                       : Location
CNTY               .                                       : County
STAT               .                                       : State
CTRY               .                                       : Country
SRVC               .                                       : Service Company
DATE               .                                       : Date
API                .                                       : API number
PROJECT_UPGRADE_TIME .         2021-03-18T21_24_50           : 
group              .         Good                          : 
~Parameter Information Block
#_______________________________________________________________________________
#
#PARAMETER_NAME    .UNIT     VALUE                         : DESCRIPTION
#_______________________________________________________________________________
SET                .         D0928                         : 
NPR                .         210404                        : ЗАВ НОМЕР ПРИБОРА
NPRT               .         Каштанов                      : НАЧ ПАРТИИ
PROJECT_UPGRADE_TIME .         2021-03-18T21_24_49           : 
TLFamily_AZIMUTH   .         True Dip Azimuth              : 
TLFamily_DEPTH     .         Measured Depth                : 
TLFamily_DRILL     .                                       : 
TLFamily_METKA     .                                       : 
TLFamily_ZENIT     .                                       : 
group              .         prim                          : 
~Curve Information
#_______________________________________________________________________________
#
#LOGNAME           .UNIT     LOG_ID                        : DESCRIPTION
#_______________________________________________________________________________
DEPTH              .M                                      : 1 ГЛУБИНА 
AZIMUTH            .ГРАД                                   : 4 АЗИМУТ 
DRILL              .ГРАД                                   : 2 ПОВОРОТ 
METKA              .                                       : 5 МАГН МЕТКА 
ZENIT              .ГРАД                                   : 3 ЗЕНИТ 
~Ascii
# ...
878.81     250.92     145.45     0          30.84     
879.2      250.82     145.36     0          30.86     
879.6      250.85     145.33     0          30.84     
879.99     250.9      145.28     0          30.86     
880.38     250.86     145.19     0          30.85     
880.78     250.82     145.08     0          30.84     
881.17     250.85     144.95     0          30.83     
881.57     250.9      144.83     0          30.83     
881.96     250.81     144.66     0          30.82     
882.36     250.77     144.45     0          30.81     
882.75     250.87     144.14     0          30.82     
883.15     250.96     143.59     0          30.82     
883.54     250.9      142.81     0          30.82     
883.94     250.86     141.87     0          30.81     
884.33     250.84     140.86     0          30.8      
884.93     250.92     139.86     0          30.78     
885.32     250.87     139.89     0          30.76     
885.72     251.03     139.92     0          30.76     
886.11     251.04     140.08     0          30.77     
886.51     251.05     140.24     0          30.77     
886.9      251.22     140.33     0          30.77     
887.29     251.36     140.42     0          30.78     
887.69     251.39     140.49     0          30.77     
888.08     251.46     140.53     0          30.76     
888.48     251.52     140.58     0          30.75     
888.87     251.78     140.65     0          30.78     
889.27     251.79     140.74     0          30.76     
889.66     251.96     140.83     0          30.77     
890.06     252.11     140.92     0          30.77     
890.45     252.14     141.05     0          30.77     
890.85     252.2      141.23     0          30.76     
891.24     252.41     141.39     0          30.74     
891.64     252.52     141.5      0          30.76     
892.03     252.67     141.59     0          30.75     
892.43     252.81     141.68     0          30.75     
892.82     253.07     141.79     0          30.76     
893.22     253.24     141.9      0          30.76     
893.61     253.36     142.04     0          30.75     
894.01     253.67     142.22     0          30.77     
894.4      253.88     142.38     0          30.76     
894.8      254.09     142.53     0          30.76     
895.19     254.27     142.64     0          30.75     
895.59     254.62     142.67     0          30.75     
895.98     254.98     142.71     0          30.75     
896.38     255.39     142.76     0          30.77     
896.57     255.79     142.77     0          30.79     
896.76     256.24     142.78     0          30.8      
896.96     256.61     142.84     0          30.79     
897.15     257.06     142.9      0          30.79     
897.35     257.55     142.93     0          30.78     
897.54     258.18     142.95     0          30.79     
897.74     258.84     142.93     0          30.77     
897.93     259.81     142.9      0          30.78     
898.12     260.9      142.88     0          30.79     
898.32     262.18     142.87     0          30.79     
898.51     263.65     142.87     0          30.78     
898.71     265.41     142.88     0          30.78     
899.1      267.59     143        0          30.78     
899.5      268.71     143.14     0          30.76     
899.89     270.98     143.26     0          30.76     
900.29     273.16     143.36     0          30.76     
900.68     275.82     143.42     0          30.74     
901.08     278.42     143.45     0          30.72     
901.47     280.94     143.48     0          30.7      
901.87     282.92     143.51     0          30.69     
902.26     285.6      143.53     0          30.68     
902.66     288.04     143.52     0          30.67     
903.05     290.46     143.52     0          30.69     
903.45     292.8      143.53     0          30.65     
903.84     295.84     143.61     0          30.65     
904.24     298.23     143.83     0          30.62     
904.63     300.96     144.23     0          30.62     
905.03     303.43     144.82     0          30.58     
905.42     305.58     145.57     0          30.57     
905.82     307.31     146.51     0          30.56     
906.21     309.83     147.7      0          30.53     
906.61     312.3      149.1      0          30.54     
907        313.8      150.68     0          30.53     
907.4      316.11     152.53     0          30.54     
907.79     317.78     154.63     0          30.55     
908.19     319.58     156.88     0          30.52     
908.58     322.3      159.19     0          30.54     
908.97     324.12     161.59     0          30.53     
909.36     324.72     164.2      0          30.52     
909.75     327.31     167        0          30.52     
910.14     329.78     169.97     0          30.5      
910.53     330.66     173.15     0          30.52     
910.72     330.8      176.49     0          30.52     
910.9      330.15     180.11     0          30.5      
911.09     330.35     183.86     0          30.49     
911.28     328.68     187.42     0          30.47     
911.47     326.13     190.47     0          30.43     
911.66     323.59     192.99     0          30.45     
911.84     324.26     195.01     0          30.48     
912.03     326.43     196.64     0          30.5      
912.22     328.08     197.74     0          30.49     
912.41     329.29     198.26     0          30.54     
912.6      330.16     198.28     0          30.53     
912.78     328.26     197.78     0          30.57     
912.97     326.78     196.71     0          30.61     
913.16     329.57     194.88     0          30.62     
913.35     330.9      191.96     0          30.67     
913.54     331.79     187.5      0          30.67     
913.72     333.38     180.6      0          30.66     
913.91     336.78     170.22     0          30.62     
914.1      339.04     156.35     0          30.6      
914.29     340.96     141.33     0          30.59     
914.48     344.6      127.79     0          30.54     
914.66     347.01     116.98     0          30.52     
914.85     350.02     109.06     0          30.45     
915.04     351.4      103.88     0          30.47     
915.23     352.87     101.01     0          30.44     
915.42     354.46     99.32      0          30.45     
915.62     357.49     98.33      0          30.46     
915.81     357.96     97.91      0          30.45     
916.01     357.23     97.89      0          30.47     
916.2      357.91     98.2       0          30.44     
916.39     359.92     99.01      0          30.46     
916.59     3.3        100.55     0          30.47     
916.78     4.74       102.95     0          30.49     
916.98     8.25       106.08     0          30.49     
917.17     10.61      109.59     0          30.54     
917.36     11.26      113.1      0          30.55     
917.56     11.24      116.43     0          30.51     
917.75     11.48      119.49     0          30.52     
917.95     10.45      122.27     0          30.5      
918.14     10.42      124.74     0          30.47     
918.34     11.11      126.93     0          30.47     
918.53     13.44      128.91     0          30.45     
918.72     11.92      130.64     0          30.42     
918.92     10.76      132.2      0          30.42     
919.11     11.4       133.63     0          30.37     
919.31     11.68      134.99     0          30.39     
919.5      12.2       136.26     0          30.4      
919.7      10.98      137.37     0          30.45     
919.89     10.11      138.23     0          30.49     
920.09     9.12       138.87     0          30.51     
920.28     8.27       139.39     0          30.55     
920.47     7.47       139.87     0          30.58     
920.67     6.81       140.5      0          30.62     
920.86     6.59       141.11     0          30.63     
921.06     5.61       141.43     0          30.64     
921.25     4.88       141.55     0          30.63     
921.45     4.24       141.62     0          30.65     
921.64     4.04       141.69     0          30.63     
921.83     4.53       141.75     0          30.64     
