~Version
 VERS              .         2.0                           : CWLS LOG ASCII STANDARD - VERSION 2.0
 WRAP              .         NO                            : ONE LINE PER DEPTH STEP
 DLM               .         SPACE                         : DELIMITING CHARACTER(SPACE TAB OR COMMA)
~Well Information
#_______________________________________________________________________________
#
#PARAMETER_NAME    .UNIT     VALUE                         : DESCRIPTION
#_______________________________________________________________________________
STRT               .M        47.8                          : First reference value
STOP               .M        2693.8                        : Last reference value
STEP               .M        0.2                           : Step increment
NULL               .         -9999                         : Missing value
COMP               .                                       : Company
WELL               .         616                           : Well name
FLD                .                                       : Field
LOC                .                                       : Location
CNTY               .                                       : County
STAT               .                                       : State
CTRY               .                                       : Country
SRVC               .                                       : Service Company
DATE               .                                       : Date
API                .                                       : API number
PROJECT_UPGRADE_TIME .         2021-03-18T21_24_50           : 
group              .         Good                          : 
~Parameter Information Block
#_______________________________________________________________________________
#
#PARAMETER_NAME    .UNIT     VALUE                         : DESCRIPTION
#_______________________________________________________________________________
SET                .         D1172_D                       : 
OTHER              .         Программное обеспечение станции MONITOR-386EX 25/12/99 15_08_10   BGF V52 22/08/01 16_56_30   3.2_BGF_N_3070031: 
OTHER_10           .         Тарировки_                    : 
OTHER_11           .         TM.GRD = 0.00403*TM$.UE + -1.19: 
OTHER_12           .         MN.ATM = (7.1e-006*TM.GRD + 0.02017)*(MN$.UE + -3.03*TM.GRD + -1833): 
OTHER_13           .         Id error                      : 
OTHER_2            .         Kedr.exe версия 3.4.2.51      : 
OTHER_3            .         KedrData.dll версия 3.4.2.24  : 
OTHER_4            .         Драйвер версия 2.1.1.8        : 
OTHER_5            .         Мнемоники версия 3.3 S        : 
OTHER_6            .         Прибор_ КСА-М1                : 
OTHER_7            .         Номер прибора_ 265            : 
OTHER_8            .         Режим_ КСА-М1                 : 
OTHER_9            .         Форма_ ТЕРМОМЕТР              : 
PROJECT_UPGRADE_TIME .         2021-03-18T21_24_49           : 
TLFamily_DEPT      .         Measured Depth                : 
TLFamily_GK        .         Gamma Ray                     : 
TLFamily_GK$       .                                       : 
TLFamily_LM        .         Casing Collar locator         : 
TLFamily_METKA     .                                       : 
TLFamily_MN        .                                       : 
TLFamily_MN$       .                                       : 
TLFamily_RCOR      .                                       : 
TLFamily_SPID      .         Spontaneous Potential         : 
TLFamily_STD       .                                       : 
TLFamily_TENS      .         Cable Tension                 : 
TLFamily_TIME      .         Time                          : 
TLFamily_TM        .         Temperature                   : 
TLFamily_TM$       .         Temperature                   : 
TLFamily_VGD       .         Gas Volume                    : 
group              .         prim                          : 
~Curve Information
#_______________________________________________________________________________
#
#LOGNAME           .UNIT     LOG_ID                        : DESCRIPTION
#_______________________________________________________________________________
DEPT               .M                                      : 1 Глубина, м -    0.0 см 
GK                 .MKR/H                                  : 15 Гамма-активность, мкр./ч -  110.0 см 
GK$                .UE                                     : 12 Гамма-активность, усл.ед. -  110.0 см 
LM                 .                                       : 10 Локатор муфт,  -   20.0 см 
METKA              .                                       : 3 Метки,  -    0.0 см 
MN                 .ATM                                    : 14 Давление, атм. -  160.0 см 
MN$                .UE                                     : 8 Давление, усл.ед. -  160.0 см 
RCOR               .CM/KM                                  : 5 Коррекция по ролику, см/км -    0.0 см 
SPID               .M/H                                    : 2 Скорость, м/час -    0.0 см 
STD                .                                       : 11 Приток,  -  170.0 см 
TENS               .T                                      : 6 Натяжение кабеля, т -    0.0 см 
TIME               .S                                      : 4 Время, сек -    0.0 см 
TM                 .GRD                                    : 13 Температура, °C -  180.0 см 
TM$                .UE                                     : 7 Температура, усл.ед. -  180.0 см 
VGD                .                                       : 9 Влагомер,  -  170.0 см 
~Ascii
# ...
1106.2     4.35       190        1          0          103.702    7018       -1400      -1953      10489      0          32236.29   35.169     9022       6555      
1106.4     4.3        186        1          0          103.72     7019       -1400      -1950      10494      0          32235.91   35.174     9023       6555      
1106.6     4.28       186        1          0          103.739    7020       -1400      -1954      10496      0          32235.55   35.185     9026       6555      
1106.8     4.25       186        1          0          103.758    7021       -1400      -1958      10496      0          32235.19   35.188     9027       6556      
1107       4.2        186        1          0          103.761    7021       -1400      -1956      10499      0          32234.81   35.192     9028       6556      
1107.2     4.12       186        1          0          103.79     7022       -1400      -1955      10503      0          32234.44   35.199     9030       6556      
1107.4     4.01       184        1          0          103.801    7023       -1400      -1957      10503      0          32234.09   35.207     9031       6556      
1107.6     3.86       165        1          0          103.813    7024       -1400      -1955      10505      0          32233.72   35.214     9033       6556      
1107.8     3.86       165        1          0          103.833    7025       -1400      -1952      10509      0          32233.34   35.222     9035       6555      
1108       3.85       165        1          0          103.853    7026       -1400      -1950      10512      0          32232.98   35.23      9037       6556      
1108.2     3.85       165        1          0          103.872    7027       -1400      -1953      10516      0          32232.63   35.238     9039       6556      
1108.4     3.85       165        1          0          103.891    7027       -1400      -1950      10517      0          32232.24   35.245     9041       6556      
1108.6     3.84       165        1          1          103.91     7028       -1400      -1947      10522      0          32231.88   35.253     9043       6556      
1108.8     3.83       165        1          0          103.929    7029       -1400      -1949      10525      0          32231.53   35.26      9045       6555      
1109       3.82       165        1          0          103.947    7030       -1400      -1952      10530      0          32231.14   35.267     9046       6556      
1109.2     3.8        165        1          0          103.966    7031       -1400      -1955      10532      0          32230.78   35.271     9047       6555      
1109.4     3.77       165        1          0          103.986    7032       -1400      -1959      10535      0          32230.4    35.279     9049       6556      
1109.6     3.72       165        1          0          104.004    7033       -1400      -1959      10537      0          32230.04   35.286     9051       6556      
1109.8     3.66       165        1          2          104.023    7034       -1400      -1957      10538      0          32229.66   35.29      9052       6556      
1110       3.56       165        1          0          104.043    7035       -1400      -1954      10540      0          32229.27   35.297     9054       6556      
1110.2     3.41       159        1          0          104.061    7036       -1400      -1955      10543      0          32228.89   35.305     9056       6556      
1110.4     3.25       140        1          0          104.08     7037       -1400      -1956      10545      0          32228.51   35.309     9057       6555      
1110.6     3.24       140        1          0          104.084    7037       -1400      -1953      10548      0          32228.15   35.316     9059       6556      
1110.8     3.23       140        1          0          104.112    7038       -1400      -1955      10548      0          32227.79   35.321     9060       6555      
1111       3.2        140        1          0          104.138    7040       -1400      -1961      10552      0          32227.43   35.327     9061       6556      
1111.2     3.16       140        1          0          104.157    7041       -1400      -1959      10554      0          32227.05   35.335     9063       6555      
1111.4     3.11       140        1          0          104.177    7042       -1400      -1958      10558      0          32226.68   35.34      9065       6555      
1111.6     3.03       130        1          0          104.197    7043       -1400      -1961      10559      0          32226.31   35.346     9066       6555      
1111.8     3.03       129        1          0          104.217    7044       -1400      -1959      10562      0          32225.94   35.352     9068       6556      
1112       3.03       129        1          0          104.236    7044       -1400      -1957      10565      0          32225.59   35.358     9069       6555      
1112.2     3.04       129        1          0          104.255    7045       -1400      -1955      10565      0          32225.23   35.364     9070       6555      
1112.4     3.05       129        1          0          104.273    7046       -1400      -1957      10569      0          32224.88   35.371     9072       6555      
1112.6     3.06       129        1          0          104.292    7047       -1400      -1956      10571      0          32224.5    35.38      9074       6555      
1112.8     3.08       129        1          0          104.312    7048       -1400      -1954      10574      0          32224.1    35.384     9076       6555      
1113       3.12       132        1          0          104.33     7049       -1400      -1956      10575      0          32223.74   35.392     9077       6554      
1113.2     3.14       134        18         0          104.349    7050       -1400      -1955      10578      0          32223.36   35.4       9079       6555      
1113.4     3.14       134        29         0          104.368    7051       -1400      -1953      10581      0          32222.99   35.407     9081       6555      
1113.6     3.14       134        44         0          104.368    7051       -1400      -1953      10584      0          32222.64   35.415     9083       6555      
1113.8     3.15       134        44         0          104.385    7052       -1400      -1954      10586      0          32222.26   35.422     9085       6555      
1114       3.15       134        78         0          104.419    7054       -1400      -1951      10588      0          32221.89   35.43      9087       6555      
1114.2     3.16       134        100        0          104.444    7055       -1400      -1948      10591      0          32221.54   35.437     9089       6555      
1114.4     3.17       134        165        0          104.449    7055       -1400      -1946      10595      0          32221.18   35.442     9090       6555      
1114.6     3.19       134        267        0          104.462    7056       -1400      -1949      10598      0          32220.82   35.449     9092       6555      
1114.8     3.21       134        418        0          104.482    7057       -1400      -1952      10603      0          32220.43   35.456     9093       6555      
1115       3.25       134        646        0          104.501    7058       -1400      -1955      10604      0          32220.07   35.461     9095       6555      
1115.2     3.31       134        988        0          104.519    7059       -1400      -1959      10611      0          32219.7    35.468     9096       6555      
1115.4     3.39       134        1528       0          104.529    7059       -1400      -1957      10611      0          32219.33   35.473     9098       6555      
1115.6     3.51       146        2341       0          104.538    7059       -1400      -1954      10615      0          32218.96   35.479     9099       6555      
1115.8     3.55       152        3615       0          104.556    7060       -1400      -1957      10618      0          32218.61   35.486     9101       6555      
