~Version
 VERS              .         2.0                           : CWLS LOG ASCII STANDARD - VERSION 2.0
 WRAP              .         NO                            : ONE LINE PER DEPTH STEP
 DLM               .         SPACE                         : DELIMITING CHARACTER(SPACE TAB OR COMMA)
~Well Information
#_______________________________________________________________________________
#
#PARAMETER_NAME    .UNIT     VALUE                         : DESCRIPTION
#_______________________________________________________________________________
STRT               .M        2298.8                        : First reference value
STOP               .M        2799.8                        : Last reference value
STEP               .M        0.2                           : Step increment
NULL               .         -9999                         : Missing value
COMP               .                                       : Company
WELL               .         616                           : Well name
FLD                .                                       : Field
LOC                .                                       : Location
CNTY               .                                       : County
STAT               .                                       : State
CTRY               .                                       : Country
SRVC               .                                       : Service Company
DATE               .                                       : Date
API                .                                       : API number
PROJECT_UPGRADE_TIME .         2021-03-18T21_24_50           : 
group              .         Good                          : 
~Parameter Information Block
#_______________________________________________________________________________
#
#PARAMETER_NAME    .UNIT     VALUE                         : DESCRIPTION
#_______________________________________________________________________________
SET                .         D2659_D                       : 
OTHER              .         Программное обеспечение станции MONITOR-386EX 25/12/99 15_08_10   BGF V50 26/12/00 07_26_01   3.1_SNGF___BGF_N_092085: 
OTHER_10           .         Тарировки_                    : 
OTHER_11           .         <_techsia_sc_> Постоянная времени фильтра ПС  0.5 сек, kf=0.139292: 
OTHER_2            .         Kedr.exe версия 3.3.2.32      : 
OTHER_3            .         KedrData.dll версия 3.3.2.17  : 
OTHER_4            .         Драйвер версия 2.1.0.7        : 
OTHER_5            .         Мнемоники версия 3.3 S        : 
OTHER_6            .         Прибор_ К1a-723м              : 
OTHER_7            .         Номер прибора_ 348/72         : 
OTHER_8            .         Режим_ K1A-723M               : 
OTHER_9            .         Форма_ БКЗ                    : 
PROJECT_UPGRADE_TIME .         2021-03-18T21_24_49           : 
TLFamily_BK        .         Lateral Log Resistivity       : 
TLFamily_DEPT      .         Measured Depth                : 
TLFamily_GZ1       .         Extra Shallow Resistivity     : 
TLFamily_GZ2       .         Shallow Resistivity           : 
TLFamily_GZ3       .         Medium Resistivity            : 
TLFamily_GZ4       .         Deep Resistivity              : 
TLFamily_GZ5       .         Extra Deep Resistivity        : 
TLFamily_GZ6       .         Medium Resistivity Inverted   : 
TLFamily_IBK       .                                       : 
TLFamily_IK        .         Conductivity                  : 
TLFamily_IPR       .                                       : 
TLFamily_METKA     .                                       : 
TLFamily_PS        .         Spontaneous Potential         : 
TLFamily_PZ        .         Potential Resistivity         : 
TLFamily_RCOR      .                                       : 
TLFamily_RES       .         Mud Resistivity               : 
TLFamily_SPID      .         Spontaneous Potential         : 
TLFamily_TENS      .         Cable Tension                 : 
TLFamily_TIME      .         Time                          : 
TLFamily_UBK       .         Uranium Concentration         : 
group              .         prim                          : 
~Curve Information
#_______________________________________________________________________________
#
#LOGNAME           .UNIT     LOG_ID                        : DESCRIPTION
#_______________________________________________________________________________
DEPT               .M                                      : 1 Глубина, м -    0.0 см 
BK                 .OHMM                                   : 20 БК, Ом*м - 1768.0 см 
GZ1                .OHMM                                   : 12 A0.4M0.1N, Ом*м - 1295.0 см 
GZ2                .OHMM                                   : 11 A1.0M0.1N, Ом*м - 1355.0 см 
GZ3                .OHMM                                   : 9 A2.0M0.5N, Ом*м - 1475.0 см 
GZ4                .OHMM                                   : 8 A4.0M0.5N, Ом*м - 1025.0 см 
GZ5                .OHMM                                   : 7 A8.0M1.0N, Ом*м - 1450.0 см 
GZ6                .OHMM                                   : 10 N0.5M2.0A, Ом*м - 1025.0 см 
IBK                .A                                      : 18 Ток БК, А - 1768.0 см 
IK                 .MSM/M                                  : 14 ИК, мСм/м - 1961.0 см 
IPR                .MA                                     : 17 Ток прибора, мA -    0.0 см 
METKA              .                                       : 3 Метки,  -    0.0 см 
PS                 .mV                                     : 16 ПС, мВ - 1210.0 см 
PZ                 .OHMM                                   : 13 N11M0.5A, Ом*м - 1225.0 см 
RCOR               .CM/KM                                  : 5 Коррекция по ролику, см/км -    0.0 см 
RES                .OHMM                                   : 15 Резистивиметр, Ом*м -  600.0 см 
SPID               .M/H                                    : 2 Скорость, м/час -    0.0 см 
TENS               .T                                      : 6 Натяжение кабеля, т -    0.0 см 
TIME               .S                                      : 4 Время, сек -    0.0 см 
UBK                .V                                      : 19 Напр. БК, В - 1768.0 см 
~Ascii
# ...
2720.6     5.28       9.5        7.4        6.9        6.8        4.9        9.7        0.03       144.3      428        0          566.3      7.6        -296       2.757      -1831      0          28592.38   0.664     
2720.8     5.53       7.5        6.8        6.5        6.6        4.9        9.7        0.029      148.1      428.804    0          567.43     7.5        -296       2.757      -1862      0          28592.02   0.671     
2721       5.85       6.7        6.7        6.2        6.1        4.8        10         0.028      145.9      429.5      0          566.98     7.7        -296       2.757      -1832      0          28591.61   0.693     
2721.2     5.44       7          7          6.1        5.6        4.8        10.6       0.031      142.1      428        0          566.31     8.6        -296       2.757      -1797      0          28591.23   0.723     
2721.4     5.08       6.8        6.5        5.8        5.6        4.8        11.9       0.035      135.7      428.5      0          565.22     10.7       -296       2.757      -1803      0          28590.91   0.748     
2721.6     4.92       6.1        5.7        5.3        5.2        5.5        13.5       0.038      127.8      428        0          563.26     14.5       -296       2.757      -1812      0          28590.46   0.787     
2721.8     5.05       5.4        5          5.3        5.1        6.5        16.2       0.039      119.1      428        0          557.78     21.1       -296       2.757      -1830      0          28590.06   0.836     
2722       7.61       5.2        4.9        5.9        4.9        7.7        20.7       0.028      107.3      428        0          546.71     27.4       -296       2.757      -1856      0          28589.68   0.897     
2722.2     19.3       7.3        6.2        6.6        4.8        8.8        28.7       0.012      92         428        0          540.27     30.5       -296       2.759      -1852      0          28589.29   0.967     
2722.4     22.24      12.8       7.8        7.4        5.5        9.6        37.1       0.011      76.6       428        0          538.91     30.9       -296       2.758      -1846      0          28588.86   1.059     
2722.6     21.16      19.6       9.4        7.7        6.5        10.3       39.6       0.013      66.6       429.59     0          532.51     31.1       -296       2.759      -1837      0          28588.48   1.181     
2722.8     20.67      23.3       12.7       7.8        7.1        10.4       37         0.016      61.1       428        0          524.6      32         -296       2.759      -1820      0          28588.14   1.356     
2723       19.88      24.4       18.4       8.1        7.2        10.3       33         0.019      56.7       428        0          519.42     32.9       -296       2.758      -1822      0          28587.73   1.6       
2723.2     19.34      24.4       26.7       8.6        7.1        10.2       30.2       0.023      53.9       428        0          517.26     33.8       -296       2.761      -1839      0          28587.34   1.844     
2723.4     20.88      24.7       32.1       9.3        7.4        10.3       29         0.022      51.9       428        0          515.88     35         -296       2.759      -1822      0          28586.99   1.978     
2723.6     22.4       25         33.6       10.2       7.7        10.4       28.4       0.021      50         428        0          515.92     36.4       -296       2.761      -1842      0          28586.55   1.989     
2723.8     21         25.4       33.8       11.3       7.9        11.2       28         0.022      48.7       428.667    0          516.98     37.8       -296       2.761      -1861      0          28586.14   1.98      
2724       23.31      25.7       34.4       13.7       8.4        11.6       27.4       0.02       47.3       428        0          517.17     38.2       -296       2.76       -1862      0          28585.76   1.995     
2724.2     29.73      26.3       35.5       17.8       8.8        12.1       27.2       0.016      46.2       428        0          519.6      38         -296       2.761      -1816      0          28585.36   2.008     
2724.4     26.66      26.5       36.6       23.5       9.7        12.8       27.1       0.018      45.9       428        0          522.15     36.2       -296       2.758      -1803      0          28584.96   2.001     
2724.6     22.58      28.4       40.5       28.1       10.5       13.2       25.8       0.021      47.2       428.392    0          524.55     33.4       -296       2.758      -1812      0          28584.63   2.007     
2724.8     15.39      30.5       43.8       29.8       11.3       13.2       22.9       0.031      47.8       428.672    0          528.8      31.7       -296       2.76       -1829      0          28584.24   1.99      
2725       15.97      32.4       46.6       29.9       11.7       13.4       20.1       0.029      50.3       428        0          534.04     31.2       -296       2.759      -1825      0          28583.81   1.968     
2725.2     23.85      31         46.7       30.1       11.9       13.5       19.1       0.019      53.5       429        0          538.91     32.6       -296       2.758      -1809      0          28583.42   1.932     
2725.4     20.46      26.1       41.6       29.7       11.9       13.4       18.3       0.021      55         428        0          537.22     33.5       -296       2.76       -1824      0          28583.1    1.839     
2725.6     20.51      24.3       40.3       28.8       11.5       13.2       16.9       0.019      58         428.65     0          530        32.4       -296       2.759      -1852      0          28582.61   1.67      
2725.8     20.85      25.1       37.9       28.1       11.2       12.8       15.4       0.017      61.7       428        0          524.4      31.1       -296       2.758      -1850      0          28582.23   1.501     
2726       20.9       27.1       36.2       27.5       11.1       12.1       14.7       0.016      64.6       428        0          522.43     29.5       -296       2.759      -1803      0          28581.85   1.398     
2726.2     21.16      27.6       35.5       27.4       11.3       11.3       14.5       0.015      67.9       429        0          522.8      26.5       -296       2.762      -1812      0          28581.51   1.323     
2726.4     21.12      27.1       36.4       27.6       11.8       10.7       14.1       0.014      71.6       428        0          525.12     21.1       -296       2.759      -1828      0          28581.09   1.255     
2726.6     16         27.2       39         27.9       12.8       10.3       13.8       0.018      75.2       428.512    0          529.3      17         -296       2.758      -1856      0          28580.7    1.202     
2726.8     7.58       28         40.4       29         14.4       9.6        13.3       0.037      78.4       429.5      0          536.47     14.5       -296       2.759      -1853      0          28580.36   1.185     
2727       7.58       29.6       41.5       28.6       15.4       9.1        12.7       0.037      83.1       428        0          546.75     13.2       -296       2.758      -1848      0          28579.9    1.185     
2727.2     7.65       24.1       33.8       25.4       14.6       8.5        12.5       0.037      85.6       429.5      0          557.43     13         -296       2.759      -1838      0          28579.52   1.181     
2727.4     7.43       15.1       23.1       20.6       13.2       8.1        13         0.037      85.4       428        0          562.3      13.3       -296       2.759      -1822      0          28579.21   1.175     
2727.6     7.43       11.2       17.9       17.8       12.1       8.1        13.8       0.037      83.5       428        0          562.04     14.8       -296       2.76       -1834      0          28578.75   1.169     
2727.8     7.21       10.1       14.8       16.5       11.6       7.8        15.4       0.038      80.3       428        0          560.18     17.5       -296       2.757      -1845      0          28578.34   1.169     
