~Version
 VERS              .         2.0                           : CWLS LOG ASCII STANDARD - VERSION 2.0
 WRAP              .         NO                            : ONE LINE PER DEPTH STEP
 DLM               .         SPACE                         : DELIMITING CHARACTER(SPACE TAB OR COMMA)
~Well Information
#_______________________________________________________________________________
#
#PARAMETER_NAME    .UNIT     VALUE                         : DESCRIPTION
#_______________________________________________________________________________
STRT               .M        2298.8                        : First reference value
STOP               .M        2799.8                        : Last reference value
STEP               .M        0.2                           : Step increment
NULL               .         -9999                         : Missing value
COMP               .                                       : Company
WELL               .         616                           : Well name
FLD                .                                       : Field
LOC                .                                       : Location
CNTY               .                                       : County
STAT               .                                       : State
CTRY               .                                       : Country
SRVC               .                                       : Service Company
DATE               .                                       : Date
API                .                                       : API number
PROJECT_UPGRADE_TIME .         2021-03-18T21_24_50           : 
group              .         Good                          : 
~Parameter Information Block
#_______________________________________________________________________________
#
#PARAMETER_NAME    .UNIT     VALUE                         : DESCRIPTION
#_______________________________________________________________________________
SET                .         D2659_D                       : 
OTHER              .         Программное обеспечение станции MONITOR-386EX 25/12/99 15_08_10   BGF V50 26/12/00 07_26_01   3.1_SNGF___BGF_N_092085: 
OTHER_10           .         Тарировки_                    : 
OTHER_11           .         <_techsia_sc_> Постоянная времени фильтра ПС  0.5 сек, kf=0.139292: 
OTHER_2            .         Kedr.exe версия 3.3.2.32      : 
OTHER_3            .         KedrData.dll версия 3.3.2.17  : 
OTHER_4            .         Драйвер версия 2.1.0.7        : 
OTHER_5            .         Мнемоники версия 3.3 S        : 
OTHER_6            .         Прибор_ К1a-723м              : 
OTHER_7            .         Номер прибора_ 348/72         : 
OTHER_8            .         Режим_ K1A-723M               : 
OTHER_9            .         Форма_ БКЗ                    : 
PROJECT_UPGRADE_TIME .         2021-03-18T21_24_49           : 
TLFamily_BK        .         Lateral Log Resistivity       : 
TLFamily_DEPT      .         Measured Depth                : 
TLFamily_GZ1       .         Extra Shallow Resistivity     : 
TLFamily_GZ2       .         Shallow Resistivity           : 
TLFamily_GZ3       .         Medium Resistivity            : 
TLFamily_GZ4       .         Deep Resistivity              : 
TLFamily_GZ5       .         Extra Deep Resistivity        : 
TLFamily_GZ6       .         Medium Resistivity Inverted   : 
TLFamily_IBK       .                                       : 
TLFamily_IK        .         Conductivity                  : 
TLFamily_IPR       .                                       : 
TLFamily_METKA     .                                       : 
TLFamily_PS        .         Spontaneous Potential         : 
TLFamily_PZ        .         Potential Resistivity         : 
TLFamily_RCOR      .                                       : 
TLFamily_RES       .         Mud Resistivity               : 
TLFamily_SPID      .         Spontaneous Potential         : 
TLFamily_TENS      .         Cable Tension                 : 
TLFamily_TIME      .         Time                          : 
TLFamily_UBK       .         Uranium Concentration         : 
group              .         prim                          : 
~Curve Information
#_______________________________________________________________________________
#
#LOGNAME           .UNIT     LOG_ID                        : DESCRIPTION
#_______________________________________________________________________________
DEPT               .M                                      : 1 Глубина, м -    0.0 см 
BK                 .OHMM                                   : 20 БК, Ом*м - 1768.0 см 
GZ1                .OHMM                                   : 12 A0.4M0.1N, Ом*м - 1295.0 см 
GZ2                .OHMM                                   : 11 A1.0M0.1N, Ом*м - 1355.0 см 
GZ3                .OHMM                                   : 9 A2.0M0.5N, Ом*м - 1475.0 см 
GZ4                .OHMM                                   : 8 A4.0M0.5N, Ом*м - 1025.0 см 
GZ5                .OHMM                                   : 7 A8.0M1.0N, Ом*м - 1450.0 см 
GZ6                .OHMM                                   : 10 N0.5M2.0A, Ом*м - 1025.0 см 
IBK                .A                                      : 18 Ток БК, А - 1768.0 см 
IK                 .MSM/M                                  : 14 ИК, мСм/м - 1961.0 см 
IPR                .MA                                     : 17 Ток прибора, мA -    0.0 см 
METKA              .                                       : 3 Метки,  -    0.0 см 
PS                 .mV                                     : 16 ПС, мВ - 1210.0 см 
PZ                 .OHMM                                   : 13 N11M0.5A, Ом*м - 1225.0 см 
RCOR               .CM/KM                                  : 5 Коррекция по ролику, см/км -    0.0 см 
RES                .OHMM                                   : 15 Резистивиметр, Ом*м -  600.0 см 
SPID               .M/H                                    : 2 Скорость, м/час -    0.0 см 
TENS               .T                                      : 6 Натяжение кабеля, т -    0.0 см 
TIME               .S                                      : 4 Время, сек -    0.0 см 
UBK                .V                                      : 19 Напр. БК, В - 1768.0 см 
~Ascii
# ...
2343.2     4.61       0          0.1        0          0.5        0.6        0.2        0.003      -56.7      432        0          491.91     0.1        -370       2.753      -1857      0          29335.14   0.051     
2343.4     0.3        0          0.1        0.1        0.4        1.4        0.4        0.043      -127.3     430        0          458.98     0.1        -370       2.754      -1855      0          29334.76   0.055     
2343.6     0.24       0          0.1        0.2        0.9        2.7        2.7        0.06       -169.1     428.683    0          390.13     0.7        -370       2.757      -1851      0          29334.38   0.06      
2343.8     0.32       0          0.1        0.2        1.5        3.4        14         0.055      -169.2     432        0          381.03     3.5        -370       2.753      -1844      0          29334.04   0.075     
2344       4.63       0.1        0.2        0.4        2.1        4.2        19         0.002      -163.9     431.5      0          462.35     4.5        -370       2.754      -1832      0          29333.59   0.012     
2344.2     3.32       0.4        0.1        0.3        1.9        4.5        17         0.006      -146.1     430        0          505.33     4.8        -370       2.755      -1810      0          29333.2    0.079     
2344.4     3.87       2.6        0.1        0          0.9        4.5        8.8        0.007      55         432        0          520.03     4.8        -370       2.757      -1822      0          29332.84   0.114     
2344.6     0.02       4.7        0          0          0.7        0.8        6.6        -0         224.6      430.65     0          526.79     4.8        -370       2.757      -1847      0          29332.41   0.137     
2344.8     1.03       5.1        0.3        -0         0.7        0.7        5.5        0.014      228.3      430        0          530.82     4.8        -370       2.754      -1891      0          29332.04   0.052     
2345       4.15       5.1        1.8        -0         0.5        0.3        5.1        0.023      228.6      429        0          533.26     4.8        -370       2.751      -1867      0          29331.64   0.4       
2345.2     4.03       5.1        3.6        -0         0.6        0.3        5.2        0.027      232.8      428.667    0          535.8      4.9        -370       2.753      -1849      0          29331.3    0.463     
2345.4     3.95       4.9        3.9        -0         0.6        0.3        5.2        0.028      232.3      431.333    0          537.06     5.1        -370       2.754      -1841      0          29330.9    0.474     
2345.6     4.03       4.6        3.9        -0         0.6        0.2        5.3        0.028      232.8      430        0          537.7      5.2        -370       2.752      -1827      0          29330.52   0.477     
2345.8     4.25       4.6        3.8        0          0.6        0.3        5.3        0.027      233.4      430.667    0          538.73     5.2        -370       2.752      -1833      0          29330.15   0.479     
2346       4.41       4.8        3.8        0.1        0.5        0.3        5.4        0.026      229.7      430        0          539.34     5.2        -370       2.753      -1858      0          29329.72   0.479     
2346.2     4.5        5.1        3.8        1.1        0.6        0.2        5.5        0.025      226.7      432        0          540.7      5.2        -370       2.757      -1857      0          29329.32   0.484     
2346.4     4.39       5.2        4          2.5        0.5        0.3        5.7        0.027      223.4      430        0          540.54     5.2        -370       2.753      -1855      0          29328.97   0.491     
2346.6     4.28       5.1        4          3          0.5        0.2        6          0.028      220.1      430        0          540.48     5.4        -370       2.752      -1851      0          29328.54   0.503     
2346.8     4.29       5          4          3.1        0.5        0.3        6.6        0.028      218.4      428        0          540.48     5.7        -370       2.754      -1844      0          29328.14   0.513     
2347       4.25       4.9        4.1        3.2        0.5        0.3        6.7        0.029      213.5      431.6      0          540.93     6.1        -370       2.753      -1833      0          29327.8    0.523     
2347.2     4.32       4.7        3.9        3.1        0.4        0.3        6.6        0.029      208.2      430        0          540.99     6.6        -370       2.754      -1829      0          29327.42   0.534     
2347.4     4.72       4.8        3.7        3.2        0.4        0.4        6.2        0.027      200.6      429        0          541.35     7          -370       2.755      -1857      0          29327.03   0.547     
2347.6     5.13       5.3        3.9        3.2        0.4        0.3        5.4        0.026      190.1      432        0          541.13     7.4        -370       2.752      -1854      0          29326.61   0.559     
2347.8     5.34       5.9        4.2        3.3        0.4        0.3        5.2        0.026      179.9      431.5      0          541.2      7.8        -370       2.753      -1849      0          29326.27   0.585     
2348       5.41       6.2        4.3        3.5        0.6        0.3        5          0.027      170.7      430        0          541.66     8.3        -370       2.753      -1840      0          29325.82   0.621     
2348.2     5.59       6.6        4.8        3.6        1.7        0.4        5          0.028      163        430        0          541.85     9.2        -370       2.759      -1824      0          29325.43   0.665     
2348.4     5.73       6.9        5.2        3.7        2.7        0.3        5.1        0.03       155.6      432        0          542.37     11         -370       2.753      -1833      0          29325.08   0.715     
2348.6     5.65       7.2        5.4        3.6        3          0.3        5.4        0.031      148.2      430        0          542.39     13.8       -370       2.754      -1857      0          29324.67   0.746     
2348.8     5.7        7          5.4        4.1        3.7        0.4        6.7        0.031      142.2      430.804    0          543.14     17.9       -370       2.757      -1855      0          29324.3    0.755     
2349       6.94       7.1        6.1        5          4.5        0.3        8.4        0.026      139.1      428.8      0          543.42     18.4       -370       2.756      -1852      0          29323.92   0.76      
2349.2     17.87      9          8.1        6.4        5.9        0.3        9.5        0.01       134.6      431.5      0          544.01     13.9       -370       2.754      -1846      0          29323.52   0.761     
2349.4     26.76      15         11.3       7.7        6.6        0.5        9          0.007      128.8      430.667    0          543.29     10.8       -370       2.754      -1835      0          29323.13   0.765     
2349.6     22.99      26.8       15.1       8.4        6.8        0.5        7.7        0.008      126.1      430        0          543.53     8.9        -370       2.757      -1815      0          29322.75   0.765     
2349.8     7.18       29.4       15.8       7.7        5.7        0.5        5.9        0.025      131.5      429.497    1          542.97     8.1        -370       2.754      -1801      0          29322.38   0.765     
2350       5.88       17.6       12.5       6.1        4.4        0.4        4.9        0.031      139.4      430        0          543.36     7.7        -369       2.757      -1811      0          29321.96   0.765     
2350.2     5.73       11.1       12.4       4.8        3.9        0.3        4.5        0.031      149.5      431.333    0          544.2      7.4        -369       2.759      -1826      0          29321.58   0.758     
2350.4     5.69       8.6        11.4       4.4        3.9        0.4        4.5        0.03       158.4      430        0          543.97     7.2        -369       2.756      -1856      0          29321.16   0.725     
