~Version
 VERS              .         2.0                           : CWLS LOG ASCII STANDARD - VERSION 2.0
 WRAP              .         NO                            : ONE LINE PER DEPTH STEP
 DLM               .         SPACE                         : DELIMITING CHARACTER(SPACE TAB OR COMMA)
~Well Information
#_______________________________________________________________________________
#
#PARAMETER_NAME    .UNIT     VALUE                         : DESCRIPTION
#_______________________________________________________________________________
STRT               .M        2645.4                        : First reference value
STOP               .M        2753.4                        : Last reference value
STEP               .M        0.2                           : Step increment
NULL               .         -9999                         : Missing value
COMP               .                                       : Company
WELL               .         616                           : Well name
FLD                .                                       : Field
LOC                .                                       : Location
CNTY               .                                       : County
STAT               .                                       : State
CTRY               .                                       : Country
SRVC               .                                       : Service Company
DATE               .                                       : Date
API                .                                       : API number
PROJECT_UPGRADE_TIME .         2021-03-18T21_24_50           : 
group              .         Good                          : 
~Parameter Information Block
#_______________________________________________________________________________
#
#PARAMETER_NAME    .UNIT     VALUE                         : DESCRIPTION
#_______________________________________________________________________________
SET                .         D4410_D                       : 
OTHER              .         Запись производится в присутствии: 
OTHER_10           .         Максимальная температура      : 
OTHER_11           .         Тип промывочной жидкости      : 
OTHER_12           .         Сопротивление ПЖ (Ом*м) при 20°C: 
OTHER_13           .         Плотность ПЖ(г/см3)           : 
OTHER_14           .         Вязкость ПЖ(с)                : 
OTHER_15           .         Водоотдача ПЖ(см3/30мин)      : 
OTHER_16           .         Уровень ПЖ                    : 
OTHER_17           .         Нефть ПЖ (%)                  : 
OTHER_18           .         Барит ПЖ (%)                  : 
OTHER_19           .         Гематит ПЖ (%)                : 
OTHER_2            .         Заказчик ННСН  ЦДНГ-1         : 
OTHER_20           .         КМЦ ПЖ (%)                    : 
OTHER_21           .         Разгазирование ПЖ (да,нет)    : 
OTHER_22           .         Подъемник                     : 
OTHER_23           .         Лаборатория                   : 
OTHER_24           .         Тип кабеля                    : 
OTHER_25           .         Длина кабеля (м)              : 
OTHER_26           .         Цена последней метки          : 
OTHER_27           .         Цена контрольной метки        : 
OTHER_28           .         Диаметр долота (мм)           : 
OTHER_29           .         Глубина бурения (м)           : 
OTHER_3            .         Площадь                       : 
OTHER_30           .         Искусственный забой (м)       : 
OTHER_31           .         Диаметр колонны (мм)          : 
OTHER_32           .         Толщина колонны (мм)          : 
OTHER_33           .         Башмак колонны (м)            : 
OTHER_34           .         Диаметр НКТ (мм)              : 
OTHER_35           .         Толщина НКТ (мм)              : 
OTHER_36           .         Воронка НКТ (м)               : 
OTHER_37           .         Дата цементожа                : 
OTHER_38           .         Тип, количество(т) и плотность цемента: 
OTHER_39           .         Интервалы перфорации (м)      : 
OTHER_4            .         Категория                     : 
OTHER_40           .         Направление, диаметр (мм)     : 
OTHER_41           .         Направление, глубина (м)      : 
OTHER_42           .         Кондуктор, диаметр (мм)       : 
OTHER_43           .         Кондуктор, глубина (м)        : 
OTHER_44           .         Техническая колонна, диаметр (мм): 
OTHER_45           .         Техническая колонна, глубина (м): 
OTHER_46           .         Эксплуатационная колонна, диаметр (мм): 
OTHER_47           .         Эксплуатационная колонна, глубина (м): 
OTHER_48           .         Программа Кедр-02 версия 3.4  : 
OTHER_49           .         Операционная система Windows NT 5.1 build 2600 Service Pack 2: 
OTHER_5            .         Назначение исследований       : 
OTHER_50           .         Программное обеспечение станции MONITOR-386EX 25/12/99 15_08_10   BGF V54 20/09/05 15_32_17   3.3__BGF_9030071: 
OTHER_51           .         Kedr.exe версия 3.4.2.74      : 
OTHER_52           .         KedrData.dll версия 3.4.2.29  : 
OTHER_53           .         Мнемоники версия 3.18 S       : 
OTHER_54           .         Драйвер версия 2.1.1.4        : 
OTHER_55           .         LasInf.dll 4.3.0.35           : 
OTHER_56           .         Прибор_ КСА-Т4                : 
OTHER_57           .         Номер прибора_ 160            : 
OTHER_58           .         Режим_ КСА-Т4                 : 
OTHER_59           .         Форма_ С.А.Б.                 : 
OTHER_6            .         Альтитуда стола ротора        : 
OTHER_60           .         Тарировки_                    : 
OTHER_61           .         <_techsia_sc_> Дата тарировки температуры 25.05.2010: 
OTHER_62           .         Ручной ввод коэффициентов     : 
OTHER_63           .         TM.DEGC = 0.00402*RTM.E.ACP + -0.994: 
OTHER_64           .         <_techsia_sc_> Дата тарировки давления 25.05.2010: 
OTHER_65           .         Ручной ввод коэффициентов     : 
OTHER_66           .         MN.ATM = (2.27521e-006*TM.DEGC + 0.02078)*(RMN.E.ACP + 6.2*TM.DEGC + -1688): 
OTHER_67           .         <_techsia_sc_> Дата тарировки ГК 25.05.2010: 
OTHER_68           .         Ручной ввод коэффициентов     : 
OTHER_69           .         GR.UR/H = RGR.IMP/MIN / 45.5144: 
OTHER_7            .         Вид исследований 3  6         : 
OTHER_70           .         GK.FLT = 0.1*GR.UR/H[-1] + (1-0.1)*GR.UR/H[0]: 
OTHER_8            .         Начало бурения интервала каротажа: 
OTHER_9            .         Окончание бурения интервала каротажа: 
PROJECT_UPGRADE_TIME .         2021-03-18T21_24_50           : 
TLFamily_CCLC      .                                       : 
TLFamily_DEPT      .         Measured Depth                : 
TLFamily_GK        .         Gamma Ray                     : 
TLFamily_GR        .         Gamma Ray                     : 
TLFamily_METKA     .                                       : 
TLFamily_MN        .                                       : 
TLFamily_RCOR      .                                       : 
TLFamily_RGR       .                                       : 
TLFamily_RMN       .                                       : 
TLFamily_RTEN      .                                       : 
TLFamily_RTM       .                                       : 
TLFamily_SPEE      .         Cable Speed                   : 
TLFamily_TIME      .         Time                          : 
TLFamily_TM        .         Temperature                   : 
group              .         prim                          : 
~Curve Information
#_______________________________________________________________________________
#
#LOGNAME           .UNIT     LOG_ID                        : DESCRIPTION
#_______________________________________________________________________________
DEPT               .M                                      : 1 Глубина, м -    0.0 см 
CCLC               .E.ACP                                  : 9 Локатор муфт,  -   20.0 см 
GK                 .FLT                                    : 14 Гамма-активность фильтрованная, мкр./ч -  110.0 см 
GR                 .UR/H                                   : 13 Гамма-активность, мкр./ч -  110.0 см 
METKA              .CU                                     : 3 Метки,  -    0.0 см 
MN                 .ATM                                    : 12 Давление, атм. -  160.0 см 
RCOR               .CM/KM                                  : 5 Коррекция по ролику, см/км -    0.0 см 
RGR                .IMP/MIN                                : 10 Гамма-активность, усл.ед. -  110.0 см 
RMN                .E.ACP                                  : 8 Давление, усл.ед. -  160.0 см 
RTEN               .T                                      : 6 Натяжение кабеля, т -    0.0 см 
RTM                .E.ACP                                  : 7 Температура, усл.ед. -  170.0 см 
SPEE               .M/H                                    : 2 Скорость, м/час -    0.0 см 
TIME               .S                                      : 4 Время, сек -    0.0 см 
TM                 .DEGC                                   : 11 Температура, °C -  170.0 см 
~Ascii
# ...
2728.6     121        10.55      10.55      0          372.38     -1095      480        19086      0.2        16199      637        482.69     64.124    
2728.8     181        10.47      10.47      0          372.531    -1095      477        19093      0.2        16196      636        483.78     64.113    
2729       213        10.28      10.28      0          372.585    -1095      468        19096      0.2        16192      637        484.9      64.097    
2729.2     113        10.28      10.28      0          372.704    -1095      468        19102      0.2        16185      637        486.05     64.071    
2729.4     114        10         10         0          372.352    -1095      455        19085      0.2        16182      636        487.17     64.056    
2729.6     142        10         10         0          372.289    -1095      455        19082      0.2        16177      637        488.32     64.039    
2729.8     121        9.45       9.45       0          372.277    -1095      430        19082      0.2        16173      636        489.47     64.021    
2730       136        9.45       9.45       0          372.379    -1095      430        19087      0.2        16170      636        490.62     64.009    
2730.2     112        8.17       8.17       0          372.391    -1095      372        19087      0.2        16165      635        491.72     63.989    
2730.4     77         8.17       8.17       0          372.331    -1095      372        19085      0.2        16162      636        492.92     63.976    
2730.6     96         6.68       6.68       0          372.454    -1095      304        19090      0.2        16158      635        494.07     63.961    
2730.8     73         6.68       6.68       0          372.432    -1095      304        19090      0.2        16156      636        495.17     63.953    
2731       95         6.68       6.68       0          372.611    -1095      304        19098      0.2        16156      635        496.31     63.953    
2731.2     176        6.28       6.28       0          372.682    -1095      286        19101      0.2        16159      636        497.45     63.965    
2731.4     138        6.28       6.28       0          372.955    -1095      286        19116      0.2        16156      635        498.59     63.953    
2731.6     136        6.9        6.9        0          372.824    -1095      314        19123      0.2        15925      636        499.73     63.025    
2731.8     83         6.9        6.9        0          372.538    -1095      314        19124      0.2        15477      636        500.87     61.222    
2732       86         7.34       7.34       0          372.344    -1095      334        19128      0.2        15059      636        501.97     59.545    
2732.2     90         7.34       7.34       0          372.21     -1095      334        19129      0.2        14736      635        503.21     58.245    
2732.4     72         7.28       7.28       0          371.706    -1095      332        19112      0.2        14520      634        504.3      57.376    
2732.6     45         7.27       7.27       0          371.881    -1095      331        19127      0.2        14312      635        505.44     56.54     
2732.8     54         7.13       7.13       0          371.762    -1095      324        19128      0.19       14102      635        506.58     55.694    
2733       52         7.1        7.1        0          371.71     -1095      323        19131      0.2        13902      635        507.69     54.892    
2733.2     88         7.1        7.1        0          371.488    -1095      323        19124      0.2        13761      636        508.86     54.325    
2733.4     90         7.6        7.6        0          371.52     -1095      346        19128      0.2        13667      637        509.97     53.947    
2733.6     399        7.6        7.6        0          371.508    -1095      346        19130      0.2        13608      635        511.15     53.71     
2733.8     168        8.13       8.13       0          371.401    -1095      370        19126      0.2        13560      637        512.24     53.518    
2734       64         8.13       8.13       0          371.37     -1095      370        19125      0.2        13534      636        513.44     53.412    
2734.2     71         7.91       7.91       0          371.485    -1095      360        19131      0.2        13520      636        514.58     53.354    
2734.4     59         7.91       7.91       0          371.616    -1095      360        19137      0.2        13512      636        515.67     53.324    
2734.6     349        6.83       6.83       0          371.497    -1095      311        19132      0.2        13504      635        516.81     53.291    
2734.8     144        6.83       6.83       0          371.513    -1095      311        19135      0.2        13468      635        517.95     53.145    
2735       264        7.35       7.35       0          371.544    -1095      334        19141      0.2        13367      634        519.14     52.742    
2735.2     259        7.6        7.6        0          371.561    -1095      346        19147      0.2        13206      634        520.28     52.094    
2735.4     89         7.6        7.6        0          371.472    -1095      346        19147      0.2        13059      635        521.38     51.504    
2735.6     59         8.24       8.24       0          371.384    -1095      375        19144      0.2        12972      635        522.52     51.152    
2735.8     59         8.24       8.24       0          371.491    -1095      375        19150      0.2        12941      634        523.72     51.029    
2736       496        8.52       8.52       2          371.495    -1095      388        19151      0.2        12917      635        524.83     50.933    
2736.2     5262       8.52       8.52       0          371.376    -1097      388        19146      0.2        12888      634        526.07     50.818    
2736.4     1476       7.62       7.62       0          371.466    -1097      347        19151      0.2        12861      633        527.21     50.707    
2736.6     633        7.62       7.62       0          371.535    -1097      347        19155      0.2        12837      633        528.32     50.612    
2736.8     187        6.26       6.26       0          371.59     -1097      285        19159      0.2        12821      635        529.52     50.548    
2737       70         6.26       6.26       0          371.619    -1097      285        19160      0.2        12804      636        530.65     50.477    
2737.2     54         6.55       6.55       0          371.352    -1097      298        19148      0.2        12795      636        531.78     50.441    
2737.4     44         6.55       6.55       0          371.43     -1097      298        19152      0.2        12790      635        532.93     50.421    
2737.6     46         6.66       6.66       0          371.487    -1097      303        19155      0.2        12776      636        534.07     50.364    
2737.8     42         6.68       6.68       0          371.961    -1097      304        19178      0.2        12755      634        535.23     50.281    
2738       42         6.68       6.68       0          371.726    -1097      304        19167      0.2        12744      634        536.35     50.237    
2738.2     58         7.14       7.14       0          371.651    -1097      325        19164      0.2        12737      634        537.45     50.21     
2738.4     50         7.14       7.14       0          371.577    -1097      325        19161      0.2        12737      634        538.63     50.209    
2738.6     67         7.73       7.73       0          371.789    -1097      352        19171      0.2        12733      635        539.77     50.193    
2738.8     47         7.73       7.73       0          372.021    -1097      352        19182      0.2        12724      636        540.92     50.158    
