~Version
 VERS              .         2.0                           : CWLS LOG ASCII STANDARD - VERSION 2.0
 WRAP              .         NO                            : ONE LINE PER DEPTH STEP
 DLM               .         SPACE                         : DELIMITING CHARACTER(SPACE TAB OR COMMA)
~Well Information
#_______________________________________________________________________________
#
#PARAMETER_NAME    .UNIT     VALUE                         : DESCRIPTION
#_______________________________________________________________________________
STRT               .M        1149                          : First reference value
STOP               .M        2127.4                        : Last reference value
STEP               .M        0.2                           : Step increment
NULL               .         -9999                         : Missing value
COMP               .                                       : Company
WELL               .         616                           : Well name
FLD                .                                       : Field
LOC                .                                       : Location
CNTY               .                                       : County
STAT               .                                       : State
CTRY               .                                       : Country
SRVC               .                                       : Service Company
DATE               .                                       : Date
API                .                                       : API number
PROJECT_UPGRADE_TIME .         2021-03-18T21_24_50           : 
group              .         Good                          : 
~Parameter Information Block
#_______________________________________________________________________________
#
#PARAMETER_NAME    .UNIT     VALUE                         : DESCRIPTION
#_______________________________________________________________________________
SET                .         616_9                         : 
CONF               .         00                            : 
END                .         0                             : 
ERR                .         0                             : 
GS00               .M        2125.46                       : 
GS01               .M        1146.68                       : 
MM00               .M        2120.00                       : 
NOKG               .         0                             : 
NPR                .         990907                        : 
PART               .         Ивашин                        : 
PROJECT_UPGRADE_TIME .         2021-03-18T21_24_49           : 
PRZK               .         Шакиров                       : 
TLFamily_AZIMUTH   .         True Dip Azimuth              : 
TLFamily_DEPTH     .         Measured Depth                : 
TLFamily_METKA     .                                       : 
TLFamily_ROLL      .                                       : 
TLFamily_SPEED     .         Spontaneous Potential         : 
TLFamily_ZENIT     .                                       : 
VPRG               .         310                           : 
WAY                .         UP                            : 
group              .         prim                          : 
~Curve Information
#_______________________________________________________________________________
#
#LOGNAME           .UNIT     LOG_ID                        : DESCRIPTION
#_______________________________________________________________________________
DEPTH              .M                                      :  
AZIMUTH            .DEG                                    :  
METKA              .                                       :  
ROLL               .DEG                                    :  
SPEED              .M/H                                    :  
ZENIT              .DEG                                    :  
~Ascii
# ...
1905.4     288.65     0          6.33       648        17.64     
1905.6     92.6       0          7.61       648        17.71     
1905.8     335.29     0          7.27       648        17.79     
1906       290.06     0          7.07       648        17.89     
1906.2     333.92     0          7.31       648        17.76     
1906.4     318.99     0          6.07       648        17.69     
1906.6     347.77     0          4.78       648        17.79     
1906.8     348.68     0          3.93       648        17.73     
1907       354.02     0          3.9        648        17.84     
1907.2     352.95     0          3.85       648        17.77     
1907.4     358.61     0          3.47       648        17.76     
1907.6     349.4      0          4.15       648        17.82     
1907.8     18.69      0          5.42       648        17.69     
1908       342.98     0          6.19       648        17.86     
1908.2     0.04       0          6.41       648        17.75     
1908.4     357.04     0          6.51       648        17.83     
1908.6     358.41     0          6.46       648        17.88     
1908.8     359.4      0          6.41       648        17.83     
1909       354.2      0          6.96       648        17.86     
1909.2     4.2        0          8.4        648        17.84     
1909.4     357.29     0          9.46       648        17.88     
1909.6     16.42      0          9.44       648        17.85     
1909.8     340.3      0          8.8        648        17.7      
1910       5.2        0          8.21       648        17.86     
1910.2     5.26       0          7.9        612        17.75     
1910.4     7.25       0          7.8        648        17.86     
1910.6     1.08       1          8.62       648        17.82     
1910.8     1.73       0          10.15      1152       17.78     
1911       19.57      0          11.64      648        17.87     
1911.2     355.77     0          13.56      648        17.95     
1911.4     356.75     0          14.78      648        17.71     
1911.6     357.33     0          15.94      648        17.91     
1911.8     337.27     0          15.83      648        17.91     
1912       332.49     0          14.32      648        17.91     
1912.2     342.28     1          12.3       648        18.03     
1912.4     345.14     0          8.83       648        17.89     
1912.6     338.46     0          7.39       648        17.91     
1912.8     336.94     0          6.99       648        17.85     
1913       338.47     0          7.28       648        17.93     
1913.2     333.28     0          7.75       648        17.8      
1913.4     319.13     0          7.86       648        17.85     
1913.6     343.79     0          7.21       648        17.95     
1913.8     318.81     0          8.03       648        17.74     
1914       268.67     0          8.32       648        18.27     
1914.2     229.91     0          8          612        18.08     
1914.4     334.45     0          8.45       648        18.09     
1914.6     351.33     0          10.03      648        18.06     
1914.8     15.1       0          12.21      648        18.13     
1915       356.43     0          13.22      648        18.28     
1915.2     349.66     0          13.68      648        18        
1915.4     180        0          13.47      648        18.16     
1915.6     180        0          13.06      648        18.39     
1915.8     180        0          12.97      648        18.13     
1916       100.65     0          12.22      648        18.07     
1916.2     350.6      0          11.29      648        18.15     
1916.4     325.06     0          10.9       648        17.79     
1916.6     329.06     0          10.92      648        17.4      
1916.8     333.05     0          11.04      648        17.26     
1917       351.49     0          10.36      648        17.35     
1917.2     348.14     0          9.75       612        17.22     
1917.4     2.69       0          9.39       684        17.31     
1917.6     18.91      0          9.9        648        17.9      
1917.8     331.28     0          11.34      648        17.6      
1918       340.89     0          12.61      648        17.8      
1918.2     336.4      0          13.35      648        17.65     
1918.4     2.22       0          13.69      648        17.65     
1918.6     326.58     0          13.47      648        17.72     
1918.8     342.22     0          13.31      648        17.51     
1919       7.7        0          13.11      648        17.7      
1919.2     8.11       0          13.09      648        17.65     
1919.4     12.28      0          12.93      648        17.51     
1919.6     6.3        0          12.55      648        17.63     
1919.8     2.55       0          12.35      648        17.49     
1920       0.44       0          12.99      648        17.56     
1920.2     9.38       0          13.77      648        17.58     
1920.4     352.41     0          14.87      648        17.51     
1920.6     357.71     0          14.51      648        17.81     
1920.8     347.45     0          12.41      648        17.52     
1921       286.71     0          11.01      648        17.56     
1921.2     287.23     0          11.03      612        17.59     
1921.4     337.19     0          11.75      648        17.67     
1921.6     345.23     0          12.48      648        17.67     
1921.8     343.48     0          13.6       648        17.6      
1922       355.81     0          14.73      648        17.68     
1922.2     335.8      1          15.87      216        17.69     
1922.4     340.66     0          17.26      648        17.67     
1922.6     300.59     0          18.29      648        17.66     
1922.8     346.85     0          20.15      648        17.58     
1923       324.32     0          23.08      648        17.76     
1923.2     326.8      0          24.99      648        17.61     
1923.4     313.48     0          26.09      648        17.65     
1923.6     330.5      0          26.51      648        17.71     
1923.8     330.02     0          26.3       612        17.62     
1924       326.23     0          26.37      648        17.73     
1924.2     304.86     0          26.73      684        17.59     
1924.4     295.43     0          26.38      648        17.77     
1924.6     322.9      0          23.95      648        17.72     
1924.8     273.79     0          21.71      648        17.71     
1925       304.42     0          18.96      648        17.85     
1925.2     282.44     0          15.91      648        17.69     
1925.4     242.05     0          15.53      648        17.78     
1925.6     229.35     0          17.29      648        17.73     
1925.8     299.04     0          18.82      648        17.72     
1926       299.97     0          19.92      648        17.69     
1926.2     281.28     0          20.24      648        17.62     
1926.4     295.81     0          19.91      648        18.04     
1926.6     331.28     0          19.41      648        18.17     
1926.8     354.35     0          19.5       648        18        
1927       10.16      0          20.9       648        18.19     
1927.2     8.33       0          21.6       648        18.18     
1927.4     5.43       0          21.73      648        18.26     
1927.6     355.6      0          21.28      648        18.35     
1927.8     335.98     0          20.71      612        18.42     
1928       347.42     0          20.78      648        18.49     
1928.2     352.02     0          21.16      648        17.99     
1928.4     295.41     0          20.66      648        17.8      
1928.6     248.6      0          20.34      648        17.5      
1928.8     0.21       0          19.67      648        17.35     
1929       344.06     0          18.6       648        17.42     
1929.2     351.95     0          18.31      648        17.38     
1929.4     349.4      0          18.17      648        17.64     
1929.6     340.31     0          17.08      648        17.27     
