~Version
 VERS              .         2.0                           : CWLS LOG ASCII STANDARD - VERSION 2.0
 WRAP              .         NO                            : ONE LINE PER DEPTH STEP
 DLM               .         SPACE                         : DELIMITING CHARACTER(SPACE TAB OR COMMA)
~Well Information
#_______________________________________________________________________________
#
#PARAMETER_NAME    .UNIT     VALUE                         : DESCRIPTION
#_______________________________________________________________________________
STRT               .M        2298.8                        : First reference value
STOP               .M        2799.8                        : Last reference value
STEP               .M        0.2                           : Step increment
NULL               .         -9999                         : Missing value
COMP               .                                       : Company
WELL               .         616                           : Well name
FLD                .                                       : Field
LOC                .                                       : Location
CNTY               .                                       : County
STAT               .                                       : State
CTRY               .                                       : Country
SRVC               .                                       : Service Company
DATE               .                                       : Date
API                .                                       : API number
PROJECT_UPGRADE_TIME .         2021-03-18T21_24_50           : 
group              .         Good                          : 
~Parameter Information Block
#_______________________________________________________________________________
#
#PARAMETER_NAME    .UNIT     VALUE                         : DESCRIPTION
#_______________________________________________________________________________
SET                .         D2659_D                       : 
OTHER              .         Программное обеспечение станции MONITOR-386EX 25/12/99 15_08_10   BGF V50 26/12/00 07_26_01   3.1_SNGF___BGF_N_092085: 
OTHER_10           .         Тарировки_                    : 
OTHER_11           .         <_techsia_sc_> Постоянная времени фильтра ПС  0.5 сек, kf=0.139292: 
OTHER_2            .         Kedr.exe версия 3.3.2.32      : 
OTHER_3            .         KedrData.dll версия 3.3.2.17  : 
OTHER_4            .         Драйвер версия 2.1.0.7        : 
OTHER_5            .         Мнемоники версия 3.3 S        : 
OTHER_6            .         Прибор_ К1a-723м              : 
OTHER_7            .         Номер прибора_ 348/72         : 
OTHER_8            .         Режим_ K1A-723M               : 
OTHER_9            .         Форма_ БКЗ                    : 
PROJECT_UPGRADE_TIME .         2021-03-18T21_24_49           : 
TLFamily_BK        .         Lateral Log Resistivity       : 
TLFamily_DEPT      .         Measured Depth                : 
TLFamily_GZ1       .         Extra Shallow Resistivity     : 
TLFamily_GZ2       .         Shallow Resistivity           : 
TLFamily_GZ3       .         Medium Resistivity            : 
TLFamily_GZ4       .         Deep Resistivity              : 
TLFamily_GZ5       .         Extra Deep Resistivity        : 
TLFamily_GZ6       .         Medium Resistivity Inverted   : 
TLFamily_IBK       .                                       : 
TLFamily_IK        .         Conductivity                  : 
TLFamily_IPR       .                                       : 
TLFamily_METKA     .                                       : 
TLFamily_PS        .         Spontaneous Potential         : 
TLFamily_PZ        .         Potential Resistivity         : 
TLFamily_RCOR      .                                       : 
TLFamily_RES       .         Mud Resistivity               : 
TLFamily_SPID      .         Spontaneous Potential         : 
TLFamily_TENS      .         Cable Tension                 : 
TLFamily_TIME      .         Time                          : 
TLFamily_UBK       .         Uranium Concentration         : 
group              .         prim                          : 
~Curve Information
#_______________________________________________________________________________
#
#LOGNAME           .UNIT     LOG_ID                        : DESCRIPTION
#_______________________________________________________________________________
DEPT               .M                                      : 1 Глубина, м -    0.0 см 
BK                 .OHMM                                   : 20 БК, Ом*м - 1768.0 см 
GZ1                .OHMM                                   : 12 A0.4M0.1N, Ом*м - 1295.0 см 
GZ2                .OHMM                                   : 11 A1.0M0.1N, Ом*м - 1355.0 см 
GZ3                .OHMM                                   : 9 A2.0M0.5N, Ом*м - 1475.0 см 
GZ4                .OHMM                                   : 8 A4.0M0.5N, Ом*м - 1025.0 см 
GZ5                .OHMM                                   : 7 A8.0M1.0N, Ом*м - 1450.0 см 
GZ6                .OHMM                                   : 10 N0.5M2.0A, Ом*м - 1025.0 см 
IBK                .A                                      : 18 Ток БК, А - 1768.0 см 
IK                 .MSM/M                                  : 14 ИК, мСм/м - 1961.0 см 
IPR                .MA                                     : 17 Ток прибора, мA -    0.0 см 
METKA              .                                       : 3 Метки,  -    0.0 см 
PS                 .mV                                     : 16 ПС, мВ - 1210.0 см 
PZ                 .OHMM                                   : 13 N11M0.5A, Ом*м - 1225.0 см 
RCOR               .CM/KM                                  : 5 Коррекция по ролику, см/км -    0.0 см 
RES                .OHMM                                   : 15 Резистивиметр, Ом*м -  600.0 см 
SPID               .M/H                                    : 2 Скорость, м/час -    0.0 см 
TENS               .T                                      : 6 Натяжение кабеля, т -    0.0 см 
TIME               .S                                      : 4 Время, сек -    0.0 см 
UBK                .V                                      : 19 Напр. БК, В - 1768.0 см 
~Ascii
# ...
2380.2     3.19       3.7        3          2.9        3.4        3.2        2.8        0.029      300.3      432        0          543.79     3.6        -366       2.757      -1838      0          29263.47   0.391     
2380.4     3.21       3.5        3          2.7        3.4        3.1        2.8        0.029      303.6      431.333    0          543.43     3.6        -366       2.754      -1865      0          29263.11   0.39      
2380.6     3.37       3.3        2.9        2.6        3.4        3.1        3          0.028      302.8      428.01     0          543.74     3.5        -366       2.755      -1891      0          29262.68   0.396     
2380.8     4.1        3.4        2.7        2.7        3.2        3          2.7        0.023      303.4      432        0          544.01     3.4        -366       2.757      -1870      0          29262.31   0.405     
2381       3.53       4.1        3          2.7        3.2        2.9        2.6        0.027      296.3      432        0          543.9      3.6        -366       2.753      -1833      0          29261.96   0.398     
2381.2     3          4.1        3          2.6        3.2        3          2.7        0.032      297.2      428.8      0          543.94     3.8        -366       2.757      -1813      0          29261.56   0.399     
2381.4     2.99       3.5        2.8        2.8        3.3        3.4        3          0.032      300.4      430.4      0          544.37     3.4        -366       2.757      -1829      0          29261.19   0.401     
2381.6     3.09       3          2.8        2.9        3.6        3.6        3.4        0.031      301        431.488    0          544.9      3.7        -366       2.754      -1860      0          29260.84   0.403     
2381.8     5.99       3.6        3.6        3.6        4.2        3.7        4.2        0.016      295.4      430.5      0          545.7      3.7        -366       2.756      -1870      0          29260.4    0.404     
2382       4.08       6          4.7        3.7        4.2        3.7        4          0.023      289.9      428.5      0          545        3.7        -366       2.755      -1840      0          29260.01   0.401     
2382.2     3.11       4.4        2.7        3.2        3.3        3.7        3.4        0.03       288.8      430        0          546.45     3.7        -366       2.756      -1824      0          29259.61   0.397     
2382.4     3.68       4.1        2.5        2.6        3          3.3        3.2        0.026      293.5      428        0          544.08     3.6        -366       2.752      -1833      0          29259.29   0.4       
2382.6     3.63       3.8        2.6        2.5        3          2.9        3.3        0.026      294.3      429.366    0          544.61     3.5        -366       2.757      -1855      0          29258.85   0.405     
2382.8     3.64       4          2.8        2.5        2.9        2.8        3.3        0.027      292.7      430        0          543.81     3.4        -366       2.753      -1852      0          29258.44   0.408     
2383       3.35       4          3.3        2.5        2.9        2.9        3.3        0.029      294        428.667    0          544.18     3.4        -366       2.755      -1845      0          29258.06   0.404     
2383.2     3.31       3.8        3.2        2.4        2.9        2.8        3.4        0.029      293.3      428        0          543.86     3.5        -366       2.756      -1847      0          29257.69   0.401     
2383.4     3.25       3.6        3.2        2.5        2.9        2.7        3.5        0.029      293.5      431.6      0          543.76     3.6        -366       2.754      -1889      0          29257.3    0.402     
2383.6     3.34       3.4        3          2.4        2.9        2.8        3.5        0.029      293.7      430        0          544.22     3.6        -366       2.757      -1870      0          29256.91   0.405     
2383.8     3.58       3.5        3          2.3        2.7        2.8        3.4        0.027      288.8      429.333    0          545.06     3.7        -366       2.755      -1852      0          29256.57   0.41      
2384       3.31       3.5        2.7        2.4        2.9        2.6        3.5        0.029      283.6      430        0          546.38     3.9        -366       2.758      -1846      0          29256.15   0.408     
2384.2     3.79       3.8        3          2.7        2.9        2.6        3.6        0.026      278.8      432        0          545.38     4.1        -366       2.754      -1835      0          29255.77   0.411     
2384.4     3.52       3.8        3          2.8        2.9        2.6        3.6        0.028      277.2      430        0          546.52     4.1        -366       2.751      -1839      0          29255.4    0.414     
2384.6     3.74       3.7        2.8        2.8        2.6        2.6        3.4        0.027      273.8      431.967    0          544.18     3.9        -366       2.754      -1867      0          29255      0.418     
2384.8     4.39       4.2        3          2.8        2.7        2.7        3.3        0.023      271.3      430        0          544.45     3.9        -366       2.753      -1874      0          29254.59   0.42      
2385       3.73       4.6        3.3        2.8        2.8        2.5        3.4        0.027      268.9      430        0          544        3.9        -366       2.753      -1852      0          29254.23   0.422     
2385.2     3.48       4.3        3.3        2.8        2.9        2.4        3.5        0.029      268.8      428        0          544.62     3.9        -366       2.758      -1820      0          29253.85   0.424     
2385.4     3.78       4.1        3.4        2.9        2.8        2.5        3.4        0.026      270        429.333    0          544.69     3.9        -366       2.756      -1842      0          29253.46   0.421     
2385.6     3.79       4          3.4        2.9        2.9        2.6        3.4        0.026      272.2      430        0          544.37     3.9        -366       2.754      -1848      0          29253.08   0.423     
2385.8     3.61       4.1        3.4        3          2.9        2.4        3.3        0.028      273.6      431.497    0          544.5      3.8        -366       2.755      -1839      0          29252.69   0.42      
2386       3.78       4.1        3.4        3          2.9        2.4        3.4        0.026      273.7      431.333    0          544.64     3.7        -366       2.752      -1824      0          29252.29   0.415     
2386.2     3.63       4.1        3.4        3.1        3.2        2.5        3.3        0.027      273.7      430        0          545.57     3.7        -366       2.755      -1845      0          29251.9    0.417     
2386.4     3.56       4.1        3.3        3.1        3.2        2.5        3.4        0.028      274        430        0          544.24     3.8        -366       2.754      -1867      0          29251.52   0.417     
2386.6     3.33       3.8        3.3        3          3.2        2.4        3.5        0.03       276.2      428.033    0          544.62     3.8        -366       2.754      -1872      0          29251.11   0.42      
2386.8     3.59       3.8        3.2        3.2        3.2        2.5        3.7        0.028      277.9      430        0          543.6      3.9        -366       2.757      -1882      0          29250.7    0.42      
2387       3.65       3.9        3.2        3.2        3.3        2.5        3.7        0.027      272.7      430        0          544.04     4          -366       2.755      -1869      0          29250.36   0.421     
2387.2     3.61       3.9        3.3        3.2        3.3        2.6        3.6        0.028      269.6      432        0          543.65     4.1        -366       2.757      -1837      0          29249.97   0.42      
2387.4     3.79       4          3.2        3.1        3.3        2.5        3.7        0.026      268.2      430        0          543.72     4          -366       2.753      -1820      0          29249.6    0.424     
