~Version
 VERS              .         2.0                           : CWLS LOG ASCII STANDARD - VERSION 2.0
 WRAP              .         NO                            : ONE LINE PER DEPTH STEP
 DLM               .         SPACE                         : DELIMITING CHARACTER(SPACE TAB OR COMMA)
~Well Information
#_______________________________________________________________________________
#
#PARAMETER_NAME    .UNIT     VALUE                         : DESCRIPTION
#_______________________________________________________________________________
STRT               .M        47.8                          : First reference value
STOP               .M        2693.8                        : Last reference value
STEP               .M        0.2                           : Step increment
NULL               .         -9999                         : Missing value
COMP               .                                       : Company
WELL               .         616                           : Well name
FLD                .                                       : Field
LOC                .                                       : Location
CNTY               .                                       : County
STAT               .                                       : State
CTRY               .                                       : Country
SRVC               .                                       : Service Company
DATE               .                                       : Date
API                .                                       : API number
PROJECT_UPGRADE_TIME .         2021-03-18T21_24_50           : 
group              .         Good                          : 
~Parameter Information Block
#_______________________________________________________________________________
#
#PARAMETER_NAME    .UNIT     VALUE                         : DESCRIPTION
#_______________________________________________________________________________
SET                .         D1172_D                       : 
OTHER              .         Программное обеспечение станции MONITOR-386EX 25/12/99 15_08_10   BGF V52 22/08/01 16_56_30   3.2_BGF_N_3070031: 
OTHER_10           .         Тарировки_                    : 
OTHER_11           .         TM.GRD = 0.00403*TM$.UE + -1.19: 
OTHER_12           .         MN.ATM = (7.1e-006*TM.GRD + 0.02017)*(MN$.UE + -3.03*TM.GRD + -1833): 
OTHER_13           .         Id error                      : 
OTHER_2            .         Kedr.exe версия 3.4.2.51      : 
OTHER_3            .         KedrData.dll версия 3.4.2.24  : 
OTHER_4            .         Драйвер версия 2.1.1.8        : 
OTHER_5            .         Мнемоники версия 3.3 S        : 
OTHER_6            .         Прибор_ КСА-М1                : 
OTHER_7            .         Номер прибора_ 265            : 
OTHER_8            .         Режим_ КСА-М1                 : 
OTHER_9            .         Форма_ ТЕРМОМЕТР              : 
PROJECT_UPGRADE_TIME .         2021-03-18T21_24_49           : 
TLFamily_DEPT      .         Measured Depth                : 
TLFamily_GK        .         Gamma Ray                     : 
TLFamily_GK$       .                                       : 
TLFamily_LM        .         Casing Collar locator         : 
TLFamily_METKA     .                                       : 
TLFamily_MN        .                                       : 
TLFamily_MN$       .                                       : 
TLFamily_RCOR      .                                       : 
TLFamily_SPID      .         Spontaneous Potential         : 
TLFamily_STD       .                                       : 
TLFamily_TENS      .         Cable Tension                 : 
TLFamily_TIME      .         Time                          : 
TLFamily_TM        .         Temperature                   : 
TLFamily_TM$       .         Temperature                   : 
TLFamily_VGD       .         Gas Volume                    : 
group              .         prim                          : 
~Curve Information
#_______________________________________________________________________________
#
#LOGNAME           .UNIT     LOG_ID                        : DESCRIPTION
#_______________________________________________________________________________
DEPT               .M                                      : 1 Глубина, м -    0.0 см 
GK                 .MKR/H                                  : 15 Гамма-активность, мкр./ч -  110.0 см 
GK$                .UE                                     : 12 Гамма-активность, усл.ед. -  110.0 см 
LM                 .                                       : 10 Локатор муфт,  -   20.0 см 
METKA              .                                       : 3 Метки,  -    0.0 см 
MN                 .ATM                                    : 14 Давление, атм. -  160.0 см 
MN$                .UE                                     : 8 Давление, усл.ед. -  160.0 см 
RCOR               .CM/KM                                  : 5 Коррекция по ролику, см/км -    0.0 см 
SPID               .M/H                                    : 2 Скорость, м/час -    0.0 см 
STD                .                                       : 11 Приток,  -  170.0 см 
TENS               .T                                      : 6 Натяжение кабеля, т -    0.0 см 
TIME               .S                                      : 4 Время, сек -    0.0 см 
TM                 .GRD                                    : 13 Температура, °C -  180.0 см 
TM$                .UE                                     : 7 Температура, усл.ед. -  180.0 см 
VGD                .                                       : 9 Влагомер,  -  170.0 см 
~Ascii
# ...
400.6      4.21       175        2069       0          36.706     3681       -1400      -1935      631        0          33556.1    11.613     3177       6629      
400.8      4.27       182        3103       0          36.726     3682       -1400      -1930      632        0          33555.74   11.616     3178       6629      
401        4.28       182        4739       0          36.746     3683       -1400      -1932      631        0          33555.37   11.62      3179       6629      
401.2      4.3        182        204        0          36.766     3684       -1400      -1940      634        0          33555      11.621     3179       6629      
401.4      4.32       182        51         0          36.786     3685       -1400      -1941      633        0          33554.63   11.624     3180       6629      
401.6      4.35       182        39         0          36.807     3686       -1400      -1941      634        0          33554.27   11.625     3180       6629      
401.8      4.4        182        40         0          36.827     3687       -1400      -1943      634        0          33553.89   11.628     3181       6629      
402        4.47       183        46         0          36.848     3688       -1400      -1942      635        0          33553.51   11.632     3182       6629      
402.2      4.57       195        58         0          36.867     3689       -1400      -1942      638        0          33553.17   11.633     3182       6629      
402.4      4.57       195        38         0          36.887     3690       -1400      -1944      637        0          33552.8    11.636     3183       6629      
402.6      4.57       195        40         0          36.895     3690       -1400      -1943      641        0          33552.41   11.64      3184       6629      
402.8      4.58       195        62         0          36.907     3691       -1400      -1943      638        0          33552.04   11.644     3185       6628      
403        4.59       195        53         0          36.927     3692       -1400      -1945      640        0          33551.67   11.646     3185       6629      
403.2      4.61       195        39         0          36.947     3693       -1400      -1944      639        0          33551.3    11.648     3186       6629      
403.4      4.63       195        48         0          36.955     3693       -1400      -1940      641        0          33550.93   11.652     3187       6628      
403.6      4.66       199        36         0          36.981     3694       -1400      -1935      641        0          33550.57   11.656     3188       6629      
403.8      4.66       199        34         0          37.007     3696       -1400      -1934      641        0          33550.2    11.66      3189       6628      
404        4.67       199        49         0          37.027     3697       -1400      -1936      644        0          33549.84   11.664     3190       6628      
404.2      4.67       199        41         0          37.048     3698       -1400      -1934      643        0          33549.49   11.666     3190       6629      
404.4      4.68       199        30         0          37.068     3699       -1400      -1937      644        0          33549.12   11.668     3191       6629      
404.6      4.69       199        42         0          37.089     3700       -1400      -1945      647        0          33548.74   11.672     3192       6629      
404.8      4.7        202        41         0          37.109     3701       -1400      -1946      646        0          33548.35   11.676     3193       6628      
405        4.69       202        45         0          37.129     3702       -1400      -1947      648        0          33548      11.678     3193       6629      
405.2      4.68       202        55         0          37.149     3703       -1400      -1950      649        0          33547.64   11.68      3194       6629      
405.4      4.65       202        37         0          37.169     3704       -1400      -1949      649        0          33547.25   11.684     3195       6629      
405.6      4.62       202        37         0          37.188     3705       -1400      -1945      652        0          33546.88   11.688     3196       6629      
405.8      4.56       202        54         0          37.208     3706       -1400      -1941      652        0          33546.51   11.692     3197       6629      
406        4.47       199        46         0          37.241     3707       -1400      -1942      655        0          33546.16   11.694     3197       6629      
406.2      4.37       187        43         0          37.256     3708       -1400      -1944      659        0          33545.8    11.696     3198       6630      
406.4      4.36       187        48         0          37.284     3709       -1400      -1947      660        0          33545.43   11.7       3199       6629      
406.6      4.36       187        40         0          37.297     3710       -1400      -1950      663        0          33545.05   11.705     3200       6629      
406.8      4.35       187        47         0          37.309     3711       -1400      -1949      665        0          33544.68   11.709     3201       6628      
407        4.34       187        64         0          37.33      3712       -1400      -1945      665        0          33544.32   11.713     3202       6628      
407.2      4.32       187        54         0          37.351     3713       -1400      -1946      668        0          33543.95   11.717     3203       6629      
407.4      4.29       186        42         0          37.385     3714       -1400      -1944      669        0          33543.58   11.718     3203       6628      
407.6      4.26       182        53         0          37.397     3715       -1400      -1940      671        0          33543.21   11.721     3204       6629      
407.8      4.26       182        48         0          37.41      3716       -1400      -1936      674        0          33542.85   11.725     3205       6629      
408        4.27       182        56         0          37.43      3717       -1400      -1935      672        0          33542.48   11.726     3205       6629      
408.2      4.28       182        66         0          37.45      3718       -1400      -1937      675        0          33542.11   11.729     3206       6629      
408.4      4.28       182        46         0          37.471     3719       -1400      -1934      678        0          33541.73   11.733     3207       6628      
408.6      4.3        182        50         1          37.491     3720       -1400      -1934      677        0          33541.36   11.734     3207       6629      
408.8      4.32       183        69         0          37.511     3721       -1400      -1935      680        0          33541.02   11.737     3208       6629      
409        4.34       187        68         0          37.518     3721       -1400      -1933      681        0          33540.65   11.741     3209       6629      
409.2      4.33       187        51         0          37.545     3722       -1400      -1936      683        0          33540.28   11.742     3209       6629      
409.4      4.3        187        69         0          37.571     3724       -1400      -1945      686        0          33539.89   11.745     3210       6629      
409.6      4.26       187        78         0          37.578     3724       -1400      -1940      685        0          33539.54   11.749     3211       6628      
409.8      4.21       187        107        2          37.606     3725       -1400      -1937      688        0          33539.18   11.75      3211       6629      
410        4.13       187        97         0          37.632     3727       -1400      -1939      690        0          33538.79   11.753     3212       6629      
410.2      4          183        94         0          37.653     3728       -1400      -1942      689        0          33538.41   11.757     3213       6629      
