~Version
 VERS              .         2.0                           : CWLS LOG ASCII STANDARD - VERSION 2.0
 WRAP              .         NO                            : ONE LINE PER DEPTH STEP
 DLM               .         SPACE                         : DELIMITING CHARACTER(SPACE TAB OR COMMA)
~Well Information
#_______________________________________________________________________________
#
#PARAMETER_NAME    .UNIT     VALUE                         : DESCRIPTION
#_______________________________________________________________________________
STRT               .M        2659.6                        : First reference value
STOP               .M        2768.6                        : Last reference value
STEP               .M        0.2                           : Step increment
NULL               .         -9999                         : Missing value
COMP               .                                       : Company
WELL               .         616                           : Well name
FLD                .                                       : Field
LOC                .                                       : Location
CNTY               .                                       : County
STAT               .                                       : State
CTRY               .                                       : Country
SRVC               .                                       : Service Company
DATE               .                                       : Date
API                .                                       : API number
PROJECT_UPGRADE_TIME .         2021-03-18T21_24_50           : 
group              .         Good                          : 
~Parameter Information Block
#_______________________________________________________________________________
#
#PARAMETER_NAME    .UNIT     VALUE                         : DESCRIPTION
#_______________________________________________________________________________
SET                .         D1166_D                       : 
OTHER              .         Программное обеспечение станции MONITOR-386EX 25/12/99 15_08_10   BGF V52 22/08/01 16_56_30   3.2_BGF_N_3070031: 
OTHER_10           .         Тарировки_                    : 
OTHER_11           .         TM.GRD = 0.00403*TM$.UE + -1.19: 
OTHER_12           .         MN.ATM = (7.1e-006*TM.GRD + 0.02017)*(MN$.UE + -3.03*TM.GRD + -1833): 
OTHER_13           .         Id error                      : 
OTHER_2            .         Kedr.exe версия 3.4.2.51      : 
OTHER_3            .         KedrData.dll версия 3.4.2.24  : 
OTHER_4            .         Драйвер версия 2.1.1.8        : 
OTHER_5            .         Мнемоники версия 3.3 S        : 
OTHER_6            .         Прибор_ КСА-М1                : 
OTHER_7            .         Номер прибора_ 265            : 
OTHER_8            .         Режим_ КСА-М1                 : 
OTHER_9            .         Форма_ ТЕРМОМЕТР              : 
PROJECT_UPGRADE_TIME .         2021-03-18T21_24_49           : 
TLFamily_DEPT      .         Measured Depth                : 
TLFamily_GK        .         Gamma Ray                     : 
TLFamily_GK$       .                                       : 
TLFamily_LM        .         Casing Collar locator         : 
TLFamily_METKA     .                                       : 
TLFamily_MN        .                                       : 
TLFamily_MN$       .                                       : 
TLFamily_RCOR      .                                       : 
TLFamily_SPID      .         Spontaneous Potential         : 
TLFamily_STD       .                                       : 
TLFamily_TENS      .         Cable Tension                 : 
TLFamily_TIME      .         Time                          : 
TLFamily_TM        .         Temperature                   : 
TLFamily_TM$       .         Temperature                   : 
TLFamily_VGD       .         Gas Volume                    : 
group              .         prim                          : 
~Curve Information
#_______________________________________________________________________________
#
#LOGNAME           .UNIT     LOG_ID                        : DESCRIPTION
#_______________________________________________________________________________
DEPT               .M                                      : 1 Глубина, м -    0.0 см 
GK                 .MKR/H                                  : 15 Гамма-активность, мкр./ч -  110.0 см 
GK$                .UE                                     : 12 Гамма-активность, усл.ед. -  110.0 см 
LM                 .                                       : 10 Локатор муфт,  -   20.0 см 
METKA              .                                       : 3 Метки,  -    0.0 см 
MN                 .ATM                                    : 14 Давление, атм. -  160.0 см 
MN$                .UE                                     : 8 Давление, усл.ед. -  160.0 см 
RCOR               .CM/KM                                  : 5 Коррекция по ролику, см/км -    0.0 см 
SPID               .M/H                                    : 2 Скорость, м/час -    0.0 см 
STD                .                                       : 11 Приток,  -  170.0 см 
TENS               .T                                      : 6 Натяжение кабеля, т -    0.0 см 
TIME               .S                                      : 4 Время, сек -    0.0 см 
TM                 .GRD                                    : 13 Температура, °C -  180.0 см 
TM$                .UE                                     : 7 Температура, усл.ед. -  180.0 см 
VGD                .                                       : 9 Влагомер,  -  170.0 см 
~Ascii
# ...
2718.4     7.88       341        1          0          359.844    19409      -1400      596        31628      0          22245.88   86.24      21695      6562      
2718.6     8.74       399        1          0          359.945    19414      -1400      605        31630      0          22247.1    86.249     21697      6560      
2718.8     9.14       399        1          0          359.74     19404      -1400      597        31631      0          22248.33   86.249     21697      6561      
2719       8.41       345        1          0          361.08     19469      -1400      602        31636      0          22249.53   86.257     21699      6560      
2719.2     8.18       345        1          0          360.368    19434      -1400      602        31637      0          22250.73   86.26      21700      6559      
2719.4     7.15       277        1          0          360.899    19460      -1400      593        31640      0          22251.99   86.265     21701      6560      
2719.6     6.69       277        1          0          362.124    19519      -1400      592        31639      0          22253.2    86.266     21701      6560      
2719.8     6.34       260        1          0          360.373    19435      -1400      594        31645      0          22254.41   86.274     21703      6560      
2720       6.16       260        1          2          361.064    19468      -1400      596        31643      0          22255.65   86.277     21704      6560      
2720.2     5.97       246        1          0          362.471    19535      -1400      601        31642      0          22256.81   86.281     21705      6561      
2720.4     5.82       246        1          0          360.544    19443      -1400      609        31640      0          22258.04   86.289     21707      6558      
2720.6     5.72       241        1          0          361.507    19489      -1400      602        31645      0          22259.29   86.306     21711      6545      
2720.8     5.66       241        1          0          362.599    19541      -1400      596        31654      0          22260.48   86.324     21716      6544      
2721       5.43       218        1          0          359.959    19414      -1400      602        31677      0          22261.7    86.441     21745      6543      
2721.2     5.2        218        1          0          361.309    19478      -1400      602        31719      0          22262.86   86.642     21795      6542      
2721.4     5.21       228        1          0          362.489    19534      -1400      597        31785      0          22264.06   86.888     21856      6541      
2721.6     5.33       230        1          0          360.187    19423      -1400      592        31854      0          22265.31   87.083     21904      6541      
2721.8     5.49       242        1          0          361.058    19465      -1400      595        31912      0          22266.51   87.213     21936      6539      
2722       5.61       242        1          0          361.293    19476      -1400      593        31962      0          22267.72   87.313     21961      6539      
2722.2     5.51       225        1          0          360.689    19446      -1400      590        32011      0          22268.98   87.407     21984      6539      
2722.4     5.34       225        1          0          361.152    19468      -1400      589        32061      0          22270.2    87.501     22008      6539      
2722.6     5.32       229        1          0          361.418    19481      -1400      587        32099      0          22271.38   87.567     22024      6537      
2722.8     5.39       232        1          0          361.893    19504      -1400      590        32133      0          22272.6    87.646     22044      6539      
2723       5.49       240        1          0          361.013    19461      -1400      588        32167      0          22273.82   87.703     22058      6537      
2723.2     5.57       240        1          0          361.589    19489      -1400      592        32201      0          22275.01   87.768     22074      6536      
2723.4     5.52       230        1          0          362.357    19525      -1400      599        32228      0          22276.21   87.83      22089      6536      
2723.6     5.35       225        1          0          360.907    19455      -1400      583        32253      0          22277.5    87.888     22104      6536      
2723.8     5.28       223        1          0          361.573    19487      -1400      588        32276      0          22278.64   87.932     22115      6535      
2724       5.08       213        1          0          363.435    19577      -1400      595        32298      0          22279.89   87.96      22122      6534      
2724.2     5.01       213        1          0          361.16     19467      -1400      597        32315      0          22281.04   87.99      22129      6534      
2724.4     5.4        241        1          0          361.9      19503      -1400      590        32324      0          22282.3    88.005     22133      6534      
2724.6     5.59       245        1          0          363.126    19562      -1400      589        32335      0          22283.51   88         22131      6534      
2724.8     6.07       268        1          0          360.982    19459      -1400      592        32338      0          22284.71   87.985     22128      6535      
2725       6.2        268        1          0          361.961    19506      -1400      589        32338      0          22285.98   87.954     22120      6534      
2725.2     6.16       262        1          0          362.843    19549      -1400      592        32327      0          22287.12   87.929     22114      6533      
2725.4     6.14       262        1          0          360.955    19458      -1400      595        32317      0          22288.35   87.886     22103      6533      
2725.6     5.76       234        1811       0          361.971    19507      -1400      591        32303      0          22289.48   87.838     22091      6533      
2725.8     5.57       234        1007       0          362.313    19524      -1400      587        32283      0          22290.8    87.756     22071      6533      
2726       5.09       206        75         0          360.698    19446      -1400      596        32255      0          22291.99   87.685     22053      6534      
2726.2     4.9        206        1          0          361.225    19472      -1400      597        32224      0          22293.18   87.596     22031      6533      
2726.4     4.94       213        1          0          361.177    19470      -1400      596        32198      0          22294.44   87.521     22013      6533      
2726.6     4.97       213        1          0          361.657    19493      -1400      600        32170      0          22295.62   87.468     22000      6533      
2726.8     5.05       219        1          0          361.306    19476      -1400      599        32152      0          22296.83   87.442     21993      6532      
2727       5.1        219        1          0          361.546    19488      -1400      596        32135      0          22298      87.436     21992      6533      
2727.2     5.14       221        1          0          363.516    19582      -1400      592        32133      0          22299.26   87.448     21994      6533      
2727.4     5.16       221        1          0          361.476    19484      -1400      594        32130      0          22300.45   87.466     21999      6532      
2727.6     5.58       258        1          0          362.008    19510      -1400      595        32139      0          22301.69   87.518     22012      6532      
2727.8     5.89       258        1          0          363.488    19581      -1400      593        32146      0          22302.89   87.554     22021      6532      
2728       6.1        272        1          0          361.597    19489      -1400      584        32157      0          22304.12   87.607     22034      6530      
