~Version
 VERS              .         2.0                           : CWLS LOG ASCII STANDARD - VERSION 2.0
 WRAP              .         NO                            : ONE LINE PER DEPTH STEP
 DLM               .         SPACE                         : DELIMITING CHARACTER(SPACE TAB OR COMMA)
~Well Information
#_______________________________________________________________________________
#
#PARAMETER_NAME    .UNIT     VALUE                         : DESCRIPTION
#_______________________________________________________________________________
STRT               .M        2669.2                        : First reference value
STOP               .M        2776.2                        : Last reference value
STEP               .M        0.2                           : Step increment
NULL               .         -9999                         : Missing value
COMP               .                                       : Company
WELL               .         616                           : Well name
FLD                .                                       : Field
LOC                .                                       : Location
CNTY               .                                       : County
STAT               .                                       : State
CTRY               .                                       : Country
SRVC               .                                       : Service Company
DATE               .                                       : Date
API                .                                       : API number
PROJECT_UPGRADE_TIME .         2021-03-18T21_24_50           : 
group              .         Good                          : 
~Parameter Information Block
#_______________________________________________________________________________
#
#PARAMETER_NAME    .UNIT     VALUE                         : DESCRIPTION
#_______________________________________________________________________________
SET                .         D1809_D                       : 
OTHER              .         Программное обеспечение станции MONITOR-386EX 25/12/99 15_08_10   BGF V52 22/08/01 16_56_30   3.1_SNGF___BGF_N_092049: 
OTHER_10           .         Тарировки_                    : 
OTHER_11           .         TM.GRD = 0.00403*TM$.UE + -1.07: 
OTHER_12           .         MN.ATM = (9.34907e-006*TM.GRD + 0.02171)*(MN$.UE + -7.93*TM.GRD + -1787): 
OTHER_13           .         GK.MKR/H = LM. / 42.4676      : 
OTHER_14           .         GK.FLT = 0.1*GK.MKR/H[-1] + (1-0.1)*GK.MKR/H[0]: 
OTHER_2            .         Kedr.exe версия 3.4.2.51      : 
OTHER_3            .         KedrData.dll версия 3.4.2.24  : 
OTHER_4            .         Драйвер версия 2.1.1.3        : 
OTHER_5            .         Мнемоники версия 3.3 S        : 
OTHER_6            .         Прибор_ КСА-Т4                : 
OTHER_7            .         Номер прибора_ 03             : 
OTHER_8            .         Режим_ КСА-Т4                 : 
OTHER_9            .         Форма_ КВА.                   : 
PROJECT_UPGRADE_TIME .         2021-03-18T21_24_49           : 
TLFamily_DEPT      .         Measured Depth                : 
TLFamily_GK        .         Gamma Ray                     : 
TLFamily_GK$       .                                       : 
TLFamily_GK_2      .         Gamma Ray                     : 
TLFamily_LM        .         Casing Collar locator         : 
TLFamily_METKA     .                                       : 
TLFamily_MN        .                                       : 
TLFamily_MN$       .                                       : 
TLFamily_RCOR      .                                       : 
TLFamily_SPID      .         Spontaneous Potential         : 
TLFamily_TENS      .         Cable Tension                 : 
TLFamily_TIME      .         Time                          : 
TLFamily_TM        .         Temperature                   : 
TLFamily_TM$       .         Temperature                   : 
group              .         prim                          : 
~Curve Information
#_______________________________________________________________________________
#
#LOGNAME           .UNIT     LOG_ID                        : DESCRIPTION
#_______________________________________________________________________________
DEPT               .M                                      : 1 Глубина, м -    0.0 см 
GK                 .MKR/H                                  : 13 Гамма-активность, мкр./ч -  110.0 см 
GK$                .UE                                     : 10 Гамма-активность, усл.ед. -  110.0 см 
GK_2               .FLT                                    : 14 Гамма-активность фильтрованная, мкр./ч -  110.0 см 
LM                 .                                       : 9 Локатор муфт,  -   20.0 см 
METKA              .                                       : 3 Метки,  -    0.0 см 
MN                 .ATM                                    : 12 Давление, атм. -  160.0 см 
MN$                .UE                                     : 8 Давление, усл.ед. -  160.0 см 
RCOR               .CM/KM                                  : 5 Коррекция по ролику, см/км -    0.0 см 
SPID               .M/H                                    : 2 Скорость, м/час -    0.0 см 
TENS               .T                                      : 6 Натяжение кабеля, т -    0.0 см 
TIME               .S                                      : 4 Время, сек -    0.0 см 
TM                 .GRD                                    : 11 Температура, °C -  170.0 см 
TM$                .UE                                     : 7 Температура, усл.ед. -  170.0 см 
~Ascii
# ...
2731.6     6.03       256        6.03       81         0          251.945    13547      -665       588        0.05       6660.03    50.984     12917     
2731.8     6.36       270        6.28       88         0          251.952    13547      -665       586        0.05       6661.28    50.971     12913     
2732       6.36       270        6.35       1391       0          252.156    13556      -665       584        0.05       6662.52    50.965     12912     
2732.2     7.42       315        7.08       738        0          251.995    13549      -665       583        0.05       6663.73    50.952     12909     
2732.4     7.42       315        7.41       285        0          252.011    13550      -665       582        0.05       6664.98    50.961     12911     
2732.6     7.84       333        7.68       237        0          252.028    13551      -665       581        0.05       6666.23    51.018     12925     
2732.8     7.84       333        7.83       269        0          252.039    13552      -665       575        0.05       6667.55    51.14      12955     
2733       7.02       298        7.24       231        0          252.049    13553      -665       576        0.05       6668.8     51.317     12999     
2733.2     7.02       298        7.03       221        0          252.038    13553      -665       569        0.05       6669.98    51.485     13041     
2733.4     7.53       320        7.34       240        0          252.049    13554      -665       566        0.05       6671.23    51.642     13080     
2733.6     7.54       320        7.53       248        0          252.06     13555      -665       565        0.05       6672.48    51.802     13120     
2733.8     8.14       346        7.92       224        0          252.06     13555      -665       571        0.05       6673.73    51.939     13154     
2734       8.27       351        8.25       225        0          252.082    13557      -665       574        0.05       6674.92    52.037     13178     
2734.2     8.71       370        8.59       211        0          252.08     13557      -665       569        0.05       6676.23    52.147     13205     
2734.4     8.71       370        8.71       248        0          252.094    13558      -665       572        0.05       6677.48    52.293     13241     
2734.6     9.25       393        9.05       197        0          252.103    13559      -665       575        0.05       6678.75    52.407     13270     
2734.8     9.25       393        9.25       197        0          252.095    13559      -665       577        0.05       6680       52.564     13309     
2735       9.2        390        9.22       237        0          252.104    13560      -665       582        0.05       6681.25    52.738     13352     
2735.2     9.14       388        9.14       235        0          252.115    13561      -665       573        0.05       6682.44    52.932     13400     
2735.4     9          382        9.04       316        0          252.136    13562      -665       576        0.05       6683.69    53.015     13421     
2735.6     9          382        9          205        0          252.142    13562      -665       577        0.05       6685       53.003     13418     
2735.8     8.85       376        8.91       184        0          252.181    13564      -665       572        0.05       6686.19    52.94      13402     
2736       8.85       376        8.86       231        0          252.193    13564      -665       575        0.05       6687.44    52.868     13384     
2736.2     9.35       397        9.17       233        0          252.205    13564      -665       576        0.05       6688.69    52.798     13367     
2736.4     9.68       411        9.66       186        0          252.237    13566      -665       577        0.05       6689.94    52.743     13353     
2736.6     9.4        399        9.49       187        0          252.268    13567      -665       580        0.05       6691.15    52.714     13346     
2736.8     9.4        399        9.4        212        0          252.269    13567      -665       586        0.05       6692.41    52.7       13342     
2737       8.41       357        8.77       3112       0          252.291    13568      -665       590        0.05       6693.64    52.698     13342     
2737.2     8.22       349        8.24       1321       0          252.313    13569      -665       586        0.05       6694.92    52.695     13341     
2737.4     7.54       320        7.71       387        0          252.311    13569      -665       589        0.05       6696.19    52.722     13348     
2737.6     7.54       320        7.54       245        0          252.342    13570      -665       587        0.05       6697.41    52.749     13355     
2737.8     7.42       315        7.46       202        0          252.352    13571      -665       585        0.05       6698.65    52.78      13362     
2738       7.42       315        7.42       187        0          252.372    13572      -665       583        0.05       6699.91    52.795     13366     
2738.2     7.61       323        7.54       222        0          252.371    13572      -665       582        0.05       6701.1     52.818     13372     
2738.4     7.65       325        7.65       219        0          252.392    13573      -665       582        0.05       6702.41    52.837     13376     
2738.6     7.13       303        7.29       211        0          252.414    13574      -665       579        0.05       6703.63    52.847     13379     
2738.8     7.13       303        7.14       182        0          252.436    13575      -665       563        0.05       6704.91    52.852     13380     
2739       7.7        327        7.49       199        0          252.454    13576      -665       568        0.05       6706.14    52.843     13378     
2739.2     7.7        327        7.69       166        0          252.461    13576      -665       571        0.05       6707.34    52.835     13376     
2739.4     8.5        361        8.21       157        0          252.494    13577      -665       574        0.05       6708.59    52.792     13365     
2739.6     8.9        378        8.87       174        0          252.513    13578      -665       576        0.05       6709.84    52.735     13351     
2739.8     9.23       392        9.13       226        0          252.541    13579      -665       577        0.05       6711.09    52.655     13331     
2740       9.23       392        9.23       245        2          252.568    13580      -665       578        0.05       6712.36    52.584     13314     
2740.2     9.14       388        9.17       198        0          252.584    13581      -672       581        0.04       6714.08    52.539     13302     
2740.4     9.14       388        9.14       182        0          252.598    13581      -672       573        0.05       6715.3     52.482     13288     
2740.6     9.84       418        9.58       232        0          252.632    13582      -672       573        0.05       6716.55    52.403     13269     
2740.8     10.55      448        10.52      213        0          252.652    13583      -672       575        0.05       6717.73    52.336     13252     
2741       12.29      522        11.72      170        0          252.678    13584      -672       576        0.05       6718.98    52.28      13238     
2741.2     12.29      522        12.29      205        0          252.704    13585      -672       577        0.05       6720.23    52.221     13224     
2741.4     13.7       582        13.51      204        0          252.723    13586      -672       578        0.05       6721.48    52.136     13203     
2741.6     13.7       582        13.7       200        0          252.765    13587      -672       566        0.06       6722.8     52.014     13172     
2741.8     15.85      673        15.36      237        0          252.802    13588      -672       570        0.05       6723.99    51.827     13126     
