~Version
 VERS              .         2.0                           : CWLS LOG ASCII STANDARD - VERSION 2.0
 WRAP              .         NO                            : ONE LINE PER DEPTH STEP
 DLM               .         SPACE                         : DELIMITING CHARACTER(SPACE TAB OR COMMA)
~Well Information
#_______________________________________________________________________________
#
#PARAMETER_NAME    .UNIT     VALUE                         : DESCRIPTION
#_______________________________________________________________________________
STRT               .M        2645.4                        : First reference value
STOP               .M        2753.4                        : Last reference value
STEP               .M        0.2                           : Step increment
NULL               .         -9999                         : Missing value
COMP               .                                       : Company
WELL               .         616                           : Well name
FLD                .                                       : Field
LOC                .                                       : Location
CNTY               .                                       : County
STAT               .                                       : State
CTRY               .                                       : Country
SRVC               .                                       : Service Company
DATE               .                                       : Date
API                .                                       : API number
PROJECT_UPGRADE_TIME .         2021-03-18T21_24_50           : 
group              .         Good                          : 
~Parameter Information Block
#_______________________________________________________________________________
#
#PARAMETER_NAME    .UNIT     VALUE                         : DESCRIPTION
#_______________________________________________________________________________
SET                .         D4410_D                       : 
OTHER              .         Запись производится в присутствии: 
OTHER_10           .         Максимальная температура      : 
OTHER_11           .         Тип промывочной жидкости      : 
OTHER_12           .         Сопротивление ПЖ (Ом*м) при 20°C: 
OTHER_13           .         Плотность ПЖ(г/см3)           : 
OTHER_14           .         Вязкость ПЖ(с)                : 
OTHER_15           .         Водоотдача ПЖ(см3/30мин)      : 
OTHER_16           .         Уровень ПЖ                    : 
OTHER_17           .         Нефть ПЖ (%)                  : 
OTHER_18           .         Барит ПЖ (%)                  : 
OTHER_19           .         Гематит ПЖ (%)                : 
OTHER_2            .         Заказчик ННСН  ЦДНГ-1         : 
OTHER_20           .         КМЦ ПЖ (%)                    : 
OTHER_21           .         Разгазирование ПЖ (да,нет)    : 
OTHER_22           .         Подъемник                     : 
OTHER_23           .         Лаборатория                   : 
OTHER_24           .         Тип кабеля                    : 
OTHER_25           .         Длина кабеля (м)              : 
OTHER_26           .         Цена последней метки          : 
OTHER_27           .         Цена контрольной метки        : 
OTHER_28           .         Диаметр долота (мм)           : 
OTHER_29           .         Глубина бурения (м)           : 
OTHER_3            .         Площадь                       : 
OTHER_30           .         Искусственный забой (м)       : 
OTHER_31           .         Диаметр колонны (мм)          : 
OTHER_32           .         Толщина колонны (мм)          : 
OTHER_33           .         Башмак колонны (м)            : 
OTHER_34           .         Диаметр НКТ (мм)              : 
OTHER_35           .         Толщина НКТ (мм)              : 
OTHER_36           .         Воронка НКТ (м)               : 
OTHER_37           .         Дата цементожа                : 
OTHER_38           .         Тип, количество(т) и плотность цемента: 
OTHER_39           .         Интервалы перфорации (м)      : 
OTHER_4            .         Категория                     : 
OTHER_40           .         Направление, диаметр (мм)     : 
OTHER_41           .         Направление, глубина (м)      : 
OTHER_42           .         Кондуктор, диаметр (мм)       : 
OTHER_43           .         Кондуктор, глубина (м)        : 
OTHER_44           .         Техническая колонна, диаметр (мм): 
OTHER_45           .         Техническая колонна, глубина (м): 
OTHER_46           .         Эксплуатационная колонна, диаметр (мм): 
OTHER_47           .         Эксплуатационная колонна, глубина (м): 
OTHER_48           .         Программа Кедр-02 версия 3.4  : 
OTHER_49           .         Операционная система Windows NT 5.1 build 2600 Service Pack 2: 
OTHER_5            .         Назначение исследований       : 
OTHER_50           .         Программное обеспечение станции MONITOR-386EX 25/12/99 15_08_10   BGF V54 20/09/05 15_32_17   3.3__BGF_9030071: 
OTHER_51           .         Kedr.exe версия 3.4.2.74      : 
OTHER_52           .         KedrData.dll версия 3.4.2.29  : 
OTHER_53           .         Мнемоники версия 3.18 S       : 
OTHER_54           .         Драйвер версия 2.1.1.4        : 
OTHER_55           .         LasInf.dll 4.3.0.35           : 
OTHER_56           .         Прибор_ КСА-Т4                : 
OTHER_57           .         Номер прибора_ 160            : 
OTHER_58           .         Режим_ КСА-Т4                 : 
OTHER_59           .         Форма_ С.А.Б.                 : 
OTHER_6            .         Альтитуда стола ротора        : 
OTHER_60           .         Тарировки_                    : 
OTHER_61           .         <_techsia_sc_> Дата тарировки температуры 25.05.2010: 
OTHER_62           .         Ручной ввод коэффициентов     : 
OTHER_63           .         TM.DEGC = 0.00402*RTM.E.ACP + -0.994: 
OTHER_64           .         <_techsia_sc_> Дата тарировки давления 25.05.2010: 
OTHER_65           .         Ручной ввод коэффициентов     : 
OTHER_66           .         MN.ATM = (2.27521e-006*TM.DEGC + 0.02078)*(RMN.E.ACP + 6.2*TM.DEGC + -1688): 
OTHER_67           .         <_techsia_sc_> Дата тарировки ГК 25.05.2010: 
OTHER_68           .         Ручной ввод коэффициентов     : 
OTHER_69           .         GR.UR/H = RGR.IMP/MIN / 45.5144: 
OTHER_7            .         Вид исследований 3  6         : 
OTHER_70           .         GK.FLT = 0.1*GR.UR/H[-1] + (1-0.1)*GR.UR/H[0]: 
OTHER_8            .         Начало бурения интервала каротажа: 
OTHER_9            .         Окончание бурения интервала каротажа: 
PROJECT_UPGRADE_TIME .         2021-03-18T21_24_50           : 
TLFamily_CCLC      .                                       : 
TLFamily_DEPT      .         Measured Depth                : 
TLFamily_GK        .         Gamma Ray                     : 
TLFamily_GR        .         Gamma Ray                     : 
TLFamily_METKA     .                                       : 
TLFamily_MN        .                                       : 
TLFamily_RCOR      .                                       : 
TLFamily_RGR       .                                       : 
TLFamily_RMN       .                                       : 
TLFamily_RTEN      .                                       : 
TLFamily_RTM       .                                       : 
TLFamily_SPEE      .         Cable Speed                   : 
TLFamily_TIME      .         Time                          : 
TLFamily_TM        .         Temperature                   : 
group              .         prim                          : 
~Curve Information
#_______________________________________________________________________________
#
#LOGNAME           .UNIT     LOG_ID                        : DESCRIPTION
#_______________________________________________________________________________
DEPT               .M                                      : 1 Глубина, м -    0.0 см 
CCLC               .E.ACP                                  : 9 Локатор муфт,  -   20.0 см 
GK                 .FLT                                    : 14 Гамма-активность фильтрованная, мкр./ч -  110.0 см 
GR                 .UR/H                                   : 13 Гамма-активность, мкр./ч -  110.0 см 
METKA              .CU                                     : 3 Метки,  -    0.0 см 
MN                 .ATM                                    : 12 Давление, атм. -  160.0 см 
RCOR               .CM/KM                                  : 5 Коррекция по ролику, см/км -    0.0 см 
RGR                .IMP/MIN                                : 10 Гамма-активность, усл.ед. -  110.0 см 
RMN                .E.ACP                                  : 8 Давление, усл.ед. -  160.0 см 
RTEN               .T                                      : 6 Натяжение кабеля, т -    0.0 см 
RTM                .E.ACP                                  : 7 Температура, усл.ед. -  170.0 см 
SPEE               .M/H                                    : 2 Скорость, м/час -    0.0 см 
TIME               .S                                      : 4 Время, сек -    0.0 см 
TM                 .DEGC                                   : 11 Температура, °C -  170.0 см 
~Ascii
2645.4     -9999      -9999      -9999      0          -9999      -9999      -9999      -9999      -9999      -9999      -9999      -9999      -9999     
2645.6     26         -9999      -9999      0          -9999      -1106      -9999      -9999      0.27       -9999      43         2.2        -9999     
2645.8     26         -9999      -9999      0          -9999      -1106      -9999      -9999      0.23       -9999      165        4.57       -9999     
2646       26         -9999      -9999      2          -9999      -1106      -9999      -9999      0.2        -9999      230        6.18       -9999     
2646.2     26         -9999      -9999      0          -9999      -1106      -9999      -9999      0.19       -9999      289        7.59       -9999     
2646.4     185        -9999      -9999      0          -9999      -1106      -9999      -9999      0.18       -9999      356        8.97       -9999     
2646.6     137        7.98       7.98       0          -9999      -1106      363        -9999      0.18       -9999      412        10.25      -9999     
2646.8     692        8.09       8.09       0          -9999      -1106      368        -9999      0.18       -9999      456        11.59      -9999     
2647       948        8.28       8.28       0          -9999      -1106      377        -9999      0.18       -9999      481        13.01      -9999     
2647.2     834        8.28       8.28       0          364.175    -1106      377        18692      0.18       16256      507        14.22      64.355    
2647.4     941        7.65       7.65       0          363.291    -1106      348        18650      0.18       16254      525        15.5       64.347    
2647.6     3099       7.65       7.65       0          362.845    -1106      348        18628      0.18       16252      533        16.84      64.339    
2647.8     2150       7.1        7.1        0          362.64     -1106      323        18618      0.18       16252      538        18.19      64.341    
2648       732        7.1        7.1        0          362.422    -1106      323        18608      0.18       16252      544        19.45      64.339    
2648.2     749        8.39       8.39       0          362.266    -1106      382        18601      0.18       16250      555        20.65      64.332    
2648.4     752        8.39       8.39       0          362.032    -1106      382        18590      0.18       16248      565        21.89      64.322    
2648.6     890        8.94       8.94       0          361.864    -1106      407        18582      0.18       16246      563        23.17      64.315    
2648.8     876        8.94       8.94       0          361.867    -1106      407        18582      0.18       16246      561        24.52      64.315    
2649       1107       7.67       7.67       0          361.979    -1106      349        18587      0.18       16247      560        25.8       64.319    
2649.2     699        7.67       7.67       0          361.927    -1106      349        18584      0.18       16247      559        27.12      64.319    
2649.4     897        7.82       7.82       0          361.854    -1106      356        18581      0.18       16248      560        28.38      64.323    
2649.6     1327       7.82       7.82       0          361.882    -1106      356        18582      0.18       16248      560        29.74      64.323    
2649.8     907        8.17       8.17       0          361.93     -1106      372        18585      0.18       16249      560        31         64.327    
2650       731        8.14       8.14       0          361.904    -1106      370        18583      0.19       16249      561        32.26      64.327    
2650.2     517        8          8          0          361.919    -1106      364        18584      0.19       16250      562        33.53      64.331    
2650.4     563        8          8          0          361.961    -1106      364        18586      0.19       16251      561        34.8       64.334    
2650.6     577        8.2        8.2        0          361.982    -1106      373        18587      0.19       16251      561        36.14      64.335    
2650.8     561        8.27       8.27       0          361.989    -1106      376        18587      0.19       16252      561        37.42      64.339    
2651       537        8.28       8.28       0          361.993    -1106      377        18587      0.19       16254      562        38.7       64.346    
2651.2     558        8.13       8.13       0          361.88     -1106      370        18582      0.19       16255      562        39.97      64.351    
2651.4     451        7.91       7.91       0          361.88     -1106      360        18582      0.19       16255      563        41.32      64.351    
2651.6     428        8.07       8.07       0          361.91     -1106      367        18583      0.19       16255      564        42.59      64.351    
2651.8     500        8.48       8.48       0          361.923    -1106      386        18584      0.19       16255      564        43.87      64.353    
2652       478        9.76       9.76       0          361.889    -1106      444        18582      0.19       16257      565        45.13      64.358    
2652.2     425        9.76       9.76       0          361.883    -1106      444        18582      0.19       16258      565        46.36      64.363    
2652.4     399        9.34       9.34       0          361.887    -1106      425        18582      0.19       16260      565        47.7       64.371    
2652.6     360        8.92       8.92       0          361.916    -1106      406        18583      0.19       16261      565        48.99      64.375    
2652.8     527        7.49       7.49       0          362.011    -1106      341        18588      0.19       16262      565        50.26      64.38     
2653       422        7.49       7.49       0          362.11     -1106      341        18593      0.19       16264      566        51.48      64.387    
2653.2     421        7.54       7.54       0          362.159    -1106      343        18595      0.19       16266      566        52.84      64.395    
2653.4     473        7.54       7.54       0          362.202    -1106      343        18597      0.19       16266      567        54.09      64.395    
2653.6     351        7.65       7.65       0          362.361    -1106      348        18605      0.19       16267      569        55.38      64.399    
2653.8     444        7.65       7.65       0          362.455    -1106      348        18609      0.19       16268      569        56.58      64.403    
2654       436        7.62       7.62       0          362.519    -1106      347        18612      0.19       16270      570        57.9       64.413    
2654.2     640        7.62       7.62       0          362.534    -1106      347        18613      0.19       16272      570        59.15      64.419    
2654.4     450        8.15       8.15       0          362.639    -1106      371        18618      0.19       16274      573        60.41      64.427    
2654.6     554        8.15       8.15       0          362.749    -1106      371        18623      0.19       16275      574        61.63      64.432    
2654.8     351        8.15       8.15       0          362.886    -1106      371        18629      0.19       16276      576        62.87      64.436    
2655       487        8.15       8.15       0          362.879    -1106      371        18629      0.19       16277      578        64.19      64.44     
2655.2     365        8.48       8.48       0          362.901    -1106      386        18630      0.19       16279      580        65.39      64.448    
2655.4     239        8.48       8.48       1          362.964    -1106      386        18633      0.19       16280      581        66.61      64.45     
2655.6     378        8.63       8.63       0          363.016    -1106      393        18635      0.19       16281      583        67.82      64.456    
