~Version
 VERS              .         2.0                           : CWLS LOG ASCII STANDARD - VERSION 2.0
 WRAP              .         NO                            : ONE LINE PER DEPTH STEP
 DLM               .         SPACE                         : DELIMITING CHARACTER(SPACE TAB OR COMMA)
~Well Information
#_______________________________________________________________________________
#
#PARAMETER_NAME    .UNIT     VALUE                         : DESCRIPTION
#_______________________________________________________________________________
STRT               .M        2733.1                        : First reference value
STOP               .M        2798.6                        : Last reference value
STEP               .M        0.1                           : Step increment
NULL               .         -9999                         : Missing value
COMP               .                                       : Company
WELL               .         616                           : Well name
FLD                .                                       : Field
LOC                .                                       : Location
CNTY               .                                       : County
STAT               .                                       : State
CTRY               .                                       : Country
SRVC               .                                       : Service Company
DATE               .                                       : Date
API                .                                       : API number
PROJECT_UPGRADE_TIME .         2021-03-18T21_24_50           : 
group              .         Good                          : 
~Parameter Information Block
#_______________________________________________________________________________
#
#PARAMETER_NAME    .UNIT     VALUE                         : DESCRIPTION
#_______________________________________________________________________________
SET                .         D2661_D                       : 
OTHER              .         Программное обеспечение станции MONITOR-386EX 25/12/99 15_08_10   BGF V50 26/12/00 07_26_01   3.1_SNGF___BGF_N_092085: 
OTHER_10           .         Тарировки_                    : 
OTHER_11           .         IK1.GRD = IK1$.UE - -5.96     : 
OTHER_12           .         IK5.GRD = IK5$.UE - -0.74     : 
OTHER_13           .         IK4.GRD = IK4$.UE - -0.9      : 
OTHER_14           .         IK3.GRD = IK3$.UE - -1.28     : 
OTHER_15           .         IK2.GRD = IK2$.UE - -3.55     : 
OTHER_2            .         Kedr.exe версия 3.3.2.32      : 
OTHER_3            .         KedrData.dll версия 3.3.2.17  : 
OTHER_4            .         Драйвер версия 2.1.0.4        : 
OTHER_5            .         Мнемоники версия 3.3 S        : 
OTHER_6            .         Прибор_ Викиз                 : 
OTHER_7            .         Номер прибора_ 0006012        : 
OTHER_8            .         Режим_ Викиз                  : 
OTHER_9            .         Форма_ ВИКИЗ                  : 
PROJECT_UPGRADE_TIME .         2021-03-18T21_24_49           : 
TLFamily_DEPT      .         Measured Depth                : 
TLFamily_IK1       .         Extra Shallow Resistivity     : 
TLFamily_IK1$      .         Extra Shallow Resistivity     : 
TLFamily_IK2       .         Shallow Resistivity           : 
TLFamily_IK2$      .         Shallow Resistivity           : 
TLFamily_IK3       .         Medium Resistivity            : 
TLFamily_IK3$      .         Medium Resistivity            : 
TLFamily_IK4       .         Deep Resistivity              : 
TLFamily_IK4$      .         Deep Resistivity              : 
TLFamily_IK5       .         Resistivity 20                : 
TLFamily_IK5$      .         Resistivity 20                : 
TLFamily_METKA     .                                       : 
TLFamily_PS        .         Spontaneous Potential         : 
TLFamily_RCOR      .                                       : 
TLFamily_SPID      .         Spontaneous Potential         : 
TLFamily_TENS      .         Cable Tension                 : 
TLFamily_TIME      .         Time                          : 
group              .         prim                          : 
~Curve Information
#_______________________________________________________________________________
#
#LOGNAME           .UNIT     LOG_ID                        : DESCRIPTION
#_______________________________________________________________________________
DEPT               .M                                      : 1 Глубина, м -    0.0 см 
IK1                .GRD                                    : 13 3Ф0.5, град. -  226.0 см 
IK1$               .UE                                     : 7 3Ф0.5, усл.ед. -  226.0 см 
IK2                .GRD                                    : 17 3Ф0.7, град. -  240.0 см 
IK2$               .UE                                     : 11 3Ф0.7, усл.ед. -  240.0 см 
IK3                .GRD                                    : 16 3Ф1.0, град. -  260.0 см 
IK3$               .UE                                     : 10 3Ф1.0, усл.ед. -  260.0 см 
IK4                .GRD                                    : 15 3Ф1.4, град. -  288.0 см 
IK4$               .UE                                     : 9 3Ф1.4, усл.ед. -  288.0 см 
IK5                .GRD                                    : 14 3Ф2.0, град. -  328.0 см 
IK5$               .UE                                     : 8 3Ф2.0, усл.ед. -  328.0 см 
METKA              .                                       : 3 Метки,  -    0.0 см 
PS                 .mV                                     : 12 ПС, мВ -  372.0 см 
RCOR               .CM/KM                                  : 5 Коррекция по ролику, см/км -    0.0 см 
SPID               .M/H                                    : 2 Скорость, м/час -    0.0 см 
TENS               .T                                      : 6 Натяжение кабеля, т -    0.0 см 
TIME               .S                                      : 4 Время, сек -    0.0 см 
~Ascii
# ...
2763.2     15.06      9.1        14.19      10.64      13.9       12.62      13.4       12.5       13.29      12.55      0          328.94     -295       -1810      0          34423.34  
2763.3     15.11      9.15       14.22      10.67      13.91      12.63      13.42      12.52      13.38      12.64      0          329.27     -295       -1797      0          34423.13  
2763.4     15.15      9.19       14.23      10.68      13.91      12.63      13.41      12.51      13.39      12.65      0          329.72     -295       -1793      0          34422.94  
2763.5     15.27      9.31       14.27      10.72      13.93      12.65      13.4       12.5       13.38      12.64      0          329.96     -295       -1794      0          34422.76  
2763.6     15.29      9.33       14.27      10.72      13.95      12.67      13.41      12.51      13.37      12.63      0          329.63     -295       -1795      0          34422.54  
2763.7     15.18      9.22       14.25      10.7       13.95      12.67      13.41      12.51      13.37      12.63      0          329.26     -295       -1796      0          34422.35  
2763.8     15.15      9.19       14.32      10.77      14.01      12.73      13.44      12.54      13.38      12.64      0          328.73     -295       -1798      0          34422.16  
2763.9     15.2       9.24       14.42      10.87      14.1       12.82      13.49      12.59      13.41      12.67      0          328.21     -295       -1800      0          34421.97  
2764       15.24      9.28       14.51      10.96      14.18      12.9       13.54      12.64      13.44      12.7       0          328.06     -295       -1802      0          34421.78  
2764.1     15.32      9.36       14.56      11.01      14.24      12.96      13.58      12.68      13.47      12.73      0          328.19     -295       -1805      0          34421.58  
2764.2     15.32      9.36       14.56      11.01      14.25      12.97      13.59      12.69      13.48      12.74      0          328.65     -295       -1808      0          34421.38  
2764.3     15.28      9.32       14.51      10.96      14.24      12.96      13.6       12.7       13.47      12.73      0          329.23     -295       -1813      0          34421.18  
2764.4     15.35      9.39       14.52      10.97      14.24      12.96      13.61      12.71      13.46      12.72      0          329.44     -295       -1819      0          34421     
2764.5     15.42      9.46       14.53      10.98      14.24      12.96      13.63      12.73      13.43      12.69      0          329.15     -295       -1826      0          34420.8   
2764.6     15.39      9.43       14.47      10.92      14.19      12.91      13.63      12.73      13.39      12.65      0          328.64     -295       -1835      0          34420.59  
2764.7     15.26      9.3        14.39      10.84      14.11      12.83      13.58      12.68      13.36      12.62      0          327.95     -295       -1846      0          34420.39  
2764.8     15.1       9.14       14.31      10.76      14.02      12.74      13.5       12.6       13.32      12.58      0          327.03     -295       -1846      0          34420.2   
2764.9     14.91      8.95       14.2       10.65      13.93      12.65      13.44      12.54      13.28      12.54      0          326.36     -295       -1826      0          34419.98  
2765       14.82      8.86       14.14      10.59      13.88      12.6       13.39      12.49      13.26      12.52      0          326.3      -295       -1803      0          34419.78  
2765.1     14.86      8.9        14.17      10.62      13.89      12.61      13.38      12.48      13.25      12.51      0          326.58     -295       -1796      0          34419.61  
2765.2     14.93      8.97       14.2       10.65      13.9       12.62      13.37      12.47      13.23      12.49      0          326.99     -295       -1797      0          34419.41  
2765.3     14.89      8.93       14.14      10.59      13.88      12.6       13.35      12.45      13.19      12.45      0          327.51     -295       -1799      0          34419.2   
2765.4     14.85      8.89       14.06      10.51      13.83      12.55      13.29      12.39      13.12      12.38      0          327.44     -295       -1801      0          34419.03  
2765.5     14.76      8.8        13.97      10.42      13.74      12.46      13.21      12.31      13.02      12.28      0          326.91     -295       -1804      0          34418.84  
2765.6     14.61      8.65       13.83      10.28      13.61      12.33      13.1       12.2       12.91      12.17      0          325.93     -295       -1808      0          34418.62  
2765.7     14.42      8.46       13.67      10.12      13.47      12.19      12.96      12.06      12.78      12.04      0          325.03     -295       -1812      0          34418.44  
2765.8     14.22      8.26       13.53      9.98       13.28      12         12.76      11.86      12.62      11.88      0          324.1      -295       -1817      0          34418.25  
2765.9     14.05      8.09       13.41      9.86       13.12      11.84      12.58      11.68      12.47      11.73      0          323.52     -295       -1824      0          34418.04  
2766       13.92      7.96       13.26      9.71       12.98      11.7       12.41      11.51      12.31      11.57      0          323.64     -295       -1814      0          34417.84  
2766.1     13.81      7.85       13.11      9.56       12.82      11.54      12.19      11.29      12.13      11.39      0          324.12     -295       -1803      0          34417.64  
2766.2     13.64      7.68       12.92      9.37       12.59      11.31      11.97      11.07      11.89      11.15      0          324.65     -295       -1792      0          34417.45  
2766.3     13.39      7.43       12.6       9.05       12.32      11.04      11.71      10.81      11.65      10.91      0          324.89     -295       -1793      0          34417.23  
2766.4     13.04      7.08       12.27      8.72       11.99      10.71      11.42      10.52      11.4       10.66      0          324.85     -295       -1794      0          34417.04  
2766.5     12.58      6.62       11.87      8.32       11.57      10.29      11.05      10.15      11.12      10.38      0          324.86     -295       -1795      0          34416.83  
2766.6     12.13      6.17       11.43      7.88       11.16      9.88       10.73      9.83       10.89      10.15      0          325.07     -295       -1796      0          34416.63  
2766.7     11.62      5.66       10.97      7.42       10.76      9.48       10.45      9.55       10.72      9.98       0          325.87     -295       -1797      0          34416.44  
2766.8     11.22      5.26       10.63      7.08       10.48      9.2        10.24      9.34       10.61      9.87       0          327.19     -295       -1799      0          34416.25  
2766.9     10.98      5.02       10.44      6.89       10.36      9.08       10.19      9.29       10.59      9.85       0          329.41     -295       -1801      0          34416.05  
2767       11.01      5.05       10.44      6.89       10.41      9.13       10.29      9.39       10.67      9.93       0          331.65     -295       -1804      0          34415.84  
2767.1     11.13      5.17       10.6       7.05       10.6       9.32       10.52      9.62       10.86      10.12      0          333.36     -295       -1808      0          34415.65  
2767.2     11.61      5.65       10.98      7.43       10.99      9.71       10.85      9.95       11.17      10.43      0          334.22     -295       -1812      0          34415.46  
2767.3     12.39      6.43       11.73      8.18       11.52      10.24      11.27      10.37      11.5       10.76      0          333.16     -295       -1818      0          34415.25  
2767.4     13.37      7.41       12.53      8.98       12.16      10.88      11.73      10.83      11.87      11.13      0          331.3      -295       -1824      0          34415.06  
