~Version
 VERS              .         2.0                           : CWLS LOG ASCII STANDARD - VERSION 2.0
 WRAP              .         NO                            : ONE LINE PER DEPTH STEP
 DLM               .         SPACE                         : DELIMITING CHARACTER(SPACE TAB OR COMMA)
~Well Information
#_______________________________________________________________________________
#
#PARAMETER_NAME    .UNIT     VALUE                         : DESCRIPTION
#_______________________________________________________________________________
STRT               .M        2648.8                        : First reference value
STOP               .M        2753.600052                   : Last reference value
STEP               .M        0.2000001                     : Step increment
NULL               .         -9999                         : Missing value
COMP               .                                       : Company
WELL               .         616                           : Well name
FLD                .                                       : Field
LOC                .                                       : Location
CNTY               .                                       : County
STAT               .                                       : State
CTRY               .                                       : Country
SRVC               .                                       : Service Company
DATE               .                                       : Date
API                .                                       : API number
PROJECT_UPGRADE_TIME .         2021-03-18T21_24_50           : 
group              .         Good                          : 
~Parameter Information Block
#_______________________________________________________________________________
#
#PARAMETER_NAME    .UNIT     VALUE                         : DESCRIPTION
#_______________________________________________________________________________
SET                .         D7027_D                       : 
OTHER              .         Kedr.exe версия 2.1.2.32      : 
OTHER_10           .         TM.GRD = 0.00404*TM$.UE + 0.07: 
OTHER_11           .         MN.ATM = (6.33279e-006*TM.GRD + 0.02401)*(MN$.UE + 2.72*TM.GRD + -2018): 
OTHER_12           .         GK.MKR/H = GK$.UE / 43.5489 + 0: 
OTHER_13           .         RES.SM = 0.00476*CRES.UE - 1.51709: 
OTHER_14           .         PL.GSM3 = 0 + 0 * (PL.UE / 1) +  0 * (PL.UE / 1)^2: 
OTHER_15           .         Постоянная времени ГГП = 6 сек: 
OTHER_16           .         Постоянная времени ГК = 6 сек : 
OTHER_2            .         KedrData.dll версия 3.2.2.14  : 
OTHER_3            .         LasInf.dll версия 3.2.0.13    : 
OTHER_4            .         Драйвер версия 1.2.0.5        : 
OTHER_5            .         Прибор_ КСА-M1                : 
OTHER_6            .         Номер прибора_ 155+р204       : 
OTHER_7            .         Режим_ КСА-М1 + ГГП + Резистивиметр: 
OTHER_8            .         Форма_ 223\2                  : 
OTHER_9            .         Тарировки_                    : 
PROJECT_UPGRADE_TIME .         2021-03-18T21_24_50           : 
TLFamily_CRES      .                                       : 
TLFamily_DEPT      .         Measured Depth                : 
TLFamily_GK        .         Gamma Ray                     : 
TLFamily_GK$       .                                       : 
TLFamily_LM        .         Casing Collar locator         : 
TLFamily_METKA     .                                       : 
TLFamily_MN        .                                       : 
TLFamily_MN$       .                                       : 
TLFamily_PL        .                                       : 
TLFamily_PL_2      .                                       : 
TLFamily_RCOR      .                                       : 
TLFamily_RES       .         Mud Resistivity               : 
TLFamily_SPID      .         Spontaneous Potential         : 
TLFamily_STD       .                                       : 
TLFamily_TIME      .         Time                          : 
TLFamily_TM        .         Temperature                   : 
TLFamily_TM$       .         Temperature                   : 
TLFamily_VGD       .         Gas Volume                    : 
group              .         prim                          : 
~Curve Information
#_______________________________________________________________________________
#
#LOGNAME           .UNIT     LOG_ID                        : DESCRIPTION
#_______________________________________________________________________________
DEPT               .M                                      : 1 Глубина, м -    0.0 см 
CRES               .UE                                     : 9 Проводимость, усл.ед. -  222.0 см 
GK                 .MKR/H                                  : 16 Гамма-активность, мкр./ч -  106.0 см 
GK$                .UE                                     : 13 Гамма-активность, усл.ед. -  106.0 см 
LM                 .                                       : 11 Локатор муфт,  -   16.0 см 
METKA              .                                       : 3 Метки,  -    0.0 см 
MN                 .ATM                                    : 15 Давление, атм. -  160.0 см 
MN$                .UE                                     : 7 Давление, усл.ед. -  160.0 см 
PL                 .UE                                     : 10 Плотность, усл.ед. -  270.0 см 
PL_2               .GSM3                                   : 18 Плотность, г./см3 -  270.0 см 
RCOR               .CM/KM                                  : 5 Коррекция по ролику, см/км -    0.0 см 
RES                .SM                                     : 17 Проводимость,  -  222.0 см 
SPID               .M/H                                    : 2 Скорость, м/час -    0.0 см 
STD                .                                       : 12 Приток,  -  170.0 см 
TIME               .S                                      : 4 Время, сек -    0.0 см 
TM                 .GRD                                    : 14 Температура, °C -  180.0 см 
TM$                .UE                                     : 6 Температура, усл.ед. -  180.0 см 
VGD                .                                       : 8 Влагомер,  -  170.0 см 
~Ascii
# ...
2722.600037 1217       7.33       326        82         0          250.653    12177      14         0          0          4.2735     580        10098      18480.4    51.584     12751      6612      
2722.800037 1218       7.41       326        142        0          250.678    12178      14         0          0          4.2806     580        10101      18481.73   51.603     12756      6608      
2723.000037 1218       7.45       326        108        0          250.703    12179      14         0          0          4.2806     580        10103      18483.05   51.608     12757      6613      
2723.200037 1218       7.71       371        148        0          250.725    12180      14         0          0          4.2806     510        10105      18484.31   51.608     12757      6613      
2723.400037 1217       8.12       371        71         0          250.748    12181      14         0          0          4.2774     580        10105      18485.56   51.594     12753      6612      
2723.600037 1218       8.33       373        46         0          250.77     12182      13         0          0          4.2806     510        10106      18486.88   51.581     12750      6614      
2723.800038 1218       8.45       373        63         0          250.776    12182      14         0          0          4.2798     580        10106      18488.17   51.564     12746      6615      
2724.000038 1217       8.24       344        152        0          250.806    12184      14         0          0          4.2758     450        10105      18489.6    51.549     12742      6615      
2724.200038 1216       8.07       344        171        0          250.811    12184      14         0          0          4.2727     580        10107      18490.89   51.529     12737      6615      
2724.400038 1216       8.24       378        69         0          250.832    12185      14         0          0          4.2711     510        10103      18492.16   51.505     12731      6616      
2724.600038 1217       8.46       378        264        0          250.853    12186      14         0          0          4.2742     580        10100      18493.42   51.482     12726      6614      
2724.800038 1214       8.77       400        153        0          250.872    12187      14         0          0          4.2615     580        10097      18494.74   51.453     12718      6615      
2725.000038 1216       8.98       400        85         0          250.868    12187      14         0          0          4.2711     580        10091      18496.06   51.417     12710      6616      
2725.200038 1216       8.86       380        52         0          250.911    12189      14         0          0          4.2711     580        10082      18497.31   51.387     12702      6616      
2725.400038 1216       8.79       380        93         0          250.916    12189      14         0          0          4.269      568        10072      18498.64   51.344     12691      6614      
2725.600038 1215       8.58       362        4430       0          250.949    12191      14         0          0          4.2663     580        10064      18499.91   51.3       12681      6613      
2725.800039 1215       8.45       362        6118       0          250.942    12191      14         0          0          4.2663     580        10057      18501.24   51.257     12670      6614      
2726.000039 1214       7.96       325        1496       0          250.96     12192      14         0          0          4.2615     557        10049      18502.56   51.205     12657      6614      
2726.200039 1213       7.71       322        243        0          250.975    12193      14         0          0          4.2587     520        10037      18503.82   51.156     12645      6612      
2726.400039 1213       7.53       320        97         0          250.99     12194      14         0          0          4.2568     522        10025      18505.14   51.087     12628      6612      
2726.600039 1212       7.52       336        78         0          251.006    12195      14         0          0          4.2528     580        10012      18506.44   51.018     12611      6614      
2726.800039 1212       7.61       336        48         0          251.01     12196      14         0          0          4.252      533        10000      18507.71   50.955     12595      6615      
2727.000039 1210       7.68       339        40         0          251.015    12196      14         0          0          4.2441     580        9989       18509.03   50.889     12579      6614      
2727.200039 1209       7.74       340        60         0          251.03     12197      14         0          0          4.2378     580        9981       18510.29   50.835     12565      6613      
2727.400039 1209       7.93       371        56         0          251.049    12198      14         0          0          4.237      545        9970       18511.61   50.764     12548      6613      
2727.600039 1206       8.22       371        49         0          251.059    12199      14         0          0          4.2235     580        9958       18512.88   50.667     12524      6613      
2727.80004 1206       8.53       396        56         0          251.075    12200      14         0          0          4.2221     580        9946       18514.19   50.618     12512      6614      
2728.00004 1205       8.81       396        48         0          251.091    12201      14         0          0          4.2187     533        9935       18515.51   50.549     12495      6615      
2728.20004 1204       9          407        58         0          251.106    12202      14         0          0          4.214      580        9920       18516.76   50.493     12481      6614      
2728.40004 1202       9.17       407        52         0          251.098    12202      14         0          0          4.2065     524        9904       18518.08   50.422     12463      6615      
2728.60004 1201       8.98       369        71         0          251.11     12203      14         0          0          4.1997     580        9889       18519.34   50.357     12447      6615      
2728.80004 1200       8.74       369        72         0          251.147    12205      14         0          0          4.1949     533        9874       18520.66   50.263     12424      6614      
2729.00004 1200       8.53       360        68         0          251.149    12206      14         0          0          4.1949     538        9859       18521.95   50.177     12403      6616      
2729.20004 1199       8.4        360        73         0          251.151    12206      14         0          0          4.1901     580        9841       18523.24   50.097     12383      6616      
2729.40004 1199       8.82       431        61         0          251.162    12207      14         0          0          4.1901     580        9825       18524.55   50.018     12363      6617      
2729.60004 1199       9.37       431        47         0          251.176    12208      14         0          0          4.1893     556        9807       18525.82   49.92      12339      6617      
2729.800041 1198       10.35      514        64         0          251.189    12209      14         0          0          4.1854     580        9791       18527.1    49.843     12320      6616      
2730.000041 1197       11.06      514        45         0          251.203    12210      14         0          0          4.1822     580        9775       18528.39   49.758     12299      6611      
2730.200041 1197       12.1       580        51         1          251.217    12211      14         0          0          4.1806     568        9757       18530.37   49.679     12279      6609      
2730.400041 1196       12.71      580        83         0          251.232    12212      14         0          0          4.1767     520        9742       18531.67   49.596     12259      6610      
2730.600041 1197       13.48      634        82         0          251.239    12213      14         0          0          4.1787     580        9728       18532.96   49.529     12242      6610      
