~Version
 VERS              .         2.0                           : CWLS LOG ASCII STANDARD - VERSION 2.0
 WRAP              .         NO                            : ONE LINE PER DEPTH STEP
 DLM               .         SPACE                         : DELIMITING CHARACTER(SPACE TAB OR COMMA)
~Well Information
#_______________________________________________________________________________
#
#PARAMETER_NAME    .UNIT     VALUE                         : DESCRIPTION
#_______________________________________________________________________________
STRT               .M        10.2                          : First reference value
STOP               .M        2774.8                        : Last reference value
STEP               .M        0.2                           : Step increment
NULL               .         -9999                         : Missing value
COMP               .                                       : Company
WELL               .         616                           : Well name
FLD                .                                       : Field
LOC                .                                       : Location
CNTY               .                                       : County
STAT               .                                       : State
CTRY               .                                       : Country
SRVC               .                                       : Service Company
DATE               .                                       : Date
API                .                                       : API number
PROJECT_UPGRADE_TIME .         2021-03-18T21_24_50           : 
group              .         Good                          : 
~Parameter Information Block
#_______________________________________________________________________________
#
#PARAMETER_NAME    .UNIT     VALUE                         : DESCRIPTION
#_______________________________________________________________________________
SET                .         D1813_D_2                     : 
NPR                .                                       : 
OTHER              .         Программное обеспечение станции MONITOR-386EX 25/12/99 15_08_10   BGF V52 22/08/01 16_56_30   3.1_SNGF___BGF_N_092049: 
OTHER_10           .         Тарировки_                    : 
OTHER_11           .         TM.GRD = 0.00403*TM$.UE + -1.07: 
OTHER_12           .         MN.ATM = (9.34907e-006*TM.GRD + 0.02171)*(MN$.UE + -7.93*TM.GRD + -1787): 
OTHER_13           .         GK.MKR/H = LM. / 42.4676      : 
OTHER_14           .         GK.FLT = 0.1*GK.MKR/H[-1] + (1-0.1)*GK.MKR/H[0]: 
OTHER_2            .         Kedr.exe версия 3.4.2.51      : 
OTHER_3            .         KedrData.dll версия 3.4.2.24  : 
OTHER_4            .         Драйвер версия 2.1.1.3        : 
OTHER_5            .         Мнемоники версия 3.3 S        : 
OTHER_6            .         Прибор_ КСА-Т4                : 
OTHER_7            .         Номер прибора_ 03             : 
OTHER_8            .         Режим_ КСА-Т4                 : 
OTHER_9            .         Форма_ КВА.                   : 
PR                 .                                       : 
PROJECT_UPGRADE_TIME .         2021-03-18T21_24_49           : 
PRTY               .         ПП-603-1                      : N партии
SRV                .                                       : 
SRVC               .         Карпов                        : Начальник партии
TLFamily_DEPT      .         Measured Depth                : 
TLFamily_LM        .         Casing Collar locator         : 
TLFamily_MN        .                                       : 
TLFamily_TM        .         Temperature                   : 
group              .         second                        : 
~Curve Information
#_______________________________________________________________________________
#
#LOGNAME           .UNIT     LOG_ID                        : DESCRIPTION
#_______________________________________________________________________________
DEPT               .M                                      : Depth curve 
LM                 .е.ацп                                  : Локатор муфт,е.ацп 
MN                 .атм                                    : Манометрия, атм 
TM                 .град.C                                 : Термограмма по стволу скважины,град.C 
~Ascii
# ...
2194.2     340.006    197.801    55.971    
2194.4     374.002    197.826    55.974    
2194.6     387.003    197.859    55.975    
2194.8     402.996    197.878    55.977    
2195       379        197.896    55.98     
2195.2     379.009    197.915    55.983    
2195.4     435        197.932    55.983    
2195.6     432.002    197.95     55.986    
2195.8     444.998    197.973    55.99     
2196       432.008    198.012    55.991    
2196.2     480.999    198.029    55.993    
2196.4     472        198.047    55.996    
2196.6     471.996    198.065    55.999    
2196.8     447        198.084    55.999    
2197       445        198.108    56.002    
2197.2     442.002    198.143    56.005    
2197.4     456.998    198.143    56.007    
2197.6     445        198.174    56.008    
2197.8     444.995    198.199    56.011    
2198       417.002    198.218    56.015    
2198.2     428.997    198.231    56.015    
2198.4     413.003    198.232    56.018    
2198.6     434        198.249    56.021    
2198.8     433        198.269    56.023    
2199       433        198.288    56.024    
2199.2     431.999    198.306    56.027    
2199.4     423.017    198.324    56.03     
2199.6     525.024    198.343    56.031    
2199.8     673.047    198.36     56.033    
2200       965.087    198.38     56.035    
2200.2     1501       198.399    56.036    
2200.4     1500.848   198.417    56.039    
2200.6     566.973    198.441    56.039    
2200.8     398.001    198.473    56.042    
2201       402.007    198.477    56.046    
2201.2     445.007    198.494    56.047    
2201.4     490        198.513    56.047    
2201.6     490.008    198.545    56.048    
2201.8     541.006    198.572    56.051    
2202       579.007    198.599    56.055    
2202.2     624.018    198.631    56.058    
2202.4     733.025    198.649    56.059    
2202.6     888        198.669    56.059    
2202.8     888.014    198.686    56.062    
2203       977.027    198.705    56.067    
2203.2     1141.955   198.724    56.067    
2203.4     865.031    198.743    56.071    
2203.6     1053.057   198.76     56.071    
2203.8     1402.067   198.779    56.073    
2204       1815       198.798    56.077    
2204.2     1815.165   198.816    56.079    
2204.4     2832.254   198.834    56.079    
2204.6     4397.268   198.852    56.083    
2204.8     6047.207   198.871    56.086    
2205       1173       198.89     56.087    
2205.2     1173.007   198.908    56.087    
2205.4     1215.082   198.927    56.089    
2205.6     1722.089   198.945    56.096    
2205.8     2269.993   198.962    56.096    
2206       2226.021   198.982    56.098    
2206.2     2356.88    199        56.1      
2206.4     1621       199.019    56.101    
2206.6     1620.829   199.05     56.104    
2206.8     566.991    199.077    56.108    
2207       513.99     199.095    56.108    
2207.2     453.991    199.113    56.11     
2207.4     396.998    199.133    56.112    
2207.6     385        199.149    56.114    
2207.8     384.999    199.168    56.12     
2208       377.002    199.187    56.12     
2208.2     388.006    199.211    56.12     
2208.4     423.016    199.244    56.123    
2208.6     521.01     199.243    56.126    
2208.8     580        199.261    56.128    
2209       580.022    199.28     56.129    
2209.2     712.038    199.298    56.132    
2209.4     948.067    199.316    56.135    
2209.6     1358.865   199.335    56.136    
2209.8     529.006    199.354    56.138    
2210       567.018    199.372    56.142    
2210.2     679        199.39     56.144    
2210.4     678.989    199.409    56.144    
2210.6     608.974    199.428    56.144    
2210.8     447.006    199.446    56.15     
2211       485.002    199.468    56.152    
2211.2     495        199.486    56.154    
2211.4     497.998    199.505    56.158    
2211.6     485        199.522    56.16     
2211.8     484.993    199.541    56.16     
2212       440.01     199.56     56.164    
2212.2     499.015    199.579    56.164    
2212.4     590.994    199.596    56.167    
2212.6     555.007    199.616    56.168    
2212.8     600        199.635    56.169    
2213       600.013    199.653    56.173    
2213.2     681.992    199.672    56.176    
2213.4     633.024    199.69     56.176    
2213.6     781.98     199.707    56.179    
2213.8     659.009    199.727    56.18     
2214       713        199.763    56.182    
2214.2     713.024    199.786    56.184    
2214.4     861.018    199.805    56.185    
2214.6     970.059    199.823    56.188    
2214.8     1334.108   199.841    56.191    
2215       1993.172   199.86     56.195    
2215.2     3045.281   199.879    56.196    
2215.4     4767       199.897    56.197    
2215.6     4767.415   199.915    56.2      
2215.8     7308.911   199.935    56.2      
2216       646.004    199.953    56.204    
2216.2     672.004    199.973    56.207    
2216.4     697        200.01     56.21     
2216.6     697.027    200.03     56.212    
2216.8     862.04     200.048    56.213    
2217       1107.063   200.067    56.216    
2217.2     1491.833   200.066    56.216    
2217.4     473.015    200.022    56.219    
2217.6     564        200.111    56.222    
2217.8     564.001    200.14     56.225    
2218       570.995    200.158    56.225    
2218.2     543.007    200.176    56.228    
2218.4     582.996    200.196    56.229    
2218.6     557.006    200.215    56.231    
2218.8     592        200.233    56.233    
2219       592.024    200.251    56.234    
2219.2     740.998    200.269    56.237    
2219.4     727.01     200.288    56.241    
2219.6     786.991    200.307    56.241    
2219.8     728.982    200.324    56.246    
2220       619.014    200.342    56.249    
2220.2     704.019    200.38     56.249    
2220.4     822        200.388    56.25     
2220.6     822.006    200.398    56.253    
2220.8     858.973    200.428    56.256    
2221       696.998    200.462    56.257    
2221.2     684.004    200.48     56.26     
2221.4     706.006    200.499    56.263    
2221.6     740.995    200.518    56.265    
2221.8     710        200.535    56.266    
2222       709.989    200.554    56.269    
2222.2     642.995    200.573    56.273    
2222.4     612.003    200.591    56.273    
2222.6     632.994    200.61     56.275    
2222.8     597.01     200.629    56.277    
2223       658        200.646    56.278    
2223.2     657.999    200.665    56.281    
2223.4     651.004    200.684    56.281    
2223.6     677.998    200.701    56.284    
2223.8     665.993    200.723    56.285    
2224       621.009    200.761    56.287    
2224.2     678        200.78     56.289    
2224.4     677.995    200.798    56.29     
2224.6     649.991    200.818    56.293    
2224.8     594.008    200.836    56.293    
2225       645.023    200.854    56.296    
2225.2     785.05     200.873    56.299    
2225.4     1087       200.891    56.301    
2225.6     1087.079   200.909    56.302    
2225.8     1570.914   200.928    56.305    
2226       1045.047   200.947    56.309    
2226.2     1331.12    200.964    56.309    
2226.4     2063.193   200.984    56.312    
2226.6     3236       201.002    56.313    
2226.8     3236.307   201.02     56.314    
2227       5103.213   201.04     56.317    
2227.2     312.002    201.058    56.317    
2227.4     321.992    201.076    56.32     
2227.6     272.006    201.097    56.324    
2227.8     310        201.132    56.325    
2228       309.997    201.153    56.326    
2228.2     293.998    201.171    56.33     
2228.4     284.008    201.19     56.333    
2228.6     330.007    201.209    56.333    
2228.8     370.001    201.225    56.336    
2229       377        201.245    56.337    
2229.2     376.996    201.264    56.339    
2229.4     350.996    201.282    56.341    
2229.6     326.003    201.301    56.341    
2229.8     346        201.32     56.345    
2230       348.998    201.336    56.345    
2230.2     334.996    201.335    56.347    
2230.4     308.999    201.372    56.351    
