~Version
 VERS              .         2.0                           : CWLS LOG ASCII STANDARD - VERSION 2.0
 WRAP              .         NO                            : ONE LINE PER DEPTH STEP
 DLM               .         SPACE                         : DELIMITING CHARACTER(SPACE TAB OR COMMA)
~Well Information
#_______________________________________________________________________________
#
#PARAMETER_NAME    .UNIT     VALUE                         : DESCRIPTION
#_______________________________________________________________________________
STRT               .M        47.8                          : First reference value
STOP               .M        2693.8                        : Last reference value
STEP               .M        0.2                           : Step increment
NULL               .         -9999                         : Missing value
COMP               .                                       : Company
WELL               .         616                           : Well name
FLD                .                                       : Field
LOC                .                                       : Location
CNTY               .                                       : County
STAT               .                                       : State
CTRY               .                                       : Country
SRVC               .                                       : Service Company
DATE               .                                       : Date
API                .                                       : API number
PROJECT_UPGRADE_TIME .         2021-03-18T21_24_50           : 
group              .         Good                          : 
~Parameter Information Block
#_______________________________________________________________________________
#
#PARAMETER_NAME    .UNIT     VALUE                         : DESCRIPTION
#_______________________________________________________________________________
SET                .         D1172_D                       : 
OTHER              .         Программное обеспечение станции MONITOR-386EX 25/12/99 15_08_10   BGF V52 22/08/01 16_56_30   3.2_BGF_N_3070031: 
OTHER_10           .         Тарировки_                    : 
OTHER_11           .         TM.GRD = 0.00403*TM$.UE + -1.19: 
OTHER_12           .         MN.ATM = (7.1e-006*TM.GRD + 0.02017)*(MN$.UE + -3.03*TM.GRD + -1833): 
OTHER_13           .         Id error                      : 
OTHER_2            .         Kedr.exe версия 3.4.2.51      : 
OTHER_3            .         KedrData.dll версия 3.4.2.24  : 
OTHER_4            .         Драйвер версия 2.1.1.8        : 
OTHER_5            .         Мнемоники версия 3.3 S        : 
OTHER_6            .         Прибор_ КСА-М1                : 
OTHER_7            .         Номер прибора_ 265            : 
OTHER_8            .         Режим_ КСА-М1                 : 
OTHER_9            .         Форма_ ТЕРМОМЕТР              : 
PROJECT_UPGRADE_TIME .         2021-03-18T21_24_49           : 
TLFamily_DEPT      .         Measured Depth                : 
TLFamily_GK        .         Gamma Ray                     : 
TLFamily_GK$       .                                       : 
TLFamily_LM        .         Casing Collar locator         : 
TLFamily_METKA     .                                       : 
TLFamily_MN        .                                       : 
TLFamily_MN$       .                                       : 
TLFamily_RCOR      .                                       : 
TLFamily_SPID      .         Spontaneous Potential         : 
TLFamily_STD       .                                       : 
TLFamily_TENS      .         Cable Tension                 : 
TLFamily_TIME      .         Time                          : 
TLFamily_TM        .         Temperature                   : 
TLFamily_TM$       .         Temperature                   : 
TLFamily_VGD       .         Gas Volume                    : 
group              .         prim                          : 
~Curve Information
#_______________________________________________________________________________
#
#LOGNAME           .UNIT     LOG_ID                        : DESCRIPTION
#_______________________________________________________________________________
DEPT               .M                                      : 1 Глубина, м -    0.0 см 
GK                 .MKR/H                                  : 15 Гамма-активность, мкр./ч -  110.0 см 
GK$                .UE                                     : 12 Гамма-активность, усл.ед. -  110.0 см 
LM                 .                                       : 10 Локатор муфт,  -   20.0 см 
METKA              .                                       : 3 Метки,  -    0.0 см 
MN                 .ATM                                    : 14 Давление, атм. -  160.0 см 
MN$                .UE                                     : 8 Давление, усл.ед. -  160.0 см 
RCOR               .CM/KM                                  : 5 Коррекция по ролику, см/км -    0.0 см 
SPID               .M/H                                    : 2 Скорость, м/час -    0.0 см 
STD                .                                       : 11 Приток,  -  170.0 см 
TENS               .T                                      : 6 Натяжение кабеля, т -    0.0 см 
TIME               .S                                      : 4 Время, сек -    0.0 см 
TM                 .GRD                                    : 13 Температура, °C -  180.0 см 
TM$                .UE                                     : 7 Температура, усл.ед. -  180.0 см 
VGD                .                                       : 9 Влагомер,  -  170.0 см 
~Ascii
# ...
1449.2     8.77       364        1          0          133.826    8502       -1400      -1949      15283      0          31597.28   46.76      11898      6562      
1449.4     8.88       364        1          0          133.843    8503       -1400      -1946      15286      0          31596.92   46.764     11899      6562      
1449.6     9.04       369        1          0          133.881    8505       -1400      -1944      15289      0          31596.57   46.771     11901      6562      
1449.8     9.26       398        1          0          133.884    8505       -1400      -1946      15291      0          31596.21   46.775     11902      6561      
1450       9.24       398        1          2          133.898    8506       -1400      -1949      15293      0          31595.84   46.782     11904      6561      
1450.2     9.2        398        1          0          133.917    8507       -1400      -1952      15296      0          31595.39   46.786     11905      6561      
1450.4     9.15       398        1          0          133.936    8508       -1400      -1956      15299      0          31595      46.792     11906      6561      
1450.6     9.07       398        1          0          133.954    8508       -1400      -1959      15302      0          31594.63   46.799     11908      6561      
1450.8     8.97       398        1          0          133.973    8509       -1400      -1957      15307      0          31594.3    46.805     11909      6561      
1451       8.81       386        1          0          133.991    8510       -1400      -1960      15309      0          31593.93   46.81      11911      6561      
1451.2     8.69       375        1          0          134.009    8511       -1400      -1960      15313      0          31593.54   46.817     11913      6561      
1451.4     8.64       375        1          0          134.028    8512       -1400      -1958      15315      0          31593.16   46.825     11914      6561      
1451.6     8.57       375        1          0          134.046    8513       -1400      -1959      15317      0          31592.8    46.832     11916      6560      
1451.8     8.48       375        1          0          134.07     8514       -1400      -1960      15321      0          31592.43   46.839     11918      6560      
1452       8.36       375        1          0          134.09     8515       -1400      -1958      15324      0          31592.07   46.848     11920      6560      
1452.2     8.16       367        1          0          134.109    8516       -1400      -1957      15327      0          31591.72   46.852     11921      6560      
1452.4     7.94       341        1          0          134.143    8518       -1400      -1960      15329      0          31591.34   46.86      11923      6560      
1452.6     7.93       341        1          0          134.149    8518       -1400      -1958      15331      0          31590.96   46.866     11925      6560      
1452.8     7.9        341        1          0          134.164    8519       -1400      -1956      15332      0          31590.6    46.871     11926      6561      
1453       7.87       341        1          0          134.183    8520       -1400      -1960      15333      0          31590.23   46.878     11927      6561      
1453.2     7.82       341        1          0          134.202    8521       -1400      -1964      15335      0          31589.88   46.883     11929      6560      
1453.4     7.75       341        1          0          134.221    8522       -1400      -1956      15337      0          31589.52   46.889     11930      6560      
1453.6     7.64       330        1          0          134.239    8522       -1400      -1947      15339      0          31589.15   46.896     11932      6561      
1453.8     7.59       326        1          0          134.257    8523       -1400      -1946      15342      0          31588.76   46.9       11933      6561      
1454       7.58       326        1          0          134.277    8524       -1400      -1944      15343      0          31588.39   46.902     11934      6560      
1454.2     7.56       326        1          0          134.296    8525       -1400      -1941      15344      0          31588.01   46.91      11935      6561      
1454.4     7.53       326        1          0          134.314    8526       -1400      -1943      15346      0          31587.66   46.918     11937      6560      
1454.6     7.49       326        1          0          134.334    8527       -1400      -1946      15348      0          31587.32   46.925     11939      6561      
1454.8     7.42       326        1          0          134.352    8528       -1400      -1945      15349      0          31586.94   46.932     11941      6561      
1455       7.32       322        1          0          134.37     8529       -1400      -1947      15350      0          31586.57   46.936     11942      6560      
1455.2     7.2        306        1          0          134.374    8529       -1400      -1948      15354      0          31586.19   46.946     11944      6561      
1455.4     7.22       306        1          0          134.402    8530       -1400      -1939      15357      0          31585.81   46.951     11946      6561      
1455.6     7.25       306        1          0          134.414    8531       -1400      -1940      15361      0          31585.45   46.958     11947      6561      
1455.8     7.29       306        1          0          134.438    8532       -1400      -1942      15364      0          31585.11   46.966     11949      6560      
1456       7.36       306        1          0          134.455    8533       -1400      -1945      15368      0          31584.73   46.973     11951      6561      
1456.2     7.45       306        1          0          134.462    8533       -1400      -1942      15372      0          31584.37   46.978     11952      6561      
1456.4     7.6        318        24         0          134.487    8535       -1400      -1943      15375      0          31583.99   46.983     11954      6561      
1456.6     7.68       325        55         0          134.516    8536       -1400      -1945      15379      0          31583.61   46.991     11956      6561      
1456.8     7.72       325        103        0          134.519    8536       -1400      -1945      15381      0          31583.25   46.997     11957      6561      
1457       7.77       325        103        0          134.539    8537       -1400      -1944      15384      0          31582.9    47         11958      6560      
1457.2     7.85       325        176        0          134.557    8538       -1400      -1946      15387      0          31582.53   46.998     11957      6560      
1457.4     7.96       325        290        0          134.575    8539       -1400      -1947      15389      0          31582.17   47.013     11961      6560      
1457.6     8.13       329        464        0          134.594    8540       -1400      -1944      15391      0          31581.79   47.02      11963      6561      
1457.8     8.35       356        725        0          134.598    8540       -1400      -1941      15394      0          31581.43   47.024     11964      6560      
1458       8.35       356        1133       0          134.611    8541       -1400      -1943      15397      0          31581.08   47.031     11965      6560      
1458.2     8.37       356        1782       0          134.631    8542       -1400      -1945      15399      0          31580.68   47.038     11967      6561      
1458.4     8.39       356        2790       0          134.649    8543       -1400      -1942      15400      0          31580.31   47.044     11969      6560      
1458.6     8.41       356        4372       0          134.667    8543       -1400      -1943      15403      0          31579.94   47.047     11970      6560      
1458.8     8.45       356        2591       0          134.686    8544       -1400      -1946      15405      0          31579.59   47.052     11971      6561      
