~Version
 VERS              .         2.0                           : CWLS LOG ASCII STANDARD - VERSION 2.0
 WRAP              .         NO                            : ONE LINE PER DEPTH STEP
 DLM               .         SPACE                         : DELIMITING CHARACTER(SPACE TAB OR COMMA)
~Well Information
#_______________________________________________________________________________
#
#PARAMETER_NAME    .UNIT     VALUE                         : DESCRIPTION
#_______________________________________________________________________________
STRT               .M        10.2                          : First reference value
STOP               .M        2757.4                        : Last reference value
STEP               .M        0.2                           : Step increment
NULL               .         -9999                         : Missing value
COMP               .                                       : Company
WELL               .         616                           : Well name
FLD                .                                       : Field
LOC                .                                       : Location
CNTY               .                                       : County
STAT               .                                       : State
CTRY               .                                       : Country
SRVC               .                                       : Service Company
DATE               .                                       : Date
API                .                                       : API number
PROJECT_UPGRADE_TIME .         2021-03-18T21_24_50           : 
group              .         Good                          : 
~Parameter Information Block
#_______________________________________________________________________________
#
#PARAMETER_NAME    .UNIT     VALUE                         : DESCRIPTION
#_______________________________________________________________________________
SET                .         D7016_D                       : 
OTHER              .         Kedr.exe версия 2.1.2.32      : 
OTHER_10           .         TM.GRD = 0.00404*TM$.UE + 0.07: 
OTHER_11           .         MN.ATM = (6.33279e-006*TM.GRD + 0.02401)*(MN$.UE + 2.72*TM.GRD + -2018): 
OTHER_12           .         GK.MKR/H = GK$.UE / 43.5489 + 0: 
OTHER_13           .         RES.SM = 0.00476*CRES.UE - 1.51709: 
OTHER_14           .         PL.GSM3 = 0 + 0 * (PL.UE / 1) +  0 * (PL.UE / 1)^2: 
OTHER_15           .         Постоянная времени ГГП = 6 сек: 
OTHER_16           .         Постоянная времени ГК = 6 сек : 
OTHER_2            .         KedrData.dll версия 3.2.2.14  : 
OTHER_3            .         LasInf.dll версия 3.2.0.13    : 
OTHER_4            .         Драйвер версия 1.2.0.5        : 
OTHER_5            .         Прибор_ КСА-M1                : 
OTHER_6            .         Номер прибора_ 155+р204       : 
OTHER_7            .         Режим_ КСА-М1 + ГГП + Резистивиметр: 
OTHER_8            .         Форма_ 223\2                  : 
OTHER_9            .         Тарировки_                    : 
PROJECT_UPGRADE_TIME .         2021-03-18T21_24_50           : 
TLFamily_CRES      .                                       : 
TLFamily_DEPT      .         Measured Depth                : 
TLFamily_GK        .         Gamma Ray                     : 
TLFamily_GK$       .                                       : 
TLFamily_LM        .         Casing Collar locator         : 
TLFamily_METKA     .                                       : 
TLFamily_MN        .                                       : 
TLFamily_MN$       .                                       : 
TLFamily_PL        .                                       : 
TLFamily_PL_2      .                                       : 
TLFamily_RCOR      .                                       : 
TLFamily_RES       .         Mud Resistivity               : 
TLFamily_SPID      .         Spontaneous Potential         : 
TLFamily_STD       .                                       : 
TLFamily_TIME      .         Time                          : 
TLFamily_TM        .         Temperature                   : 
TLFamily_TM$       .         Temperature                   : 
TLFamily_VGD       .         Gas Volume                    : 
group              .         prim                          : 
~Curve Information
#_______________________________________________________________________________
#
#LOGNAME           .UNIT     LOG_ID                        : DESCRIPTION
#_______________________________________________________________________________
DEPT               .M                                      : 1 Глубина, м -    0.0 см 
CRES               .UE                                     : 9 Проводимость, усл.ед. -  270.0 см 
GK                 .MKR/H                                  : 16 Гамма-активность, мкр./ч -  106.0 см 
GK$                .UE                                     : 13 Гамма-активность, усл.ед. -  106.0 см 
LM                 .                                       : 11 Локатор муфт,  -   16.0 см 
METKA              .                                       : 3 Метки,  -    0.0 см 
MN                 .ATM                                    : 15 Давление, атм. -  160.0 см 
MN$                .UE                                     : 7 Давление, усл.ед. -  160.0 см 
PL                 .UE                                     : 10 Плотность, усл.ед. -  270.0 см 
PL_2               .GSM3                                   : 18 Плотность, г./см3 -  270.0 см 
RCOR               .CM/KM                                  : 5 Коррекция по ролику, см/км -    0.0 см 
RES                .SM                                     : 17 Проводимость,  -  270.0 см 
SPID               .M/H                                    : 2 Скорость, м/час -    0.0 см 
STD                .                                       : 12 Приток,  -  170.0 см 
TIME               .S                                      : 4 Время, сек -    0.0 см 
TM                 .GRD                                    : 14 Температура, °C -  180.0 см 
TM$                .UE                                     : 6 Температура, усл.ед. -  180.0 см 
VGD                .                                       : 8 Влагомер,  -  170.0 см 
~Ascii
# ...
2568.6     1365       8.15       324        445        0          234.918    11516      14         0          0          4.9785     1660       10651      7233.82    54.461     13463      6687      
2568.8     1362       8          324        401        0          234.943    11517      14         0          0          4.966      1660       10651      7234.25    54.454     13461      6686      
2569       1362       7.88       324        399        0          234.952    11517      14         0          0          4.9675     1660       10648      7234.67    54.448     13460      6686      
2569.2     1364       7.79       324        492        0          234.988    11519      14         0          0          4.9755     1660       10647      7235.11    54.436     13457      6687      
2569.4     1364       7.72       324        546        0          234.998    11519      14         0          0          4.9755     1660       10645      7235.54    54.426     13454      6686      
2569.6     1363       7.66       324        475        0          235.022    11520      14         0          0          4.971      1660       10644      7235.98    54.42      13453      6687      
2569.8     1363       7.54       309        564        0          235.048    11521      14         0          0          4.9708     1660       10642      7236.4     54.412     13451      6685      
2570       1363       7.45       309        543        0          235.069    11522      14         0          0          4.9713     1600       10643      7236.88    54.408     13450      6686      
2570.2     1364       7.38       309        455        1          235.077    11522      14         0          0          4.9745     1600       10642      7237.49    54.402     13448      6686      
2570.4     1363       7.32       309        483        0          235.103    11523      14         0          0          4.9691     1647       10640      7237.92    54.394     13447      6687      
2570.6     1362       7.28       309        537        0          235.129    11525      14         0          0          4.966      1660       10641      7238.35    54.388     13445      6687      
2570.8     1361       7.36       336        753        0          235.154    11526      14         0          0          4.9634     1726       10638      7238.77    54.379     13443      6686      
2571       1361       7.5        352        602        0          235.161    11526      14         0          0          4.9613     1660       10635      7239.21    54.368     13440      6686      
2571.2     1361       7.67       352        621        0          235.18     11527      14         0          0          4.9613     1660       10632      7239.64    54.358     13438      6687      
2571.4     1361       7.75       352        723        0          235.204    11528      14         0          0          4.9613     1660       10629      7240.1     54.341     13433      6685      
2571.6     1361       7.82       352        821        0          235.228    11529      14         0          0          4.9613     1660       10625      7240.53    54.324     13429      6684      
2571.8     1359       7.87       350        746        0          235.244    11530      14         0          0          4.9528     1660       10621      7240.96    54.314     13427      6686      
2572       1361       7.9        349        774        0          235.27     11531      14         0          0          4.9613     1625       10617      7241.38    54.301     13424      6684      
2572.2     1361       7.92       349        796        0          235.296    11532      14         0          0          4.9613     1642       10615      7241.82    54.299     13423      6685      
2572.4     1361       7.94       349        696        0          235.298    11532      14         0          0          4.9613     1660       10613      7242.27    54.295     13422      6684      
2572.6     1361       7.96       349        672        0          235.323    11533      13         0          0          4.9613     1660       10609      7242.71    54.287     13420      6685      
2572.8     1361       7.97       349        638        0          235.348    11534      14         0          0          4.9613     1660       10608      7243.14    54.278     13418      6686      
2573       1361       7.99       352        751        0          235.367    11535      14         0          0          4.9592     1660       10606      7243.56    54.265     13415      6685      
2573.2     1360       8.06       362        790        0          235.376    11535      14         0          0          4.9549     1660       10602      7244       54.256     13412      6685      
2573.4     1361       8.11       362        899        0          235.402    11537      14         0          0          4.9593     1660       10600      7244.43    54.247     13410      6685      
2573.6     1360       8.15       362        656        0          235.426    11538      14         0          0          4.9565     1660       10598      7244.88    54.238     13408      6685      
2573.8     1360       8.19       362        507        0          235.452    11539      14         0          0          4.9565     1660       10596      7245.31    54.227     13405      6684      
2574       1360       8.21       362        483        0          235.458    11539      14         0          0          4.9565     1660       10594      7245.75    54.216     13403      6685      
2574.2     1360       8.36       391        548        0          235.481    11540      14         0          0          4.9565     1660       10592      7246.17    54.207     13400      6684      
2574.4     1360       8.51       395        467        0          235.507    11541      14         0          0          4.9565     1660       10590      7246.64    54.202     13399      6684      
2574.6     1359       8.62       395        472        0          235.528    11542      13         0          0          4.952      1660       10588      7247.06    54.193     13397      6684      
2574.8     1360       8.71       395        473        0          235.532    11542      14         0          0          4.9565     1656       10586      7247.48    54.181     13394      6684      
2575       1360       8.79       395        731        0          235.558    11543      14         0          0          4.9565     1613       10583      7247.93    54.172     13392      6686      
2575.2     1360       8.81       386        671        0          235.584    11544      14         0          0          4.9547     1660       10584      7248.38    54.163     13389      6685      
2575.4     1359       8.76       374        597        0          235.61     11546      14         0          0          4.9494     1660       10582      7248.81    54.152     13387      6686      
2575.6     1359       8.72       374        510        0          235.619    11546      14         0          0          4.9497     1660       10580      7249.23    54.141     13384      6685      
2575.8     1359       8.7        374        519        0          235.635    11547      14         0          0          4.9517     1660       10580      7249.67    54.129     13381      6685      
2576       1359       8.67       374        580        0          235.663    11548      14         0          0          4.9517     1660       10578      7250.1     54.116     13378      6686      
2576.2     1359       8.66       374        660        0          235.663    11548      14         0          0          4.9517     1660       10577      7250.54    54.106     13375      6685      
2576.4     1359       8.63       371        3396       0          235.688    11549      13         0          0          4.9517     1660       10576      7250.96    54.093     13372      6685      
2576.6     1359       8.51       350        4109       0          235.715    11550      14         0          0          4.9512     1660       10575      7251.41    54.084     13370      6685      
