~Version
 VERS              .         2.0                           : CWLS LOG ASCII STANDARD - VERSION 2.0
 WRAP              .         NO                            : ONE LINE PER DEPTH STEP
 DLM               .         SPACE                         : DELIMITING CHARACTER(SPACE TAB OR COMMA)
~Well Information
#_______________________________________________________________________________
#
#PARAMETER_NAME    .UNIT     VALUE                         : DESCRIPTION
#_______________________________________________________________________________
STRT               .M        749.69                        : First reference value
STOP               .M        1410.72                       : Last reference value
STEP               .M        0                             : Step increment
NULL               .         -9999                         : Missing value
COMP               .                                       : Company
WELL               .         616                           : Well name
FLD                .                                       : Field
LOC                .                                       : Location
CNTY               .                                       : County
STAT               .                                       : State
CTRY               .                                       : Country
SRVC               .                                       : Service Company
DATE               .                                       : Date
API                .                                       : API number
PROJECT_UPGRADE_TIME .         2021-03-18T21_24_50           : 
group              .         Good                          : 
~Parameter Information Block
#_______________________________________________________________________________
#
#PARAMETER_NAME    .UNIT     VALUE                         : DESCRIPTION
#_______________________________________________________________________________
SET                .         D0928                         : 
NPR                .         210404                        : ЗАВ НОМЕР ПРИБОРА
NPRT               .         Каштанов                      : НАЧ ПАРТИИ
PROJECT_UPGRADE_TIME .         2021-03-18T21_24_49           : 
TLFamily_AZIMUTH   .         True Dip Azimuth              : 
TLFamily_DEPTH     .         Measured Depth                : 
TLFamily_DRILL     .                                       : 
TLFamily_METKA     .                                       : 
TLFamily_ZENIT     .                                       : 
group              .         prim                          : 
~Curve Information
#_______________________________________________________________________________
#
#LOGNAME           .UNIT     LOG_ID                        : DESCRIPTION
#_______________________________________________________________________________
DEPTH              .M                                      : 1 ГЛУБИНА 
AZIMUTH            .ГРАД                                   : 4 АЗИМУТ 
DRILL              .ГРАД                                   : 2 ПОВОРОТ 
METKA              .                                       : 5 МАГН МЕТКА 
ZENIT              .ГРАД                                   : 3 ЗЕНИТ 
~Ascii
# ...
1186.97    330.68     144.76     0          33.15     
1187.15    331.64     145.77     0          33.13     
1187.33    331.55     146.97     0          33.16     
1187.51    330.63     148.38     0          33.16     
1187.69    329.74     149.93     0          33.22     
1187.88    329.22     151.7      0          33.24     
1188.06    329.71     153.78     0          33.28     
1188.24    329.76     156.19     0          33.3      
1188.42    330.6      158.94     0          33.32     
1188.61    330.51     162.06     0          33.34     
1188.79    332.06     165.31     0          33.35     
1188.97    332.24     168.42     0          33.36     
1189.15    333.51     171.31     0          33.35     
1189.33    334.41     173.77     0          33.31     
1189.51    334.99     175.62     0          33.35     
1189.7     337.49     176.59     0          33.36     
1189.88    338.35     176.6      0          33.39     
1190.06    340.71     175.75     0          33.41     
1190.24    342.37     174.06     0          33.41     
1190.43    343.99     171.42     0          33.41     
1190.61    345.16     167.89     0          33.43     
1190.79    346.19     163.86     0          33.41     
1190.97    347.15     160.2      0          33.4      
1191.15    346.8      157.39     0          33.39     
1191.34    347.26     155.28     0          33.4      
1191.52    347.15     153.44     0          33.38     
1191.7     348.32     151.8      0          33.37     
1191.88    347.66     150.13     0          33.39     
1192.07    348.95     148.2      0          33.39     
1192.25    349.12     145.58     0          33.42     
1192.43    350.38     141.95     0          33.42     
1192.61    350.34     137.73     0          33.46     
1192.79    349.84     133.27     0          33.45     
1192.98    350.01     128.77     0          33.47     
1193.16    351.06     124.56     0          33.46     
1193.34    353.01     120.63     0          33.49     
1193.52    353.85     117.11     0          33.49     
1193.7     355.69     114.21     0          33.47     
1193.89    354.44     112.22     0          33.46     
1194.07    354.91     111.32     0          33.43     
1194.25    354.46     111.6      0          33.45     
1194.43    355.14     112.82     0          33.43     
1194.61    355.63     114.7      0          33.45     
1194.8     353.98     117.18     0          33.46     
1194.98    355.81     119.97     0          33.43     
1195.16    354.9      122.81     0          33.39     
1195.34    357.34     125.5      0          33.37     
1195.53    359.54     127.99     0          33.34     
1195.71    2.12       130.38     0          33.34     
1195.89    4.44       132.57     0          33.34     
1196.07    5.49       134.49     0          33.32     
1196.25    5.96       136.09     0          33.33     
1196.44    5.07       137.28     0          33.35     
1196.62    5.67       138.07     0          33.36     
1196.8     4.09       138.55     0          33.37     
1196.98    5.39       138.87     0          33.37     
1197.16    4.05       139.12     0          33.4      
1197.35    3.93       139.45     0          33.37     
1197.53    2.97       139.86     0          33.36     
1197.71    2.74       140.28     0          33.35     
1197.89    3.1        140.67     0          33.34     
1198.07    1.8        141        0          33.33     
1198.26    2.74       141.24     0          33.31     
1198.44    3.31       141.43     0          33.3      
1198.62    3.72       141.62     0          33.27     
1198.8     1.81       141.87     0          33.22     
1198.98    1.71       142.34     0          33.19     
1199.17    0.12       143.21     0          33.18     
1199.35    2.05       144.26     0          33.2      
1199.53    1.56       145.32     0          33.19     
1199.71    0.97       146.44     0          33.2      
1199.9     1.12       147.71     0          33.19     
1200.08    0.55       149.22     0          33.2      
1200.26    3.43       151.01     0          33.24     
1200.44    2.81       153.08     0          33.26     
1200.62    3.77       155.45     0          33.32     
1200.81    2.96       158.17     0          33.32     
1200.99    1.4        161.13     0          33.33     
1201.17    359.16     164.05     0          33.31     
1201.35    357.54     166.69     0          33.27     
1201.54    357.7      168.62     0          33.25     
1201.72    357.16     169.55     0          33.26     
1201.9     358.56     169.38     0          33.27     
1202.08    358.68     168.4      0          33.29     
1202.26    2.11       166.75     0          33.3      
1202.45    0.06       164.5      0          33.34     
1202.63    359.61     161.73     0          33.32     
1202.81    0.09       158.53     0          33.37     
1202.99    359.38     155.05     0          33.36     
1203.17    1.5        151.52     0          33.36     
1203.36    358.28     148.25     0          33.36     
1203.54    357.53     145.42     0          33.36     
1203.72    356.62     143.09     0          33.36     
1203.9     356.9      141.14     0          33.35     
1204.09    355.44     139.36     0          33.37     
1204.27    354.67     137.57     0          33.39     
1204.45    353.56     135.36     0          33.41     
1204.63    352.14     132.4      0          33.46     
1204.81    351.18     129.02     0          33.45     
1205       350.5      125.65     0          33.5      
1205.18    352.77     122.31     0          33.5      
1205.36    347.81     119.05     0          33.53     
1205.54    346.6      115.91     0          33.53     
1205.72    344.97     113.03     0          33.54     
1205.91    345.14     110.67     0          33.52     
1206.09    343.6      108.92     0          33.5      
1206.27    343.38     107.91     0          33.48     
1206.45    343.29     107.89     0          33.48     
1206.63    343.37     108.81     0          33.49     
1206.82    344.41     110.68     0          33.52     
1207       343.37     113.3      0          33.53     
1207.18    345.21     116.16     0          33.54     
1207.36    344.96     118.81     0          33.5      
1207.54    347.39     121.38     0          33.47     
1207.72    345.15     123.89     0          33.46     
1207.91    349.78     126.18     0          33.42     
1208.09    353.26     128.19     0          33.43     
1208.27    353.34     129.95     0          33.4      
1208.45    355.53     131.5      0          33.41     
1208.64    352.58     132.87     0          33.43     
1208.82    355.78     133.98     0          33.42     
1209       356.18     134.87     0          33.42     
1209.18    357        135.56     0          33.43     
1209.36    354.16     136.15     0          33.43     
1209.55    354.29     136.65     0          33.44     
1209.73    354.11     137.1      0          33.43     
1209.9     352.89     137.52     0          33.42     
1210.07    353.35     137.91     0          33.4      
1210.24    353.22     138.3      0          33.39     
1210.41    352.97     138.67     0          33.37     
1210.58    352.3      139.02     0          33.36     
1210.74    353.93     139.34     0          33.35     
1210.91    355.04     139.64     0          33.35     
1211.08    354.8      139.9      0          33.34     
1211.25    354.86     140.09     0          33.35     
1211.41    355.02     140.2      0          33.35     
1211.58    355.13     140.28     0          33.36     
1211.75    355.01     140.38     0          33.38     
1211.92    354.89     140.5      0          33.4      
1212.08    355.05     140.59     0          33.41     
1212.25    354.23     140.64     0          33.42     
1212.42    354.95     140.81     0          33.42     
1212.59    354.69     141.18     0          33.45     
1212.75    355.48     141.46     0          33.45     
1212.92    356.09     141.58     0          33.46     
1213.09    355        141.65     0          33.46     
