~Version
 VERS              .         2.0                           : CWLS LOG ASCII STANDARD - VERSION 2.0
 WRAP              .         NO                            : ONE LINE PER DEPTH STEP
 DLM               .         SPACE                         : DELIMITING CHARACTER(SPACE TAB OR COMMA)
~Well Information
#_______________________________________________________________________________
#
#PARAMETER_NAME    .UNIT     VALUE                         : DESCRIPTION
#_______________________________________________________________________________
STRT               .M        2645.6                        : First reference value
STOP               .M        2754.199837                   : Last reference value
STEP               .M        0.1999997                     : Step increment
NULL               .         -9999                         : Missing value
COMP               .                                       : Company
WELL               .         616                           : Well name
FLD                .                                       : Field
LOC                .                                       : Location
CNTY               .                                       : County
STAT               .                                       : State
CTRY               .                                       : Country
SRVC               .                                       : Service Company
DATE               .                                       : Date
API                .                                       : API number
PROJECT_UPGRADE_TIME .         2021-03-18T21_24_50           : 
group              .         Good                          : 
~Parameter Information Block
#_______________________________________________________________________________
#
#PARAMETER_NAME    .UNIT     VALUE                         : DESCRIPTION
#_______________________________________________________________________________
SET                .         D7026_D                       : 
OTHER              .         Kedr.exe версия 2.1.2.32      : 
OTHER_10           .         TM.GRD = 0.00404*TM$.UE + 0.07: 
OTHER_11           .         MN.ATM = (6.33279e-006*TM.GRD + 0.02401)*(MN$.UE + 2.72*TM.GRD + -2018): 
OTHER_12           .         GK.MKR/H = GK$.UE / 43.5489 + 0: 
OTHER_13           .         RES.SM = 0.00476*CRES.UE - 1.51709: 
OTHER_14           .         PL.GSM3 = 0 + 0 * (PL.UE / 1) +  0 * (PL.UE / 1)^2: 
OTHER_15           .         Постоянная времени ГГП = 6 сек: 
OTHER_16           .         Постоянная времени ГК = 6 сек : 
OTHER_2            .         KedrData.dll версия 3.2.2.14  : 
OTHER_3            .         LasInf.dll версия 3.2.0.13    : 
OTHER_4            .         Драйвер версия 1.2.0.5        : 
OTHER_5            .         Прибор_ КСА-M1                : 
OTHER_6            .         Номер прибора_ 155+р204       : 
OTHER_7            .         Режим_ КСА-М1 + ГГП + Резистивиметр: 
OTHER_8            .         Форма_ 223\2                  : 
OTHER_9            .         Тарировки_                    : 
PROJECT_UPGRADE_TIME .         2021-03-18T21_24_50           : 
TLFamily_CRES      .                                       : 
TLFamily_DEPT      .         Measured Depth                : 
TLFamily_GK        .         Gamma Ray                     : 
TLFamily_GK$       .                                       : 
TLFamily_LM        .         Casing Collar locator         : 
TLFamily_METKA     .                                       : 
TLFamily_MN        .                                       : 
TLFamily_MN$       .                                       : 
TLFamily_PL        .                                       : 
TLFamily_PL_2      .                                       : 
TLFamily_RCOR      .                                       : 
TLFamily_RES       .         Mud Resistivity               : 
TLFamily_SPID      .         Spontaneous Potential         : 
TLFamily_STD       .                                       : 
TLFamily_TIME      .         Time                          : 
TLFamily_TM        .         Temperature                   : 
TLFamily_TM$       .         Temperature                   : 
TLFamily_VGD       .         Gas Volume                    : 
group              .         prim                          : 
~Curve Information
#_______________________________________________________________________________
#
#LOGNAME           .UNIT     LOG_ID                        : DESCRIPTION
#_______________________________________________________________________________
DEPT               .M                                      : 1 Глубина, м -    0.0 см 
CRES               .UE                                     : 9 Проводимость, усл.ед. -  222.0 см 
GK                 .MKR/H                                  : 16 Гамма-активность, мкр./ч -  106.0 см 
GK$                .UE                                     : 13 Гамма-активность, усл.ед. -  106.0 см 
LM                 .                                       : 11 Локатор муфт,  -   16.0 см 
METKA              .                                       : 3 Метки,  -    0.0 см 
MN                 .ATM                                    : 15 Давление, атм. -  160.0 см 
MN$                .UE                                     : 7 Давление, усл.ед. -  160.0 см 
PL                 .UE                                     : 10 Плотность, усл.ед. -  270.0 см 
PL_2               .GSM3                                   : 18 Плотность, г./см3 -  270.0 см 
RCOR               .CM/KM                                  : 5 Коррекция по ролику, см/км -    0.0 см 
RES                .SM                                     : 17 Проводимость,  -  222.0 см 
SPID               .M/H                                    : 2 Скорость, м/час -    0.0 см 
STD                .                                       : 12 Приток,  -  170.0 см 
TIME               .S                                      : 4 Время, сек -    0.0 см 
TM                 .GRD                                    : 14 Температура, °C -  180.0 см 
TM$                .UE                                     : 6 Температура, усл.ед. -  180.0 см 
VGD                .                                       : 8 Влагомер,  -  170.0 см 
~Ascii
# ...
2711.199902 1160       10.98      467        69         0          249.458    12120      14         0          0          4.0055     560        10396      17579.01   53.11      13129      6685      
2711.399901 1159       10.52      438        77         0          249.463    12120      14         0          0          3.9998     510        10392      17580.31   53.096     13125      6685      
2711.599901 1161       10.29      438        93         1          249.504    12122      14         0          0          4.0093     580        10388      17581.63   53.078     13121      6686      
2711.799901 1159       10.62      478        88         0          249.527    12123      14         0          0          3.9998     552        10383      17582.92   53.047     13113      6683      
2711.9999  1160       10.85      490        73         0          249.548    12124      14         0          0          4.0021     510        10380      17584.21   53.032     13109      6684      
2712.1999  1160       11.18      501        60         0          249.567    12125      14         0          0          4.0037     522        10378      17585.52   53.009     13104      6685      
2712.3999  1159       11.25      482        86         0          249.592    12126      14         0          0          3.9998     580        10374      17586.79   52.995     13100      6685      
2712.599899 1159       11.16      482        168        1          249.614    12127      14         0          0          4.0014     510        10370      17588.11   52.976     13096      6685      
2712.799899 1159       11.15      491        215        0          249.611    12127      14         0          0          3.9991     580        10366      17589.42   52.958     13091      6686      
2712.999899 1160       11.31      499        154        0          249.633    12128      14         0          0          4.0021     580        10362      17590.69   52.935     13085      6686      
2713.199899 1161       11.07      436        135        0          249.656    12129      14         0          0          4.0085     580        10356      17592.01   52.917     13081      6685      
2713.399898 1162       10.56      436        76         0          249.688    12130      14         0          0          4.0133     510        10351      17593.32   52.905     13078      6685      
2713.599898 1164       9.69       346        167        0          249.699    12131      14         0          0          4.0236     580        10347      17594.57   52.892     13075      6686      
2713.799898 1162       8.81       346        456        0          249.718    12132      14         0          0          4.014      580        10339      17595.89   52.859     13066      6686      
2713.999897 1162       8.31       328        492        0          249.739    12133      14         0          0          4.014      580        10333      17597.15   52.818     13056      6680      
2714.199897 1161       7.92       328        584        0          249.764    12134      14         0          0          4.0069     580        10328      17598.47   52.795     13051      6677      
2714.399897 1162       7.61       312        578        0          249.789    12135      14         0          0          4.014      580        10325      17599.79   52.799     13052      6677      
2714.599896 1158       7.39       312        1593       0          249.815    12136      14         0          0          3.995      510        10324      17601.05   52.808     13054      6677      
2714.799896 1165       7.4        326        617        0          249.84     12137      14         0          0          4.0299     580        10322      17602.35   52.817     13056      6679      
2714.999896 1165       7.44       326        240        0          249.863    12138      14         0          0          4.0299     568        10325      17603.64   52.82      13057      6679      
2715.199896 1165       7.81       360        320        0          249.859    12138      14         0          0          4.0259     510        10323      17604.95   52.809     13054      6679      
2715.399895 1164       8.04       360        243        0          249.904    12140      14         0          0          4.0243     550        10321      17606.3    52.784     13048      6679      
2715.599895 1165       8.08       352        234        0          249.914    12141      14         0          0          4.0283     521        10316      17607.6    52.753     13040      6679      
2715.799895 1165       8.08       352        77         0          249.924    12141      14         0          0          4.0283     580        10313      17608.85   52.737     13036      6675      
2715.999894 1162       7.94       338        71         0          249.95     12142      14         0          0          4.014      580        10309      17610.18   52.724     13033      6675      
2716.199894 1164       7.87       342        47         0          249.969    12143      14         0          0          4.0236     557        10307      17611.5    52.711     13030      6676      
2716.399894 1161       8.09       362        81         0          249.992    12144      14         0          0          4.0116     580        10302      17612.75   52.694     13026      6675      
2716.599893 1162       8.2        362        51         0          250.016    12145      14         0          0          4.0148     522        10301      17614.08   52.685     13023      6673      
2716.799893 1163       8.37       373        37         0          250.039    12146      14         0          0          4.0188     540        10301      17615.37   52.683     13023      6676      
2716.999893 1163       8.42       362        44         0          250.059    12147      14         0          0          4.0168     580        10299      17616.65   52.673     13021      6677      
2717.199893 1165       8.13       341        47         0          250.074    12148      14         0          0          4.0283     580        10296      17617.98   52.635     13011      6679      
2717.399892 1165       8.03       351        85         0          250.104    12149      14         0          0          4.0275     568        10291      17619.23   52.595     13001      6679      
2717.599892 1166       8.07       353        49         0          250.131    12150      14         0          0          4.0317     580        10290      17620.55   52.606     13004      6678      
2717.799892 1165       8.27       395        58         0          250.157    12151      14         0          0          4.0283     533        10291      17621.8    52.632     13010      6678      
2717.999891 1163       9.13       437        45         0          250.18     12152      14         0          0          4.0188     580        10294      17623.13   52.645     13014      6678      
2718.199891 1165       9.94       521        54         0          250.205    12153      14         0          0          4.0283     557        10299      17624.45   52.662     13018      6677      
2718.399891 1162       10.94      521        41         0          250.22     12153      14         0          0          4.0124     580        10305      17625.76   52.671     13020      6678      
2718.599891 1162       11.54      538        50         0          250.232    12154      14         0          0          4.014      580        10310      17627.03   52.669     13020      6674      
2718.79989 1161       11.93      538        64         0          250.254    12155      14         0          0          4.0069     580        10309      17628.35   52.66      13017      6679      
2718.99989 1162       11.86      473        264        0          250.276    12156      14         0          0          4.0133     533        10308      17629.59   52.643     13013      6679      
2719.19989 1161       11.36      473        791        0          250.298    12157      14         0          0          4.0093     533        10304      17630.93   52.618     13007      6680      
