~Version
 VERS              .         2.0                           : CWLS LOG ASCII STANDARD - VERSION 2.0
 WRAP              .         NO                            : ONE LINE PER DEPTH STEP
 DLM               .         SPACE                         : DELIMITING CHARACTER(SPACE TAB OR COMMA)
~Well Information
#_______________________________________________________________________________
#
#PARAMETER_NAME    .UNIT     VALUE                         : DESCRIPTION
#_______________________________________________________________________________
STRT               .M        1740.47                       : First reference value
STOP               .M        2787.78                       : Last reference value
STEP               .M        0                             : Step increment
NULL               .         -9999                         : Missing value
COMP               .                                       : Company
WELL               .         616                           : Well name
FLD                .                                       : Field
LOC                .                                       : Location
CNTY               .                                       : County
STAT               .                                       : State
CTRY               .                                       : Country
SRVC               .                                       : Service Company
DATE               .                                       : Date
API                .                                       : API number
PROJECT_UPGRADE_TIME .         2021-03-18T21_24_50           : 
group              .         Good                          : 
~Parameter Information Block
#_______________________________________________________________________________
#
#PARAMETER_NAME    .UNIT     VALUE                         : DESCRIPTION
#_______________________________________________________________________________
SET                .         D2664                         : 
NPR                .         980607                        : ЗАВ НОМЕР ПРИБОРА
NPRT               .         Мещеряков                     : НАЧ ПАРТИИ
PROJECT_UPGRADE_TIME .         2021-03-18T21_24_50           : 
TLFamily_AZIMUTH   .         True Dip Azimuth              : 
TLFamily_DEPTH     .         Measured Depth                : 
TLFamily_DRILL     .                                       : 
TLFamily_METKA     .                                       : 
TLFamily_ZENIT     .                                       : 
group              .         prim                          : 
~Curve Information
#_______________________________________________________________________________
#
#LOGNAME           .UNIT     LOG_ID                        : DESCRIPTION
#_______________________________________________________________________________
DEPTH              .M                                      : 1 ГЛУБИНА 
AZIMUTH            .ГРАД                                   : 4 АЗИМУТ 
DRILL              .ГРАД                                   : 2 ПОВОРОТ 
METKA              .                                       : 5 МАГН МЕТКА 
ZENIT              .ГРАД                                   : 3 ЗЕНИТ 
~Ascii
# ...
2386.47    8.01       11.62      0          0.6       
2386.67    7.96       12.12      0          0.6       
2386.87    7.84       12.56      0          0.6       
2387.07    7.62       12.99      0          0.61      
2387.27    7.39       13.39      0          0.61      
2387.47    7.17       13.73      0          0.61      
2387.67    6.99       14.01      0          0.61      
2387.87    6.87       14.2       0          0.61      
2388.07    6.65       14.47      0          0.62      
2388.27    6.66       14.51      0          0.62      
2388.47    6.68       14.44      0          0.62      
2388.67    6.74       14.17      0          0.62      
2388.87    6.84       13.69      0          0.62      
2389.07    6.78       13.3       0          0.62      
2389.27    6.63       12.94      0          0.62      
2389.47    6.5        12.64      0          0.62      
2389.67    6.44       12.44      0          0.62      
2389.87    6.5        12.19      0          0.62      
2390.07    6.63       11.81      0          0.61      
2390.27    6.83       11.28      0          0.61      
2390.46    6.92       10.9       0          0.61      
2390.66    7          10.56      0          0.61      
2390.86    7.1        10.19      0          0.6       
2391.06    7.16       9.95       0          0.6       
2391.26    7.16       9.91       0          0.6       
2391.46    7.21       9.94       0          0.6       
2391.66    7.25       9.95       0          0.6       
2391.86    7.33       9.86       0          0.6       
2392.06    7.39       9.74       0          0.6       
2392.26    7.53       9.45       0          0.6       
2392.46    7.55       9.26       0          0.6       
2392.66    7.49       9.2        0          0.59      
2392.85    7.4        9.34       0          0.59      
2393.05    7.31       9.72       0          0.59      
2393.25    7.38       10.08      0          0.59      
2393.45    7.47       10.5       0          0.59      
2393.65    7.53       10.92      0          0.59      
2393.85    7.64       11.2       0          0.59      
2394.05    7.75       11.42      0          0.59      
2394.25    7.68       11.84      0          0.59      
2394.45    7.62       12.31      0          0.6       
2394.65    7.55       12.88      0          0.6       
2394.84    7.5        13.52      0          0.6       
2395.04    7.45       14.23      0          0.6       
2395.24    7.33       15.11      0          0.6       
2395.44    7.42       15.82      0          0.6       
2395.64    7.51       16.48      0          0.6       
2395.84    7.55       17.11      0          0.6       
2396.04    7.5        17.87      0          0.6       
2396.24    7.62       18.47      0          0.6       
2396.44    7.62       19.12      0          0.61      
2396.64    7.71       19.7       0          0.61      
2396.84    7.77       20.3       0          0.61      
2397.04    7.9        20.82      0          0.61      
2397.24    7.99       21.35      0          0.62      
2397.44    8.14       21.79      0          0.62      
2397.64    8.22       22.36      0          0.62      
2397.84    8.37       22.93      0          0.62      
2398.04    8.58       23.5       0          0.62      
2398.24    8.87       24.04      0          0.62      
2398.44    9.33       24.42      0          0.62      
2398.64    9.6        24.94      0          0.63      
2398.84    10.08      25.2       0          0.63      
2399.04    10.52      25.36      0          0.63      
2399.24    10.85      25.57      0          0.63      
2399.44    11.09      25.93      0          0.63      
2399.64    11.43      26.31      0          0.63      
2399.84    11.63      26.94      0          0.63      
2400.04    11.87      27.65      0          0.63      
2400.24    12.24      28.25      0          0.64      
2400.44    12.56      28.82      0          0.64      
2400.64    12.85      29.44      0          0.64      
2400.84    13.1       30.07      0          0.64      
2401.04    13.34      30.74      0          0.65      
2401.24    13.63      31.42      0          0.65      
2401.44    13.73      32.4       0          0.66      
2401.64    13.81      33.51      0          0.66      
2401.84    13.88      34.81      0          0.67      
2402.04    14.04      36.15      0          0.67      
2402.23    14.04      37.73      0          0.68      
2402.43    14.06      39.3       0          0.68      
2402.63    13.97      40.91      0          0.69      
2402.83    13.69      42.73      0          0.7       
2403.03    13.32      44.71      0          0.7       
2403.23    12.87      46.87      0          0.71      
2403.43    12.38      49.26      0          0.71      
2403.63    11.83      51.86      0          0.72      
2403.83    11.26      54.63      0          0.73      
2404.03    10.64      57.58      0          0.73      
2404.23    9.97       60.7       0          0.74      
2404.43    9.09       64.09      0          0.74      
2404.63    8.36       67.47      0          0.74      
2404.83    7.4        71.17      0          0.74      
2405.03    6.59       74.93      0          0.74      
2405.23    5.58       78.88      0          0.75      
2405.43    4.75       82.89      0          0.75      
2405.63    3.85       87.09      0          0.75      
2405.83    2.99       91.36      0          0.75      
2406.03    2.34       95.68      0          0.75      
2406.23    1.54       100.17     0          0.75      
2406.43    0.83       104.72     0          0.75      
2406.63    0.09       109.35     0          0.75      
2406.83    359.38     114.05     0          0.75      
2407.03    358.85     118.66     0          0.75      
2407.23    358.47     123.12     0          0.75      
2407.43    358.15     127.44     0          0.75      
2407.63    357.82     131.65     0          0.75      
2407.83    357.49     135.72     0          0.75      
2408.03    357.22     139.59     0          0.75      
2408.23    356.86     143.45     0          0.75      
2408.43    356.77     147        0          0.76      
2408.63    356.66     150.48     0          0.76      
2408.83    356.74     153.7      0          0.76      
2409.03    356.98     156.71     0          0.76      
2409.22    357.16     159.63     0          0.76      
2409.42    357.35     162.4      0          0.76      
2409.62    357.5      165.13     0          0.76      
2409.82    357.62     167.79     0          0.76      
2410.02    357.69     170.39     0          0.76      
2410.22    357.78     172.83     0          0.76      
2410.42    357.98     175.08     0          0.76      
2410.62    358.1      177.32     0          0.76      
2410.82    358.33     179.43     0          0.77      
2411.02    358.37     181.71     0          0.77      
2411.22    358.56     183.83     0          0.78      
2411.42    358.63     185.99     0          0.78      
2411.62    358.77     188        0          0.78      
2411.82    358.96     189.82     0          0.79      
2412.02    358.98     191.78     0          0.8       
2412.22    359.07     193.62     0          0.8       
2412.42    359.01     195.6      0          0.81      
2412.62    359.04     197.55     0          0.82      
2412.82    359.04     199.59     0          0.82      
2413.02    358.93     201.79     0          0.83      
2413.22    358.86     204.05     0          0.84      
2413.42    358.77     206.4      0          0.84      
2413.62    358.74     208.73     0          0.85      
2413.82    358.77     210.98     0          0.86      
2414.02    358.76     213.19     0          0.86      
2414.21    358.78     215.3      0          0.87      
2414.41    358.55     217.68     0          0.87      
2414.61    358.41     220.08     0          0.87      
2414.81    358.21     222.67     0          0.87      
2415.01    358.04     225.4      0          0.87      
2415.21    357.9      228.29     0          0.88      
2415.41    357.9      231.16     0          0.88      
