~Version
 VERS              .         2.0                           : CWLS LOG ASCII STANDARD - VERSION 2.0
 WRAP              .         NO                            : ONE LINE PER DEPTH STEP
 DLM               .         SPACE                         : DELIMITING CHARACTER(SPACE TAB OR COMMA)
~Well Information
#_______________________________________________________________________________
#
#PARAMETER_NAME    .UNIT     VALUE                         : DESCRIPTION
#_______________________________________________________________________________
STRT               .M        2667.4                        : First reference value
STOP               .M        2776.000109                   : Last reference value
STEP               .M        0.2000002                     : Step increment
NULL               .         -9999                         : Missing value
COMP               .                                       : Company
WELL               .         616                           : Well name
FLD                .                                       : Field
LOC                .                                       : Location
CNTY               .                                       : County
STAT               .                                       : State
CTRY               .                                       : Country
SRVC               .                                       : Service Company
DATE               .                                       : Date
API                .                                       : API number
PROJECT_UPGRADE_TIME .         2021-03-18T21_24_50           : 
group              .         Good                          : 
~Parameter Information Block
#_______________________________________________________________________________
#
#PARAMETER_NAME    .UNIT     VALUE                         : DESCRIPTION
#_______________________________________________________________________________
SET                .         D1801_D                       : 
OTHER              .         Программное обеспечение станции MONITOR-386EX 25/12/99 15_08_10   BGF V52 22/08/01 16_56_30   3.1_SNGF___BGF_N_092049: 
OTHER_10           .         Тарировки_                    : 
OTHER_11           .         TM.GRD = 0.00403*TM$.UE + -1.07: 
OTHER_12           .         MN.ATM = (9.34907e-006*TM.GRD + 0.02171)*(MN$.UE + -7.93*TM.GRD + -1787): 
OTHER_13           .         GK.MKR/H = LM. / 42.4676      : 
OTHER_14           .         GK.FLT = 0.1*GK.MKR/H[-1] + (1-0.1)*GK.MKR/H[0]: 
OTHER_2            .         Kedr.exe версия 3.4.2.51      : 
OTHER_3            .         KedrData.dll версия 3.4.2.24  : 
OTHER_4            .         Драйвер версия 2.1.1.3        : 
OTHER_5            .         Мнемоники версия 3.3 S        : 
OTHER_6            .         Прибор_ КСА-Т4                : 
OTHER_7            .         Номер прибора_ 03             : 
OTHER_8            .         Режим_ КСА-Т4                 : 
OTHER_9            .         Форма_ КВА.                   : 
PROJECT_UPGRADE_TIME .         2021-03-18T21_24_49           : 
TLFamily_DEPT      .         Measured Depth                : 
TLFamily_GK        .         Gamma Ray                     : 
TLFamily_GK$       .                                       : 
TLFamily_GK_2      .         Gamma Ray                     : 
TLFamily_LM        .         Casing Collar locator         : 
TLFamily_METKA     .                                       : 
TLFamily_MN        .                                       : 
TLFamily_MN$       .                                       : 
TLFamily_RCOR      .                                       : 
TLFamily_SPID      .         Spontaneous Potential         : 
TLFamily_TENS      .         Cable Tension                 : 
TLFamily_TIME      .         Time                          : 
TLFamily_TM        .         Temperature                   : 
TLFamily_TM$       .         Temperature                   : 
group              .         prim                          : 
~Curve Information
#_______________________________________________________________________________
#
#LOGNAME           .UNIT     LOG_ID                        : DESCRIPTION
#_______________________________________________________________________________
DEPT               .M                                      : 1 Глубина, м -    0.0 см 
GK                 .MKR/H                                  : 13 Гамма-активность, мкр./ч -  110.0 см 
GK$                .UE                                     : 10 Гамма-активность, усл.ед. -  110.0 см 
GK_2               .FLT                                    : 14 Гамма-активность фильтрованная, мкр./ч -  110.0 см 
LM                 .                                       : 9 Локатор муфт,  -   20.0 см 
METKA              .                                       : 3 Метки,  -    0.0 см 
MN                 .ATM                                    : 12 Давление, атм. -  160.0 см 
MN$                .UE                                     : 8 Давление, усл.ед. -  160.0 см 
RCOR               .CM/KM                                  : 5 Коррекция по ролику, см/км -    0.0 см 
SPID               .M/H                                    : 2 Скорость, м/час -    0.0 см 
TENS               .T                                      : 6 Натяжение кабеля, т -    0.0 см 
TIME               .S                                      : 4 Время, сек -    0.0 см 
TM                 .GRD                                    : 11 Температура, °C -  170.0 см 
TM$                .UE                                     : 7 Температура, усл.ед. -  170.0 см 
~Ascii
# ...
2688.200021 9.42       400        9.42       150        0          246.025    13264      -607       572        0.05       7865.38    45.988     11677     
2688.400021 9.89       420        9.87       130        0          246.046    13265      -607       579        0.07       7866.63    46.006     11681     
2688.600021 10.61      451        10.34      197        0          246.054    13265      -607       567        0.07       7867.92    46.007     11682     
2688.800021 10.97      466        10.95      215        0          246.085    13267      -607       571        0.07       7869.15    45.992     11678     
2689.000022 10.9       463        10.93      152        0          246.116    13268      -607       577        0.07       7870.41    45.975     11674     
2689.200022 10.55      448        10.57      110        0          246.131    13269      -607       584        0.07       7871.64    45.965     11671     
2689.400022 10.55      448        10.55      116        0          246.14     13269      -607       589        0.07       7872.89    45.953     11668     
2689.600022 10.67      453        10.66      110        0          246.161    13270      -607       590        0.07       7874.1     45.948     11667     
2689.800022 10.77      457        10.73      191        0          246.184    13271      -607       587        0.07       7875.31    45.951     11668     
2690.000023 10.88      462        10.87      159        2          246.209    13272      -607       585        0.07       7876.55    45.929     11662     
2690.200023 10.72      455        10.78      169        0          246.232    13273      -613       599        0.05       7878.23    45.899     11655     
2690.400023 9.96       423        9.99       167        0          246.254    13274      -613       591        0.05       7879.46    45.9       11655     
2690.600023 9.96       423        9.96       201        0          246.265    13274      -613       587        0.05       7880.71    45.9       11655     
2690.800023 10.17      432        10.16      214        0          246.276    13275      -613       585        0.05       7881.93    45.9       11655     
2691.000024 10.17      432        10.17      168        0          246.299    13276      -613       584        0.05       7883.14    45.894     11653     
2691.200024 10.86      461        10.84      160        0          246.321    13277      -613       594        0.05       7884.38    45.892     11653     
2691.400024 10.34      439        10.51      113        0          246.337    13278      -613       595        0.05       7885.63    45.882     11651     
2691.600024 10.34      439        10.34      115        0          246.367    13279      -613       591        0.05       7886.91    45.867     11647     
2691.800024 10.15      431        10.22      111        0          246.389    13280      -613       576        0.05       7888.17    45.868     11647     
2692.000025 10.05      427        10.06      158        0          246.412    13281      -613       577        0.05       7889.38    45.854     11644     
2692.200025 9.99       424        10.02      152        0          246.457    13283      -613       578        0.06       7890.61    45.843     11641     
2692.400025 9.87       419        9.87       167        0          246.458    13283      -613       577        0.07       7891.83    45.841     11640     
2692.600025 10.15      431        10.04      176        0          246.459    13283      -613       578        0.06       7893.08    45.819     11635     
2692.800025 10.15      431        10.15      163        0          246.482    13284      -613       579        0.07       7894.29    45.807     11632     
2693.000026 10.68      454        10.48      1730       0          246.504    13285      -613       579        0.07       7895.52    45.806     11632     
2693.200026 10.78      458        10.77      467        0          246.527    13286      -613       589        0.07       7896.76    45.807     11632     
2693.400026 10.53      447        10.62      209        0          246.55     13287      -613       582        0.07       7898.06    45.789     11628     
2693.600026 10.15      431        10.17      202        0          246.573    13288      -613       581        0.07       7899.3     45.775     11624     
2693.800026 10.36      440        10.28      135        0          246.595    13289      -613       581        0.07       7900.55    45.779     11625     
2694.000027 10.36      440        10.36      181        0          246.617    13290      -613       581        0.07       7901.75    45.779     11625     
2694.200027 10.25      435        10.29      198        0          246.625    13290      -613       580        0.07       7902.98    45.772     11623     
2694.400027 10.15      431        10.15      211        0          246.661    13292      -613       579        0.07       7904.2     45.771     11623     
2694.600027 9.93       422        10.01      205        0          246.685    13293      -613       579        0.07       7905.45    45.762     11621     
2694.800027 9.49       403        9.51       180        0          246.685    13293      -613       579        0.07       7906.69    45.753     11619     
2695.000028 9.49       403        9.49       175        0          246.709    13294      -613       567        0.07       7907.95    45.738     11615     
2695.200028 10.2       433        10.17      129        0          246.732    13295      -613       577        0.07       7909.22    45.724     11611     
2695.400028 10.75      456        10.54      137        0          246.74     13295      -613       579        0.07       7910.48    45.706     11607     
2695.600028 11.02      468        11         122        0          246.768    13297      -613       589        0.07       7911.67    45.702     11606     
2695.800028 11.03      468        11.03      120        0          246.778    13297      -613       587        0.07       7912.9     45.697     11605     
2696.000029 11.09      471        11.09      76         0          246.823    13299      -613       585        0.07       7914.16    45.679     11600     
2696.200029 11.09      471        11.09      172        0          246.824    13299      -613       583        0.07       7915.39    45.667     11597     
2696.400029 10.78      458        10.8       199        0          246.847    13300      -613       577        0.07       7916.64    45.661     11596     
2696.600029 11.02      468        10.93      188        0          246.87     13301      -613       556        0.07       7917.94    45.65      11593     
2696.800029 11.26      478        11.24      112        0          246.893    13302      -613       567        0.07       7919.17    45.638     11590     
2697.00003 11.3       480        11.28      144        0          246.915    13303      -613       571        0.07       7920.39    45.622     11586     
2697.20003 11.49      488        11.48      135        0          246.938    13304      -613       574        0.07       7921.61    45.63      11588     
2697.40003 11.49      488        11.49      193        0          246.961    13305      -613       580        0.07       7922.84    45.614     11584     
2697.60003 11.47      487        11.47      185        0          246.96     13305      -613       585        0.07       7924.07    45.611     11583     
2697.80003 11.47      487        11.47      167        0          246.982    13306      -613       591        0.07       7925.28    45.618     11585     
2698.000031 12.9       548        12.83      214        0          247.005    13307      -613       588        0.07       7926.52    45.618     11585     
2698.200031 13.1       556        13.02      185        0          247.027    13308      -613       575        0.07       7927.81    45.614     11584     
2698.400031 14.06      597        14.02      152        0          247.049    13309      -613       574        0.07       7929.06    45.614     11584     
