~Version
 VERS              .         2.0                           : CWLS LOG ASCII STANDARD - VERSION 2.0
 WRAP              .         NO                            : ONE LINE PER DEPTH STEP
 DLM               .         SPACE                         : DELIMITING CHARACTER(SPACE TAB OR COMMA)
~Well Information
#_______________________________________________________________________________
#
#PARAMETER_NAME    .UNIT     VALUE                         : DESCRIPTION
#_______________________________________________________________________________
STRT               .M        2650.6                        : First reference value
STOP               .M        2759.999891                   : Last reference value
STEP               .M        0.1999998                     : Step increment
NULL               .         -9999                         : Missing value
COMP               .                                       : Company
WELL               .         616                           : Well name
FLD                .                                       : Field
LOC                .                                       : Location
CNTY               .                                       : County
STAT               .                                       : State
CTRY               .                                       : Country
SRVC               .                                       : Service Company
DATE               .                                       : Date
API                .                                       : API number
PROJECT_UPGRADE_TIME .         2021-03-18T21_24_50           : 
group              .         Good                          : 
~Parameter Information Block
#_______________________________________________________________________________
#
#PARAMETER_NAME    .UNIT     VALUE                         : DESCRIPTION
#_______________________________________________________________________________
SET                .         D4417_D                       : 
OTHER              .         Запись производится в присутствии: 
OTHER_10           .         Максимальная температура      : 
OTHER_11           .         Тип промывочной жидкости      : 
OTHER_12           .         Сопротивление ПЖ (Ом*м) при 20°C: 
OTHER_13           .         Плотность ПЖ(г/см3)           : 
OTHER_14           .         Вязкость ПЖ(с)                : 
OTHER_15           .         Водоотдача ПЖ(см3/30мин)      : 
OTHER_16           .         Уровень ПЖ                    : 
OTHER_17           .         Нефть ПЖ (%)                  : 
OTHER_18           .         Барит ПЖ (%)                  : 
OTHER_19           .         Гематит ПЖ (%)                : 
OTHER_2            .         Заказчик ННСН  ЦДНГ-1         : 
OTHER_20           .         КМЦ ПЖ (%)                    : 
OTHER_21           .         Разгазирование ПЖ (да,нет)    : 
OTHER_22           .         Подъемник                     : 
OTHER_23           .         Лаборатория                   : 
OTHER_24           .         Тип кабеля                    : 
OTHER_25           .         Длина кабеля (м)              : 
OTHER_26           .         Цена последней метки          : 
OTHER_27           .         Цена контрольной метки        : 
OTHER_28           .         Диаметр долота (мм)           : 
OTHER_29           .         Глубина бурения (м)           : 
OTHER_3            .         Площадь                       : 
OTHER_30           .         Искусственный забой (м)       : 
OTHER_31           .         Диаметр колонны (мм)          : 
OTHER_32           .         Толщина колонны (мм)          : 
OTHER_33           .         Башмак колонны (м)            : 
OTHER_34           .         Диаметр НКТ (мм)              : 
OTHER_35           .         Толщина НКТ (мм)              : 
OTHER_36           .         Воронка НКТ (м)               : 
OTHER_37           .         Дата цементожа                : 
OTHER_38           .         Тип, количество(т) и плотность цемента: 
OTHER_39           .         Интервалы перфорации (м)      : 
OTHER_4            .         Категория                     : 
OTHER_40           .         Направление, диаметр (мм)     : 
OTHER_41           .         Направление, глубина (м)      : 
OTHER_42           .         Кондуктор, диаметр (мм)       : 
OTHER_43           .         Кондуктор, глубина (м)        : 
OTHER_44           .         Техническая колонна, диаметр (мм): 
OTHER_45           .         Техническая колонна, глубина (м): 
OTHER_46           .         Эксплуатационная колонна, диаметр (мм): 
OTHER_47           .         Эксплуатационная колонна, глубина (м): 
OTHER_48           .         Программа Кедр-02 версия 3.4  : 
OTHER_49           .         Операционная система Windows NT 5.1 build 2600 Service Pack 2: 
OTHER_5            .         Назначение исследований       : 
OTHER_50           .         Программное обеспечение станции MONITOR-386EX 25/12/99 15_08_10   BGF V54 20/09/05 15_32_17   3.3__BGF_9030071: 
OTHER_51           .         Kedr.exe версия 3.4.2.74      : 
OTHER_52           .         KedrData.dll версия 3.4.2.29  : 
OTHER_53           .         Мнемоники версия 3.18 S       : 
OTHER_54           .         Драйвер версия 2.1.1.4        : 
OTHER_55           .         LasInf.dll 4.3.0.35           : 
OTHER_56           .         Прибор_ КСА-Т4                : 
OTHER_57           .         Номер прибора_ 160            : 
OTHER_58           .         Режим_ КСА-Т4                 : 
OTHER_59           .         Форма_ С.А.Б.                 : 
OTHER_6            .         Альтитуда стола ротора        : 
OTHER_60           .         Тарировки_                    : 
OTHER_61           .         <_techsia_sc_> Дата тарировки температуры 25.05.2010: 
OTHER_62           .         Ручной ввод коэффициентов     : 
OTHER_63           .         TM.DEGC = 0.00402*RTM.E.ACP + -0.994: 
OTHER_64           .         <_techsia_sc_> Дата тарировки давления 25.05.2010: 
OTHER_65           .         Ручной ввод коэффициентов     : 
OTHER_66           .         MN.ATM = (2.27521e-006*TM.DEGC + 0.02078)*(RMN.E.ACP + 6.2*TM.DEGC + -1688): 
OTHER_67           .         <_techsia_sc_> Дата тарировки ГК 25.05.2010: 
OTHER_68           .         Ручной ввод коэффициентов     : 
OTHER_69           .         GR.UR/H = RGR.IMP/MIN / 45.5144: 
OTHER_7            .         Вид исследований 3  6         : 
OTHER_70           .         GK.FLT = 0.1*GR.UR/H[-1] + (1-0.1)*GR.UR/H[0]: 
OTHER_8            .         Начало бурения интервала каротажа: 
OTHER_9            .         Окончание бурения интервала каротажа: 
PROJECT_UPGRADE_TIME .         2021-03-18T21_24_50           : 
TLFamily_CCLC      .                                       : 
TLFamily_DEPT      .         Measured Depth                : 
TLFamily_GK        .         Gamma Ray                     : 
TLFamily_GR        .         Gamma Ray                     : 
TLFamily_METKA     .                                       : 
TLFamily_MN        .                                       : 
TLFamily_RCOR      .                                       : 
TLFamily_RGR       .                                       : 
TLFamily_RMN       .                                       : 
TLFamily_RTEN      .                                       : 
TLFamily_RTM       .                                       : 
TLFamily_SPEE      .         Cable Speed                   : 
TLFamily_TIME      .         Time                          : 
TLFamily_TM        .         Temperature                   : 
group              .         prim                          : 
~Curve Information
#_______________________________________________________________________________
#
#LOGNAME           .UNIT     LOG_ID                        : DESCRIPTION
#_______________________________________________________________________________
DEPT               .M                                      : 1 Глубина, м -    0.0 см 
CCLC               .E.ACP                                  : 9 Локатор муфт,  -   20.0 см 
GK                 .FLT                                    : 14 Гамма-активность фильтрованная, мкр./ч -  110.0 см 
GR                 .UR/H                                   : 13 Гамма-активность, мкр./ч -  110.0 см 
METKA              .CU                                     : 3 Метки,  -    0.0 см 
MN                 .ATM                                    : 12 Давление, атм. -  160.0 см 
RCOR               .CM/KM                                  : 5 Коррекция по ролику, см/км -    0.0 см 
RGR                .IMP/MIN                                : 10 Гамма-активность, усл.ед. -  110.0 см 
RMN                .E.ACP                                  : 8 Давление, усл.ед. -  160.0 см 
RTEN               .T                                      : 6 Натяжение кабеля, т -    0.0 см 
RTM                .E.ACP                                  : 7 Температура, усл.ед. -  170.0 см 
SPEE               .M/H                                    : 2 Скорость, м/час -    0.0 см 
TIME               .S                                      : 4 Время, сек -    0.0 см 
TM                 .DEGC                                   : 11 Температура, °C -  170.0 см 
~Ascii
# ...
2692.199958 89         10.06      10.06      0          242.434    -1094      458        12874      0.25       16262      509        286.78     64.379    
2692.399958 1310       10.06      10.06      0          242.451    -1094      458        12875      0.25       16256      508        288.23     64.354    
2692.599958 590        9.8        9.8        0          242.445    -1094      446        12875      0.25       16247      508        289.63     64.321    
2692.799958 113        9.8        9.8        0          242.474    -1094      446        12877      0.25       16237      509        291.06     64.279    
2692.999958 34         8.88       8.88       0          242.488    -1094      404        12878      0.25       16230      510        292.49     64.25     
2693.199957 27         9.34       9.34       0          242.5      -1094      425        12878      0.25       16226      509        293.91     64.233    
2693.399957 27         9.34       9.34       0          242.534    -1094      425        12880      0.25       16221      509        295.3      64.214    
2693.599957 36         10.22      10.22      0          242.53     -1094      465        12880      0.25       16214      508        296.8      64.186    
2693.799957 59         10.22      10.22      0          242.545    -1094      465        12881      0.25       16206      508        298.24     64.154    
2693.999957 46         9.82       9.82       0          242.567    -1094      447        12882      0.25       16196      507        299.64     64.113    
2694.199956 60         9.48       9.48       0          242.598    -1094      431        12884      0.25       16190      507        301.03     64.089    
2694.399956 33         9.14       9.14       0          242.595    -1094      416        12884      0.25       16185      507        302.47     64.07     
2694.599956 41         9.03       9.03       0          242.613    -1094      411        12885      0.25       16178      508        303.92     64.043    
2694.799956 36         9.03       9.03       0          242.632    -1094      411        12886      0.25       16175      508        305.35     64.032    
2694.999956 42         9.69       9.69       0          242.65     -1094      441        12887      0.25       16172      508        306.75     64.017    
2695.199955 38         9.69       9.69       0          242.668    -1094      441        12888      0.25       16166      509        308.14     63.993    
2695.399955 44         10.68      10.68      0          242.7      -1094      486        12890      0.25       16160      509        309.66     63.971    
2695.599955 33         10.68      10.68      0          242.709    -1094      486        12891      0.25       16150      507        311.1      63.93     
2695.799955 30         11.25      11.25      0          242.719    -1094      512        12891      0.25       16143      508        312.45     63.9      
2695.999955 32         11.42      11.42      2          242.73     -1091      520        12892      0.25       16133      507        313.64     63.861    
2696.199954 49         11.42      11.42      0          242.747    -1088      520        12893      0.25       16126      506        314.88     63.833    
2696.399954 59         11.4       11.4       0          242.757    -1088      519        12894      0.25       16122      506        316.33     63.817    
2696.599954 36         11.4       11.4       0          242.76     -1088      519        12894      0.25       16115      506        317.78     63.787    
2696.799954 36         11.56      11.56      0          242.777    -1088      526        12895      0.25       16107      504        319.23     63.755    
2696.999954 41         11.62      11.62      0          242.793    -1088      529        12896      0.25       16100      504        320.61     63.729    
2697.199953 80         11.75      11.75      0          242.827    -1088      535        12898      0.25       16093      504        322.05     63.701    
2697.399953 81         11.75      11.75      0          242.841    -1088      535        12899      0.25       16088      505        323.52     63.681    
2697.599953 76         11.91      11.91      0          242.847    -1088      542        12899      0.25       16085      505        324.97     63.666    
2697.799953 54         12.55      12.55      0          242.863    -1088      571        12900      0.25       16079      505        326.36     63.644    
2697.999953 108        12.55      12.55      0          242.872    -1088      571        12901      0.25       16070      505        327.8      63.609    
2698.199952 69         11.8       11.8       0          242.887    -1088      537        12902      0.25       16065      505        329.25     63.586    
2698.399952 62         11.8       11.8       0          242.921    -1088      537        12903      0.25       16061      504        330.7      63.572    
2698.599952 88         9.82       9.82       0          242.932    -1088      447        12904      0.25       16055      504        332.1      63.546    
2698.799952 100        9.68       9.68       0          242.951    -1088      441        12905      0.25       16049      504        333.54     63.524    
2698.999952 57         9.4        9.4        0          242.968    -1088      428        12906      0.25       16046      504        334.98     63.512    
2699.199951 72         8.98       8.98       0          242.984    -1088      409        12907      0.25       16039      504        336.5      63.484    
2699.399951 91         8.9        8.9        0          243.002    -1088      405        12908      0.25       16032      503        337.93     63.453    
2699.599951 111        8.44       8.44       0          243.018    -1088      384        12909      0.25       16027      502        339.29     63.435    
2699.799951 85         8.44       8.44       0          243.032    -1088      384        12910      0.25       16017      502        340.73     63.396    
2699.999951 71         8.02       8.02       0          243.044    -1088      365        12911      0.25       16004      501        342.23     63.341    
2700.19995 33         8.11       8.11       0          243.056    -1088      369        12912      0.25       15990      500        343.67     63.287    
2700.39995 27         8.11       8.11       0          243.063    -1088      369        12913      0.25       15970      500        345.11     63.205    
2700.59995 32         8.9        8.9        0          243.076    -1088      405        12914      0.25       15953      500        346.55     63.137    
2700.79995 87         8.9        8.9        0          243.094    -1088      405        12915      0.25       15944      502        347.98     63.101    
2700.99995 83         9.1        9.1        0          243.108    -1088      414        12916      0.25       15939      502        349.47     63.082    
2701.199949 62         9.16       9.16       0          243.118    -1088      417        12917      0.25       15923      502        350.92     63.016    
2701.399949 114        9.47       9.47       0          243.13     -1088      431        12918      0.25       15905      502        352.38     62.946    
2701.599949 89         9.21       9.21       0          243.141    -1088      419        12919      0.25       15893      502        353.75     62.897    
2701.799949 77         9.14       9.14       0          243.15     -1088      416        12920      0.25       15874      501        355.24     62.82     
2701.999949 86         9.67       9.67       0          243.155    -1088      440        12921      0.25       15855      501        356.72     62.743    
2702.199948 60         9.67       9.67       0          243.177    -1088      440        12922      0.25       15843      501        358.11     62.695    
2702.399948 91         10.35      10.35      0          243.193    -1088      471        12923      0.25       15838      502        359.55     62.677    
