~Version
 VERS              .         2.0                           : CWLS LOG ASCII STANDARD - VERSION 2.0
 WRAP              .         NO                            : ONE LINE PER DEPTH STEP
 DLM               .         SPACE                         : DELIMITING CHARACTER(SPACE TAB OR COMMA)
~Well Information
#_______________________________________________________________________________
#
#PARAMETER_NAME    .UNIT     VALUE                         : DESCRIPTION
#_______________________________________________________________________________
STRT               .M        1549.2                        : First reference value
STOP               .M        2296.2                        : Last reference value
STEP               .M        0.2                           : Step increment
NULL               .         -9999                         : Missing value
COMP               .                                       : Company
WELL               .         616                           : Well name
FLD                .                                       : Field
LOC                .                                       : Location
CNTY               .                                       : County
STAT               .                                       : State
CTRY               .                                       : Country
SRVC               .                                       : Service Company
DATE               .                                       : Date
API                .                                       : API number
PROJECT_UPGRADE_TIME .         2021-03-18T21_24_50           : 
group              .         Good                          : 
~Parameter Information Block
#_______________________________________________________________________________
#
#PARAMETER_NAME    .UNIT     VALUE                         : DESCRIPTION
#_______________________________________________________________________________
SET                .         616_10                        : 
CONF               .         00                            : 
END                .         0                             : 
ERR                .         2                             : 
GS00               .M        2294.21                       : 
GS01               .M        1546.72                       : 
MM00               .M        2240.00                       : 
NOKG               .         0                             : 
NPR                .         980119                        : 
PART               .         Палагутин                     : 
PROJECT_UPGRADE_TIME .         2021-03-18T21_24_49           : 
PRZK               .         Якименко                      : 
TLFamily_AZIMUTH   .         True Dip Azimuth              : 
TLFamily_DEPTH     .         Measured Depth                : 
TLFamily_METKA     .                                       : 
TLFamily_ROLL      .                                       : 
TLFamily_SPEED     .         Spontaneous Potential         : 
TLFamily_ZENIT     .                                       : 
VPRG               .         310                           : 
WAY                .         UP                            : 
group              .         prim                          : 
~Curve Information
#_______________________________________________________________________________
#
#LOGNAME           .UNIT     LOG_ID                        : DESCRIPTION
#_______________________________________________________________________________
DEPTH              .M                                      :  
AZIMUTH            .DEG                                    :  
METKA              .                                       :  
ROLL               .DEG                                    :  
SPEED              .M/H                                    :  
ZENIT              .DEG                                    :  
~Ascii
# ...
1890.8     72.07      0          35.97      648        17.86     
1891       113.36     0          36.92      684        17.71     
1891.2     273.71     0          37.72      684        17.98     
1891.4     9.81       0          38.07      612        18.13     
1891.6     42.74      0          38.17      684        18.21     
1891.8     10.68      0          38.16      648        18.21     
1892       336.65     0          38.36      684        18.21     
1892.2     309.09     1          37.73      612        18.27     
1892.4     232.36     0          36.65      648        18.39     
1892.6     148.81     0          36.15      684        18.02     
1892.8     318.33     0          36.14      612        17.85     
1893       16.96      0          36.32      684        17.6      
1893.2     353.95     0          37.56      648        17.41     
1893.4     349.96     0          38.27      648        17.37     
1893.6     22.17      0          38.18      684        17.33     
1893.8     19.26      0          37.57      684        17.37     
1894       33.44      0          36.58      648        17.37     
1894.2     37.77      0          35.15      612        17.37     
1894.4     81.42      0          33.77      648        17.39     
1894.6     102.06     0          35.85      648        17.63     
1894.8     40.9       0          39.98      684        17.65     
1895       66.98      0          41.58      648        17.7      
1895.2     48.68      0          41.72      612        17.63     
1895.4     44.06      0          42.04      648        17.66     
1895.6     33.81      0          42.15      720        17.69     
1895.8     349.43     0          42.19      648        17.77     
1896       343.24     0          42.25      684        17.75     
1896.2     315.66     0          42.13      612        17.7      
1896.4     35.96      0          41.85      648        17.79     
1896.6     342.29     0          41.27      684        17.79     
1896.8     277.54     0          40.06      684        17.74     
1897       305.78     0          38.4       684        17.72     
1897.2     301.73     0          36.67      612        17.69     
1897.4     333.5      0          34.91      612        17.64     
1897.6     18.05      0          33.89      720        17.63     
1897.8     50.95      0          33.75      648        17.63     
1898       51.35      0          34.34      684        17.66     
1898.2     19.77      0          35.33      612        17.66     
1898.4     45.97      0          35.94      648        17.61     
1898.6     57.26      0          36.25      648        17.71     
1898.8     84.21      0          36.45      648        17.64     
1899       104.57     0          36.87      720        17.82     
1899.2     84.66      0          37.88      612        17.68     
1899.4     83.03      0          38.4       684        17.68     
1899.6     108.11     0          38.4       648        17.72     
1899.8     32.32      0          38.25      684        17.73     
1900       340.13     0          37.95      684        17.73     
1900.2     4.47       0          37.32      576        17.73     
1900.4     25.19      0          36.66      684        17.65     
1900.6     54.11      0          36.18      684        17.63     
1900.8     54.14      0          36         648        17.65     
1901       60.27      0          36.01      684        17.6      
1901.2     85.48      0          36.82      684        17.61     
1901.4     50.23      0          38.01      684        17.53     
1901.6     279.32     0          38.37      684        17.6      
1901.8     185.18     0          38.3       648        17.54     
1902       238.68     0          38.47      648        17.64     
1902.2     125.02     1          38.89      648        17.67     
1902.4     74.64      0          39.33      396        17.68     
1902.6     44.21      0          39.52      684        17.65     
1902.8     118.13     0          40.32      648        17.73     
1903       239.48     0          41.31      684        17.63     
1903.2     115.72     0          41.76      576        17.9      
1903.4     77.7       0          42.3       684        17.84     
1903.6     39.93      0          42.74      684        18.01     
1903.8     30.09      0          43.33      648        18.11     
1904       18.29      0          43.48      648        18.18     
1904.2     52.15      0          42.3       648        18.28     
1904.4     98.85      0          38.98      648        18.15     
1904.6     29.5       0          34.63      684        18.3      
1904.8     309.7      0          29.89      684        18.09     
1905       319.64     0          28.14      612        18.11     
1905.2     99.88      0          29.6       648        17.79     
1905.4     57.22      0          30.59      684        17.51     
1905.6     72.25      0          30.93      648        17.23     
1905.8     91.45      0          31.57      720        17.21     
1906       74.63      0          32.7       612        17.28     
1906.2     94.25      0          33.21      648        17.21     
1906.4     183.69     0          33.55      648        17.4      
1906.6     265.05     0          34.86      684        17.35     
1906.8     265.05     0          38.41      684        17.77     
1907       103.08     0          40.64      612        17.7      
1907.2     50.7       0          40.8       648        17.69     
1907.4     177.8      0          40.66      684        17.68     
1907.6     359.94     0          40.4       684        17.6      
1907.8     20.11      0          40.07      684        17.62     
1908       14.42      0          39.78      612        17.67     
1908.2     75.34      0          39.14      648        17.7      
1908.4     254.04     0          37.82      648        17.68     
1908.6     3.56       0          36.16      648        17.67     
1908.8     301.5      0          35.12      684        17.69     
1909       359.54     0          33.69      612        17.7      
1909.2     332.86     0          31.06      684        17.74     
1909.4     0.99       0          29.06      648        17.7      
1909.6     306.95     0          28.66      720        17.57     
1909.8     341.71     0          29.22      648        17.53     
1910       335.33     0          30.05      612        17.57     
1910.2     340.63     0          30.86      684        17.67     
1910.4     320.22     0          30.95      684        17.67     
1910.6     349.06     0          30.85      612        17.6      
1910.8     290.62     1          31.34      684        17.67     
1911       319.95     0          31.32      900        17.63     
1911.2     352.4      0          30.88      612        17.68     
1911.4     25.66      0          30.56      684        17.72     
1911.6     17.48      0          30.3       684        17.76     
1911.8     16.84      0          30.08      648        17.66     
1912       15.82      1          30.19      612        17.6      
1912.2     46.66      0          29.86      612        17.69     
1912.4     24.66      0          29.63      648        17.68     
1912.6     20.73      0          30.13      684        17.66     
1912.8     348.76     0          30.92      648        17.6      
1913       351.01     0          31.22      684        17.64     
1913.2     327.84     0          31.42      576        17.63     
1913.4     280.31     0          32.18      720        17.66     
1913.6     279.16     0          32.81      684        17.69     
1913.8     297.44     0          33.23      684        17.65     
1914       1.76       0          33.56      612        17.61     
1914.2     311.87     0          33.3       648        17.55     
1914.4     77.34      0          33.12      684        17.57     
1914.6     280.79     0          33.61      684        17.59     
1914.8     298.91     0          34.29      684        17.6      
1915       291.07     0          34.6       648        17.73     
