~Version
 VERS              .         2.0                           : CWLS LOG ASCII STANDARD - VERSION 2.0
 WRAP              .         NO                            : ONE LINE PER DEPTH STEP
 DLM               .         SPACE                         : DELIMITING CHARACTER(SPACE TAB OR COMMA)
~Well Information
#_______________________________________________________________________________
#
#PARAMETER_NAME    .UNIT     VALUE                         : DESCRIPTION
#_______________________________________________________________________________
STRT               .M        1149                          : First reference value
STOP               .M        2127.4                        : Last reference value
STEP               .M        0.2                           : Step increment
NULL               .         -9999                         : Missing value
COMP               .                                       : Company
WELL               .         616                           : Well name
FLD                .                                       : Field
LOC                .                                       : Location
CNTY               .                                       : County
STAT               .                                       : State
CTRY               .                                       : Country
SRVC               .                                       : Service Company
DATE               .                                       : Date
API                .                                       : API number
PROJECT_UPGRADE_TIME .         2021-03-18T21_24_50           : 
group              .         Good                          : 
~Parameter Information Block
#_______________________________________________________________________________
#
#PARAMETER_NAME    .UNIT     VALUE                         : DESCRIPTION
#_______________________________________________________________________________
SET                .         616_9                         : 
CONF               .         00                            : 
END                .         0                             : 
ERR                .         0                             : 
GS00               .M        2125.46                       : 
GS01               .M        1146.68                       : 
MM00               .M        2120.00                       : 
NOKG               .         0                             : 
NPR                .         990907                        : 
PART               .         Ивашин                        : 
PROJECT_UPGRADE_TIME .         2021-03-18T21_24_49           : 
PRZK               .         Шакиров                       : 
TLFamily_AZIMUTH   .         True Dip Azimuth              : 
TLFamily_DEPTH     .         Measured Depth                : 
TLFamily_METKA     .                                       : 
TLFamily_ROLL      .                                       : 
TLFamily_SPEED     .         Spontaneous Potential         : 
TLFamily_ZENIT     .                                       : 
VPRG               .         310                           : 
WAY                .         UP                            : 
group              .         prim                          : 
~Curve Information
#_______________________________________________________________________________
#
#LOGNAME           .UNIT     LOG_ID                        : DESCRIPTION
#_______________________________________________________________________________
DEPTH              .M                                      :  
AZIMUTH            .DEG                                    :  
METKA              .                                       :  
ROLL               .DEG                                    :  
SPEED              .M/H                                    :  
ZENIT              .DEG                                    :  
~Ascii
# ...
2100.6     254.74     0          33.23      360        14.45     
2100.8     256.05     0          26.53      396        14.55     
2101       255.71     0          13.48      396        14.55     
2101.2     255.86     0          356.88     360        14.39     
2101.4     259.43     0          332.23     360        14.26     
2101.6     259.72     0          285.18     396        14.48     
2101.8     257.33     0          243.12     396        14.98     
2102       254.94     0          212.17     360        14.69     
2102.2     254.4      0          180.62     108        14.38     
2102.4     256.66     1          146.87     360        13.9      
2102.6     259.8      0          113.98     360        14.03     
2102.8     256.87     0          78.08      360        14.61     
2103       253.3      0          57.87      396        14.16     
2103.2     255.73     2          50.36      216        14.5      
2103.4     256.79     0          34.83      360        14.62     
2103.6     256.09     0          19.63      360        14.53     
2103.8     256.92     0          350.19     396        14.33     
2104       256.92     0          312.18     396        14.18     
2104.2     260.47     0          263.36     360        14.73     
2104.4     255.6      0          221.25     396        14.62     
2104.6     254.59     0          189        396        14.12     
2104.8     254.75     0          160.66     396        13.92     
2105       257.52     0          134.21     396        13.88     
2105.2     262.9      0          90.02      396        14.43     
2105.4     255.68     0          56.33      396        14.53     
2105.6     255.8      0          36.86      396        14.53     
2105.8     256.19     0          18.15      360        14.44     
2106       256.18     0          346.59     360        14.19     
2106.2     260.1      0          296.78     396        14.21     
2106.4     255.74     0          243.52     396        14.65     
2106.6     254.99     0          206.61     360        14.31     
2106.8     255.25     0          172.51     360        13.88     
2107       257.69     0          138.72     360        13.75     
2107.2     257.98     0          96.58      360        14.19     
2107.4     256.33     0          54.07      360        14.53     
2107.6     257.78     0          26.74      360        14.6      
2107.8     259.75     0          341.62     396        14.09     
2108       265.31     0          279.51     360        14.52     
2108.2     255.73     0          217.88     360        14.47     
2108.4     256.91     0          171.44     396        13.76     
2108.6     268.07     0          120.62     396        14.04     
2108.8     263.81     0          49.35      396        14.87     
2109       276.88     0          13.84      360        14.51     
2109.2     321.43     0          338.21     360        14.16     
2109.4     222.46     0          323.33     396        14.56     
2109.6     56.7       2          235.26     360        14.99     
2109.8     359.03     0          189.62     360        14.44     
2110       277.71     0          141.41     396        13.77     
2110.2     274.31     0          91.12      360        14.95     
2110.4     258.96     0          35.48      396        14.89     
2110.6     259.2      0          346.11     396        14.46     
2110.8     267.41     1          280.63     396        14.7      
2111       257.18     0          228.38     612        14.76     
2111.2     255.83     0          166.67     360        13.48     
2111.4     263.3      0          111.86     360        14        
2111.6     257.31     0          43.25      396        14.48     
2111.8     254.9      0          344.97     360        13.34     
2112       263.28     0          281.63     360        14.46     
2112.2     255.88     1          206.15     396        14.21     
2112.4     262.02     0          113.62     396        14.01     
2112.6     253.39     0          29.51      396        13.96     
2112.8     268.01     0          313.62     360        13.36     
2113       258.27     0          227.95     396        14.29     
2113.2     258.64     0          149.16     396        13.15     
2113.4     261.18     0          69.52      396        14.47     
2113.6     255.35     0          359.14     396        13.55     
2113.8     266.29     0          280.4      396        14.47     
2114       256.26     0          183.07     396        13.33     
2114.2     264.65     0          92.2       360        14.48     
2114.4     254.58     0          10.96      360        14.05     
2114.6     268.66     0          294.51     360        14.18     
2114.8     259.61     0          195.18     396        13.19     
2115       254.97     0          128.72     396        13.86     
2115.2     255.14     0          248.17     324        13.05     
2115.4     263.74     0          243.03     360        14.47     
2115.6     265.48     0          134.34     360        13.95     
2115.8     252.01     0          33.59      360        14.03     
2116       272.06     0          293.29     360        14.13     
2116.2     259.71     0          169.04     360        13.14     
2116.4     259.76     0          49.69      396        14.68     
2116.6     274.29     0          290.66     396        15        
2116.8     255.81     0          168.22     396        13.21     
2117       256.69     0          50.4       360        13.41     
2117.2     263.41     0          255.35     396        14.5      
2117.4     280.29     0          111.93     396        14.9      
2117.6     270.18     0          336.16     360        14.18     
2117.8     275.66     0          164.01     360        13.62     
2118       268.03     0          58.84      360        14.47     
2118.2     256.11     0          334.69     360        14.32     
2118.4     262.53     0          350.86     324        14.45     
2118.6     272.51     0          320.1      360        13.9      
2118.8     267.12     0          153.16     360        13.45     
2119       264.13     0          18.54      360        14.92     
2119.2     261.46     0          208.02     396        12.99     
2119.4     260.17     0          46.06      360        13.44     
2119.6     265.07     0          232.83     360        13.62     
2119.8     279.7      0          73.45      360        14.62     
2120       273.94     0          259.11     396        14.03     
2120.2     282.4      0          77.96      360        14.83     
2120.4     294.04     0          251.74     360        14.65     
2120.6     311.74     0          46.48      396        15.06     
2120.8     309.9      0          278.8      396        14.5      
2121       327.13     0          300.56     396        16.11     
2121.2     337.87     0          89.08      396        15.23     
2121.4     343.86     0          172.84     360        13.53     
2121.6     3.8        0          117.42     396        13.24     
2121.8     34.66      0          199.38     360        11.48     
2122       216.84     0          299.6      360        14.04     
2122.2     174.45     1          15.06      360        13.4      
2122.4     189.83     0          16.69      720        15.12     
2122.6     200.98     0          3.14       396        15.18     
2122.8     201        0          3.13       360        15.16     
2123       201.01     0          3.12       360        15.15     
2123.2     200.99     0          3.12       396        15.15     
2123.4     200.97     0          3.14       396        15.15     
2123.6     200.93     0          3.14       396        15.17     
2123.8     200.96     0          3.15       360        15.13     
2124       200.99     0          3.15       360        15.13     
2124.2     200.97     0          3.15       396        15.15     
2124.4     201        0          3.13       360        15.13     
2124.6     201        0          3.15       360        15.11     
2124.8     201.03     0          3.15       360        15.15     
