~Version
 VERS              .         2.0                           : CWLS LOG ASCII STANDARD - VERSION 2.0
 WRAP              .         NO                            : ONE LINE PER DEPTH STEP
 DLM               .         SPACE                         : DELIMITING CHARACTER(SPACE TAB OR COMMA)
~Well Information
#_______________________________________________________________________________
#
#PARAMETER_NAME    .UNIT     VALUE                         : DESCRIPTION
#_______________________________________________________________________________
STRT               .M        2659.6                        : First reference value
STOP               .M        2769.6                        : Last reference value
STEP               .M        0.2                           : Step increment
NULL               .         -9999                         : Missing value
COMP               .                                       : Company
WELL               .         616                           : Well name
FLD                .                                       : Field
LOC                .                                       : Location
CNTY               .                                       : County
STAT               .                                       : State
CTRY               .                                       : Country
SRVC               .                                       : Service Company
DATE               .                                       : Date
API                .                                       : API number
PROJECT_UPGRADE_TIME .         2021-03-18T21_24_50           : 
group              .         Good                          : 
~Parameter Information Block
#_______________________________________________________________________________
#
#PARAMETER_NAME    .UNIT     VALUE                         : DESCRIPTION
#_______________________________________________________________________________
SET                .         D1162_D                       : 
OTHER              .         Программное обеспечение станции MONITOR-386EX 25/12/99 15_08_10   BGF V52 22/08/01 16_56_30   3.2_BGF_N_3070031: 
OTHER_10           .         Тарировки_                    : 
OTHER_11           .         TM.GRD = 0.00403*TM$.UE + -1.19: 
OTHER_12           .         MN.ATM = (7.1e-006*TM.GRD + 0.02017)*(MN$.UE + -3.03*TM.GRD + -1833): 
OTHER_13           .         Id error                      : 
OTHER_2            .         Kedr.exe версия 3.4.2.51      : 
OTHER_3            .         KedrData.dll версия 3.4.2.24  : 
OTHER_4            .         Драйвер версия 2.1.1.8        : 
OTHER_5            .         Мнемоники версия 3.3 S        : 
OTHER_6            .         Прибор_ КСА-М1                : 
OTHER_7            .         Номер прибора_ 265            : 
OTHER_8            .         Режим_ КСА-М1                 : 
OTHER_9            .         Форма_ ТЕРМОМЕТР              : 
PROJECT_UPGRADE_TIME .         2021-03-18T21_24_49           : 
TLFamily_DEPT      .         Measured Depth                : 
TLFamily_GK        .         Gamma Ray                     : 
TLFamily_GK$       .                                       : 
TLFamily_LM        .         Casing Collar locator         : 
TLFamily_METKA     .                                       : 
TLFamily_MN        .                                       : 
TLFamily_MN$       .                                       : 
TLFamily_RCOR      .                                       : 
TLFamily_SPID      .         Spontaneous Potential         : 
TLFamily_STD       .                                       : 
TLFamily_TENS      .         Cable Tension                 : 
TLFamily_TIME      .         Time                          : 
TLFamily_TM        .         Temperature                   : 
TLFamily_TM$       .         Temperature                   : 
TLFamily_VGD       .         Gas Volume                    : 
group              .         prim                          : 
~Curve Information
#_______________________________________________________________________________
#
#LOGNAME           .UNIT     LOG_ID                        : DESCRIPTION
#_______________________________________________________________________________
DEPT               .M                                      : 1 Глубина, м -    0.0 см 
GK                 .MKR/H                                  : 15 Гамма-активность, мкр./ч -  110.0 см 
GK$                .UE                                     : 12 Гамма-активность, усл.ед. -  110.0 см 
LM                 .                                       : 10 Локатор муфт,  -   20.0 см 
METKA              .                                       : 3 Метки,  -    0.0 см 
MN                 .ATM                                    : 14 Давление, атм. -  160.0 см 
MN$                .UE                                     : 8 Давление, усл.ед. -  160.0 см 
RCOR               .CM/KM                                  : 5 Коррекция по ролику, см/км -    0.0 см 
SPID               .M/H                                    : 2 Скорость, м/час -    0.0 см 
STD                .                                       : 11 Приток,  -  170.0 см 
TENS               .T                                      : 6 Натяжение кабеля, т -    0.0 см 
TIME               .S                                      : 4 Время, сек -    0.0 см 
TM                 .GRD                                    : 13 Температура, °C -  180.0 см 
TM$                .UE                                     : 7 Температура, усл.ед. -  180.0 см 
VGD                .                                       : 9 Влагомер,  -  170.0 см 
~Ascii
# ...
2718.4     8.51       371        1          0          252.097    14222      -1400      588        32373      0          17764.23   88.647     22292      6498      
2718.6     8.77       382        1          0          252.136    14224      -1400      594        32373      0          17765.4    88.655     22294      6498      
2718.8     8.88       382        1          0          252.147    14224      -1400      588        32374      0          17766.68   88.662     22296      6498      
2719       8.64       355        1          0          252.163    14225      -1400      593        32373      0          17767.88   88.665     22297      6498      
2719.2     8.4        355        1          0          252.216    14228      -1400      595        32373      0          17769.06   88.673     22299      6498      
2719.4     7.73       286        1          0          252.184    14226      -1400      594        32373      0          17770.26   88.68      22300      6497      
2719.6     7.02       286        1          0          252.262    14230      -1400      595        32373      0          17771.51   88.688     22302      6497      
2719.8     6.5        249        1          0          252.229    14228      -1400      594        32373      0          17772.71   88.695     22304      6497      
2720       5.66       227        19         2          252.289    14231      -1400      596        32373      0          17773.88   88.703     22306      6497      
2720.2     5.28       212        1          0          252.28     14231      -1400      597        32374      0          17775.18   88.71      22308      6497      
2720.4     5.06       212        1          0          252.317    14233      -1400      590        32373      0          17776.42   88.714     22309      6497      
2720.6     5.02       216        1          0          252.348    14234      -1400      589        32373      0          17777.63   88.719     22310      6498      
2720.8     5.04       216        1          0          252.337    14233      -1400      592        32373      0          17778.78   88.727     22312      6497      
2721       4.99       209        1          0          252.401    14236      -1400      589        32373      0          17780.07   88.737     22314      6497      
2721.2     4.84       204        1          0          252.348    14234      -1400      587        32373      0          17781.25   88.766     22322      6497      
2721.4     4.82       207        1          0          252.438    14238      -1400      595        32373      0          17782.48   88.817     22334      6496      
2721.6     4.98       216        1          0          252.418    14237      -1400      591        32374      0          17783.72   88.879     22350      6496      
2721.8     5.2        238        1          0          252.473    14240      -1400      589        32373      0          17784.9    88.938     22364      6495      
2722       5.5        241        1          0          252.486    14240      -1400      592        32374      0          17786.09   88.987     22376      6494      
2722.2     5.6        241        1          0          252.502    14241      -1400      593        32373      0          17787.29   89.019     22384      6494      
2722.4     5.62       241        1          0          252.54     14243      -1400      591        32373      0          17788.58   89.054     22393      6494      
2722.6     5.63       241        1          0          252.509    14241      -1400      591        32373      0          17789.76   89.075     22398      6494      
2722.8     5.15       212        1          0          252.604    14246      -1400      592        32373      0          17790.95   89.099     22404      6494      
2723       5.02       212        1          0          252.545    14243      -1400      586        32373      0          17792.18   89.117     22409      6494      
2723.2     4.76       197        1          0          252.62     14247      -1400      599        32373      0          17793.33   89.129     22412      6495      
2723.4     4.76       211        1          0          252.602    14246      -1400      596        32373      0          17794.55   89.149     22417      6494      
2723.6     5.42       245        1          0          252.63     14247      -1400      598        32373      0          17795.72   89.166     22421      6493      
2723.8     5.63       245        1          0          252.656    14248      -1400      584        32373      0          17796.98   89.187     22426      6495      
2724       6.27       283        1          0          252.666    14249      -1400      589        32373      0          17798.17   89.206     22431      6493      
2724.2     6.51       283        1          0          252.714    14251      -1400      592        32374      0          17799.35   89.221     22434      6493      
2724.4     6.22       256        1          0          252.696    14250      -1400      586        32373      0          17800.59   89.233     22437      6493      
2724.6     6.06       256        1          0          252.777    14254      -1400      585        32373      0          17801.78   89.244     22440      6493      
2724.8     5.77       234        1          0          252.743    14252      -1400      594        32373      0          17803.02   89.259     22444      6492      
2725       5.57       234        1          0          252.795    14255      -1400      596        32373      0          17804.14   89.266     22446      6493      
2725.2     5.83       258        1          0          252.795    14255      -1400      592        32373      0          17805.39   89.273     22447      6493      
2725.4     5.97       258        1          0          252.819    14256      -1400      600        32373      0          17806.57   89.28      22449      6493      
2725.6     5.95       252        1861       0          252.846    14257      -1400      601        32374      0          17807.75   89.284     22450      6493      
2725.8     5.91       252        960        0          252.84     14257      -1400      599        32373      0          17809      89.289     22451      6493      
2726       5.49       204        43         0          252.896    14260      -1400      596        32373      0          17810.19   89.292     22452      6493      
2726.2     5          204        1          0          252.861    14258      -1400      598        32373      0          17811.37   89.292     22452      6494      
2726.4     4.8        199        1          0          252.92     14261      -1400      604        32373      0          17812.55   89.292     22452      6493      
2726.6     4.67       197        1          0          252.923    14261      -1400      599        32372      0          17813.8    89.296     22453      6493      
2726.8     4.78       214        1          0          252.95     14262      -1400      596        32373      0          17814.98   89.3       22454      6493      
2727       4.93       214        1          0          252.965    14263      -1400      601        32374      0          17816.16   89.302     22455      6493      
2727.2     5.07       225        1          0          252.96     14263      -1400      601        32374      0          17817.41   89.312     22457      6494      
2727.4     5.31       232        1          0          253.028    14266      -1400      596        32374      0          17818.59   89.319     22459      6493      
2727.6     5.42       235        1          0          252.993    14264      -1400      598        32372      0          17819.77   89.33      22462      6493      
2727.8     5.63       245        1          0          253.049    14267      -1400      600        32373      0          17820.96   89.341     22464      6493      
2728       5.7        246        1          0          253.05     14267      -1400      594        32373      0          17822.21   89.352     22467      6493      
