~Version
 VERS              .         2.0                           : CWLS LOG ASCII STANDARD - VERSION 2.0
 WRAP              .         NO                            : ONE LINE PER DEPTH STEP
 DLM               .         SPACE                         : DELIMITING CHARACTER(SPACE TAB OR COMMA)
~Well Information
#_______________________________________________________________________________
#
#PARAMETER_NAME    .UNIT     VALUE                         : DESCRIPTION
#_______________________________________________________________________________
STRT               .M        47.8                          : First reference value
STOP               .M        2693.8                        : Last reference value
STEP               .M        0.2                           : Step increment
NULL               .         -9999                         : Missing value
COMP               .                                       : Company
WELL               .         616                           : Well name
FLD                .                                       : Field
LOC                .                                       : Location
CNTY               .                                       : County
STAT               .                                       : State
CTRY               .                                       : Country
SRVC               .                                       : Service Company
DATE               .                                       : Date
API                .                                       : API number
PROJECT_UPGRADE_TIME .         2021-03-18T21_24_50           : 
group              .         Good                          : 
~Parameter Information Block
#_______________________________________________________________________________
#
#PARAMETER_NAME    .UNIT     VALUE                         : DESCRIPTION
#_______________________________________________________________________________
SET                .         D1172_D                       : 
OTHER              .         Программное обеспечение станции MONITOR-386EX 25/12/99 15_08_10   BGF V52 22/08/01 16_56_30   3.2_BGF_N_3070031: 
OTHER_10           .         Тарировки_                    : 
OTHER_11           .         TM.GRD = 0.00403*TM$.UE + -1.19: 
OTHER_12           .         MN.ATM = (7.1e-006*TM.GRD + 0.02017)*(MN$.UE + -3.03*TM.GRD + -1833): 
OTHER_13           .         Id error                      : 
OTHER_2            .         Kedr.exe версия 3.4.2.51      : 
OTHER_3            .         KedrData.dll версия 3.4.2.24  : 
OTHER_4            .         Драйвер версия 2.1.1.8        : 
OTHER_5            .         Мнемоники версия 3.3 S        : 
OTHER_6            .         Прибор_ КСА-М1                : 
OTHER_7            .         Номер прибора_ 265            : 
OTHER_8            .         Режим_ КСА-М1                 : 
OTHER_9            .         Форма_ ТЕРМОМЕТР              : 
PROJECT_UPGRADE_TIME .         2021-03-18T21_24_49           : 
TLFamily_DEPT      .         Measured Depth                : 
TLFamily_GK        .         Gamma Ray                     : 
TLFamily_GK$       .                                       : 
TLFamily_LM        .         Casing Collar locator         : 
TLFamily_METKA     .                                       : 
TLFamily_MN        .                                       : 
TLFamily_MN$       .                                       : 
TLFamily_RCOR      .                                       : 
TLFamily_SPID      .         Spontaneous Potential         : 
TLFamily_STD       .                                       : 
TLFamily_TENS      .         Cable Tension                 : 
TLFamily_TIME      .         Time                          : 
TLFamily_TM        .         Temperature                   : 
TLFamily_TM$       .         Temperature                   : 
TLFamily_VGD       .         Gas Volume                    : 
group              .         prim                          : 
~Curve Information
#_______________________________________________________________________________
#
#LOGNAME           .UNIT     LOG_ID                        : DESCRIPTION
#_______________________________________________________________________________
DEPT               .M                                      : 1 Глубина, м -    0.0 см 
GK                 .MKR/H                                  : 15 Гамма-активность, мкр./ч -  110.0 см 
GK$                .UE                                     : 12 Гамма-активность, усл.ед. -  110.0 см 
LM                 .                                       : 10 Локатор муфт,  -   20.0 см 
METKA              .                                       : 3 Метки,  -    0.0 см 
MN                 .ATM                                    : 14 Давление, атм. -  160.0 см 
MN$                .UE                                     : 8 Давление, усл.ед. -  160.0 см 
RCOR               .CM/KM                                  : 5 Коррекция по ролику, см/км -    0.0 см 
SPID               .M/H                                    : 2 Скорость, м/час -    0.0 см 
STD                .                                       : 11 Приток,  -  170.0 см 
TENS               .T                                      : 6 Натяжение кабеля, т -    0.0 см 
TIME               .S                                      : 4 Время, сек -    0.0 см 
TM                 .GRD                                    : 13 Температура, °C -  180.0 см 
TM$                .UE                                     : 7 Температура, усл.ед. -  180.0 см 
VGD                .                                       : 9 Влагомер,  -  170.0 см 
~Ascii
# ...
1625.6     8.2        350        1          0          149.656    9277       -1400      -1929      17495      0          31270.81   52.105     13225      6562      
1625.8     8.21       350        1          0          149.662    9277       -1400      -1935      17499      0          31270.45   52.112     13226      6562      
1626       8.22       350        1          0          149.699    9279       -1400      -1938      17501      0          31270.08   52.116     13227      6562      
1626.2     8.23       350        1          0          149.717    9280       -1400      -1936      17502      0          31269.7    52.124     13229      6562      
1626.4     8.25       350        1          0          149.736    9281       -1400      -1937      17506      0          31269.33   52.131     13231      6562      
1626.6     8.28       352        1          0          149.738    9281       -1400      -1939      17511      0          31268.97   52.138     13233      6562      
1626.8     8.3        352        1          0          149.768    9282       -1400      -1940      17515      0          31268.58   52.146     13235      6562      
1627       8.33       352        1          0          149.779    9283       -1400      -1936      17517      0          31268.21   52.153     13236      6562      
1627.2     8.39       352        1          0          149.791    9284       -1400      -1938      17517      0          31267.85   52.158     13238      6562      
1627.4     8.46       352        1          0          149.809    9284       -1400      -1940      17519      0          31267.46   52.164     13239      6562      
1627.6     8.56       352        1          0          149.827    9285       -1400      -1942      17523      0          31267.08   52.169     13240      6562      
1627.8     8.72       367        1          0          149.847    9286       -1400      -1944      17527      0          31266.74   52.174     13242      6562      
1628       8.79       377        1          0          149.865    9287       -1400      -1947      17530      0          31266.37   52.183     13244      6562      
1628.2     8.77       377        1          0          149.884    9288       -1400      -1950      17533      0          31265.97   52.192     13246      6561      
1628.4     8.75       377        1          0          149.904    9289       -1400      -1952      17536      0          31265.61   52.197     13247      6562      
1628.6     8.72       377        1          0          149.922    9290       -1400      -1954      17540      0          31265.26   52.208     13250      6562      
1628.8     8.67       377        1          0          149.94     9291       -1400      -1951      17545      0          31264.89   52.212     13251      6562      
1629       8.61       376        1          0          149.96     9292       -1400      -1948      17548      0          31264.53   52.222     13254      6562      
1629.2     8.51       365        1          0          149.979    9293       -1400      -1945      17550      0          31264.15   52.23      13256      6562      
1629.4     8.5        365        1          0          150.009    9294       -1400      -1954      17552      0          31263.77   52.238     13258      6562      
1629.6     8.48       365        1          0          150.025    9295       -1400      -1952      17555      0          31263.41   52.247     13260      6562      
1629.8     8.45       365        1          2          150.035    9296       -1400      -1949      17560      0          31263.05   52.254     13262      6562      
1630       8.41       365        1          0          150.054    9296       -1400      -1946      17564      0          31262.63   52.26      13263      6561      
1630.2     8.35       365        1          0          150.071    9297       -1400      -1942      17566      0          31262.25   52.267     13265      6561      
1630.4     8.26       365        32         0          150.091    9298       -1400      -1938      17567      0          31261.89   52.273     13266      6562      
1630.6     8.14       356        36         0          150.109    9299       -1400      -1938      17568      0          31261.52   52.278     13267      6562      
1630.8     8.04       343        65         0          150.128    9300       -1400      -1936      17572      0          31261.15   52.285     13269      6562      
1631       8.04       343        65         0          150.147    9301       -1400      -1934      17576      0          31260.78   52.292     13271      6562      
1631.2     8.06       343        131        0          150.165    9302       -1400      -1936      17578      0          31260.41   52.3       13273      6562      
1631.4     8.07       343        231        0          150.184    9303       -1400      -1937      17578      0          31260.03   52.304     13274      6562      
1631.6     8.09       343        379        0          150.205    9304       -1400      -1938      17580      0          31259.66   52.31      13276      6562      
1631.8     8.12       343        614        0          150.224    9305       -1400      -1934      17584      0          31259.29   52.315     13277      6563      
1632       8.17       344        974        0          150.242    9306       -1400      -1929      17588      0          31258.9    52.322     13278      6562      
1632.2     8.22       344        1540       0          150.261    9307       -1400      -1936      17590      0          31258.56   52.329     13280      6563      
1632.4     8.31       344        2415       0          150.27     9307       -1400      -1927      17590      0          31258.17   52.335     13282      6562      
1632.6     8.44       344        3795       0          150.285    9308       -1400      -1929      17592      0          31257.81   52.34      13283      6562      
1632.8     8.62       344        5998       0          150.317    9309       -1400      -1936      17595      0          31257.45   52.346     13284      6562      
1633       8.89       344        60         0          150.336    9310       -1400      -1941      17599      0          31257.07   52.35      13285      6562      
1633.2     9.27       371        60         0          150.355    9311       -1400      -1940      17602      0          31256.7    52.354     13286      6562      
1633.4     9.58       408        1          0          150.373    9312       -1400      -1938      17603      0          31256.33   52.362     13288      6562      
1633.6     9.59       408        1          0          150.373    9312       -1400      -1940      17605      0          31255.96   52.368     13290      6563      
1633.8     9.61       408        1          0          150.407    9314       -1400      -1941      17609      0          31255.6    52.361     13288      6563      
1634       9.65       408        1          0          150.414    9314       -1400      -1937      17612      0          31255.23   52.377     13292      6562      
1634.2     9.7        408        1          0          150.427    9315       -1400      -1939      17613      0          31254.84   52.387     13295      6563      
1634.4     9.77       408        1          0          150.445    9316       -1400      -1941      17617      0          31254.5    52.392     13296      6563      
1634.6     9.87       421        1          0          150.474    9317       -1400      -1943      17616      0          31254.11   52.395     13297      6563      
1634.8     9.89       425        1          0          150.504    9318       -1400      -1946      17617      0          31253.73   52.401     13298      6562      
1635       9.86       425        1          0          150.516    9319       -1400      -1944      17620      0          31253.37   52.407     13299      6563      
1635.2     9.83       425        1          0          150.521    9319       -1400      -1940      17624      0          31253      52.412     13301      6563      
