~Version
 VERS              .         2.0                           : CWLS LOG ASCII STANDARD - VERSION 2.0
 WRAP              .         NO                            : ONE LINE PER DEPTH STEP
 DLM               .         SPACE                         : DELIMITING CHARACTER(SPACE TAB OR COMMA)
~Well Information
#_______________________________________________________________________________
#
#PARAMETER_NAME    .UNIT     VALUE                         : DESCRIPTION
#_______________________________________________________________________________
STRT               .M        1740.47                       : First reference value
STOP               .M        2787.78                       : Last reference value
STEP               .M        0                             : Step increment
NULL               .         -9999                         : Missing value
COMP               .                                       : Company
WELL               .         616                           : Well name
FLD                .                                       : Field
LOC                .                                       : Location
CNTY               .                                       : County
STAT               .                                       : State
CTRY               .                                       : Country
SRVC               .                                       : Service Company
DATE               .                                       : Date
API                .                                       : API number
PROJECT_UPGRADE_TIME .         2021-03-18T21_24_50           : 
group              .         Good                          : 
~Parameter Information Block
#_______________________________________________________________________________
#
#PARAMETER_NAME    .UNIT     VALUE                         : DESCRIPTION
#_______________________________________________________________________________
SET                .         D2664                         : 
NPR                .         980607                        : ЗАВ НОМЕР ПРИБОРА
NPRT               .         Мещеряков                     : НАЧ ПАРТИИ
PROJECT_UPGRADE_TIME .         2021-03-18T21_24_50           : 
TLFamily_AZIMUTH   .         True Dip Azimuth              : 
TLFamily_DEPTH     .         Measured Depth                : 
TLFamily_DRILL     .                                       : 
TLFamily_METKA     .                                       : 
TLFamily_ZENIT     .                                       : 
group              .         prim                          : 
~Curve Information
#_______________________________________________________________________________
#
#LOGNAME           .UNIT     LOG_ID                        : DESCRIPTION
#_______________________________________________________________________________
DEPTH              .M                                      : 1 ГЛУБИНА 
AZIMUTH            .ГРАД                                   : 4 АЗИМУТ 
DRILL              .ГРАД                                   : 2 ПОВОРОТ 
METKA              .                                       : 5 МАГН МЕТКА 
ZENIT              .ГРАД                                   : 3 ЗЕНИТ 
~Ascii
1740.47    260.7      68.3       0          21.04     
1740.86    260.73     70.27      0          21.04     
1741.25    260.72     72.27      0          21.02     
1741.63    260.71     74.27      0          21.01     
1742.02    260.66     76.25      0          20.98     
1742.41    260.73     78.22      0          20.98     
1742.8     260.73     80.16      0          20.97     
1743.19    260.79     82         0          20.97     
1743.58    260.75     83.78      0          20.95     
1743.97    260.73     85.53      0          20.94     
1744.36    260.73     87.22      0          20.94     
1744.74    260.71     88.88      0          20.92     
1745.13    260.74     90.47      0          20.92     
1745.52    260.76     92.02      0          20.91     
1745.91    260.8      93.53      0          20.91     
1746.29    260.78     95.02      0          20.89     
1746.68    260.84     96.46      0          20.9      
1747.07    260.85     97.9       0          20.89     
1747.45    260.86     99.3       0          20.88     
1747.84    260.83     100.65     0          20.87     
1748.23    260.85     101.95     0          20.86     
1748.62    260.86     103.24     0          20.85     
1749       260.9      104.56     0          20.85     
1749.39    260.9      105.94     0          20.85     
1749.77    260.92     107.37     0          20.84     
1750.16    260.91     108.79     0          20.83     
1750.55    260.91     110.2      0          20.83     
1750.93    260.95     111.58     0          20.82     
1751.32    260.97     112.92     0          20.82     
1751.7     261.01     114.27     0          20.82     
1752.09    261.01     115.6      0          20.8      
1752.28    260.99     116.53     0          20.79     
1752.47    261        117.4      0          20.78     
1752.85    261        119.78     0          20.77     
1753.23    261.05     122.3      0          20.77     
1753.61    260.99     124.95     0          20.75     
1754       261.04     127.76     0          20.74     
1754.38    261.09     130.73     0          20.71     
1754.76    261.2      133.87     0          20.71     
1755.15    261.19     137.22     0          20.7      
1755.53    261.24     140.75     0          20.68     
1755.91    261.35     144.43     0          20.67     
1756.3     261.43     148.43     0          20.65     
1756.68    261.46     152.89     0          20.62     
1757.06    261.48     157.9      0          20.6      
1757.45    261.56     163.73     0          20.59     
1757.83    261.58     170.85     0          20.57     
1758.22    261.63     179.67     0          20.56     
1758.6     261.7      190.34     0          20.54     
1758.98    261.79     202.72     0          20.53     
1759.36    261.81     216.37     0          20.51     
1759.75    261.86     230.37     0          20.49     
1760.13    261.89     243.61     0          20.47     
1760.51    261.99     255.19     0          20.46     
1760.9     262.02     264.71     0          20.45     
1761.28    262.04     272.26     0          20.43     
1761.66    262.08     278.3      0          20.42     
1762.05    262.1      283.25     0          20.4      
1762.43    262.18     287.41     0          20.38     
1762.81    262.17     290.94     0          20.36     
1763.2     262.19     293.93     0          20.35     
1763.58    262.21     296.5      0          20.34     
1763.97    262.24     298.68     0          20.33     
1764.15    262.3      302.58     0          20.33     
1764.34    262.33     306.3      0          20.32     
1764.53    262.37     309.83     0          20.31     
1764.72    262.34     313.15     0          20.3      
1764.91    262.31     316.3      0          20.3      
1765.1     262.28     319.31     0          20.29     
1765.48    262.32     322.79     0          20.27     
1765.86    262.25     326.07     0          20.25     
1766.25    262.3      329.13     0          20.27     
1766.63    262.19     331.97     0          20.26     
1767.01    262.18     334.67     0          20.26     
1767.4     262.16     337.2      0          20.27     
1767.78    262.14     339.58     0          20.26     
1768.16    262.15     341.92     0          20.26     
1768.55    262.11     344.23     0          20.25     
1768.93    262.1      346.47     0          20.25     
1769.32    262.06     348.58     0          20.24     
1769.7     262.04     350.57     0          20.24     
1770.08    262.03     352.42     0          20.23     
1770.47    262.04     354.14     0          20.23     
1770.85    261.96     355.8      0          20.22     
1771.23    261.94     357.46     0          20.22     
1771.62    261.97     359.11     0          20.22     
1772       261.97     0.69       0          20.22     
1772.38    261.93     2.18       0          20.22     
1772.77    261.88     3.58       0          20.21     
1773.15    261.88     4.95       0          20.21     
1773.53    261.89     6.33       0          20.21     
1773.92    261.88     7.71       0          20.2      
1774.3     261.84     9.09       0          20.19     
1774.68    261.85     10.44      0          20.19     
1775.06    261.88     11.71      0          20.19     
1775.45    261.86     12.9       0          20.18     
1775.83    261.88     14.02      0          20.18     
1776.22    261.91     15.06      0          20.18     
1776.6     261.84     16.02      0          20.17     
1776.79    261.89     16.25      0          20.18     
1776.97    261.92     16.47      0          20.19     
1777.16    261.83     16.64      0          20.16     
1777.55    261.86     17.85      0          20.14     
1777.93    261.82     19.11      0          20.13     
1778.31    261.77     20.48      0          20.11     
1778.7     261.77     22.02      0          20.09     
1779.08    261.68     23.62      0          20.08     
1779.46    261.69     25.29      0          20.07     
1779.85    261.68     27.04      0          20.05     
1780.23    261.72     28.85      0          20.04     
1780.61    261.76     30.75      0          20.03     
1780.99    261.68     32.8       0          20.01     
1781.38    261.7      35.01      0          19.99     
1781.76    261.7      37.36      0          19.97     
1782.14    261.67     39.85      0          19.94     
1782.53    261.69     42.47      0          19.92     
1782.91    261.7      45.18      0          19.9      
1783.29    261.7      47.96      0          19.88     
1783.68    261.75     50.8       0          19.86     
1784.06    261.74     53.68      0          19.83     
1784.44    261.75     56.55      0          19.8      
1784.83    261.69     59.41      0          19.78     
1785.21    261.74     62.27      0          19.75     
1785.59    261.73     65.17      0          19.73     
1785.97    261.67     68.13      0          19.71     
1786.36    261.66     71.08      0          19.69     
1786.74    261.66     73.98      0          19.67     
1787.12    261.66     76.79      0          19.65     
1787.51    261.71     79.54      0          19.63     
1787.89    261.76     82.2       0          19.6      
1788.27    261.76     84.82      0          19.58     
1788.66    261.76     87.42      0          19.57     
1788.84    261.79     89.35      0          19.57     
1789.03    261.83     91.26      0          19.56     
1789.22    261.89     93.09      0          19.55     
1789.41    261.88     94.73      0          19.54     
1789.8     261.96     94.4       0          19.52     
1790.18    261.99     93.81      0          19.51     
1790.57    261.99     92.9       0          19.5      
1790.96    262.05     91.75      0          19.5      
1791.35    262.01     90.25      0          19.49     
1791.74    262.07     88.28      0          19.49     
1792.13    262.03     85.75      0          19.48     
1792.51    262.07     82.58      0          19.48     
1792.9     262.08     78.62      0          19.49     
1793.29    262.06     73.86      0          19.49     
