~Version
 VERS              .         2.0                           : CWLS LOG ASCII STANDARD - VERSION 2.0
 WRAP              .         NO                            : ONE LINE PER DEPTH STEP
 DLM               .         SPACE                         : DELIMITING CHARACTER(SPACE TAB OR COMMA)
~Well Information
#_______________________________________________________________________________
#
#PARAMETER_NAME    .UNIT     VALUE                         : DESCRIPTION
#_______________________________________________________________________________
STRT               .M        3.8                           : First reference value
STOP               .M        216                           : Last reference value
STEP               .M        0.2                           : Step increment
NULL               .         -9999                         : Missing value
COMP               .                                       : Company
WELL               .         616                           : Well name
FLD                .                                       : Field
LOC                .                                       : Location
CNTY               .                                       : County
STAT               .                                       : State
CTRY               .                                       : Country
SRVC               .                                       : Service Company
DATE               .                                       : Date
API                .                                       : API number
PROJECT_UPGRADE_TIME .         2021-03-18T21_24_50           : 
group              .         Good                          : 
~Parameter Information Block
#_______________________________________________________________________________
#
#PARAMETER_NAME    .UNIT     VALUE                         : DESCRIPTION
#_______________________________________________________________________________
SET                .         D1350_D                       : 
OTHER              .         Программное обеспечение станции MONITOR-386EX 25/12/99 15_08_10   BGF V52 22/08/01 16_56_30   3.1_SNGF__BGF_								111238: 
OTHER_10           .         Тарировки_                    : 
OTHER_11           .         <_techsia_sc_> Постоянная времени фильтра  0.5 сек, kf=0.181269: 
OTHER_12           .         TM.GRD = 0.00428968*TM$.UE + -0.3284: 
OTHER_13           .         GK.MKR/H = GK$.UE / 40.16     : 
OTHER_14           .         NKT. = NKT$.UE / 1            : 
OTHER_2            .         Kedr.exe версия 3.3.2.43      : 
OTHER_3            .         KedrData.dll версия 3.3.2.22  : 
OTHER_4            .         Драйвер версия 2.1.1.3        : 
OTHER_5            .         Мнемоники версия 3.3 S        : 
OTHER_6            .         Прибор_ РК4-38                : 
OTHER_7            .         Номер прибора_ 35с            : 
OTHER_8            .         Режим_ РК4-38                 : 
OTHER_9            .         Форма_ 3                      : 
PROJECT_UPGRADE_TIME .         2021-03-18T21_24_49           : 
TLFamily_DEPT      .         Measured Depth                : 
TLFamily_GK        .         Gamma Ray                     : 
TLFamily_GK$       .                                       : 
TLFamily_LM        .         Casing Collar locator         : 
TLFamily_METKA     .                                       : 
TLFamily_NKT       .         Neutron Far                   : 
TLFamily_NKT$      .         Neutron Far                   : 
TLFamily_RCOR      .                                       : 
TLFamily_SPID      .         Spontaneous Potential         : 
TLFamily_TENS      .         Cable Tension                 : 
TLFamily_TIME      .         Time                          : 
TLFamily_TM        .         Temperature                   : 
TLFamily_TM$       .         Temperature                   : 
group              .         prim                          : 
~Curve Information
#_______________________________________________________________________________
#
#LOGNAME           .UNIT     LOG_ID                        : DESCRIPTION
#_______________________________________________________________________________
DEPT               .M                                      : 1 Глубина, м -    0.0 см 
GK                 .MKR/H                                  : 12 Гамма-активность, мкр./ч -   23.0 см 
GK$                .UE                                     : 10 Гамма-активность, усл.ед. -   23.0 см 
LM                 .                                       : 8 Локатор муфт,  -  180.0 см 
METKA              .                                       : 3 Метки,  -    0.0 см 
NKT                .                                       : 13 НКТ, прив. -  160.0 см 
NKT$               .UE                                     : 9 НКТ, усл.ед. -  160.0 см 
RCOR               .CM/KM                                  : 5 Коррекция по ролику, см/км -    0.0 см 
SPID               .M/H                                    : 2 Скорость, м/час -    0.0 см 
TENS               .T                                      : 6 Натяжение кабеля, т -    0.0 см 
TIME               .S                                      : 4 Время, сек -    0.0 см 
TM                 .GRD                                    : 11 Температура, °C -  193.0 см 
TM$                .UE                                     : 7 Температура, усл.ед. -  193.0 см 
~Ascii
# ...
93.4       2.88       110        33         0          0          0          7013       -340       0          3124.86    8.341      2021      
93.6       2.95       121        49         0          0          0          7013       -334       0          3122.74    8.351      2023      
93.8       2.8        119        34         0          0          0          7013       -326       0          3120.64    8.337      2020      
94         2.49       100        32         0          0          0          7013       -329       0          3118.42    8.345      2022      
94.2       2.48       100        43         0          0          0          7013       -319       0          3116.16    8.369      2027      
94.4       2.44       100        77         0          0          0          7013       -329       0          3114.04    8.38       2030      
94.6       2.29       100        79         0          0          0          7013       -338       0          3111.87    8.388      2032      
94.8       2.39       86         61         0          0          0          7013       -312       0          3109.66    8.397      2034      
95         2.67       100        51         0          0          0          7013       -318       0          3107.55    8.394      2033      
95.2       2.71       116        29         0          0          0          7013       -336       0          3105.34    8.405      2036      
95.4       2.42       98         29         0          0          0          7013       -331       0          3103.02    8.401      2035      
95.6       2.38       95         33         0          0          0          7013       -327       0          3100.98    8.405      2036      
95.8       2.42       99         37         0          0          0          7013       -333       0          3098.8     8.42       2039      
96         2.28       89         46         0          0          0          7013       -326       0          3096.58    8.416      2039      
96.2       2.48       89         26         0          0          0          7013       -325       0          3094.37    8.433      2042      
96.4       2.65       102        37         0          0          0          7013       -334       0          3092.25    8.465      2050      
96.6       2.7        110        29         0          0          0          7013       -340       0          3090.03    8.459      2049      
96.8       2.78       103        26         0          0          0          7013       -331       0          3087.92    8.475      2052      
97         3.4        107        28         0          0          0          7013       -323       0          3085.82    8.491      2056      
97.2       5.31       175        34         0          0          0          7013       -323       0          3083.55    8.494      2057      
97.4       8.02       313        111        0          0          0          7013       -328       0          3081.29    8.497      2057      
97.6       8.77       349        317        0          0          0          7013       -329       0          3079.17    8.51       2061      
97.8       7.9        367        321        0          0          0          7013       -327       0          3076.95    8.511      2061      
98         6.65       308        65         0          0          0          7013       -331       0          3074.74    8.516      2062      
98.2       5.6        239        50         0          0          0          7013       -326       0          3072.63    8.517      2062      
98.4       5.14       214        61         0          0          0          7013       -321       0          3070.51    8.521      2063      
98.6       4.7        201        44         0          0          0          7013       -331       0          3068.2     8.523      2064      
98.8       3.94       159        57         0          0          0          7013       -331       0          3066.08    8.53       2065      
99         3.87       151        56         0          0          0          7013       -332       0          3063.93    8.533      2066      
99.2       4.23       162        41         0          0          0          7013       -328       0          3061.75    8.534      2066      
99.4       4.21       173        43         0          0          0          7013       -317       0          3059.51    8.534      2066      
99.6       3.93       172        42         0          0          0          7013       -317       0          3057.4     8.534      2066      
99.8       3.51       150        39         0          0          0          7013       -331       0          3055.18    8.538      2067      
100        3.16       135        33         2          0          0          7013       -326       0          3053.02    8.538      2067      
100.2      2.86       115        52         0          0          0          7013       -332       0          3051.04    8.543      2068      
100.4      2.87       113        82         0          0          0          7013       -336       0          3050.26    8.543      2068      
100.6      2.9        113        330        0          0          0          7013       -326       0          3048.04    8.544      2068      
100.8      3.1        121        3762       0          0          0          7013       -323       0          3045.92    8.546      2069      
101        3.32       131        7026       0          0          0          7013       -330       0          3043.71    8.547      2069      
101.2      3.48       139        36         0          0          0          7013       -335       0          3041.54    8.547      2069      
101.4      3.55       139        43         0          0          0          7013       -321       0          3039.44    8.548      2069      
101.6      3.78       140        49         0          0          0          7013       -323       0          3037.18    8.541      2068      
101.8      3.99       159        67         0          0          0          7013       -327       0          3034.95    8.547      2069      
102        3.96       163        26         0          0          0          7013       -320       0          3032.79    8.538      2067      
102.2      3.79       151        29         0          0          0          7013       -323       0          3030.68    8.543      2068      
102.4      3.87       153        39         0          0          0          7013       -334       0          3028.41    8.536      2067      
102.6      4.05       161        32         0          0          0          7013       -326       0          3026.3     8.53       2065      
102.8      4.18       167        30         0          0          0          7013       -334       0          3024.08    8.523      2063      
103        4.23       167        50         0          0          0          7013       -335       0          3021.87    8.526      2064      
103.2      4          176        65         0          0          0          7013       -327       0          3019.65    8.532      2066      
103.4      3.58       157        77         0          0          0          7013       -327       0          3017.55    8.538      2067      
103.6      3.32       130        36         0          0          0          7013       -319       0          3015.33    8.493      2057      
103.8      3.49       136        30         0          0.002      0          7013       -333       0          3013.12    8.464      2050      
104        3.75       149        40         0          0.008      0          7013       -321       0          3010.97    8.483      2054      
104.2      3.84       155        48         0          0.033      0          7013       -325       0          3008.79    8.465      2050      
104.4      3.76       151        29         0          0.142      0          7013       -321       0          3006.67    8.433      2042      
