~Version
 VERS              .         2.0                           : CWLS LOG ASCII STANDARD - VERSION 2.0
 WRAP              .         NO                            : ONE LINE PER DEPTH STEP
 DLM               .         SPACE                         : DELIMITING CHARACTER(SPACE TAB OR COMMA)
~Well Information
#_______________________________________________________________________________
#
#PARAMETER_NAME    .UNIT     VALUE                         : DESCRIPTION
#_______________________________________________________________________________
STRT               .M        2658.35                       : First reference value
STOP               .M        2764.149788                   : Last reference value
STEP               .M        0.1999996                     : Step increment
NULL               .         -9999                         : Missing value
COMP               .                                       : Company
WELL               .         616                           : Well name
FLD                .                                       : Field
LOC                .                                       : Location
CNTY               .                                       : County
STAT               .                                       : State
CTRY               .                                       : Country
SRVC               .                                       : Service Company
DATE               .                                       : Date
API                .                                       : API number
PROJECT_UPGRADE_TIME .         2021-03-18T21_24_50           : 
group              .         Good                          : 
~Parameter Information Block
#_______________________________________________________________________________
#
#PARAMETER_NAME    .UNIT     VALUE                         : DESCRIPTION
#_______________________________________________________________________________
SET                .         D7019_D_2                     : 
NPR                .         155                           : Номер прибора
OTHER              .         Kedr.exe версия 2.1.2.32      : 
OTHER_10           .         TM.GRD = 0.00404*TM$.UE + 0.07: 
OTHER_11           .         MN.ATM = (6.33279e-006*TM.GRD + 0.02401)*(MN$.UE + 2.72*TM.GRD + -2018): 
OTHER_12           .         GK.MKR/H = GK$.UE / 43.5489 + 0: 
OTHER_13           .         RES.SM = 0.00476*CRES.UE - 1.51709: 
OTHER_14           .         PL.GSM3 = 0 + 0 * (PL.UE / 1) +  0 * (PL.UE / 1)^2: 
OTHER_15           .         Постоянная времени ГГП = 6 сек: 
OTHER_16           .         Постоянная времени ГК = 6 сек : 
OTHER_2            .         KedrData.dll версия 3.2.2.14  : 
OTHER_3            .         LasInf.dll версия 3.2.0.13    : 
OTHER_4            .         Драйвер версия 1.2.0.5        : 
OTHER_5            .         Прибор_ КСА-M1                : 
OTHER_6            .         Номер прибора_ 155+р204       : 
OTHER_7            .         Режим_ КСА-М1 + ГГП + Резистивиметр: 
OTHER_8            .         Форма_ 223\2                  : 
OTHER_9            .         Тарировки_                    : 
PR                 .         КСА-Т7 М1                     : Тип прибора
PROJECT_UPGRADE_TIME .         2021-03-18T21_24_50           : 
PRTY               .         ПП-223_2                      : Номер партии
SRV                .         ЦКРС                          : Заказчик
SRVC               .         Лузин  А.Б.                   : Начальник партии
TLFamily_DEPT      .         Measured Depth                : 
TLFamily_LM        .         Casing Collar locator         : 
TLFamily_MN        .                                       : 
TLFamily_SPID      .         Spontaneous Potential         : 
TLFamily_TM        .         Temperature                   : 
group              .         second                        : 
~Curve Information
#_______________________________________________________________________________
#
#LOGNAME           .UNIT     LOG_ID                        : DESCRIPTION
#_______________________________________________________________________________
DEPT               .M                                      : Depth curve 
LM                 .е.ацп                                  : Локация муфт 
MN                 .атм                                    : Манометрия, атм 
SPID               .м/ч                                    : Скорость записи,м/час 
TM                 .град.С                                 : Термометрия,град.С 
~Ascii
2658.3500977 -9999      -9999      -9999      -9999     
2658.55    38         -9999      150.146    -9999     
2658.749999 37.127     -9999      450.063    -9999     
2658.949999 297.958    -9999      580.005    -9999     
2659.149998 213.01     -9999      589.961    -9999     
2659.349998 233.99     -9999      510.034    -9999     
2659.549998 212.995    -9999      580        -9999     
2659.749997 202.019    -9999      580        -9999     
2659.949997 239.993    -9999      580        -9999     
2660.149996 225.091    243.67     580        -9999     
2660.349996 410.951    243.66     579.977    49.5      
2660.549996 310.93     243.64     533.023    49.5      
2660.749995 167.986    243.64     580        49.49     
2660.949995 141.046    243.66     579.983    49.48     
2661.149994 2281.308   243.71     544.989    49.49     
2661.349994 2911.996   243.74     522.022    49.49     
2661.549994 2903.272   243.74     567.995    49.49     
2661.749993 1415.166   243.74     557.011    49.49     
2661.949993 3799.441   243.74     580        49.49     
2662.149992 2655.146   243.77     579.994    49.48     
2662.349992 906.684    243.78     568.006    49.48     
2662.549992 262.078    243.81     579.989    49.47     
2662.749991 2467.569   243.82     556.977    49.46     
2662.949991 1585.426   243.83     510.022    49.46     
2663.14999 411.905    243.85     556.012    49.45     
2663.34999 217.97     243.85     579.972    49.44     
2663.54999 155.985    243.85     522.028    49.42     
2663.749989 126.006    243.89     579.977    49.41     
2663.949989 139.01     243.9      533.003    49.4      
2664.149988 160.389    243.93     540.02     49.39     
2664.349988 956.498    243.91     580        49.38     
2664.549988 1974.305   243.96     579.983    49.35     
2664.749987 553.825    243.95     544.983    49.34     
2664.949987 195.97     243.99     510.034    49.33     
2665.149986 133.997    243.92     580        49.32     
2665.349986 127.991    244        579.966    49.31     
2665.549986 110.014    244.01     510.034    49.31     
2665.749985 138.98     244.04     580        49.29     
2665.949985 98.011     244.03     580        49.27     
2666.149984 120.004    244.07     579.966    49.26     
2666.349984 127.988    244.09     510.034    49.24     
2666.549984 104.066    244.09     580        49.24     
2666.749983 238.975    244.11     580        49.23     
2666.949983 187.017    244.14     579.995    49.22     
2667.149982 221.957    244.13     569.005    49.2      
2667.349982 134        244.18     579.966    49.18     
2667.549982 134.984    244.18     510.023    49.17     
2667.749981 101.992    244.18     557.011    49.15     
2667.949981 85.001     244.22     580        49.14     
2668.14998 88.022     244.22     579.983    49.12     
2668.34998 132.982    244.22     544.993    49.11     
2668.54998 96.003     244.24     530.024    49.09     
2668.749979 104.011    244.26     580        49.08     
2668.949979 4214.811   244.26     579.985    49.06     
2669.149978 5871.804   244.32     550.015    49.06     
2669.349978 3427.728   244.32     580        49.03     
2669.549978 2871.333   244.33     580        49.02     
2669.749977 1508.935   244.35     579.966    49.01     
2669.949977 1376.441   244.35     510.034    49        
2670.149976 2278.21    244.37     579.99     48.98     
2670.349976 2707.01    244.4      560.01     48.97     
2670.549976 2726.328   244.4      579.966    48.95     
2670.749975 1353.238   244.43     510.006    48.93     
2670.949975 1838.637   244.47     522.028    48.92     
2671.149974 1097.645   244.46     580        48.91     
2671.349974 374.594    244.48     579.983    48.9      
2671.549974 3631.113   244.49     544.989    48.88     
2671.749973 1819.661   244.53     522.023    48.87     
2671.949973 1127.644   244.54     568.006    48.85     
2672.149972 400.87     244.55     580        48.84     
2672.349972 134.984    244.57     579.995    48.83     
2672.549972 102.987    244.59     569.977    48.81     
2672.749971 76.008     244.6      522.011    48.8      
2672.949971 93.002     244.61     544.988    48.78     
2673.14997 96.987     244.63     521.023    48.77     
2673.34997 71.017     244.64     568.006    48.76     
2673.54997 106.011    244.66     579.989    48.74     
2673.749969 128.979    244.68     557.011    48.74     
2673.949969 88.465     244.7      580        48.72     
2674.149968 3079.475   244.7      580        48.71     
2674.349968 2006.275   244.75     579.989    48.69     
2674.549968 525.795    244.76     556.977    48.66     
2674.749967 106.99     244.71     510.034    48.65     
2674.949967 87.003     244.79     579.983    48.63     
2675.149966 93.991     244.81     545.017    48.63     
2675.349966 75.021     244.84     580        48.62     
2675.549966 117.995    244.83     579.972    48.6      
2675.749965 106.992    244.86     521.994    48.58     
2675.949965 90.994     244.88     510.034    48.57     
2676.149964 77.988     244.89     580        48.56     
2676.349964 54.004     244.92     580        48.54     
2676.549964 63.004     244.92     579.966    48.53     
2676.749963 71.015     244.96     510.006    48.52     
2676.949963 100.974    244.96     522.028    48.5      
2677.149962 46.999     245.01     580        48.48     
2677.349962 44.005     244.99     580        48.48     
2677.549962 55.014     245.01     579.994    48.47     
2677.749961 84.012     245.04     568.006    48.46     
2677.949961 108.974    245.06     580        48.44     
2678.14996 55.023     245.08     580        48.44     
2678.34996 101.002    245.09     579.994    48.41     
2678.54996 104.99     245.12     568.006    48.39     
2678.749959 84.996     245.12     579.989    48.37     
2678.949959 75.995     245.13     556.988    48.36     
2679.149958 65.999     245.14     533.023    48.35     
2679.349958 64.008     245.18     579.972    48.33     
2679.549958 81.043     245.19     522.024    48.32     
2679.749957 167.967    245.21     570.005    48.29     
2679.949957 102.807    245.22     579.966    48.27     
2680.149956 5827.937   245.21     510.034    48.26     
2680.349956 3659.039   245.25     579.972    48.24     
2680.549956 1698.736   245.27     522.028    48.22     
2680.749955 3200.124   245.3      580        48.21     
2680.949955 3454.162   245.31     579.983    48.21     
2681.149954 3784.902   245.34     545.017    48.19     
2681.349954 3583.699   245.34     580        48.17     
2681.549954 2969.115   245.38     580        48.15     
2681.749953 1162.581   245.39     579.983    48.14     
2681.949953 306.944    245.4      545.017    48.12     
2682.149952 191.967    245.42     579.966    48.11     
2682.349952 123.975    245.45     510        48.1      
2682.549952 73.01      245.45     510.034    48.08     
2682.749951 93.999     245.49     580        48.06     
2682.949951 91.014     245.51     579.986    48.05     
2683.14995 119.002    245.54     552.014    48.04     
2683.34995 123.994    245.54     580        48.03     
2683.54995 111.01     245.55     579.972    48.01     
2683.749949 130.984    245.58     522.028    48        
2683.949949 97.993     245.61     579.966    47.99     
2684.149948 83.001     245.63     510.034    47.99     
2684.349948 85.007     245.65     579.989    47.97     
2684.549948 99.986     245.65     557.011    47.95     
2684.749947 72.006     245.67     580        47.94     
2684.949947 83.994     245.68     579.994    47.92     
2685.149946 72.001     245.72     568.006    47.91     
2685.349946 75.017     245.74     580        47.9      
2685.549946 108.987    245.76     580        47.89     
2685.749945 82.041     245.78     580        47.87     
2685.949945 165.012    245.81     579.966    47.86     
2686.149944 189.951    245.82     510.034    47.84     
2686.349944 89.987     245.82     580        47.82     
2686.549944 64.005     245.82     580        47.8      
2686.749943 74.004     245.84     580        47.77     
2686.949943 82.003     245.89     580        47.75     
