~Version
 VERS              .         2.0                           : CWLS LOG ASCII STANDARD - VERSION 2.0
 WRAP              .         NO                            : ONE LINE PER DEPTH STEP
 DLM               .         SPACE                         : DELIMITING CHARACTER(SPACE TAB OR COMMA)
~Well Information
#_______________________________________________________________________________
#
#PARAMETER_NAME    .UNIT     VALUE                         : DESCRIPTION
#_______________________________________________________________________________
STRT               .M        549.2                         : First reference value
STOP               .M        805.2                         : Last reference value
STEP               .M        0.2                           : Step increment
NULL               .         -9999                         : Missing value
COMP               .                                       : Company
WELL               .         616                           : Well name
FLD                .                                       : Field
LOC                .                                       : Location
CNTY               .                                       : County
STAT               .                                       : State
CTRY               .                                       : Country
SRVC               .                                       : Service Company
DATE               .                                       : Date
API                .                                       : API number
PROJECT_UPGRADE_TIME .         2021-03-18T21_24_50           : 
group              .         Good                          : 
~Parameter Information Block
#_______________________________________________________________________________
#
#PARAMETER_NAME    .UNIT     VALUE                         : DESCRIPTION
#_______________________________________________________________________________
SET                .         616_4                         : 
CONF               .         00                            : 
END                .         0                             : 
ERR                .         0                             : 
GS00               .M        0803.23                       : 
GS01               .M        0546.74                       : 
MM00               .M        0120.00                       : 
NOKG               .         0                             : 
NPR                .         980402                        : 
PART               .         Палагутин                     : 
PROJECT_UPGRADE_TIME .         2021-03-18T21_24_49           : 
PRZK               .         Шакиров                       : 
TLFamily_AZIMUTH   .         True Dip Azimuth              : 
TLFamily_DEPTH     .         Measured Depth                : 
TLFamily_METKA     .                                       : 
TLFamily_ROLL      .                                       : 
TLFamily_SPEED     .         Spontaneous Potential         : 
TLFamily_ZENIT     .                                       : 
VPRG               .         310                           : 
WAY                .         UP                            : 
group              .         prim                          : 
~Curve Information
#_______________________________________________________________________________
#
#LOGNAME           .UNIT     LOG_ID                        : DESCRIPTION
#_______________________________________________________________________________
DEPTH              .M                                      :  
AZIMUTH            .DEG                                    :  
METKA              .                                       :  
ROLL               .DEG                                    :  
SPEED              .M/H                                    :  
ZENIT              .DEG                                    :  
~Ascii
# ...
646.8      260.68     0          41.91      648        28.27     
647        257.59     0          41.34      648        27.97     
647.2      258.08     0          42.49      612        27.93     
647.4      257.61     0          44.18      648        27.9      
647.6      257.17     0          45.4       648        27.88     
647.8      257.58     0          46.22      648        27.96     
648        256.68     0          46.95      648        27.86     
648.2      254.21     0          48.52      612        27.35     
648.4      257.69     0          58.47      612        27.85     
648.6      256.31     0          68.48      648        27.73     
648.8      255.21     0          74.1       684        27.61     
649        256.95     0          78.62      648        27.88     
649.2      257.97     0          82.83      648        27.99     
649.4      255.99     0          85.65      684        27.55     
649.6      258.33     0          88.2       648        28.19     
649.8      256.99     0          90.63      648        28.28     
650        255.02     0          91.99      648        27.75     
650.2      257.08     0          93.13      684        28.24     
650.4      256.77     0          95.18      648        28.2      
650.6      255.82     0          97.89      576        27.97     
650.8      256.9      0          99.58      648        28.23     
651        257.84     0          99.46      648        28.34     
651.2      255.32     0          98.81      684        27.95     
651.4      256.36     0          98.37      612        28.08     
651.6      258.5      0          96.94      612        28.42     
651.8      256.53     0          95.75      648        28.1      
652        256.23     0          95.35      648        28.16     
652.2      257.17     1          95.72      648        28.38     
652.4      254.92     0          96.3       648        27.88     
652.6      256.31     0          97.1       612        28.33     
652.8      257.43     0          98.64      648        28.52     
653        256.07     0          99.75      648        28.14     
653.2      255.62     0          99.86      648        28.12     
653.4      256.89     0          99.37      648        28.45     
653.6      256.29     0          99.15      612        28.31     
653.8      256.26     0          99.14      648        28.2      
654        258.28     0          97.83      612        28.64     
654.2      256        0          96.65      648        28.26     
654.4      255.33     0          96.85      612        28.07     
654.6      256.37     0          97.35      648        28.42     
654.8      255.37     0          98.13      684        28.18     
655        255.34     0          98.44      648        28.1      
655.2      257.3      0          97.36      648        28.53     
655.4      256.04     0          96.07      648        28.22     
655.6      256.1      0          95.48      612        28.19     
655.8      256.91     0          96.07      648        28.54     
656        257.08     0          97.13      612        28.47     
656.2      256.35     0          97.06      648        28.16     
656.4      257.33     0          97.2       612        28.42     
656.6      257.5      0          97.35      648        28.45     
656.8      256.63     0          97.34      648        28.18     
657        257.92     0          97.87      648        28.33     
657.2      261.81     0          98.79      612        28.67     
657.4      264.87     0          99.37      648        28.26     
657.6      289.3      0          99.44      612        28.85     
657.8      321.88     0          99.34      684        28.73     
658        249.17     0          99.86      648        28.54     
658.2      256.37     0          100.86     648        28.84     
658.4      331.3      0          101.76     576        28.91     
658.6      284.46     0          102.49     648        28.73     
658.8      264.92     0          103.23     648        28.77     
659        261.82     0          103.08     648        29.12     
659.2      257.07     0          102.1      612        28.27     
659.4      256.3      0          100.93     612        28.32     
659.6      257.33     0          99.15      648        28.54     
659.8      256.11     0          97.8       684        28.26     
660        256.02     0          98.9       648        28.39     
660.2      256.98     0          102.8      648        28.69     
660.4      254.67     0          108.12     612        28.41     
660.6      255.35     0          113.57     612        28.47     
660.8      255.98     0          118.19     648        28.79     
661        254.7      0          124.2      648        28.62     
661.2      255.4      0          131.88     648        28.82     
661.4      256.8      0          138.02     648        28.6      
661.6      256.16     0          142.08     612        28.64     
661.8      253.48     0          145        648        27.96     
662        255.16     0          146.55     648        28.44     
662.2      257.39     1          147.88     684        28.8      
662.4      256.74     0          148.98     648        28.75     
662.6      255.62     0          149.81     648        28.65     
662.8      256.66     0          150.41     612        28.77     
663        256.81     0          151.18     648        28.91     
663.2      252.23     0          156.56     648        28.79     
663.4      253.38     0          169.96     648        28.62     
663.6      251.1      0          186.74     648        28.37     
663.8      256.87     0          204.22     648        28.41     
664        257.72     0          215.77     648        28.51     
664.2      257.09     0          219.03     612        28.71     
664.4      256.78     0          220.09     648        28.56     
664.6      256.69     0          220.02     648        28.59     
664.8      256.21     0          220.92     684        28.57     
665        255.97     0          222.61     612        28.47     
665.2      257.17     0          224.06     648        28.7      
665.4      256.56     0          224.73     648        28.66     
665.6      257.64     0          225.18     648        28.91     
665.8      256.56     0          224.43     648        28.75     
666        256.52     0          223.65     612        28.7      
666.2      256.87     0          223.39     648        28.77     
666.4      256.93     0          223.55     648        28.8      
666.6      256.85     0          223.96     612        28.83     
666.8      256.38     0          224.38     684        28.7      
667        256.64     0          224.3      648        28.76     
667.2      257.25     0          224.03     684        28.87     
667.4      255.43     0          224.19     648        28.63     
667.6      256.24     0          224.33     648        28.77     
667.8      256.87     0          224.48     648        28.86     
668        256.41     0          224.52     648        28.75     
668.2      256.92     0          224.7      648        28.83     
668.4      256.65     0          225.1      540        28.82     
668.6      257.49     0          225.41     648        28.96     
668.8      257.06     0          225.63     648        28.82     
669        257.95     0          225.94     684        28.97     
669.2      258.33     0          226.26     612        28.91     
669.4      259.92     0          226.37     612        28.92     
669.6      264.39     0          226.8      648        29.08     
669.8      275.52     0          227.54     648        29.03     
670        311.83     0          227.94     684        29.18     
670.2      10.08      0          228.21     648        29.21     
670.4      190.09     0          228.04     612        29.1      
670.6      139.05     0          227.07     648        29.33     
670.8      320.41     0          226.06     684        29.37     
671        277.63     0          225.47     648        29.3      
