~Version
 VERS              .         2.0                           : CWLS LOG ASCII STANDARD - VERSION 2.0
 WRAP              .         NO                            : ONE LINE PER DEPTH STEP
 DLM               .         SPACE                         : DELIMITING CHARACTER(SPACE TAB OR COMMA)
~Well Information
#_______________________________________________________________________________
#
#PARAMETER_NAME    .UNIT     VALUE                         : DESCRIPTION
#_______________________________________________________________________________
STRT               .M        2667.6                        : First reference value
STOP               .M        2774.399786                   : Last reference value
STEP               .M        0.1999996                     : Step increment
NULL               .         -9999                         : Missing value
COMP               .                                       : Company
WELL               .         616                           : Well name
FLD                .                                       : Field
LOC                .                                       : Location
CNTY               .                                       : County
STAT               .                                       : State
CTRY               .                                       : Country
SRVC               .                                       : Service Company
DATE               .                                       : Date
API                .                                       : API number
PROJECT_UPGRADE_TIME .         2021-03-18T21_24_50           : 
group              .         Good                          : 
~Parameter Information Block
#_______________________________________________________________________________
#
#PARAMETER_NAME    .UNIT     VALUE                         : DESCRIPTION
#_______________________________________________________________________________
SET                .         D1809_D_2                     : 
NPR                .                                       : 
OTHER              .         Программное обеспечение станции MONITOR-386EX 25/12/99 15_08_10   BGF V52 22/08/01 16_56_30   3.1_SNGF___BGF_N_092049: 
OTHER_10           .         Тарировки_                    : 
OTHER_11           .         TM.GRD = 0.00403*TM$.UE + -1.07: 
OTHER_12           .         MN.ATM = (9.34907e-006*TM.GRD + 0.02171)*(MN$.UE + -7.93*TM.GRD + -1787): 
OTHER_13           .         GK.MKR/H = LM. / 42.4676      : 
OTHER_14           .         GK.FLT = 0.1*GK.MKR/H[-1] + (1-0.1)*GK.MKR/H[0]: 
OTHER_2            .         Kedr.exe версия 3.4.2.51      : 
OTHER_3            .         KedrData.dll версия 3.4.2.24  : 
OTHER_4            .         Драйвер версия 2.1.1.3        : 
OTHER_5            .         Мнемоники версия 3.3 S        : 
OTHER_6            .         Прибор_ КСА-Т4                : 
OTHER_7            .         Номер прибора_ 03             : 
OTHER_8            .         Режим_ КСА-Т4                 : 
OTHER_9            .         Форма_ КВА.                   : 
PR                 .                                       : 
PROJECT_UPGRADE_TIME .         2021-03-18T21_24_49           : 
PRTY               .         ПП-603-1                      : N партии
SRV                .                                       : 
SRVC               .         Карпов                        : Начальник партии
TLFamily_DEPT      .         Measured Depth                : 
TLFamily_LM        .         Casing Collar locator         : 
TLFamily_MN        .                                       : 
TLFamily_TM        .         Temperature                   : 
group              .         second                        : 
~Curve Information
#_______________________________________________________________________________
#
#LOGNAME           .UNIT     LOG_ID                        : DESCRIPTION
#_______________________________________________________________________________
DEPT               .M                                      : Depth curve 
LM                 .е.ацп                                  : Локатор муфт,е.ацп 
MN                 .атм                                    : Манометрия, атм 
TM                 .град.C                                 : Термограмма по стволу скважины,град.C 
~Ascii
# ...
2739.199857 212.979    252.652    52.336    
2739.399856 170.017    252.678    52.28     
2739.599856 205        252.704    52.221    
2739.799856 203.998    252.723    52.136    
2739.999855 200.018    252.765    52.014    
2740.199855 236.984    252.802    51.827    
2740.399854 204.997    252.827    51.667    
2740.599854 199.006    252.843    51.527    
2740.799854 211.005    252.875    51.394    
2740.999853 220.989    252.915    51.288    
2741.199853 198.006    252.932    51.196    
2741.399852 209.996    252.96     51.102    
2741.599852 202.016    252.98     51.018    
2741.799852 233.993    252.991    50.963    
2741.999851 218.985    253.021    50.912    
2742.199851 189.002    253.057    50.833    
2742.39985 193.984    253.072    50.753    
2742.59985 161.998    253.099    50.694    
2742.79985 158.001    253.126    50.621    
2742.999849 161.014    253.078    50.55     
2743.199849 188.998    253.18     50.48     
2743.399848 183.979    253.185    50.409    
2743.599848 141.007    253.228    50.337    
2743.799848 156        253.24     50.264    
2743.999847 155.993    253.267    50.189    
2744.199847 141.994    253.292    50.135    
2744.399846 130.034    253.319    50.086    
2744.599846 198.004    253.332    50.002    
2744.799846 207.006    253.365    49.934    
2744.999845 218.988    253.375    49.891    
2745.199845 195.007    253.4      49.854    
2745.399844 208.992    253.425    49.818    
2745.599844 191.987    253.448    49.787    
2745.799844 165.012    253.472    49.762    
2745.999843 189.001    253.496    49.745    
2746.199843 190.997    253.495    49.736    
2746.399842 186.25     253.518    49.734    
2746.599842 2714.207   253.539    49.743    
2746.799842 1109.613   253.56     49.761    
2746.999841 326.932    253.58     49.779    
2747.199841 188.981    253.601    49.798    
2747.39984 149.99     253.622    49.821    
2747.59984 129        253.62     49.843    
2747.79984 129.001    253.649    49.868    
2747.999839 131.993    253.66     49.897    
2748.199839 117.99     253.658    49.938    
2748.399838 97.011     253.699    49.982    
2748.599838 118.98     253.696    50.026    
2748.799838 78.009     253.737    50.074    
2748.999837 97.006     253.734    50.118    
2749.199837 108.994    253.753    50.159    
2749.399836 96.008     253.769    50.206    
2749.599836 112.99     253.77     50.242    
2749.799836 92.01      253.787    50.286    
2749.999835 113.005    253.8      50.373    
2750.199835 123.985    253.818    50.49     
2750.399834 93.008     253.834    50.574    
2750.599834 109.002    253.827    50.665    
2750.799834 114.004    253.866    50.756    
2750.999833 122.98     253.858    50.859    
2751.199833 81.998     253.874    50.957    
2751.399832 76.993     253.889    51.044    
2751.599832 63.003     253.892    51.14     
2751.799832 69.998     253.915    51.231    
2751.999831 65.025     253.908    51.384    
2752.199831 114.987    253.92     51.539    
2752.39983 89         253.926    51.7      
2752.59983 90.001     253.919    51.887    
2752.79983 91.991     253.932    52.033    
2752.999829 73.004     253.948    52.134    
2753.199829 82.005     253.938    52.258    
2753.399828 92.998     253.947    52.414    
2753.599828 88.014     253.956    52.614    
2753.799828 116.994    253.968    52.788    
2753.999827 104.999    253.979    52.935    
2754.199827 103.013    253.99     53.097    
2754.399826 129.978    253.977    53.271    
2754.599826 86.001     253.986    53.464    
2754.799826 88.998     253.981    53.661    
2754.999825 84.018     254.005    53.824    
2755.199825 121.011    253.993    54.011    
2755.399824 143.991    254.002    54.2      
2755.599824 125.037    254.012    54.36     
2755.799824 199.954    254.003    54.552    
2755.999823 106.995    254.007    54.762    
2756.199823 96.996     254.016    54.951    
2756.399822 88.002     254.001    55.169    
2756.599822 93.007     254        55.468    
2756.799822 107.016    254.009    55.716    
2756.999821 140        254.023    55.854    
2757.199821 139.018    254.038    55.951    
2757.39982 175.975    254.024    56.12     
2757.59982 127.623    254.029    56.314    
2757.79982 3403.378   254.031    56.622    
2757.999819 2147.145   254.028    56.889    
2758.199819 420.869    254.046    57.085    
2758.399818 155.999    254.035    57.242    
2758.599818 153.992    254.033    57.435    
2758.799818 136.992    254.046    57.609    
2758.999817 119.998    254.039    57.832    
2759.199817 115.006    254.057    58.009    
2759.399816 126.995    254.057    58.199    
2759.599816 115.998    254.066    58.379    
2759.799816 110.993    254.074    58.578    
2759.999815 97.011     254.038    58.792    
2760.199815 118.997    254.081    59.034    
2760.399814 111.999    254.077    59.2      
2760.599814 109.004    254.088    59.363    
2760.799814 118        254.097    59.555    
2760.999813 117.999    254.108    59.723    
2761.199813 116.005    254.117    59.88     
2761.399812 125.998    254.106    60.069    
2761.599812 120.996    254.138    60.213    
2761.799812 112.996    254.136    60.307    
2761.999811 104.012    254.149    60.415    
2762.199811 129        254.162    60.555    
2762.39981 128.994    254.179    60.643    
2762.59981 117.007    254.195    60.727    
2762.79981 131.009    254.187    60.835    
2762.999809 148.994    254.22     60.961    
2763.199809 136.008    254.221    61.051    
2763.399808 152        254.241    61.151    
2763.599808 151.008    254.249    61.242    
2763.799808 167.004    254.264    61.337    
2763.999807 175        254.281    61.423    
2764.199807 175.991    254.298    61.499    
2764.399806 158.032    254.31     61.582    
2764.599806 221.994    254.312    61.679    
2764.799806 208.998    254.348    61.743    
2764.999805 205.006    254.361    61.829    
2765.199805 217.997    254.381    61.91     
2765.399804 211.007    254.388    61.972    
2765.599804 225.984    254.41     62.036    
2765.799804 193.025    254.414    62.084    
2765.999803 243.031    254.44     62.135    
2766.199803 305.002    254.451    62.181    
2766.399802 309.002    254.493    62.232    
2766.599802 313.996    254.492    62.26     
2766.799802 305.958    254.512    62.284    
2766.999801 221.999    254.55     62.319    
2767.199801 219.997    254.572    62.364    
2767.3998  214.011    254.576    62.421    
2767.5998  236.989    254.6      62.467    
2767.7998  215.011    254.606    62.515    
2767.999799 237.996    254.633    62.568    
2768.199799 228.975    254.658    62.62     
2768.399798 178.033    254.679    62.694    
2768.599798 244.926    254.7      62.769    
2768.799798 2111.384   254.719    62.824    
2768.999797 868.72     254.737    62.874    
2769.199797 303.976    254.753    62.94     
2769.399796 256.001    254.769    63.053    
2769.599796 257.998    254.786    63.116    
2769.799796 254.002    254.803    63.2      
2769.999795 259.012    254.822    63.291    
2770.199795 283.98     254.855    63.414    
2770.399794 243.027    254.866    63.49     
2770.599794 298.003    254.883    63.622    
2770.799794 304.969    254.898    63.757    
2770.999793 243.002    254.913    63.849    
2771.199793 247.006    254.928    63.952    
2771.399792 259.015    254.945    64.037    
2771.599792 290        254.963    64.107    
2771.799792 290.04     254.979    64.189    
2771.999791 371.943    255.015    64.293    
2772.199791 2270.917   255.023    64.401    
2772.39979 88.983     255.045    64.509    
2772.59979 54.995     255.062    64.603    
2772.79979 -9999      255.078    64.675    
2772.999789 -9999      255.095    64.76     
2773.199789 -9999      255.112    64.845    
2773.399788 -9999      255.137    64.905    
2773.599788 -9999      255.14     64.962    
2773.799788 -9999      255.146    65.274    
2773.999787 -9999      255.124    65.35     
2774.199787 -9999      255.142    65.377    
2774.399786 -9999      -9999      -9999     
