~Version
 VERS              .         2.0                           : CWLS LOG ASCII STANDARD - VERSION 2.0
 WRAP              .         NO                            : ONE LINE PER DEPTH STEP
 DLM               .         SPACE                         : DELIMITING CHARACTER(SPACE TAB OR COMMA)
~Well Information
#_______________________________________________________________________________
#
#PARAMETER_NAME    .UNIT     VALUE                         : DESCRIPTION
#_______________________________________________________________________________
STRT               .M        2650.8                        : First reference value
STOP               .M        2752.199899                   : Last reference value
STEP               .M        0.1999998                     : Step increment
NULL               .         -9999                         : Missing value
COMP               .                                       : Company
WELL               .         616                           : Well name
FLD                .                                       : Field
LOC                .                                       : Location
CNTY               .                                       : County
STAT               .                                       : State
CTRY               .                                       : Country
SRVC               .                                       : Service Company
DATE               .                                       : Date
API                .                                       : API number
PROJECT_UPGRADE_TIME .         2021-03-18T21_24_50           : 
group              .         Good                          : 
~Parameter Information Block
#_______________________________________________________________________________
#
#PARAMETER_NAME    .UNIT     VALUE                         : DESCRIPTION
#_______________________________________________________________________________
SET                .         D4415_D                       : 
OTHER              .         Запись производится в присутствии: 
OTHER_10           .         Максимальная температура      : 
OTHER_11           .         Тип промывочной жидкости      : 
OTHER_12           .         Сопротивление ПЖ (Ом*м) при 20°C: 
OTHER_13           .         Плотность ПЖ(г/см3)           : 
OTHER_14           .         Вязкость ПЖ(с)                : 
OTHER_15           .         Водоотдача ПЖ(см3/30мин)      : 
OTHER_16           .         Уровень ПЖ                    : 
OTHER_17           .         Нефть ПЖ (%)                  : 
OTHER_18           .         Барит ПЖ (%)                  : 
OTHER_19           .         Гематит ПЖ (%)                : 
OTHER_2            .         Заказчик ННСН  ЦДНГ-1         : 
OTHER_20           .         КМЦ ПЖ (%)                    : 
OTHER_21           .         Разгазирование ПЖ (да,нет)    : 
OTHER_22           .         Подъемник                     : 
OTHER_23           .         Лаборатория                   : 
OTHER_24           .         Тип кабеля                    : 
OTHER_25           .         Длина кабеля (м)              : 
OTHER_26           .         Цена последней метки          : 
OTHER_27           .         Цена контрольной метки        : 
OTHER_28           .         Диаметр долота (мм)           : 
OTHER_29           .         Глубина бурения (м)           : 
OTHER_3            .         Площадь                       : 
OTHER_30           .         Искусственный забой (м)       : 
OTHER_31           .         Диаметр колонны (мм)          : 
OTHER_32           .         Толщина колонны (мм)          : 
OTHER_33           .         Башмак колонны (м)            : 
OTHER_34           .         Диаметр НКТ (мм)              : 
OTHER_35           .         Толщина НКТ (мм)              : 
OTHER_36           .         Воронка НКТ (м)               : 
OTHER_37           .         Дата цементожа                : 
OTHER_38           .         Тип, количество(т) и плотность цемента: 
OTHER_39           .         Интервалы перфорации (м)      : 
OTHER_4            .         Категория                     : 
OTHER_40           .         Направление, диаметр (мм)     : 
OTHER_41           .         Направление, глубина (м)      : 
OTHER_42           .         Кондуктор, диаметр (мм)       : 
OTHER_43           .         Кондуктор, глубина (м)        : 
OTHER_44           .         Техническая колонна, диаметр (мм): 
OTHER_45           .         Техническая колонна, глубина (м): 
OTHER_46           .         Эксплуатационная колонна, диаметр (мм): 
OTHER_47           .         Эксплуатационная колонна, глубина (м): 
OTHER_48           .         Программа Кедр-02 версия 3.4  : 
OTHER_49           .         Операционная система Windows NT 5.1 build 2600 Service Pack 2: 
OTHER_5            .         Назначение исследований       : 
OTHER_50           .         Программное обеспечение станции MONITOR-386EX 25/12/99 15_08_10   BGF V54 20/09/05 15_32_17   3.3__BGF_9030071: 
OTHER_51           .         Kedr.exe версия 3.4.2.74      : 
OTHER_52           .         KedrData.dll версия 3.4.2.29  : 
OTHER_53           .         Мнемоники версия 3.18 S       : 
OTHER_54           .         Драйвер версия 2.1.1.4        : 
OTHER_55           .         LasInf.dll 4.3.0.35           : 
OTHER_56           .         Прибор_ КСА-Т4                : 
OTHER_57           .         Номер прибора_ 160            : 
OTHER_58           .         Режим_ КСА-Т4                 : 
OTHER_59           .         Форма_ С.А.Б.                 : 
OTHER_6            .         Альтитуда стола ротора        : 
OTHER_60           .         Тарировки_                    : 
OTHER_61           .         <_techsia_sc_> Дата тарировки температуры 25.05.2010: 
OTHER_62           .         Ручной ввод коэффициентов     : 
OTHER_63           .         TM.DEGC = 0.00402*RTM.E.ACP + -0.994: 
OTHER_64           .         <_techsia_sc_> Дата тарировки давления 25.05.2010: 
OTHER_65           .         Ручной ввод коэффициентов     : 
OTHER_66           .         MN.ATM = (2.27521e-006*TM.DEGC + 0.02078)*(RMN.E.ACP + 6.2*TM.DEGC + -1688): 
OTHER_67           .         <_techsia_sc_> Дата тарировки ГК 25.05.2010: 
OTHER_68           .         Ручной ввод коэффициентов     : 
OTHER_69           .         GR.UR/H = RGR.IMP/MIN / 45.5144: 
OTHER_7            .         Вид исследований 3  6         : 
OTHER_70           .         GK.FLT = 0.1*GR.UR/H[-1] + (1-0.1)*GR.UR/H[0]: 
OTHER_8            .         Начало бурения интервала каротажа: 
OTHER_9            .         Окончание бурения интервала каротажа: 
PROJECT_UPGRADE_TIME .         2021-03-18T21_24_50           : 
TLFamily_CCLC      .                                       : 
TLFamily_DEPT      .         Measured Depth                : 
TLFamily_GK        .         Gamma Ray                     : 
TLFamily_GR        .         Gamma Ray                     : 
TLFamily_METKA     .                                       : 
TLFamily_MN        .                                       : 
TLFamily_RCOR      .                                       : 
TLFamily_RGR       .                                       : 
TLFamily_RMN       .                                       : 
TLFamily_RTEN      .                                       : 
TLFamily_RTM       .                                       : 
TLFamily_SPEE      .         Cable Speed                   : 
TLFamily_TIME      .         Time                          : 
TLFamily_TM        .         Temperature                   : 
group              .         prim                          : 
~Curve Information
#_______________________________________________________________________________
#
#LOGNAME           .UNIT     LOG_ID                        : DESCRIPTION
#_______________________________________________________________________________
DEPT               .M                                      : 1 Глубина, м -    0.0 см 
CCLC               .E.ACP                                  : 9 Локатор муфт,  -   20.0 см 
GK                 .FLT                                    : 14 Гамма-активность фильтрованная, мкр./ч -  110.0 см 
GR                 .UR/H                                   : 13 Гамма-активность, мкр./ч -  110.0 см 
METKA              .CU                                     : 3 Метки,  -    0.0 см 
MN                 .ATM                                    : 12 Давление, атм. -  160.0 см 
RCOR               .CM/KM                                  : 5 Коррекция по ролику, см/км -    0.0 см 
RGR                .IMP/MIN                                : 10 Гамма-активность, усл.ед. -  110.0 см 
RMN                .E.ACP                                  : 8 Давление, усл.ед. -  160.0 см 
RTEN               .T                                      : 6 Натяжение кабеля, т -    0.0 см 
RTM                .E.ACP                                  : 7 Температура, усл.ед. -  170.0 см 
SPEE               .M/H                                    : 2 Скорость, м/час -    0.0 см 
TIME               .S                                      : 4 Время, сек -    0.0 см 
TM                 .DEGC                                   : 11 Температура, °C -  170.0 см 
~Ascii
# ...
2671.599979 173        7.25       7.25       0          240.61     -1091      330        12782      0.25       16421      585        127.85     65.018    
2671.799979 60         7.25       7.25       0          240.63     -1091      330        12783      0.25       16419      585        129.05     65.01     
2671.999979 37         7.62       7.62       0          240.65     -1091      347        12784      0.25       16417      586        130.33     65.003    
2672.199979 75         7.62       7.62       0          240.669    -1091      347        12785      0.25       16415      588        131.56     64.994    
2672.399978 202        7.21       7.21       0          240.689    -1091      328        12786      0.25       16414      588        132.77     64.989    
2672.599978 212        7.21       7.21       0          240.692    -1091      328        12786      0.25       16412      588        133.97     64.984    
2672.799978 140        7.41       7.41       0          240.719    -1091      337        12788      0.25       16411      588        135.26     64.978    
2672.999978 38         7.51       7.51       0          240.729    -1091      342        12788      0.25       16410      589        136.48     64.974    
2673.199978 145        7.32       7.32       0          240.749    -1091      333        12789      0.25       16408      589        137.73     64.966    
2673.399977 192        7.32       7.32       0          240.772    -1091      333        12790      0.25       16407      589        138.94     64.962    
2673.599977 201        6.68       6.68       0          240.789    -1091      304        12791      0.25       16405      588        140.13     64.955    
2673.799977 217        6.37       6.37       0          240.81     -1091      290        12792      0.25       16405      588        141.45     64.954    
2673.999977 76         5.95       5.95       0          240.83     -1091      271        12793      0.25       16404      588        142.66     64.95     
2674.199977 165        5.95       5.95       0          240.851    -1091      271        12794      0.25       16403      589        143.84     64.946    
2674.399976 148        5.53       5.53       0          240.862    -1091      252        12795      0.25       16401      589        145.08     64.939    
2674.599976 206        5.32       5.32       0          240.887    -1091      242        12796      0.25       16400      588        146.31     64.934    
2674.799976 465        5.14       5.14       0          240.893    -1091      234        12796      0.25       16399      589        147.56     64.93     
2674.999976 428        4.44       4.44       0          240.917    -1091      202        12797      0.25       16398      588        148.77     64.926    
2675.199976 157        4.36       4.36       0          240.93     -1091      198        12798      0.25       16396      588        149.98     64.919    
2675.399975 272        4.33       4.33       0          240.949    -1091      197        12799      0.25       16395      588        151.22     64.913    
2675.599975 189        4.5        4.5        0          240.969    -1091      205        12800      0.25       16392      588        152.49     64.902    
2675.799975 162        5.36       5.36       0          240.996    -1091      244        12801      0.25       16391      588        153.74     64.898    
2675.999975 134        5.67       5.67       2          241.01     -1093      258        12802      0.25       16391      588        155.06     64.897    
2676.199975 76         5.73       5.73       0          241.027    -1093      261        12803      0.25       16389      589        156.27     64.89     
2676.399974 106        5.77       5.77       0          241.049    -1093      263        12804      0.25       16387      589        157.48     64.884    
2676.599974 226        5.95       5.95       0          241.069    -1093      271        12805      0.25       16385      590        158.78     64.874    
2676.799974 255        5.95       5.95       0          241.08     -1093      271        12806      0.25       16383      590        159.98     64.866    
2676.999974 4822       5.45       5.45       0          241.089    -1093      248        12806      0.25       16383      591        161.19     64.865    
2677.199974 2096       5.19       5.19       0          241.108    -1093      236        12807      0.25       16381      590        162.39     64.856    
2677.399973 788        4.99       4.99       0          241.139    -1093      227        12809      0.25       16379      590        163.68     64.85     
2677.599973 477        5.13       5.13       0          241.148    -1093      234        12809      0.25       16378      590        164.91     64.846    
2677.799973 298        5.84       5.84       0          241.169    -1093      266        12810      0.25       16377      589        166.11     64.842    
2677.999973 377        6          6          0          241.189    -1093      273        12811      0.25       16376      590        167.34     64.838    
2678.199973 287        6.11       6.11       0          241.209    -1093      278        12812      0.25       16374      591        168.53     64.829    
2678.399972 303        6.11       6.11       0          241.229    -1093      278        12813      0.25       16373      590        169.83     64.824    
2678.599972 545        5.38       5.38       0          241.249    -1093      245        12814      0.25       16372      590        171.02     64.821    
2678.799972 755        5.38       5.38       0          241.255    -1093      245        12814      0.25       16370      591        172.22     64.815    
2678.999972 664        5.62       5.62       0          241.289    -1093      256        12816      0.25       16369      591        173.45     64.809    
2679.199972 693        5.62       5.62       0          241.289    -1093      256        12816      0.24       16368      590        174.73     64.805    
2679.399971 471        5.62       5.62       0          241.327    -1093      256        12818      0.24       16367      591        175.94     64.803    
2679.599971 377        5.62       5.62       0          241.33     -1093      256        12818      0.24       16368      590        177.13     64.805    
2679.799971 297        4.92       4.92       0          241.363    -1093      224        12820      0.24       16366      591        178.36     64.797    
2679.999971 268        4.92       4.92       0          241.371    -1093      224        12820      0.24       16366      591        179.59     64.797    
2680.199971 270        5.1        5.1        0          241.394    -1093      232        12821      0.25       16364      591        180.85     64.789    
2680.39997 254        5.1        5.1        0          241.41     -1093      232        12822      0.25       16362      590        182.05     64.781    
2680.59997 315        5.69       5.69       0          241.431    -1093      259        12823      0.25       16361      592        183.25     64.777    
2680.79997 158        5.69       5.69       0          241.452    -1093      259        12824      0.25       16360      591        184.44     64.773    
2680.99997 113        6.26       6.26       0          241.472    -1093      285        12825      0.25       16360      593        185.7      64.773    
2681.19997 166        6.26       6.26       0          241.493    -1093      285        12826      0.25       16359      593        186.94     64.769    
2681.399969 151        6.04       6.04       0          241.513    -1093      275        12827      0.25       16358      594        188.16     64.765    
2681.599969 140        6.04       6.04       0          241.531    -1093      275        12828      0.25       16358      594        189.36     64.765    
2681.799969 201        5.84       5.84       0          241.554    -1093      266        12829      0.25       16357      592        190.56     64.763    
