~Version
 VERS              .         2.0                           : CWLS LOG ASCII STANDARD - VERSION 2.0
 WRAP              .         NO                            : ONE LINE PER DEPTH STEP
 DLM               .         SPACE                         : DELIMITING CHARACTER(SPACE TAB OR COMMA)
~Well Information
#_______________________________________________________________________________
#
#PARAMETER_NAME    .UNIT     VALUE                         : DESCRIPTION
#_______________________________________________________________________________
STRT               .M        2648.8                        : First reference value
STOP               .M        2755.39984                    : Last reference value
STEP               .M        0.1999997                     : Step increment
NULL               .         -9999                         : Missing value
COMP               .                                       : Company
WELL               .         616                           : Well name
FLD                .                                       : Field
LOC                .                                       : Location
CNTY               .                                       : County
STAT               .                                       : State
CTRY               .                                       : Country
SRVC               .                                       : Service Company
DATE               .                                       : Date
API                .                                       : API number
PROJECT_UPGRADE_TIME .         2021-03-18T21_24_50           : 
group              .         Good                          : 
~Parameter Information Block
#_______________________________________________________________________________
#
#PARAMETER_NAME    .UNIT     VALUE                         : DESCRIPTION
#_______________________________________________________________________________
SET                .         D7023_D                       : 
OTHER              .         Kedr.exe версия 2.1.2.32      : 
OTHER_10           .         TM.GRD = 0.00404*TM$.UE + 0.07: 
OTHER_11           .         MN.ATM = (6.33279e-006*TM.GRD + 0.02401)*(MN$.UE + 2.72*TM.GRD + -2018): 
OTHER_12           .         GK.MKR/H = GK$.UE / 43.5489 + 0: 
OTHER_13           .         RES.SM = 0.00476*CRES.UE - 1.51709: 
OTHER_14           .         PL.GSM3 = 0 + 0 * (PL.UE / 1) +  0 * (PL.UE / 1)^2: 
OTHER_15           .         Постоянная времени ГГП = 6 сек: 
OTHER_16           .         Постоянная времени ГК = 6 сек : 
OTHER_2            .         KedrData.dll версия 3.2.2.14  : 
OTHER_3            .         LasInf.dll версия 3.2.0.13    : 
OTHER_4            .         Драйвер версия 1.2.0.5        : 
OTHER_5            .         Прибор_ КСА-M1                : 
OTHER_6            .         Номер прибора_ 155+р204       : 
OTHER_7            .         Режим_ КСА-М1 + ГГП + Резистивиметр: 
OTHER_8            .         Форма_ 223\2                  : 
OTHER_9            .         Тарировки_                    : 
PROJECT_UPGRADE_TIME .         2021-03-18T21_24_50           : 
TLFamily_CRES      .                                       : 
TLFamily_DEPT      .         Measured Depth                : 
TLFamily_GK        .         Gamma Ray                     : 
TLFamily_GK$       .                                       : 
TLFamily_LM        .         Casing Collar locator         : 
TLFamily_METKA     .                                       : 
TLFamily_MN        .                                       : 
TLFamily_MN$       .                                       : 
TLFamily_PL        .                                       : 
TLFamily_PL_2      .                                       : 
TLFamily_RCOR      .                                       : 
TLFamily_RES       .         Mud Resistivity               : 
TLFamily_SPID      .         Spontaneous Potential         : 
TLFamily_STD       .                                       : 
TLFamily_TIME      .         Time                          : 
TLFamily_TM        .         Temperature                   : 
TLFamily_TM$       .         Temperature                   : 
TLFamily_VGD       .         Gas Volume                    : 
group              .         prim                          : 
~Curve Information
#_______________________________________________________________________________
#
#LOGNAME           .UNIT     LOG_ID                        : DESCRIPTION
#_______________________________________________________________________________
DEPT               .M                                      : 1 Глубина, м -    0.0 см 
CRES               .UE                                     : 9 Проводимость, усл.ед. -  222.0 см 
GK                 .MKR/H                                  : 16 Гамма-активность, мкр./ч -  106.0 см 
GK$                .UE                                     : 13 Гамма-активность, усл.ед. -  106.0 см 
LM                 .                                       : 11 Локатор муфт,  -   16.0 см 
METKA              .                                       : 3 Метки,  -    0.0 см 
MN                 .ATM                                    : 15 Давление, атм. -  160.0 см 
MN$                .UE                                     : 7 Давление, усл.ед. -  160.0 см 
PL                 .UE                                     : 10 Плотность, усл.ед. -  270.0 см 
PL_2               .GSM3                                   : 18 Плотность, г./см3 -  270.0 см 
RCOR               .CM/KM                                  : 5 Коррекция по ролику, см/км -    0.0 см 
RES                .SM                                     : 17 Проводимость,  -  222.0 см 
SPID               .M/H                                    : 2 Скорость, м/час -    0.0 см 
STD                .                                       : 12 Приток,  -  170.0 см 
TIME               .S                                      : 4 Время, сек -    0.0 см 
TM                 .GRD                                    : 14 Температура, °C -  180.0 см 
TM$                .UE                                     : 6 Температура, усл.ед. -  180.0 см 
VGD                .                                       : 8 Влагомер,  -  170.0 см 
~Ascii
# ...
2656.999988 1229       7.78       369        132        0          353.922    16400      14         0          0          4.3314     580        10730      14753.42   54.799     13547      6688      
2657.199987 1230       8.11       369        121        0          353.247    16372      15         0          0          4.3361     533        10730      14754.71   54.796     13546      6692      
2657.399987 1229       8.18       357        229        0          353.03     16363      13         0          0          4.3322     580        10732      14755.98   54.792     13545      6694      
2657.599987 1229       8.19       357        147        0          353.23     16371      14         0          0          4.333      580        10730      14757.25   54.784     13543      6694      
2657.799987 1229       8.43       386        135        0          354.202    16411      13         0          0          4.3316     533        10730      14758.57   54.784     13543      6692      
2657.999986 1228       8.64       386        160        0          355.176    16451      14         0          0          4.3302     540        10729      14759.86   54.778     13542      6688      
2658.199986 1228       8.95       406        118        0          356.433    16503      14         0          0          4.3282     532        10726      14761.17   54.77      13540      6693      
2658.399986 1229       9.13       406        126        0          356.251    16495      14         0          0          4.333      580        10726      14762.44   54.764     13538      6696      
2658.599985 1228       8.96       382        129        0          355.909    16481      14         0          0          4.3266     548        10727      14763.74   54.759     13537      6695      
2658.799985 1228       8.88       385        95         0          356.657    16512      14         0          0          4.3302     545        10726      14765.02   54.754     13536      6695      
2658.999985 1227       8.94       392        134        0          357.009    16527      14         0          0          4.3234     533        10725      14766.29   54.75      13535      6686      
2659.199984 1227       8.97       392        4519       0          356.842    16520      14         0          0          4.3248     580        10724      14767.63   54.74      13532      6684      
2659.399984 1228       8.44       341        2790       0          356.645    16512      14         0          0          4.3282     580        10722      14768.89   54.735     13531      6689      
2659.599984 1228       8.14       343        681        0          355.998    16485      13         0          0          4.3306     534        10721      14770.16   54.734     13531      6688      
2659.799984 1229       8.05       346        240        0          355.239    16454      14         0          0          4.3322     510        10722      14771.5    54.723     13528      6688      
2659.999983 1230       8.13       376        105        0          355.476    16464      14         0          0          4.3377     580        10721      14772.81   54.719     13527      6689      
2660.199983 1228       8.52       388        135        1          355.316    16457      14         0          0          4.3261     550        10721      14774.64   54.715     13526      6692      
2660.399983 1229       8.53       352        132        0          355.063    16447      14         0          0          4.3353     522        10721      14775.95   54.703     13523      6694      
2660.599982 1230       8.31       352        106        0          354.797    16436      15         0          0          4.3361     568        10718      14777.28   54.697     13521      6693      
2660.799982 1229       8.26       367        111        0          353.871    16398      14         0          0          4.333      580        10718      14778.53   54.692     13520      6690      
2660.999982 1230       8.44       375        83         0          354.569    16427      14         0          0          4.3369     550        10716      14779.83   54.683     13518      6689      
2661.199981 1228       8.82       403        123        0          354.758    16435      15         0          0          4.3298     510        10715      14781.21   54.679     13517      6690      
2661.399981 1228       9.03       403        103        0          354.805    16437      13         0          0          4.3298     522        10713      14782.47   54.669     13515      6690      
2661.599981 1230       9.43       429        131        0          355.595    16469      14         0          0          4.3369     545        10712      14783.79   54.663     13513      6690      
2661.799981 1228       9.63       427        126        0          356.391    16502      14         0          0          4.3282     580        10712      14785.06   54.654     13511      6683      
2661.99998 1228       9.68       424        92         0          356.26     16497      14         0          0          4.3282     580        10712      14786.33   54.65      13510      6690      
2662.19998 1228       9.71       424        94         0          355.252    16455      14         0          0          4.3266     580        10709      14787.64   54.643     13508      6692      
2662.39998 1228       9.41       396        113        0          355.045    16447      13         0          0          4.3261     580        10707      14788.98   54.634     13506      6692      
2662.599979 1227       9.18       380        96         0          355.253    16455      14         0          0          4.3234     580        10705      14790.3    54.63      13505      6691      
2662.799979 1227       8.78       364        85         0          353.983    16403      13         0          0          4.3219     510        10705      14791.58   54.624     13503      6693      
2662.999979 1229       8.29       300        109        0          354.901    16441      14         0          0          4.3329     580        10705      14792.83   54.622     13503      6695      
2663.199978 1227       7.62       300        121        0          355.734    16475      14         0          0          4.3227     566        10704      14794.13   54.617     13502      6693      
2663.399978 1229       7.21       290        75         0          356.127    16491      14         0          0          4.3314     510        10703      14795.45   54.608     13500      6696      
2663.599978 1228       6.83       280        129        0          357.197    16535      15         0          0          4.3274     580        10701      14796.77   54.603     13498      6692      
2663.799978 1227       6.73       303        118        0          356.077    16489      14         0          0          4.3258     580        10699      14798.02   54.598     13497      6697      
2663.999977 1229       6.84       303        109        0          356.718    16516      14         0          0          4.3314     552        10700      14799.31   54.594     13496      6696      
2664.199977 1227       6.8        286        96         0          357.918    16565      13         0          0          4.3221     568        10702      14800.69   54.594     13496      6693      
2664.399977 1225       6.68       286        102        0          358.523    16590      14         0          0          4.3155     510        10702      14801.96   54.59      13495      6697      
2664.599976 1225       6.5        270        84         0          358.266    16579      14         0          0          4.3131     550        10701      14803.31   54.586     13494      6698      
2664.799976 1228       6.36       270        112        0          357.437    16545      14         0          0          4.3263     580        10699      14804.54   54.577     13492      6698      
2664.999976 1226       6.37       285        105        0          357.376    16543      14         0          0          4.3187     568        10698      14805.87   54.572     13491      6694      
