~Version
 VERS              .         2.0                           : CWLS LOG ASCII STANDARD - VERSION 2.0
 WRAP              .         NO                            : ONE LINE PER DEPTH STEP
 DLM               .         SPACE                         : DELIMITING CHARACTER(SPACE TAB OR COMMA)
~Well Information
#_______________________________________________________________________________
#
#PARAMETER_NAME    .UNIT     VALUE                         : DESCRIPTION
#_______________________________________________________________________________
STRT               .M        2659.6                        : First reference value
STOP               .M        2768.6                        : Last reference value
STEP               .M        0.2                           : Step increment
NULL               .         -9999                         : Missing value
COMP               .                                       : Company
WELL               .         616                           : Well name
FLD                .                                       : Field
LOC                .                                       : Location
CNTY               .                                       : County
STAT               .                                       : State
CTRY               .                                       : Country
SRVC               .                                       : Service Company
DATE               .                                       : Date
API                .                                       : API number
PROJECT_UPGRADE_TIME .         2021-03-18T21_24_50           : 
group              .         Good                          : 
~Parameter Information Block
#_______________________________________________________________________________
#
#PARAMETER_NAME    .UNIT     VALUE                         : DESCRIPTION
#_______________________________________________________________________________
SET                .         D1166_D                       : 
OTHER              .         Программное обеспечение станции MONITOR-386EX 25/12/99 15_08_10   BGF V52 22/08/01 16_56_30   3.2_BGF_N_3070031: 
OTHER_10           .         Тарировки_                    : 
OTHER_11           .         TM.GRD = 0.00403*TM$.UE + -1.19: 
OTHER_12           .         MN.ATM = (7.1e-006*TM.GRD + 0.02017)*(MN$.UE + -3.03*TM.GRD + -1833): 
OTHER_13           .         Id error                      : 
OTHER_2            .         Kedr.exe версия 3.4.2.51      : 
OTHER_3            .         KedrData.dll версия 3.4.2.24  : 
OTHER_4            .         Драйвер версия 2.1.1.8        : 
OTHER_5            .         Мнемоники версия 3.3 S        : 
OTHER_6            .         Прибор_ КСА-М1                : 
OTHER_7            .         Номер прибора_ 265            : 
OTHER_8            .         Режим_ КСА-М1                 : 
OTHER_9            .         Форма_ ТЕРМОМЕТР              : 
PROJECT_UPGRADE_TIME .         2021-03-18T21_24_49           : 
TLFamily_DEPT      .         Measured Depth                : 
TLFamily_GK        .         Gamma Ray                     : 
TLFamily_GK$       .                                       : 
TLFamily_LM        .         Casing Collar locator         : 
TLFamily_METKA     .                                       : 
TLFamily_MN        .                                       : 
TLFamily_MN$       .                                       : 
TLFamily_RCOR      .                                       : 
TLFamily_SPID      .         Spontaneous Potential         : 
TLFamily_STD       .                                       : 
TLFamily_TENS      .         Cable Tension                 : 
TLFamily_TIME      .         Time                          : 
TLFamily_TM        .         Temperature                   : 
TLFamily_TM$       .         Temperature                   : 
TLFamily_VGD       .         Gas Volume                    : 
group              .         prim                          : 
~Curve Information
#_______________________________________________________________________________
#
#LOGNAME           .UNIT     LOG_ID                        : DESCRIPTION
#_______________________________________________________________________________
DEPT               .M                                      : 1 Глубина, м -    0.0 см 
GK                 .MKR/H                                  : 15 Гамма-активность, мкр./ч -  110.0 см 
GK$                .UE                                     : 12 Гамма-активность, усл.ед. -  110.0 см 
LM                 .                                       : 10 Локатор муфт,  -   20.0 см 
METKA              .                                       : 3 Метки,  -    0.0 см 
MN                 .ATM                                    : 14 Давление, атм. -  160.0 см 
MN$                .UE                                     : 8 Давление, усл.ед. -  160.0 см 
RCOR               .CM/KM                                  : 5 Коррекция по ролику, см/км -    0.0 см 
SPID               .M/H                                    : 2 Скорость, м/час -    0.0 см 
STD                .                                       : 11 Приток,  -  170.0 см 
TENS               .T                                      : 6 Натяжение кабеля, т -    0.0 см 
TIME               .S                                      : 4 Время, сек -    0.0 см 
TM                 .GRD                                    : 13 Температура, °C -  180.0 см 
TM$                .UE                                     : 7 Температура, усл.ед. -  180.0 см 
VGD                .                                       : 9 Влагомер,  -  170.0 см 
~Ascii
2659.6     -9999      -9999      -9999      0          -9999      -9999      -9999      -9999      -9999      -9999      -9999      -9999      -9999      -9999     
2659.8     -9999      -9999      1          0          -9999      -9999      -1400      -7         -9999      0          21892.93   -9999      -9999      -9999     
2660       -9999      -9999      1          2          -9999      -9999      -1400      65         -9999      0          21893.46   -9999      -9999      -9999     
2660.2     -9999      -9999      1          0          -9999      -9999      -1400      191        -9999      0          21894.5    -9999      -9999      -9999     
2660.4     -9999      -9999      1          0          -9999      -9999      -1400      292        -9999      0          21895.75   -9999      -9999      -9999     
2660.6     -9999      -9999      1          0          -9999      -9999      -1400      365        -9999      0          21896.96   -9999      -9999      -9999     
2660.8     8.87       367        1          0          -9999      -9999      -1400      426        -9999      0          21898.2    -9999      -9999      -9999     
2661       8.7        367        1          0          -9999      -9999      -1400      466        -9999      0          21899.45   -9999      -9999      -9999     
2661.2     8.65       367        1          0          -9999      -9999      -1400      494        -9999      0          21900.64   -9999      -9999      -9999     
2661.4     8.78       382        1          0          351.294    19001      -1400      521        31173      0          21901.82   -9999      -9999      6591      
2661.6     8.88       382        1          0          351.231    18998      -1400      547        31184      0          21903.04   85.024     21393      6589      
2661.8     8.9        380        1          0          353.344    19100      -1400      550        31190      0          21904.33   85.024     21393      6592      
2662       8.89       380        1          0          349.922    18935      -1400      562        31197      0          21905.53   85.024     21393      6592      
2662.2     8.81       370        1          0          351.28     19000      -1400      578        31194      0          21906.71   85.028     21394      6591      
2662.4     8.67       368        1          0          353.697    19117      -1400      579        31185      0          21908.03   85.024     21393      6591      
2662.6     8.34       338        1          0          350.172    18947      -1400      572        31181      0          21909.27   85.026     21394      6591      
2662.8     8.03       338        1          0          351.424    19007      -1400      575        31173      0          21910.47   85.032     21395      6591      
2663       7.61       295        1          0          353.736    19119      -1400      578        31169      0          21911.68   85.032     21395      6591      
2663.2     7.03       289        1          0          350.973    18986      -1400      569        31169      0          21912.91   85.035     21396      6591      
2663.4     6.73       274        1          0          351.692    19020      -1400      577        31167      0          21914.11   85.04      21397      6589      
2663.6     6.2        255        1          0          353.285    19097      -1400      582        31166      0          21915.36   85.044     21398      6589      
2663.8     5.96       247        1          0          349.674    18923      -1400      572        31171      0          21916.61   85.045     21398      6590      
2664       5.84       247        1          0          352.227    19046      -1400      577        31172      0          21917.79   85.056     21401      6590      
2664.2     5.81       249        1          0          353.259    19096      -1400      583        31170      0          21918.94   85.056     21401      6589      
2664.4     5.82       249        1          0          350.599    18968      -1400      588        31171      0          21920.14   85.06      21402      6590      
2664.6     5.84       251        1          0          351.352    19004      -1400      586        31171      0          21921.4    85.062     21403      6589      
2664.8     5.96       257        1          0          352.614    19065      -1400      590        31173      0          21922.55   85.064     21403      6590      
2665       6.24       288        1          0          351.776    19024      -1400      593        31171      0          21923.74   85.068     21404      6590      
2665.2     6.64       292        1          0          352.461    19057      -1400      596        31171      0          21924.96   85.072     21405      6588      
2665.4     6.76       291        1          0          352.776    19072      -1400      601        31171      0          21926.13   85.079     21407      6590      
2665.6     6.78       290        1          0          352.172    19043      -1400      602        31175      0          21927.32   85.08      21407      6590      
2665.8     6.78       290        1          0          351.202    18997      -1400      606        31176      0          21928.47   85.085     21408      6589      
2666       6.57       276        1          0          352.082    19039      -1400      602        31173      0          21929.73   85.088     21409      6589      
2666.2     6.49       276        1          0          353.615    19113      -1400      600        31173      0          21930.89   85.092     21410      6590      
2666.4     6.63       288        1          0          352.371    19053      -1400      605        31177      0          21932.03   85.098     21412      6589      
2666.6     6.7        288        1          0          353.364    19101      -1400      599        31176      0          21933.27   85.104     21413      6589      
2666.8     6.94       303        1          0          354.703    19165      -1400      599        31176      0          21934.46   85.108     21414      6588      
2667       7.04       303        1          0          352.139    19042      -1400      600        31180      0          21935.65   85.115     21416      6588      
2667.2     7.05       301        1          0          353.559    19110      -1400      610        31186      0          21936.8    85.118     21416      6586      
2667.4     7.04       301        1          0          354.561    19158      -1400      602        31191      0          21938.03   85.121     21417      6586      
2667.6     6.69       263        1          0          352.201    19045      -1400      603        31191      0          21939.21   85.127     21419      6587      
2667.8     6.33       263        1          0          353.372    19101      -1400      607        31188      0          21940.36   85.133     21420      6576      
2668       6.06       250        1          0          353.885    19126      -1400      606        31193      0          21941.57   85.133     21420      6574      
2668.2     5.92       250        1          0          352.804    19074      -1400      612        31197      0          21942.73   85.138     21421      6575      
2668.4     5.93       258        1          0          352.536    19061      -1400      608        31198      0          21943.92   85.143     21423      6575      
2668.6     6          258        1          0          352.651    19066      -1400      616        31194      0          21945.11   85.145     21423      6573      
2668.8     6.03       259        1          0          354.069    19134      -1400      609        31199      0          21946.29   85.149     21424      6575      
2669       6.08       261        1          0          353.469    19105      -1400      608        31202      0          21947.49   85.155     21426      6573      
2669.2     6.19       272        1          0          353.867    19125      -1400      612        31202      0          21948.64   85.159     21426      6574      
