~Version
 VERS              .         2.0                           : CWLS LOG ASCII STANDARD - VERSION 2.0
 WRAP              .         NO                            : ONE LINE PER DEPTH STEP
 DLM               .         SPACE                         : DELIMITING CHARACTER(SPACE TAB OR COMMA)
~Well Information
#_______________________________________________________________________________
#
#PARAMETER_NAME    .UNIT     VALUE                         : DESCRIPTION
#_______________________________________________________________________________
STRT               .M        2656.6                        : First reference value
STOP               .M        2765.2                        : Last reference value
STEP               .M        0.1999997                     : Step increment
NULL               .         -9999                         : Missing value
COMP               .                                       : Company
WELL               .         616                           : Well name
FLD                .                                       : Field
LOC                .                                       : Location
CNTY               .                                       : County
STAT               .                                       : State
CTRY               .                                       : Country
SRVC               .                                       : Service Company
DATE               .                                       : Date
API                .                                       : API number
PROJECT_UPGRADE_TIME .         2021-03-18T21_24_50           : 
group              .         Good                          : 
~Parameter Information Block
#_______________________________________________________________________________
#
#PARAMETER_NAME    .UNIT     VALUE                         : DESCRIPTION
#_______________________________________________________________________________
SET                .         D8102_D                       : 
OTHER              .         Программное обеспечение станции MONITOR-386EX 25/12/99 15_08_10   BGF V52 22/08/01 16_56_30   4_SNGF_BGF_N_011645: 
OTHER_10           .         Тарировки_                    : 
OTHER_11           .         TM.GRD = 0.00412*TM$.UE + -2.13: 
OTHER_12           .         MN.ATM = (5.87652e-006*TM.GRD + 0.01993)*(MN$.UE + -2.72*TM.GRD + -1925): 
OTHER_13           .         GK.MKR/H = GK$.UE / 57.4657   : 
OTHER_2            .         Kedr.exe версия 3.4.2.51      : 
OTHER_3            .         KedrData.dll версия 3.4.2.24  : 
OTHER_4            .         Драйвер версия 2.1.0.2        : 
OTHER_5            .         Мнемоники версия 3.3 S        : 
OTHER_6            .         Прибор_ АКП4-90               : 
OTHER_7            .         Номер прибора_ 53             : 
OTHER_8            .         Режим_ АКП4_90                : 
OTHER_9            .         Форма_ ПК-53ое                : 
PROJECT_UPGRADE_TIME .         2021-03-18T21_24_50           : 
TLFamily_DEPT      .         Measured Depth                : 
TLFamily_GK        .         Gamma Ray                     : 
TLFamily_GK$       .                                       : 
TLFamily_LM        .         Casing Collar locator         : 
TLFamily_METKA     .                                       : 
TLFamily_METKA_1   .                                       : 
TLFamily_MN        .                                       : 
TLFamily_MN$       .                                       : 
TLFamily_RCOR      .                                       : 
TLFamily_SPID      .         Spontaneous Potential         : 
TLFamily_TENS      .         Cable Tension                 : 
TLFamily_TIME      .         Time                          : 
TLFamily_TM        .         Temperature                   : 
TLFamily_TM$       .         Temperature                   : 
group              .         prim                          : 
~Curve Information
#_______________________________________________________________________________
#
#LOGNAME           .UNIT     LOG_ID                        : DESCRIPTION
#_______________________________________________________________________________
DEPT               .M                                      : 1 Глубина, м -    0.0 см 
GK                 .MKR/H                                  : 13 Гамма-активность, мкр./ч -   65.0 см 
GK$                .UE                                     : 10 Гамма-активность, усл.ед. -   65.0 см 
LM                 .                                       : 9 Локатор муфт,  -   30.0 см 
METKA              .                                       : 3 Метки,  -    0.0 см 
METKA_1            .                                       : 14 Маркеры - 65 см 
MN                 .ATM                                    : 12 Давление, атм. -  140.0 см 
MN$                .UE                                     : 8 Давление, усл.ед. -  140.0 см 
RCOR               .CM/KM                                  : 5 Коррекция по ролику, см/км -    0.0 см 
SPID               .M/H                                    : 2 Скорость, м/час -    0.0 см 
TENS               .T                                      : 6 Натяжение кабеля, т -    0.0 см 
TIME               .S                                      : 4 Время, сек -    0.0 см 
TM                 .GRD                                    : 11 Температура, °C -  145.0 см 
TM$                .UE                                     : 7 Температура, усл.ед. -  145.0 см 
~Ascii
# ...
2708.6     6.41       368        257        0          0          248.301    14384      -10        -302       0.75       1362.29    50.211     12704     
2708.8     6.22       357        291        0          0          248.348    14386      -10        -301       0.75       1359.9     50.086     12674     
2709       6.74       387        429        0          0          248.368    14387      -10        -298       0.75       1357.5     49.978     12648     
2709.2     7.06       406        251        1          0          248.368    14387      -10        -299       0.75       1355.11    49.877     12623     
2709.4     6.57       377        231        0          0          248.368    14387      -10        -298       0.75       1352.71    49.793     12603     
2709.6     6.75       388        250        0          0          248.381    14388      -10        -299       0.75       1350.32    49.7       12580     
2709.8     6.99       402        309        0          0          248.421    14390      -10        -300       0.75       1347.92    49.605     12557     
2710       6.9        396        1002       0          0          248.447    14391      -10        -301       0.75       1345.46    49.502     12532     
2710.2     7.45       428        301        0          0          248.434    14390      -10        -296       0.75       1343       49.438     12517     
2710.4     7.45       428        358        0          0          248.454    14391      -10        -295       0.63       1340.74    49.357     12497     
2710.6     7.57       435        333        2          0          248.507    14394      -8         -305       0.75       1338.09    49.297     12482     
2710.8     7.69       442        305        0          0          248.527    14395      -8         -304       0.75       1335.63    49.237     12468     
2711       7.13       410        288        0          0          248.54     14396      -8         -309       0.75       1333.18    49.19      12456     
2711.2     6.56       377        156        0          0          248.567    14397      -8         -308       0.75       1330.81    49.126     12441     
2711.4     6.47       372        402        0          0          248.577    14398      -8         -298       0.75       1328.64    49.061     12425     
2711.6     6.43       369        569        0          0          248.607    14399      -8         -279       0.75       1326.37    49.001     12410     
2711.8     7.12       409        1007       0          0          248.627    14400      -8         -258       0.75       1324.1     48.924     12392     
2712       7.04       405        337        0          0          248.647    14401      -8         -212       0.74       1321.58    48.852     12374     
2712.2     5.71       328        225        0          0          248.657    14402      -8         -140       0.75       1319.06    48.789     12359     
2712.4     6          345        198        0          0          248.647    14401      -8         -15        0.71       1316.54    48.711     12340     
2712.6     6.23       358        190        0          0          248.726    14405      -8         -318       0.73       1025.68    48.633     12321     
2712.8     6.74       387        508        0          0          248.706    14404      -8         -316       0.73       1023.4     48.551     12301     
2713       6.99       401        220        1          0          248.726    14405      -8         -313       0.75       1021.13    48.431     12272     
2713.2     7.37       424        221        0          1          248.746    14406      -8         -309       0.73       1018.87    48.344     12251     
2713.4     8.11       466        282        0          0          248.786    14408      -8         -310       0.73       1016.6     48.299     12240     
2713.6     8.14       468        239        0          0          248.793    14408      -8         -320       0.73       1014.36    48.27      12233     
2713.8     7.55       434        134        0          0          248.806    14409      -8         -320       0.75       1012.06    48.26      12231     
2714       6.74       387        157        0          0          248.793    14408      -8         -320       0.74       1009.8     48.078     12187     
2714.2     6.65       382        206        0          0          248.846    14411      -8         -319       0.75       1007.52    48.023     12173     
2714.4     6.45       371        404        0          0          248.853    14411      -8         -313       0.75       1005.29    47.918     12148     
2714.6     5.72       329        537        0          0          248.872    14412      -8         -319       0.75       1003.02    47.805     12120     
2714.8     4.85       279        325        0          0          248.873    14412      -8         -318       0.75       1000.85    47.692     12093     
2715       4.73       272        419        0          0          248.906    14414      -8         -317       0.75       998.58     47.562     12061     
2715.2     4.21       242        437        0          0          248.926    14415      -8         -314       0.73       996.31     47.463     12037     
2715.4     4.14       238        763        1          0          248.926    14415      -8         -308       0.73       994.03     47.335     12006     
2715.6     4.33       249        1864       0          0          248.939    14416      -8         -314       0.73       991.76     47.259     11988     
2715.8     4.07       234        1001       0          0          248.991    14418      -8         -319       0.73       989.48     47.189     11971     
2716       4.38       251        3415       0          0          249.025    14420      -8         -319       0.73       987.18     47.122     11954     
2716.2     4.93       283        11321      0          0          249.045    14421      -8         -318       0.73       984.91     47.035     11933     
2716.4     5.05       290        2569       0          0          249.045    14421      -8         -317       0.75       982.64     46.919     11905     
2716.6     5.01       288        618        0          0          249.085    14423      -8         -314       0.75       980.37     46.805     11877     
2716.8     5.12       294        616        0          0          249.105    14424      -8         -316       0.75       978.11     46.642     11838     
2717       4.99       287        791        0          0          249.105    14424      -8         -312       0.75       975.83     46.509     11805     
2717.2     4.79       275        171        0          0          249.125    14425      -8         -304       0.75       973.57     46.424     11785     
2717.4     4.93       283        143        0          0          249.165    14427      -8         -318       0.73       971.3      46.362     11770     
2717.6     5.01       288        241        0          0          249.185    14428      -8         -317       0.75       969.03     46.288     11752     
2717.8     5.06       291        102        0          0          249.185    14428      -8         -313       0.75       966.66     46.215     11734     
2718       4.87       280        118        0          0          249.205    14429      -8         -321       0.75       964.4      46.154     11719     
2718.2     4.8        276        225        0          0          249.264    14432      -8         -313       0.75       962.09     46.119     11711     
2718.4     4.85       279        156        0          0          249.245    14431      -8         -310       0.75       959.83     46.082     11702     
2718.6     5.04       290        167        0          0          249.284    14433      -8         -307       0.74       957.58     46.011     11685     
2718.8     5.56       319        593        0          0          249.324    14435      -8         -305       0.75       955.27     45.946     11669     
