~Version
 VERS              .         2.0                           : CWLS LOG ASCII STANDARD - VERSION 2.0
 WRAP              .         NO                            : ONE LINE PER DEPTH STEP
 DLM               .         SPACE                         : DELIMITING CHARACTER(SPACE TAB OR COMMA)
~Well Information
#_______________________________________________________________________________
#
#PARAMETER_NAME    .UNIT     VALUE                         : DESCRIPTION
#_______________________________________________________________________________
STRT               .M        2659.8                        : First reference value
STOP               .M        2768.999945                   : Last reference value
STEP               .M        0.1999999                     : Step increment
NULL               .         -9999                         : Missing value
COMP               .                                       : Company
WELL               .         616                           : Well name
FLD                .                                       : Field
LOC                .                                       : Location
CNTY               .                                       : County
STAT               .                                       : State
CTRY               .                                       : Country
SRVC               .                                       : Service Company
DATE               .                                       : Date
API                .                                       : API number
PROJECT_UPGRADE_TIME .         2021-03-18T21_24_50           : 
group              .         Good                          : 
~Parameter Information Block
#_______________________________________________________________________________
#
#PARAMETER_NAME    .UNIT     VALUE                         : DESCRIPTION
#_______________________________________________________________________________
SET                .         D1169_D                       : 
OTHER              .         Программное обеспечение станции MONITOR-386EX 25/12/99 15_08_10   BGF V52 22/08/01 16_56_30   3.2_BGF_N_3070031: 
OTHER_10           .         Тарировки_                    : 
OTHER_11           .         TM.GRD = 0.00403*TM$.UE + -1.19: 
OTHER_12           .         MN.ATM = (7.1e-006*TM.GRD + 0.02017)*(MN$.UE + -3.03*TM.GRD + -1833): 
OTHER_13           .         Id error                      : 
OTHER_2            .         Kedr.exe версия 3.4.2.51      : 
OTHER_3            .         KedrData.dll версия 3.4.2.24  : 
OTHER_4            .         Драйвер версия 2.1.1.8        : 
OTHER_5            .         Мнемоники версия 3.3 S        : 
OTHER_6            .         Прибор_ КСА-М1                : 
OTHER_7            .         Номер прибора_ 265            : 
OTHER_8            .         Режим_ КСА-М1                 : 
OTHER_9            .         Форма_ ТЕРМОМЕТР              : 
PROJECT_UPGRADE_TIME .         2021-03-18T21_24_49           : 
TLFamily_DEPT      .         Measured Depth                : 
TLFamily_GK        .         Gamma Ray                     : 
TLFamily_GK$       .                                       : 
TLFamily_LM        .         Casing Collar locator         : 
TLFamily_METKA     .                                       : 
TLFamily_MN        .                                       : 
TLFamily_MN$       .                                       : 
TLFamily_RCOR      .                                       : 
TLFamily_SPID      .         Spontaneous Potential         : 
TLFamily_STD       .                                       : 
TLFamily_TENS      .         Cable Tension                 : 
TLFamily_TIME      .         Time                          : 
TLFamily_TM        .         Temperature                   : 
TLFamily_TM$       .         Temperature                   : 
TLFamily_VGD       .         Gas Volume                    : 
group              .         prim                          : 
~Curve Information
#_______________________________________________________________________________
#
#LOGNAME           .UNIT     LOG_ID                        : DESCRIPTION
#_______________________________________________________________________________
DEPT               .M                                      : 1 Глубина, м -    0.0 см 
GK                 .MKR/H                                  : 15 Гамма-активность, мкр./ч -  110.0 см 
GK$                .UE                                     : 12 Гамма-активность, усл.ед. -  110.0 см 
LM                 .                                       : 10 Локатор муфт,  -   20.0 см 
METKA              .                                       : 3 Метки,  -    0.0 см 
MN                 .ATM                                    : 14 Давление, атм. -  160.0 см 
MN$                .UE                                     : 8 Давление, усл.ед. -  160.0 см 
RCOR               .CM/KM                                  : 5 Коррекция по ролику, см/км -    0.0 см 
SPID               .M/H                                    : 2 Скорость, м/час -    0.0 см 
STD                .                                       : 11 Приток,  -  170.0 см 
TENS               .T                                      : 6 Натяжение кабеля, т -    0.0 см 
TIME               .S                                      : 4 Время, сек -    0.0 см 
TM                 .GRD                                    : 13 Температура, °C -  180.0 см 
TM$                .UE                                     : 7 Температура, усл.ед. -  180.0 см 
VGD                .                                       : 9 Влагомер,  -  170.0 см 
~Ascii
# ...
2669.599995 6.53       277        1          0          256.085    14421      -1400      632        30189      0          25616.26   82.932     20874      6577      
2669.799995 6.5        277        1          0          256.138    14423      -1400      634        30193      0          25617.39   82.94      20876      6577      
2669.999995 6.5        278        1          2          256.138    14423      -1400      635        30196      0          25618.5    82.948     20878      6578      
2670.199995 6.5        278        1          0          256.166    14424      -1400      631        30199      0          25619.78   82.955     20880      6578      
2670.399995 6.63       289        1          0          256.18     14425      -1400      628        30204      0          25620.91   82.96      20881      6577      
2670.599995 6.72       289        697        0          256.195    14426      -1400      631        30205      0          25622.03   82.968     20883      6577      
2670.799995 6.86       303        380        0          256.221    14427      -1400      633        30211      0          25623.15   82.976     20885      6577      
2670.999994 7.01       303        1          0          256.222    14427      -1400      632        30211      0          25624.28   82.985     20887      6577      
2671.199994 7.68       363        1          0          256.256    14429      -1400      631        30215      0          25625.4    82.993     20889      6577      
2671.399994 8.23       363        1          0          256.264    14429      -1400      633        30220      0          25626.52   83.001     20891      6577      
2671.599994 8.64       393        1          0          256.282    14430      -1400      635        30223      0          25627.66   83.01      20893      6576      
2671.799994 9.17       403        1          0          256.306    14431      -1400      631        30227      0          25628.82   83.017     20895      6575      
2671.999994 9.34       403        1          0          256.327    14432      -1400      637        30231      0          25629.94   83.028     20898      6576      
2672.199994 9.18       389        1          0          256.347    14433      -1400      639        30234      0          25631.02   83.037     20900      6575      
2672.399994 9.13       389        1          0          256.348    14433      -1400      634        30238      0          25632.2    83.042     20901      6576      
2672.599994 9.05       385        1          0          256.369    14434      -1400      635        30240      0          25633.31   83.049     20903      6575      
2672.799994 9.02       385        1          0          256.389    14435      -1400      636        30244      0          25634.44   83.057     20905      6574      
2672.999993 9.01       385        1          0          256.423    14437      -1400      637        30248      0          25635.56   83.061     20906      6574      
2673.199993 9.01       385        1          0          256.431    14437      -1400      630        30251      0          25636.74   83.069     20908      6573      
2673.399993 8.95       378        1          0          256.452    14438      -1400      635        30255      0          25637.81   83.077     20910      6574      
2673.599993 8.77       371        1          0          256.473    14439      -1400      636        30259      0          25638.93   83.085     20912      6575      
2673.799993 8.72       373        1          0          256.473    14439      -1400      623        30263      0          25640.2    83.093     20914      6574      
2673.999993 8.72       373        1          0          256.513    14441      -1400      618        30267      0          25641.39   83.101     20916      6574      
2674.199993 8.74       375        1          0          256.515    14441      -1400      609        30270      0          25642.57   83.106     20917      6575      
2674.399993 8.95       387        1          0          256.539    14442      -1400      606        30274      0          25643.81   83.112     20919      6574      
2674.599993 9.02       387        1          0          256.557    14443      -1400      603        30279      0          25645.03   83.119     20920      6575      
2674.799993 8.79       368        1          0          256.578    14444      -1400      603        30281      0          25646.19   83.129     20923      6574      
2674.999992 8.66       368        1          0          256.62     14446      -1400      602        30283      0          25647.4    83.14      20926      6574      
2675.199992 8.7        374        1          0          256.599    14445      -1400      597        30285      0          25648.63   83.146     20927      6574      
2675.399992 8.73       374        1          0          256.641    14447      -1400      601        30291      0          25649.86   83.154     20929      6573      
2675.599992 9.13       410        1          0          256.641    14447      -1400      607        30296      0          25651.02   83.162     20931      6574      
2675.799992 9.44       410        1          0          256.686    14449      -1400      604        30302      0          25652.2    83.17      20933      6573      
2675.999992 9.35       386        1          0          256.704    14450      -1400      602        30306      0          25653.46   83.175     20934      6573      
2676.199992 9.13       386        1          0          256.743    14452      -1400      600        30311      0          25654.62   83.182     20936      6574      
2676.399992 8.54       342        1          0          256.746    14452      -1400      599        30313      0          25655.84   83.186     20937      6574      
2676.599992 8.17       342        1          0          256.755    14452      -1400      597        30318      0          25657.12   83.192     20939      6574      
2676.799992 8.11       348        1          0          256.788    14454      -1400      603        30320      0          25658.29   83.202     20941      6574      
2676.999991 8.13       348        1          0          256.808    14455      -1400      603        30323      0          25659.51   83.207     20942      6574      
2677.199991 8.25       362        1          0          256.829    14456      -1400      603        30327      0          25660.67   83.214     20944      6573      
2677.399991 8.4        362        1          0          256.837    14456      -1400      586        30329      0          25661.92   83.218     20945      6574      
2677.599991 8.56       376        1          0          256.851    14457      -1400      589        30332      0          25663.12   83.226     20947      6574      
2677.799991 8.9        387        1          0          256.857    14457      -1400      596        30336      0          25664.34   83.237     20950      6574      
2677.999991 8.96       381        1          0          256.892    14459      -1400      597        30340      0          25665.55   83.244     20951      6573      
2678.199991 8.7        367        1          0          256.841    14457      -1400      593        30343      0          25666.73   83.251     20953      6573      
2678.399991 8.62       367        1          0          256.934    14461      -1400      595        30347      0          25667.96   83.259     20955      6574      
2678.599991 8.69       373        1          0          256.955    14462      -1400      603        30351      0          25669.13   83.266     20957      6574      
2678.799991 8.71       373        1          0          256.976    14463      -1400      596        30354      0          25670.36   83.278     20960      6574      
2678.99999 8.91       386        1          0          256.983    14463      -1400      597        30355      0          25671.59   83.285     20961      6573      
2679.19999 9          387        1          0          257.015    14465      -1400      594        30357      0          25672.76   83.292     20963      6574      
