~Version
 VERS              .         2.0                           : CWLS LOG ASCII STANDARD - VERSION 2.0
 WRAP              .         NO                            : ONE LINE PER DEPTH STEP
 DLM               .         SPACE                         : DELIMITING CHARACTER(SPACE TAB OR COMMA)
~Well Information
#_______________________________________________________________________________
#
#PARAMETER_NAME    .UNIT     VALUE                         : DESCRIPTION
#_______________________________________________________________________________
STRT               .M        2659.6                        : First reference value
STOP               .M        2769.6                        : Last reference value
STEP               .M        0.2                           : Step increment
NULL               .         -9999                         : Missing value
COMP               .                                       : Company
WELL               .         616                           : Well name
FLD                .                                       : Field
LOC                .                                       : Location
CNTY               .                                       : County
STAT               .                                       : State
CTRY               .                                       : Country
SRVC               .                                       : Service Company
DATE               .                                       : Date
API                .                                       : API number
PROJECT_UPGRADE_TIME .         2021-03-18T21_24_50           : 
group              .         Good                          : 
~Parameter Information Block
#_______________________________________________________________________________
#
#PARAMETER_NAME    .UNIT     VALUE                         : DESCRIPTION
#_______________________________________________________________________________
SET                .         D1162_D                       : 
OTHER              .         Программное обеспечение станции MONITOR-386EX 25/12/99 15_08_10   BGF V52 22/08/01 16_56_30   3.2_BGF_N_3070031: 
OTHER_10           .         Тарировки_                    : 
OTHER_11           .         TM.GRD = 0.00403*TM$.UE + -1.19: 
OTHER_12           .         MN.ATM = (7.1e-006*TM.GRD + 0.02017)*(MN$.UE + -3.03*TM.GRD + -1833): 
OTHER_13           .         Id error                      : 
OTHER_2            .         Kedr.exe версия 3.4.2.51      : 
OTHER_3            .         KedrData.dll версия 3.4.2.24  : 
OTHER_4            .         Драйвер версия 2.1.1.8        : 
OTHER_5            .         Мнемоники версия 3.3 S        : 
OTHER_6            .         Прибор_ КСА-М1                : 
OTHER_7            .         Номер прибора_ 265            : 
OTHER_8            .         Режим_ КСА-М1                 : 
OTHER_9            .         Форма_ ТЕРМОМЕТР              : 
PROJECT_UPGRADE_TIME .         2021-03-18T21_24_49           : 
TLFamily_DEPT      .         Measured Depth                : 
TLFamily_GK        .         Gamma Ray                     : 
TLFamily_GK$       .                                       : 
TLFamily_LM        .         Casing Collar locator         : 
TLFamily_METKA     .                                       : 
TLFamily_MN        .                                       : 
TLFamily_MN$       .                                       : 
TLFamily_RCOR      .                                       : 
TLFamily_SPID      .         Spontaneous Potential         : 
TLFamily_STD       .                                       : 
TLFamily_TENS      .         Cable Tension                 : 
TLFamily_TIME      .         Time                          : 
TLFamily_TM        .         Temperature                   : 
TLFamily_TM$       .         Temperature                   : 
TLFamily_VGD       .         Gas Volume                    : 
group              .         prim                          : 
~Curve Information
#_______________________________________________________________________________
#
#LOGNAME           .UNIT     LOG_ID                        : DESCRIPTION
#_______________________________________________________________________________
DEPT               .M                                      : 1 Глубина, м -    0.0 см 
GK                 .MKR/H                                  : 15 Гамма-активность, мкр./ч -  110.0 см 
GK$                .UE                                     : 12 Гамма-активность, усл.ед. -  110.0 см 
LM                 .                                       : 10 Локатор муфт,  -   20.0 см 
METKA              .                                       : 3 Метки,  -    0.0 см 
MN                 .ATM                                    : 14 Давление, атм. -  160.0 см 
MN$                .UE                                     : 8 Давление, усл.ед. -  160.0 см 
RCOR               .CM/KM                                  : 5 Коррекция по ролику, см/км -    0.0 см 
SPID               .M/H                                    : 2 Скорость, м/час -    0.0 см 
STD                .                                       : 11 Приток,  -  170.0 см 
TENS               .T                                      : 6 Натяжение кабеля, т -    0.0 см 
TIME               .S                                      : 4 Время, сек -    0.0 см 
TM                 .GRD                                    : 13 Температура, °C -  180.0 см 
TM$                .UE                                     : 7 Температура, усл.ед. -  180.0 см 
VGD                .                                       : 9 Влагомер,  -  170.0 см 
~Ascii
# ...
2738       7.75       331        1          0          254.036    14314      -1400      608        32373      0          17881.37   89.703     22554      6495      
2738.2     7.91       347        1          0          254.042    14314      -1400      610        32374      0          17882.53   89.707     22555      6494      
2738.4     8.05       347        1          0          254.031    14314      -1400      617        32373      0          17883.66   89.707     22555      6495      
2738.6     8.31       374        1          0          254.098    14317      -1400      608        32374      0          17884.9    89.712     22556      6495      
2738.8     8.66       378        1          0          254.083    14316      -1400      609        32374      0          17886.06   89.715     22557      6495      
2739       8.82       383        1          0          254.129    14319      -1400      616        32374      0          17887.2    89.715     22557      6495      
2739.2     9.08       394        1          0          254.137    14319      -1400      612        32373      0          17888.44   89.717     22558      6496      
2739.4     9.1        385        1          0          254.137    14319      -1400      600        32373      0          17889.57   89.719     22558      6495      
2739.6     8.96       380        1          0          254.182    14321      -1400      610        32372      0          17890.74   89.723     22559      6495      
2739.8     8.91       380        1          0          254.167    14320      -1400      611        32373      0          17891.89   89.727     22560      6496      
2740       8.8        374        1          2          254.221    14323      -1400      605        32373      0          17893.12   89.731     22561      6496      
2740.2     8.77       374        1          0          254.203    14322      -1400      604        32374      0          17894.34   89.731     22561      6496      
2740.4     8.93       387        1          0          254.252    14324      -1400      604        32372      0          17895.48   89.735     22562      6495      
2740.6     9.01       387        1          0          254.265    14325      -1400      603        32372      0          17896.67   89.74      22563      6495      
2740.8     9.04       387        1          0          254.279    14326      -1400      606        32373      0          17897.85   89.743     22564      6496      
2741       9.05       387        1          0          254.319    14328      -1400      603        32373      0          17899.02   89.747     22565      6497      
2741.2     8.67       358        1          0          254.307    14327      -1400      606        32373      0          17900.17   89.751     22566      6496      
2741.4     8.47       358        1          0          254.359    14330      -1400      609        32373      0          17901.4    89.751     22566      6496      
2741.6     8.34       351        1          0          254.337    14328      -1400      611        32373      0          17902.52   89.755     22567      6496      
2741.8     8.25       351        1          0          254.378    14330      -1400      613        32373      0          17903.71   89.757     22568      6496      
2742       8.16       343        1          0          254.391    14331      -1400      616        32373      0          17904.9    89.761     22568      6496      
2742.2     8.02       340        1          0          254.406    14332      -1400      614        32373      0          17906.08   89.763     22569      6496      
2742.4     7.63       300        1          0          254.453    14334      -1400      620        32373      0          17907.22   89.766     22570      6497      
2742.6     7.21       300        1          0          254.435    14333      -1400      620        32372      0          17908.38   89.769     22571      6497      
2742.8     7.13       306        1          0          254.49     14336      -1400      618        32373      0          17909.6    89.772     22571      6497      
2743       7.24       312        1          0          254.474    14335      -1400      619        32373      0          17910.73   89.775     22572      6497      
2743.2     7.28       312        1          0          254.519    14337      -1400      619        32373      0          17911.91   89.779     22573      6496      
2743.4     8.41       387        1          0          254.54     14338      -1400      621        32373      0          17913.11   89.783     22574      6496      
2743.6     8.85       387        1          0          254.528    14338      -1400      612        32373      0          17914.3    89.787     22575      6497      
2743.8     9.11       397        1          0          254.594    14341      -1400      613        32373      0          17915.42   89.787     22575      6496      
2744       9.23       397        1          0          254.558    14339      -1400      613        32373      0          17916.59   89.794     22577      6497      
2744.2     9.23       394        1          0          254.631    14343      -1400      610        32373      0          17917.81   89.795     22577      6497      
2744.4     9.22       394        1          0          254.62     14342      -1400      612        32373      0          17918.95   89.795     22577      6498      
2744.6     9.03       377        1          0          254.639    14343      -1400      613        32373      0          17920.13   89.799     22578      6497      
2744.8     8.89       377        1          0          254.692    14345      -1400      620        32373      0          17921.31   89.803     22579      6498      
2745       8.69       358        1          0          254.668    14344      -1400      614        32373      0          17922.5    89.803     22579      6498      
2745.2     8.43       355        1          0          254.725    14347      -1400      620        32373      0          17923.63   89.803     22579      6498      
2745.4     8.68       389        1          0          254.704    14346      -1400      614        32373      0          17924.82   89.811     22581      6498      
2745.6     8.95       389        1          0          254.767    14349      -1400      610        32373      0          17926      89.814     22582      6497      
2745.8     9.07       391        1          0          254.746    14348      -1400      617        32373      0          17927.17   89.819     22583      6498      
2746       9.14       392        1          0          254.78     14350      -1400      617        32373      0          17928.33   89.824     22584      6497      
2746.2     9.16       392        1          0          254.823    14352      -1400      619        32373      0          17929.52   89.826     22585      6498      
2746.4     8.72       363        1          0          254.788    14350      -1400      617        32373      0          17930.68   89.829     22585      6498      
2746.6     8.49       353        1          0          254.85     14353      -1400      623        32373      0          17931.84   89.832     22586      6498      
2746.8     7.93       328        1          0          254.829    14352      -1400      622        32372      0          17932.98   89.836     22587      6499      
2747       7.76       328        1          0          254.871    14354      -1400      615        32373      0          17934.19   89.84      22588      6498      
2747.2     7.91       343        1          0          254.898    14355      -1400      621        32373      0          17935.34   89.844     22589      6496      
2747.4     7.99       343        1          0          254.9      14355      -1400      617        32374      0          17936.53   89.847     22590      6499      
2747.6     7.91       334        1          0          254.955    14358      -1400      618        32374      0          17937.66   89.85      22591      6497      
