~Version
 VERS              .         2.0                           : CWLS LOG ASCII STANDARD - VERSION 2.0
 WRAP              .         NO                            : ONE LINE PER DEPTH STEP
 DLM               .         SPACE                         : DELIMITING CHARACTER(SPACE TAB OR COMMA)
~Well Information
#_______________________________________________________________________________
#
#PARAMETER_NAME    .UNIT     VALUE                         : DESCRIPTION
#_______________________________________________________________________________
STRT               .M        10.2                          : First reference value
STOP               .M        2774.8                        : Last reference value
STEP               .M        0.2                           : Step increment
NULL               .         -9999                         : Missing value
COMP               .                                       : Company
WELL               .         616                           : Well name
FLD                .                                       : Field
LOC                .                                       : Location
CNTY               .                                       : County
STAT               .                                       : State
CTRY               .                                       : Country
SRVC               .                                       : Service Company
DATE               .                                       : Date
API                .                                       : API number
PROJECT_UPGRADE_TIME .         2021-03-18T21_24_50           : 
group              .         Good                          : 
~Parameter Information Block
#_______________________________________________________________________________
#
#PARAMETER_NAME    .UNIT     VALUE                         : DESCRIPTION
#_______________________________________________________________________________
SET                .         D1813_D_2                     : 
NPR                .                                       : 
OTHER              .         Программное обеспечение станции MONITOR-386EX 25/12/99 15_08_10   BGF V52 22/08/01 16_56_30   3.1_SNGF___BGF_N_092049: 
OTHER_10           .         Тарировки_                    : 
OTHER_11           .         TM.GRD = 0.00403*TM$.UE + -1.07: 
OTHER_12           .         MN.ATM = (9.34907e-006*TM.GRD + 0.02171)*(MN$.UE + -7.93*TM.GRD + -1787): 
OTHER_13           .         GK.MKR/H = LM. / 42.4676      : 
OTHER_14           .         GK.FLT = 0.1*GK.MKR/H[-1] + (1-0.1)*GK.MKR/H[0]: 
OTHER_2            .         Kedr.exe версия 3.4.2.51      : 
OTHER_3            .         KedrData.dll версия 3.4.2.24  : 
OTHER_4            .         Драйвер версия 2.1.1.3        : 
OTHER_5            .         Мнемоники версия 3.3 S        : 
OTHER_6            .         Прибор_ КСА-Т4                : 
OTHER_7            .         Номер прибора_ 03             : 
OTHER_8            .         Режим_ КСА-Т4                 : 
OTHER_9            .         Форма_ КВА.                   : 
PR                 .                                       : 
PROJECT_UPGRADE_TIME .         2021-03-18T21_24_49           : 
PRTY               .         ПП-603-1                      : N партии
SRV                .                                       : 
SRVC               .         Карпов                        : Начальник партии
TLFamily_DEPT      .         Measured Depth                : 
TLFamily_LM        .         Casing Collar locator         : 
TLFamily_MN        .                                       : 
TLFamily_TM        .         Temperature                   : 
group              .         second                        : 
~Curve Information
#_______________________________________________________________________________
#
#LOGNAME           .UNIT     LOG_ID                        : DESCRIPTION
#_______________________________________________________________________________
DEPT               .M                                      : Depth curve 
LM                 .е.ацп                                  : Локатор муфт,е.ацп 
MN                 .атм                                    : Манометрия, атм 
TM                 .град.C                                 : Термограмма по стволу скважины,град.C 
~Ascii
# ...
374.2      491.003    36.314     21.678    
374.4      592.003    36.332     21.682    
374.6      722.007    36.335     21.686    
374.8      973.013    36.356     21.69     
375        1450.018   36.378     21.694    
375.2      2137.953   36.399     21.701    
375.4      360        36.421     21.706    
375.6      371.999    36.442     21.708    
375.8      338        36.464     21.71     
376        332        36.481     21.715    
376.2      344        36.486     21.71     
376.4      349.001    36.505     21.722    
376.6      393        36.526     21.731    
376.8      408.999    36.549     21.735    
377        388.999    36.57      21.739    
377.2      358.999    36.59      21.743    
377.4      327        36.612     21.747    
377.6      324        36.628     21.751    
377.8      336.001    36.633     21.758    
378        377        36.654     21.76     
378.2      384        36.675     21.766    
378.4      396.001    36.697     21.771    
378.6      439.999    36.712     21.775    
378.8      414.001    36.723     21.779    
379        450        36.755     21.783    
379.2      450.002    36.76      21.787    
379.4      517.001    36.781     21.791    
379.6      565.005    36.802     21.798    
379.8      760.004    36.824     21.803    
380        896.002    36.845     21.808    
380.2      971.001    36.866     21.812    
380.4      1005.011   36.88      21.819    
380.6      1403.014   36.894     21.824    
380.8      1923.02    36.923     21.824    
381        2676.034   36.932     21.828    
381.2      3941.054   36.953     21.832    
381.4      5945.891   36.975     21.836    
381.6      1850.986   36.996     21.84     
381.8      1335.987   37.008     21.844    
382        858.988    37.026     21.848    
382.2      415        37.061     21.849    
382.4      404.998    37.082     21.856    
382.6      333.999    37.093     21.861    
382.8      297.001    37.103     21.861    
383        316        37.123     21.868    
383.2      303        37.144     21.872    
383.4      320.001    37.165     21.876    
383.6      349.002    37.187     21.88     
383.8      422.004    37.209     21.885    
384        559.006    37.229     21.889    
384.2      769.007    37.241     21.893    
384.4      1021.014   37.25      21.9      
384.6      1522.973   37.272     21.905    
384.8      528.996    37.293     21.909    
385        367        37.315     21.913    
385.2      367.002    37.325     21.917    
385.4      440.999    37.336     21.921    
385.6      397        37.357     21.929    
385.8      380.999    37.379     21.933    
386        353        37.4       21.934    
386.2      340        37.42      21.941    
386.4      352        37.441     21.945    
386.6      335.999    37.462     21.954    
386.8      301.999    37.472     21.957    
387        281.001    37.484     21.962    
387.2      318.999    37.505     21.966    
387.4      292        37.526     21.97     
387.6      291        37.547     21.974    
387.8      305        37.569     21.978    
388        287        37.591     21.986    
388.2      302.999    37.612     21.986    
388.4      277.001    37.633     21.994    
388.6      321        37.641     21.999    
388.8      317        37.668     22.006    
389        332.001    37.683     22.01     
389.2      355        37.695     22.014    
389.4      365.002    37.717     22.018    
389.6      448.001    37.739     22.023    
389.8      482.003    37.759     22.031    
390        576.004    37.767     22.034    
390.2      716        37.78      22.038    
390.4      708        37.802     22.043    
390.6      697.998    37.823     22.047    
390.8      627.002    37.845     22.051    
391        693        37.867     22.055    
391.2      696.004    37.889     22.059    
391.4      853.008    37.894     22.063    
391.6      1157.014   37.924     22.067    
391.8      1680.016   37.936     22.072    
392        2248.029   37.951     22.079    
392.2      3311.051   37.972     22.083    
392.4      5167.077   37.993     22.087    
392.6      7976.79    38.015     22.091    
392.8      366.998    38.037     22.095    
393        303.999    38.057     22.1      
393.2      282.001    38.062     22.108    
393.4      314.001    38.079     22.112    
393.6      350.002    38.099     22.116    
393.8      408.999    38.12      22.121    
394        381.999    38.141     22.128    
394.2      335.003    38.162     22.131    
394.4      440.002    38.183     22.132    
394.6      519.002    38.204     22.14     
394.8      580.997    38.21      22.144    
395        465.997    38.226     22.148    
395.2      346.999    38.246     22.152    
395.4      328.001    38.269     22.156    
395.6      356.001    38.291     22.16     
395.8      407.001    38.313     22.164    
396        442.003    38.333     22.168    
396.2      532.001    38.354     22.172    
396.4      582.002    38.358     22.176    
396.6      656        38.394     22.182    
396.8      648        38.4       22.189    
397        642.001    38.417     22.193    
397.2      681.995    38.439     22.195    
397.4      495.001    38.461     22.198    
397.6      541.997    38.482     22.205    
397.8      427        38.484     22.21     
398        431.998    38.502     22.217    
398.2      377.001    38.523     22.221    
398.4      406        38.544     22.225    
398.6      421.999    38.566     22.229    
398.8      378        38.587     22.233    
399        382.001    38.608     22.237    
399.2      415.001    38.611     22.241    
399.4      444.001    38.629     22.245    
399.6      488.998    38.65      22.249    
399.8      433.002    38.672     22.255    
400        508        38.694     22.26     
400.2      506.999    38.695     22.261    
400.4      468.002    38.734     22.265    
400.6      535.996    38.758     22.269    
400.8      395        38.78      22.273    
401        389        38.781     22.278    
401.2      372.999    38.801     22.282    
401.4      339        38.822     22.286    
401.6      338        38.843     22.292    
401.8      350.002    38.864     22.298    
402        431.004    38.885     22.302    
402.2      569        38.886     22.306    
402.4      577.005    38.906     22.312    
402.6      765.009    38.928     22.318    
402.8      1089.015   38.948     22.322    
403        1630.024   38.97      22.326    
403.2      2471.038   38.991     22.33     
403.4      3826.06    39.012     22.336    
403.6      5955.861   39.034     22.34     
403.8      1041.98    39.033     22.342    
404        347        39.054     22.348    
404.2      352.002    39.075     22.354    
404.4      424.001    39.097     22.358    
404.6      459.002    39.118     22.365    
404.8      513.001    39.14      22.371    
405        554.001    39.161     22.375    
405.2      596.997    39.182     22.379    
405.4      480.999    39.202     22.383    
405.6      451.999    39.203     22.387    
405.8      434        39.224     22.391    
406        437        39.244     22.395    
406.2      434        39.267     22.399    
406.4      445        39.288     22.403    
406.6      437        39.309     22.409    
406.8      436.001    39.329     22.415    
407        488        39.333     22.419    
407.2      484        39.371     22.423    
407.4      494.999    39.373     22.427    
407.6      454.999    39.394     22.431    
407.8      404.001    39.416     22.435    
408        424        39.437     22.439    
408.2      410.001    39.458     22.443    
408.4      452.998    39.478     22.45     
408.6      385.001    39.498     22.455    
408.8      408        39.499     22.46     
409        407.002    39.52      22.466    
409.2      460.999    39.541     22.472    
409.4      412        39.564     22.476    
409.6      398.002    39.585     22.48     
409.8      463.999    39.606     22.484    
410        444.001    39.624     22.49     
410.2      468.001    39.626     22.496    
410.4      487        39.648     22.5      
