~Version
 VERS              .         2.0                           : CWLS LOG ASCII STANDARD - VERSION 2.0
 WRAP              .         NO                            : ONE LINE PER DEPTH STEP
 DLM               .         SPACE                         : DELIMITING CHARACTER(SPACE TAB OR COMMA)
~Well Information
#_______________________________________________________________________________
#
#PARAMETER_NAME    .UNIT     VALUE                         : DESCRIPTION
#_______________________________________________________________________________
STRT               .M        2733.1                        : First reference value
STOP               .M        2798.6                        : Last reference value
STEP               .M        0.1                           : Step increment
NULL               .         -9999                         : Missing value
COMP               .                                       : Company
WELL               .         616                           : Well name
FLD                .                                       : Field
LOC                .                                       : Location
CNTY               .                                       : County
STAT               .                                       : State
CTRY               .                                       : Country
SRVC               .                                       : Service Company
DATE               .                                       : Date
API                .                                       : API number
PROJECT_UPGRADE_TIME .         2021-03-18T21_24_50           : 
group              .         Good                          : 
~Parameter Information Block
#_______________________________________________________________________________
#
#PARAMETER_NAME    .UNIT     VALUE                         : DESCRIPTION
#_______________________________________________________________________________
SET                .         D2661_D                       : 
OTHER              .         Программное обеспечение станции MONITOR-386EX 25/12/99 15_08_10   BGF V50 26/12/00 07_26_01   3.1_SNGF___BGF_N_092085: 
OTHER_10           .         Тарировки_                    : 
OTHER_11           .         IK1.GRD = IK1$.UE - -5.96     : 
OTHER_12           .         IK5.GRD = IK5$.UE - -0.74     : 
OTHER_13           .         IK4.GRD = IK4$.UE - -0.9      : 
OTHER_14           .         IK3.GRD = IK3$.UE - -1.28     : 
OTHER_15           .         IK2.GRD = IK2$.UE - -3.55     : 
OTHER_2            .         Kedr.exe версия 3.3.2.32      : 
OTHER_3            .         KedrData.dll версия 3.3.2.17  : 
OTHER_4            .         Драйвер версия 2.1.0.4        : 
OTHER_5            .         Мнемоники версия 3.3 S        : 
OTHER_6            .         Прибор_ Викиз                 : 
OTHER_7            .         Номер прибора_ 0006012        : 
OTHER_8            .         Режим_ Викиз                  : 
OTHER_9            .         Форма_ ВИКИЗ                  : 
PROJECT_UPGRADE_TIME .         2021-03-18T21_24_49           : 
TLFamily_DEPT      .         Measured Depth                : 
TLFamily_IK1       .         Extra Shallow Resistivity     : 
TLFamily_IK1$      .         Extra Shallow Resistivity     : 
TLFamily_IK2       .         Shallow Resistivity           : 
TLFamily_IK2$      .         Shallow Resistivity           : 
TLFamily_IK3       .         Medium Resistivity            : 
TLFamily_IK3$      .         Medium Resistivity            : 
TLFamily_IK4       .         Deep Resistivity              : 
TLFamily_IK4$      .         Deep Resistivity              : 
TLFamily_IK5       .         Resistivity 20                : 
TLFamily_IK5$      .         Resistivity 20                : 
TLFamily_METKA     .                                       : 
TLFamily_PS        .         Spontaneous Potential         : 
TLFamily_RCOR      .                                       : 
TLFamily_SPID      .         Spontaneous Potential         : 
TLFamily_TENS      .         Cable Tension                 : 
TLFamily_TIME      .         Time                          : 
group              .         prim                          : 
~Curve Information
#_______________________________________________________________________________
#
#LOGNAME           .UNIT     LOG_ID                        : DESCRIPTION
#_______________________________________________________________________________
DEPT               .M                                      : 1 Глубина, м -    0.0 см 
IK1                .GRD                                    : 13 3Ф0.5, град. -  226.0 см 
IK1$               .UE                                     : 7 3Ф0.5, усл.ед. -  226.0 см 
IK2                .GRD                                    : 17 3Ф0.7, град. -  240.0 см 
IK2$               .UE                                     : 11 3Ф0.7, усл.ед. -  240.0 см 
IK3                .GRD                                    : 16 3Ф1.0, град. -  260.0 см 
IK3$               .UE                                     : 10 3Ф1.0, усл.ед. -  260.0 см 
IK4                .GRD                                    : 15 3Ф1.4, град. -  288.0 см 
IK4$               .UE                                     : 9 3Ф1.4, усл.ед. -  288.0 см 
IK5                .GRD                                    : 14 3Ф2.0, град. -  328.0 см 
IK5$               .UE                                     : 8 3Ф2.0, усл.ед. -  328.0 см 
METKA              .                                       : 3 Метки,  -    0.0 см 
PS                 .mV                                     : 12 ПС, мВ -  372.0 см 
RCOR               .CM/KM                                  : 5 Коррекция по ролику, см/км -    0.0 см 
SPID               .M/H                                    : 2 Скорость, м/час -    0.0 см 
TENS               .T                                      : 6 Натяжение кабеля, т -    0.0 см 
TIME               .S                                      : 4 Время, сек -    0.0 см 
~Ascii
# ...
2737.4     11.11      5.15       12.64      9.09       14.29      13.01      14.64      13.74      14.33      13.59      0          280.65     -304       -1789      0          34474.51  
2737.5     11.07      5.11       12.59      9.04       14.26      12.98      14.66      13.76      14.39      13.65      0          279.9      -304       -1797      0          34474.33  
2737.6     11.03      5.07       12.55      9          14.24      12.96      14.66      13.76      14.43      13.69      0          279.34     -304       -1813      0          34474.14  
2737.7     10.96      5          12.53      8.98       14.23      12.95      14.66      13.76      14.49      13.75      0          279.01     -304       -1834      0          34473.94  
2737.8     10.92      4.96       12.54      8.99       14.23      12.95      14.68      13.78      14.52      13.78      0          279.12     -304       -1838      0          34473.73  
2737.9     10.9       4.94       12.58      9.03       14.24      12.96      14.69      13.79      14.56      13.82      0          279.7      -304       -1833      0          34473.55  
2738       10.89      4.93       12.61      9.06       14.25      12.97      14.69      13.79      14.6       13.86      0          280.36     -304       -1826      0          34473.34  
2738.1     10.91      4.95       12.64      9.09       14.25      12.97      14.68      13.78      14.63      13.89      0          281.31     -304       -1817      0          34473.13  
2738.2     10.96      5          12.67      9.12       14.26      12.98      14.67      13.77      14.65      13.91      0          282.05     -304       -1807      0          34472.95  
2738.3     11.07      5.11       12.7       9.15       14.26      12.98      14.63      13.73      14.66      13.92      0          282.83     -304       -1795      0          34472.76  
2738.4     11.17      5.21       12.71      9.16       14.24      12.96      14.6       13.7       14.68      13.94      0          283.82     -304       -1797      0          34472.54  
2738.5     11.27      5.31       12.72      9.17       14.2       12.92      14.57      13.67      14.69      13.95      0          285.27     -304       -1798      0          34472.35  
2738.6     11.41      5.45       12.75      9.2        14.18      12.9       14.55      13.65      14.71      13.97      0          286.64     -304       -1800      0          34472.17  
2738.7     11.58      5.62       12.8       9.25       14.16      12.88      14.53      13.63      14.72      13.98      0          287.5      -304       -1803      0          34471.96  
2738.8     11.71      5.75       12.84      9.29       14.14      12.86      14.5       13.6       14.74      14         0          287.83     -304       -1806      0          34471.77  
2738.9     11.76      5.8        12.82      9.27       14.08      12.8       14.45      13.55      14.75      14.01      0          287.54     -304       -1809      0          34471.58  
2739       11.74      5.78       12.77      9.22       14         12.72      14.4       13.5       14.75      14.01      0          287.09     -304       -1814      0          34471.39  
2739.1     11.76      5.8        12.75      9.2        13.97      12.69      14.37      13.47      14.74      14         0          286.24     -304       -1821      0          34471.17  
2739.2     11.76      5.8        12.73      9.18       13.95      12.67      14.33      13.43      14.74      14         0          285.23     -304       -1820      0          34470.99  
2739.3     11.64      5.68       12.68      9.13       13.92      12.64      14.3       13.4       14.73      13.99      0          284.39     -304       -1809      0          34470.78  
2739.4     11.53      5.57       12.67      9.12       13.92      12.64      14.3       13.4       14.74      14         0          283.68     -304       -1797      0          34470.58  
2739.5     11.49      5.53       12.72      9.17       13.96      12.68      14.32      13.42      14.76      14.02      0          283.08     -304       -1793      0          34470.38  
2739.6     11.47      5.51       12.77      9.22       14.02      12.74      14.36      13.46      14.79      14.05      0          282.36     -304       -1793      0          34470.19  
2739.7     11.4       5.44       12.78      9.23       14.08      12.8       14.4       13.5       14.81      14.07      0          281.56     -304       -1794      0          34470     
2739.8     11.32      5.36       12.76      9.21       14.12      12.84      14.43      13.53      14.82      14.08      0          281.12     -304       -1795      0          34469.79  
2739.9     11.25      5.29       12.73      9.18       14.15      12.87      14.45      13.55      14.83      14.09      1          280.99     -304       -1796      0          34469.61  
2740       11.19      5.23       12.7       9.15       14.17      12.89      14.48      13.58      14.82      14.08      0          281.24     -304       -1798      0          34469.39  
2740.1     11.13      5.17       12.68      9.13       14.18      12.9       14.5       13.6       14.82      14.08      0          281.82     -302       -1801      0          34469.13  
2740.2     11.07      5.11       12.67      9.12       14.21      12.93      14.52      13.62      14.83      14.09      0          282.53     -302       -1803      0          34468.95  
2740.3     10.99      5.03       12.67      9.12       14.23      12.95      14.56      13.66      14.84      14.1       0          283.56     -302       -1806      0          34468.77  
2740.4     10.99      5.03       12.7       9.15       14.27      12.99      14.6       13.7       14.86      14.12      0          284.86     -302       -1811      0          34468.54  
2740.5     11.02      5.06       12.76      9.21       14.33      13.05      14.65      13.75      14.88      14.14      0          286.16     -302       -1815      0          34468.34  
2740.6     11.1       5.14       12.82      9.27       14.4       13.12      14.72      13.82      14.91      14.17      0          287.72     -302       -1821      0          34468.16  
2740.7     11.26      5.3        12.9       9.35       14.47      13.19      14.76      13.86      14.95      14.21      0          289.07     -302       -1829      0          34467.96  
2740.8     11.43      5.47       13.01      9.46       14.53      13.25      14.8       13.9       14.98      14.24      0          290.35     -302       -1840      0          34467.75  
2740.9     11.58      5.62       13.05      9.5        14.55      13.27      14.82      13.92      15.01      14.27      0          291.35     -302       -1839      0          34467.57  
2741       11.68      5.72       13.05      9.5        14.54      13.26      14.83      13.93      15.03      14.29      0          292.3      -302       -1834      0          34467.38  
2741.1     11.74      5.78       13.05      9.5        14.52      13.24      14.83      13.93      15.04      14.3       0          293.51     -302       -1826      0          34467.15  
2741.2     11.9       5.94       13.14      9.59       14.57      13.29      14.86      13.96      15.07      14.33      0          294.34     -302       -1818      0          34466.97  
2741.3     12.1       6.14       13.26      9.71       14.63      13.35      14.92      14.02      15.1       14.36      0          294.83     -302       -1809      0          34466.78  
2741.4     12.28      6.32       13.35      9.8        14.67      13.39      14.95      14.05      15.12      14.38      0          294.55     -302       -1797      0          34466.57  
2741.5     12.26      6.3        13.34      9.79       14.66      13.38      14.95      14.05      15.13      14.39      0          294.44     -302       -1798      0          34466.39  
2741.6     12.13      6.17       13.27      9.72       14.62      13.34      14.92      14.02      15.11      14.37      0          294.5      -302       -1800      0          34466.2   
