~Version
 VERS              .         2.0                           : CWLS LOG ASCII STANDARD - VERSION 2.0
 WRAP              .         NO                            : ONE LINE PER DEPTH STEP
 DLM               .         SPACE                         : DELIMITING CHARACTER(SPACE TAB OR COMMA)
~Well Information
#_______________________________________________________________________________
#
#PARAMETER_NAME    .UNIT     VALUE                         : DESCRIPTION
#_______________________________________________________________________________
STRT               .M        2669.2                        : First reference value
STOP               .M        2776.2                        : Last reference value
STEP               .M        0.2                           : Step increment
NULL               .         -9999                         : Missing value
COMP               .                                       : Company
WELL               .         616                           : Well name
FLD                .                                       : Field
LOC                .                                       : Location
CNTY               .                                       : County
STAT               .                                       : State
CTRY               .                                       : Country
SRVC               .                                       : Service Company
DATE               .                                       : Date
API                .                                       : API number
PROJECT_UPGRADE_TIME .         2021-03-18T21_24_50           : 
group              .         Good                          : 
~Parameter Information Block
#_______________________________________________________________________________
#
#PARAMETER_NAME    .UNIT     VALUE                         : DESCRIPTION
#_______________________________________________________________________________
SET                .         D1809_D                       : 
OTHER              .         Программное обеспечение станции MONITOR-386EX 25/12/99 15_08_10   BGF V52 22/08/01 16_56_30   3.1_SNGF___BGF_N_092049: 
OTHER_10           .         Тарировки_                    : 
OTHER_11           .         TM.GRD = 0.00403*TM$.UE + -1.07: 
OTHER_12           .         MN.ATM = (9.34907e-006*TM.GRD + 0.02171)*(MN$.UE + -7.93*TM.GRD + -1787): 
OTHER_13           .         GK.MKR/H = LM. / 42.4676      : 
OTHER_14           .         GK.FLT = 0.1*GK.MKR/H[-1] + (1-0.1)*GK.MKR/H[0]: 
OTHER_2            .         Kedr.exe версия 3.4.2.51      : 
OTHER_3            .         KedrData.dll версия 3.4.2.24  : 
OTHER_4            .         Драйвер версия 2.1.1.3        : 
OTHER_5            .         Мнемоники версия 3.3 S        : 
OTHER_6            .         Прибор_ КСА-Т4                : 
OTHER_7            .         Номер прибора_ 03             : 
OTHER_8            .         Режим_ КСА-Т4                 : 
OTHER_9            .         Форма_ КВА.                   : 
PROJECT_UPGRADE_TIME .         2021-03-18T21_24_49           : 
TLFamily_DEPT      .         Measured Depth                : 
TLFamily_GK        .         Gamma Ray                     : 
TLFamily_GK$       .                                       : 
TLFamily_GK_2      .         Gamma Ray                     : 
TLFamily_LM        .         Casing Collar locator         : 
TLFamily_METKA     .                                       : 
TLFamily_MN        .                                       : 
TLFamily_MN$       .                                       : 
TLFamily_RCOR      .                                       : 
TLFamily_SPID      .         Spontaneous Potential         : 
TLFamily_TENS      .         Cable Tension                 : 
TLFamily_TIME      .         Time                          : 
TLFamily_TM        .         Temperature                   : 
TLFamily_TM$       .         Temperature                   : 
group              .         prim                          : 
~Curve Information
#_______________________________________________________________________________
#
#LOGNAME           .UNIT     LOG_ID                        : DESCRIPTION
#_______________________________________________________________________________
DEPT               .M                                      : 1 Глубина, м -    0.0 см 
GK                 .MKR/H                                  : 13 Гамма-активность, мкр./ч -  110.0 см 
GK$                .UE                                     : 10 Гамма-активность, усл.ед. -  110.0 см 
GK_2               .FLT                                    : 14 Гамма-активность фильтрованная, мкр./ч -  110.0 см 
LM                 .                                       : 9 Локатор муфт,  -   20.0 см 
METKA              .                                       : 3 Метки,  -    0.0 см 
MN                 .ATM                                    : 12 Давление, атм. -  160.0 см 
MN$                .UE                                     : 8 Давление, усл.ед. -  160.0 см 
RCOR               .CM/KM                                  : 5 Коррекция по ролику, см/км -    0.0 см 
SPID               .M/H                                    : 2 Скорость, м/час -    0.0 см 
TENS               .T                                      : 6 Натяжение кабеля, т -    0.0 см 
TIME               .S                                      : 4 Время, сек -    0.0 см 
TM                 .GRD                                    : 11 Температура, °C -  170.0 см 
TM$                .UE                                     : 7 Температура, усл.ед. -  170.0 см 
~Ascii
# ...
2690       9.63       409        9.63       204        2          248.448    13396      -631       581        0.05       6398.28    53.058     13431     
2690.2     10.38      441        10.35      172        0          248.472    13397      -638       580        0.05       6399.97    53.031     13425     
2690.4     10.38      441        10.38      174        0          248.481    13397      -638       580        0.05       6401.26    53.007     13419     
2690.6     11.09      471        11.06      224        0          248.497    13398      -638       580        0.05       6402.47    52.984     13413     
2690.8     11.09      471        11.09      235        0          248.521    13399      -638       580        0.05       6403.72    52.963     13408     
2691       11.04      469        11.05      227        0          248.486    13397      -638       580        0.05       6404.96    52.943     13403     
2691.2     11.35      482        11.26      240        0          248.546    13400      -638       580        0.05       6406.16    52.92      13397     
2691.4     11.35      482        11.35      214        0          248.57     13401      -638       580        0.05       6407.46    52.894     13391     
2691.6     11.21      476        11.26      179        0          248.578    13401      -638       580        0.05       6408.72    52.881     13387     
2691.8     11.21      476        11.21      219        0          248.595    13402      -638       574        0.05       6409.98    52.854     13381     
2692       10.94      464        11.04      179        0          248.626    13403      -638       576        0.05       6411.23    52.831     13375     
2692.2     10.67      453        10.68      249        0          248.632    13404      -638       577        0.05       6412.48    52.811     13370     
2692.4     10.08      428        10.28      238        0          248.666    13405      -638       578        0.05       6413.73    52.791     13365     
2692.6     10.08      428        10.09      222        0          248.667    13405      -638       579        0.05       6414.98    52.775     13361     
2692.8     10.43      443        10.3       199        0          248.691    13406      -638       579        0.05       6416.23    52.76      13357     
2693       10.5       446        10.5       1447       0          248.715    13407      -638       579        0.05       6417.45    52.741     13353     
2693.2     10.32      438        10.39      590        0          248.705    13406      -638       574        0.05       6418.75    52.716     13346     
2693.4     10.15      431        10.16      204        0          248.74     13408      -638       569        0.05       6420       52.695     13341     
2693.6     9.94       422        10.01      189        0          248.763    13409      -638       572        0.05       6421.25    52.675     13336     
2693.8     9.94       422        9.94       203        0          248.787    13410      -638       575        0.05       6422.49    52.656     13331     
2694       11.37      483        10.84      199        0          248.799    13411      -638       576        0.05       6423.69    52.643     13328     
2694.2     11.73      498        11.69      165        0          248.811    13411      -638       577        0.05       6424.94    52.621     13323     
2694.4     11.83      502        11.79      225        0          248.816    13411      -638       578        0.05       6426.19    52.608     13320     
2694.6     11.94      507        11.93      215        0          248.845    13412      -638       579        0.05       6427.44    52.59      13315     
2694.8     10.88      462        11.23      206        0          248.86     13413      -638       576        0.05       6428.75    52.569     13310     
2695       10.88      462        10.89      198        0          248.865    13413      -638       574        0.05       6430       52.549     13305     
2695.2     10.23      435        10.47      181        0          248.885    13414      -638       577        0.05       6431.26    52.534     13301     
2695.4     9.91       421        9.93       171        0          248.908    13415      -638       580        0.05       6432.51    52.516     13297     
2695.6     10.16      432        10.07      193        0          248.909    13415      -638       585        0.05       6433.75    52.498     13292     
2695.8     10.67      453        10.65      214        0          248.933    13416      -638       589        0.05       6434.95    52.478     13287     
2696       11.94      507        11.52      156        0          248.956    13417      -638       593        0.05       6436.23    52.465     13284     
2696.2     11.94      507        11.92      203        0          248.957    13417      -638       596        0.05       6437.45    52.447     13280     
2696.4     11.21      476        11.48      216        0          248.98     13418      -638       586        0.05       6438.76    52.433     13276     
2696.6     11.07      470        11.08      203        0          249.004    13419      -638       588        0.05       6439.98    52.419     13273     
2696.8     11.11      472        11.09      174        0          249.027    13420      -638       587        0.05       6441.27    52.402     13268     
2697       11.16      474        11.16      221        0          249.028    13420      -638       587        0.05       6442.45    52.386     13265     
2697.2     12.17      517        11.8       221        0          249.052    13421      -638       590        0.05       6443.7     52.363     13259     
2697.4     12.17      517        12.16      162        0          249.075    13422      -638       593        0.05       6444.95    52.348     13255     
2697.6     13.24      562        12.85      159        0          249.085    13422      -638       595        0.05       6446.22    52.332     13251     
2697.8     13.52      574        13.49      168        0          249.099    13423      -638       597        0.05       6447.48    52.319     13248     
2698       14.11      599        13.89      196        0          249.126    13424      -638       589        0.05       6448.78    52.301     13243     
2698.2     15         637        14.96      162        0          249.133    13424      -638       586        0.05       6450.03    52.281     13238     
2698.4     14.67      623        14.79      202        0          249.166    13426      -638       585        0.05       6451.28    52.266     13235     
2698.6     14.67      623        14.67      163        0          249.171    13426      -638       583        0.05       6452.53    52.252     13231     
2698.8     12.89      547        13.55      191        0          249.194    13427      -638       582        0.05       6453.72    52.236     13227     
2699       12.01      510        12.05      181        0          249.21     13428      -638       582        0.05       6454.97    52.223     13224     
2699.2     9.61       408        10.21      214        0          249.218    13428      -638       581        0.05       6456.19    52.209     13221     
2699.4     9.61       408        9.63       187        0          249.241    13429      -638       580        0.05       6457.52    52.195     13217     
2699.6     8.17       347        8.65       184        0          249.261    13430      -638       569        0.05       6458.74    52.182     13214     
2699.8     8.17       347        8.19       201        0          249.266    13430      -638       572        0.05       6459.97    52.164     13209     
2700       8.05       342        8.09       137        2          249.29     13431      -638       575        0.05       6461.23    52.143     13204     
2700.2     7.98       339        7.99       123        0          249.313    13432      -644       577        0.05       6462.86    52.129     13201     
