~Version
 VERS              .         2.0                           : CWLS LOG ASCII STANDARD - VERSION 2.0
 WRAP              .         NO                            : ONE LINE PER DEPTH STEP
 DLM               .         SPACE                         : DELIMITING CHARACTER(SPACE TAB OR COMMA)
~Well Information
#_______________________________________________________________________________
#
#PARAMETER_NAME    .UNIT     VALUE                         : DESCRIPTION
#_______________________________________________________________________________
STRT               .M        2649.8                        : First reference value
STOP               .M        2761.600056                   : Last reference value
STEP               .M        0.2000001                     : Step increment
NULL               .         -9999                         : Missing value
COMP               .                                       : Company
WELL               .         616                           : Well name
FLD                .                                       : Field
LOC                .                                       : Location
CNTY               .                                       : County
STAT               .                                       : State
CTRY               .                                       : Country
SRVC               .                                       : Service Company
DATE               .                                       : Date
API                .                                       : API number
PROJECT_UPGRADE_TIME .         2021-03-18T21_24_50           : 
group              .         Good                          : 
~Parameter Information Block
#_______________________________________________________________________________
#
#PARAMETER_NAME    .UNIT     VALUE                         : DESCRIPTION
#_______________________________________________________________________________
SET                .         D8106_D                       : 
OTHER              .         Программное обеспечение станции MONITOR-386EX 25/12/99 15_08_10   BGF V52 22/08/01 16_56_30   4_SNGF_BGF_N_011645: 
OTHER_10           .         Тарировки_                    : 
OTHER_11           .         TM.GRD = 0.00412*TM$.UE + -2.13: 
OTHER_12           .         MN.ATM = (5.87652e-006*TM.GRD + 0.01993)*(MN$.UE + -2.72*TM.GRD + -1925): 
OTHER_13           .         GK.MKR/H = GK$.UE / 57.4657   : 
OTHER_2            .         Kedr.exe версия 3.4.2.51      : 
OTHER_3            .         KedrData.dll версия 3.4.2.24  : 
OTHER_4            .         Драйвер версия 2.1.0.2        : 
OTHER_5            .         Мнемоники версия 3.3 S        : 
OTHER_6            .         Прибор_ АКП4-90               : 
OTHER_7            .         Номер прибора_ 53             : 
OTHER_8            .         Режим_ АКП4_90                : 
OTHER_9            .         Форма_ ПК-53ое                : 
PROJECT_UPGRADE_TIME .         2021-03-18T21_24_50           : 
TLFamily_DEPT      .         Measured Depth                : 
TLFamily_GK        .         Gamma Ray                     : 
TLFamily_GK$       .                                       : 
TLFamily_LM        .         Casing Collar locator         : 
TLFamily_METKA     .                                       : 
TLFamily_METKA_1   .                                       : 
TLFamily_MN        .                                       : 
TLFamily_MN$       .                                       : 
TLFamily_RCOR      .                                       : 
TLFamily_SPID      .         Spontaneous Potential         : 
TLFamily_TENS      .         Cable Tension                 : 
TLFamily_TIME      .         Time                          : 
TLFamily_TM        .         Temperature                   : 
TLFamily_TM$       .         Temperature                   : 
group              .         prim                          : 
~Curve Information
#_______________________________________________________________________________
#
#LOGNAME           .UNIT     LOG_ID                        : DESCRIPTION
#_______________________________________________________________________________
DEPT               .M                                      : 1 Глубина, м -    0.0 см 
GK                 .MKR/H                                  : 13 Гамма-активность, мкр./ч -   65.0 см 
GK$                .UE                                     : 10 Гамма-активность, усл.ед. -   65.0 см 
LM                 .                                       : 9 Локатор муфт,  -   30.0 см 
METKA              .                                       : 3 Метки,  -    0.0 см 
METKA_1            .                                       : 14 Маркеры - 65 см 
MN                 .ATM                                    : 12 Давление, атм. -  140.0 см 
MN$                .UE                                     : 8 Давление, усл.ед. -  140.0 см 
RCOR               .CM/KM                                  : 5 Коррекция по ролику, см/км -    0.0 см 
SPID               .M/H                                    : 2 Скорость, м/час -    0.0 см 
TENS               .T                                      : 6 Натяжение кабеля, т -    0.0 см 
TIME               .S                                      : 4 Время, сек -    0.0 см 
TM                 .GRD                                    : 11 Температура, °C -  145.0 см 
TM$                .UE                                     : 7 Температура, усл.ед. -  145.0 см 
~Ascii
# ...
2681.000016 7.06       406        477        0          0          245.302    14233      -5         478        0.55       14592.83   60.637     15235     
2681.200016 7.1        408        518        0          0          245.318    14234      -5         473        0.55       14594.35   60.563     15217     
2681.400016 7.08       407        585        0          0          245.348    14236      -5         480        0.55       14595.8    60.462     15192     
2681.600016 7.21       415        557        0          0          245.33     14235      -5         475        0.55       14597.3    60.361     15168     
2681.800016 7.29       419        631        0          0          245.406    14238      -5         476        0.55       14598.81   60.22      15134     
2682.000016 7.49       430        668        0          0          245.338    14235      -5         477        0.55       14600.32   60.144     15115     
2682.200016 7.52       432        467        0          0          245.462    14241      -5         482        0.55       14601.75   60.046     15091     
2682.400016 7.21       414        333        0          0          245.398    14238      -5         486        0.55       14603.27   59.979     15075     
2682.600016 7.04       404        506        0          0          245.538    14245      -5         490        0.55       14604.78   59.818     15036     
2682.800017 6.89       396        354        0          0          245.421    14239      -5         481        0.55       14606.21   59.723     15013     
2683.000017 7.15       411        704        0          0          245.558    14246      -5         483        0.55       14607.73   59.629     14990     
2683.200017 7.22       415        440        0          0          245.494    14243      -5         478        0.55       14609.16   59.534     14967     
2683.400017 7.38       424        472        0          0          245.581    14247      -5         483        0.55       14610.68   59.384     14931     
2683.600017 7.38       424        387        0          0          245.522    14244      -5         487        0.55       14612.15   59.305     14911     
2683.800017 7.33       421        20439      0          0          245.585    14247      -5         483        0.55       14613.68   59.187     14883     
2684.000017 7.16       411        12951      0          0          245.57     14247      -5         477        0.55       14615.14   59.126     14868     
2684.200017 7.08       407        2337       0          0          245.609    14249      -5         477        0.55       14616.65   58.982     14833     
2684.400017 6.98       401        1021       0          0          245.605    14248      -5         475        0.55       14618.09   58.894     14812     
2684.600017 6.98       401        1034       0          0          245.637    14250      -5         481        0.55       14619.6    58.768     14781     
2684.800018 6.93       398        499        0          0          245.665    14251      -5         481        0.55       14621.12   58.665     14756     
2685.000018 6.98       401        754        0          0          245.677    14252      -5         477        0.55       14622.62   58.586     14737     
2685.200018 7          402        641        0          0          245.717    14254      -5         486        0.55       14624.07   58.492     14714     
2685.400018 7.01       403        1354       0          0          245.705    14253      -5         481        0.55       14625.58   58.431     14699     
2685.600018 7.01       403        1057       0          0          245.765    14256      -5         487        0.55       14627.03   58.27      14660     
2685.800018 6.96       400        1505       0          0          245.725    14254      -5         481        0.55       14628.53   58.161     14634     
2686.000018 6.77       389        809        0          0          245.801    14258      -5         485        0.55       14629.98   57.991     14593     
2686.200018 6.7        385        1312       0          0          245.765    14256      -5         489        0.55       14631.5    57.877     14565     
2686.400018 6.87       395        719        0          0          245.873    14262      -5         485        0.55       14632.93   57.726     14528     
2686.600018 6.89       396        484        0          0          245.801    14258      -5         480        0.55       14634.43   57.639     14507     
2686.800019 7.37       423        637        0          0          245.9      14263      -5         489        0.55       14635.93   57.528     14480     
2687.000019 7.59       436        796        0          0          245.837    14260      -5         482        0.55       14637.42   57.437     14458     
2687.200019 7.77       447        1281       0          0          245.953    14266      -5         479        0.55       14638.87   57.263     14416     
2687.400019 7.98       458        1693       0          0          245.876    14262      -5         484        0.55       14640.38   57.161     14391     
2687.600019 8.02       461        738        0          0          245.976    14267      -5         488        0.55       14641.84   56.996     14351     
2687.800019 8.01       460        336        0          0          245.932    14265      -5         488        0.55       14643.34   56.877     14322     
2688.000019 7.98       459        1216       0          0          246.02     14269      -5         485        0.55       14644.84   56.722     14284     
2688.200019 7.95       457        549        0          0          245.992    14268      -5         486        0.55       14646.3    56.606     14256     
2688.400019 8.23       473        774        0          0          246.061    14271      -5         479        0.55       14647.88   56.433     14214     
2688.600019 8.32       478        486        0          0          246.028    14270      -5         484        0.55       14649.31   56.319     14187     
2688.800019 8.33       479        752        0          0          246.084    14272      -5         488        0.55       14650.81   56.241     14168     
2689.00002 8.35       480        550        0          0          246.086    14273      -5         488        0.55       14652.31   56.143     14144     
2689.20002 8.37       481        557        0          0          246.106    14274      -5         487        0.55       14653.81   55.993     14108     
2689.40002 8.45       485        409        0          0          246.116    14274      -5         490        0.55       14655.26   55.869     14077     
2689.60002 8.47       487        1062       0          0          246.127    14275      -5         481        0.55       14656.83   55.767     14053     
2689.80002 6.72       386        779        2          0          246.191    14278      -5         484        0.53       14658.25   55.605     14013     
2690.00002 6.39       367        721        0          0          246.159    14276      -7         471        0.55       14659.98   55.45      13976     
2690.20002 5.43       312        698        0          0          246.231    14280      -7         473        0.55       14661.46   55.287     13936     
2690.40002 5.22       300        589        0          0          246.187    14278      -7         479        0.55       14662.91   55.22      13920     
2690.60002 5.13       295        1063       0          0          246.263    14281      -7         485        0.55       14664.42   55.077     13885     
2690.800021 5.13       295        860        0          0          246.211    14279      -7         480        0.55       14665.88   55.005     13868     
2691.000021 5.43       312        641        0          0          246.323    14284      -7         485        0.55       14667.42   54.878     13837     
2691.200021 5.84       336        278        0          0          246.255    14281      -7         479        0.55       14668.88   54.855     13831     
