~Version
 VERS              .         2.0                           : CWLS LOG ASCII STANDARD - VERSION 2.0
 WRAP              .         NO                            : ONE LINE PER DEPTH STEP
 DLM               .         SPACE                         : DELIMITING CHARACTER(SPACE TAB OR COMMA)
~Well Information
#_______________________________________________________________________________
#
#PARAMETER_NAME    .UNIT     VALUE                         : DESCRIPTION
#_______________________________________________________________________________
STRT               .M        2645.6                        : First reference value
STOP               .M        2754.199837                   : Last reference value
STEP               .M        0.1999997                     : Step increment
NULL               .         -9999                         : Missing value
COMP               .                                       : Company
WELL               .         616                           : Well name
FLD                .                                       : Field
LOC                .                                       : Location
CNTY               .                                       : County
STAT               .                                       : State
CTRY               .                                       : Country
SRVC               .                                       : Service Company
DATE               .                                       : Date
API                .                                       : API number
PROJECT_UPGRADE_TIME .         2021-03-18T21_24_50           : 
group              .         Good                          : 
~Parameter Information Block
#_______________________________________________________________________________
#
#PARAMETER_NAME    .UNIT     VALUE                         : DESCRIPTION
#_______________________________________________________________________________
SET                .         D7026_D                       : 
OTHER              .         Kedr.exe версия 2.1.2.32      : 
OTHER_10           .         TM.GRD = 0.00404*TM$.UE + 0.07: 
OTHER_11           .         MN.ATM = (6.33279e-006*TM.GRD + 0.02401)*(MN$.UE + 2.72*TM.GRD + -2018): 
OTHER_12           .         GK.MKR/H = GK$.UE / 43.5489 + 0: 
OTHER_13           .         RES.SM = 0.00476*CRES.UE - 1.51709: 
OTHER_14           .         PL.GSM3 = 0 + 0 * (PL.UE / 1) +  0 * (PL.UE / 1)^2: 
OTHER_15           .         Постоянная времени ГГП = 6 сек: 
OTHER_16           .         Постоянная времени ГК = 6 сек : 
OTHER_2            .         KedrData.dll версия 3.2.2.14  : 
OTHER_3            .         LasInf.dll версия 3.2.0.13    : 
OTHER_4            .         Драйвер версия 1.2.0.5        : 
OTHER_5            .         Прибор_ КСА-M1                : 
OTHER_6            .         Номер прибора_ 155+р204       : 
OTHER_7            .         Режим_ КСА-М1 + ГГП + Резистивиметр: 
OTHER_8            .         Форма_ 223\2                  : 
OTHER_9            .         Тарировки_                    : 
PROJECT_UPGRADE_TIME .         2021-03-18T21_24_50           : 
TLFamily_CRES      .                                       : 
TLFamily_DEPT      .         Measured Depth                : 
TLFamily_GK        .         Gamma Ray                     : 
TLFamily_GK$       .                                       : 
TLFamily_LM        .         Casing Collar locator         : 
TLFamily_METKA     .                                       : 
TLFamily_MN        .                                       : 
TLFamily_MN$       .                                       : 
TLFamily_PL        .                                       : 
TLFamily_PL_2      .                                       : 
TLFamily_RCOR      .                                       : 
TLFamily_RES       .         Mud Resistivity               : 
TLFamily_SPID      .         Spontaneous Potential         : 
TLFamily_STD       .                                       : 
TLFamily_TIME      .         Time                          : 
TLFamily_TM        .         Temperature                   : 
TLFamily_TM$       .         Temperature                   : 
TLFamily_VGD       .         Gas Volume                    : 
group              .         prim                          : 
~Curve Information
#_______________________________________________________________________________
#
#LOGNAME           .UNIT     LOG_ID                        : DESCRIPTION
#_______________________________________________________________________________
DEPT               .M                                      : 1 Глубина, м -    0.0 см 
CRES               .UE                                     : 9 Проводимость, усл.ед. -  222.0 см 
GK                 .MKR/H                                  : 16 Гамма-активность, мкр./ч -  106.0 см 
GK$                .UE                                     : 13 Гамма-активность, усл.ед. -  106.0 см 
LM                 .                                       : 11 Локатор муфт,  -   16.0 см 
METKA              .                                       : 3 Метки,  -    0.0 см 
MN                 .ATM                                    : 15 Давление, атм. -  160.0 см 
MN$                .UE                                     : 7 Давление, усл.ед. -  160.0 см 
PL                 .UE                                     : 10 Плотность, усл.ед. -  270.0 см 
PL_2               .GSM3                                   : 18 Плотность, г./см3 -  270.0 см 
RCOR               .CM/KM                                  : 5 Коррекция по ролику, см/км -    0.0 см 
RES                .SM                                     : 17 Проводимость,  -  222.0 см 
SPID               .M/H                                    : 2 Скорость, м/час -    0.0 см 
STD                .                                       : 12 Приток,  -  170.0 см 
TIME               .S                                      : 4 Время, сек -    0.0 см 
TM                 .GRD                                    : 14 Температура, °C -  180.0 см 
TM$                .UE                                     : 6 Температура, усл.ед. -  180.0 см 
VGD                .                                       : 8 Влагомер,  -  170.0 см 
~Ascii
# ...
2702.999914 1186       13.63      631        51         0          248.671    12082      14         0          0          4.1267     533        10607      17525.06   54.159     13388      6687      
2703.199914 1184       14.06      631        35         0          248.692    12083      14         0          0          4.1188     580        10598      17526.37   54.121     13379      6688      
2703.399913 1183       14.41      644        48         0          248.713    12084      14         0          0          4.1147     580        10587      17527.71   54.098     13373      6687      
2703.599913 1184       14.47      616        3688       0          248.718    12084      14         0          0          4.1211     557        10578      17529.04   54.072     13367      6687      
2703.799913 1183       12.73      476        6050       0          248.747    12086      14         0          0          4.114      580        10566      17530.3    54.044     13360      6688      
2703.999912 1184       11.85      476        1488       0          248.773    12087      14         0          0          4.1188     580        10558      17531.63   54.019     13354      6687      
2704.199912 1183       9.99       345        371        0          248.774    12087      14         0          0          4.114      545        10550      17532.94   53.994     13347      6687      
2704.399912 1183       8.96       345        102        0          248.798    12088      14         0          0          4.114      524        10541      17534.24   53.949     13336      6688      
2704.599911 1182       8.45       346        44         0          248.811    12089      14         0          0          4.1113     580        10534      17535.53   53.914     13328      6688      
2704.799911 1182       8.22       351        56         0          248.858    12091      14         0          0          4.1085     580        10527      17536.84   53.892     13322      6687      
2704.999911 1183       8.14       351        82         0          248.863    12091      14         0          0          4.114      550        10524      17538.12   53.879     13319      6688      
2705.199911 1182       8.27       391        89         0          248.874    12092      14         0          0          4.1076     580        10520      17539.41   53.85      13312      6688      
2705.39991 1182       9.05       430        50         0          248.894    12093      14         0          0          4.1076     580        10515      17540.73   53.814     13303      6686      
2705.59991 1180       10.22      605        65         0          248.916    12094      14         0          0          4.0997     534        10510      17541.99   53.779     13294      6686      
2705.79991 1180       12.05      605        46         0          248.938    12095      14         0          0          4.0997     580        10507      17543.29   53.761     13290      6686      
2705.999909 1179       13.06      618        52         0          248.96     12096      14         0          0          4.097      570        10504      17544.58   53.743     13285      6686      
2706.199909 1180       13.61      618        38         0          248.98     12097      14         0          0          4.0997     522        10501      17545.89   53.723     13280      6686      
2706.399909 1179       12.69      472        26         0          249.001    12098      14         0          0          4.0957     545        10497      17547.21   53.693     13273      6686      
2706.599908 1180       11.8       472        35         0          249.011    12099      14         0          0          4.0978     580        10492      17548.49   53.665     13266      6686      
2706.799908 1180       10.98      418        38         0          249.037    12100      14         0          0          4.0981     580        10489      17549.79   53.633     13258      6685      
2706.999908 1179       10.27      418        31         0          249.038    12100      14         0          0          4.0949     533        10482      17551.1    53.601     13250      6686      
2707.199908 1178       10.2       448        39         0          249.059    12101      14         0          0          4.0902     580        10480      17552.4    53.575     13244      6685      
2707.399907 1179       10.24      448        43         0          249.081    12102      14         0          0          4.0926     568        10478      17553.68   53.554     13239      6685      
2707.599907 1177       9.94       416        45         0          249.102    12103      14         0          0          4.0862     522        10474      17555      53.535     13234      6685      
2707.799907 1177       9.75       416        43         0          249.122    12104      14         0          0          4.0854     545        10473      17556.34   53.508     13227      6685      
2707.999906 1176       9.99       455        49         0          249.143    12105      14         0          0          4.0807     530        10466      17557.6    53.473     13219      6685      
2708.199906 1176       10.22      455        45         0          249.16     12106      14         0          0          4.08       580        10463      17558.9    53.453     13213      6685      
2708.399906 1176       10.72      493        37         0          249.189    12107      14         0          0          4.0793     557        10459      17560.23   53.442     13211      6685      
2708.599905 1173       11.02      492        48         0          249.195    12107      14         0          0          4.0664     580        10455      17561.48   53.426     13207      6686      
2708.799905 1172       11.09      486        64         0          249.209    12108      14         0          0          4.0616     580        10456      17562.8    53.411     13203      6685      
2708.999905 1172       11.12      486        72         1          249.232    12109      14         0          0          4.0603     570        10452      17564.1    53.394     13199      6686      
2709.199905 1169       10.91      464        57         0          249.257    12110      14         0          0          4.0474     580        10449      17565.38   53.383     13196      6686      
2709.399904 1169       10.77      461        66         0          249.274    12111      14         0          0          4.0487     580        10445      17566.7    53.36      13191      6686      
2709.599904 1165       10.61      455        49         0          249.312    12113      14         0          0          4.0307     510        10440      17567.95   53.333     13184      6686      
2709.799904 1165       10.61      473        62         0          249.316    12113      14         0          0          4.0283     510        10436      17569.27   53.304     13177      6684      
2709.999903 1162       10.78      477        61         0          249.336    12114      14         0          0          4.0156     580        10429      17570.59   53.281     13171      6685      
2710.199903 1163       10.84      470        61         1          249.359    12115      14         0          0          4.0168     580        10425      17572.51   53.251     13164      6685      
2710.399903 1161       10.66      457        50         0          249.379    12116      14         0          0          4.0109     557        10419      17573.83   53.238     13160      6686      
2710.599903 1163       10.7       484        46         0          249.4      12117      14         0          0          4.0188     520        10414      17575.11   53.21      13153      6686      
2710.799902 1160       10.95      488        50         0          249.419    12118      14         0          0          4.0053     568        10407      17576.41   53.178     13146      6685      
2710.999902 1161       11.04      481        64         0          249.431    12119      14         0          0          4.0069     580        10400      17577.73   53.139     13136      6685      
