~Version
 VERS              .         2.0                           : CWLS LOG ASCII STANDARD - VERSION 2.0
 WRAP              .         NO                            : ONE LINE PER DEPTH STEP
 DLM               .         SPACE                         : DELIMITING CHARACTER(SPACE TAB OR COMMA)
~Well Information
#_______________________________________________________________________________
#
#PARAMETER_NAME    .UNIT     VALUE                         : DESCRIPTION
#_______________________________________________________________________________
STRT               .M        749.69                        : First reference value
STOP               .M        1410.72                       : Last reference value
STEP               .M        0                             : Step increment
NULL               .         -9999                         : Missing value
COMP               .                                       : Company
WELL               .         616                           : Well name
FLD                .                                       : Field
LOC                .                                       : Location
CNTY               .                                       : County
STAT               .                                       : State
CTRY               .                                       : Country
SRVC               .                                       : Service Company
DATE               .                                       : Date
API                .                                       : API number
PROJECT_UPGRADE_TIME .         2021-03-18T21_24_50           : 
group              .         Good                          : 
~Parameter Information Block
#_______________________________________________________________________________
#
#PARAMETER_NAME    .UNIT     VALUE                         : DESCRIPTION
#_______________________________________________________________________________
SET                .         D0928                         : 
NPR                .         210404                        : ЗАВ НОМЕР ПРИБОРА
NPRT               .         Каштанов                      : НАЧ ПАРТИИ
PROJECT_UPGRADE_TIME .         2021-03-18T21_24_49           : 
TLFamily_AZIMUTH   .         True Dip Azimuth              : 
TLFamily_DEPTH     .         Measured Depth                : 
TLFamily_DRILL     .                                       : 
TLFamily_METKA     .                                       : 
TLFamily_ZENIT     .                                       : 
group              .         prim                          : 
~Curve Information
#_______________________________________________________________________________
#
#LOGNAME           .UNIT     LOG_ID                        : DESCRIPTION
#_______________________________________________________________________________
DEPTH              .M                                      : 1 ГЛУБИНА 
AZIMUTH            .ГРАД                                   : 4 АЗИМУТ 
DRILL              .ГРАД                                   : 2 ПОВОРОТ 
METKA              .                                       : 5 МАГН МЕТКА 
ZENIT              .ГРАД                                   : 3 ЗЕНИТ 
~Ascii
# ...
1375.22    259.74     237.95     0          33.08     
1375.59    259.8      238.15     0          33.08     
1375.97    259.81     238.32     0          33.08     
1376.34    259.84     238.48     0          33.08     
1376.71    259.84     238.61     0          33.07     
1377.09    259.78     238.73     0          33.06     
1377.46    259.76     238.85     0          33.06     
1377.84    259.78     238.95     0          33.06     
1378.21    259.67     239.1      0          33.04     
1378.58    259.61     239.27     0          33.03     
1378.95    259.7      239.43     0          33.04     
1379.33    259.76     239.56     0          33.05     
1379.7     259.9      239.64     0          33.07     
1380.07    260        239.6      0          33.07     
1380.44    259.64     239.43     0          32.98     
1380.82    259.67     239.14     0          32.99     
1381.19    259.68     238.85     0          33        
1381.56    259.6      238.64     0          33.01     
1381.93    259.53     238.59     0          33.01     
1382.3     259.5      238.58     0          33        
1382.67    259.59     238.53     0          33.02     
1383.04    259.58     238.49     0          33.02     
1383.41    259.54     238.4      0          33.01     
1383.59    259.49     238        0          33.01     
1383.76    259.52     237.49     0          33.03     
1383.93    259.45     236.87     0          33.01     
1384.1     259.31     236.15     0          32.99     
1384.27    259.22     235.32     0          32.99     
1384.44    259.28     234.39     0          33.01     
1384.81    259.29     235.91     0          33.02     
1385.18    259.22     237.46     0          33        
1385.55    259.23     239.02     0          33.01     
1385.92    259.04     240.6      0          32.97     
1386.29    259.1      242.09     0          32.99     
1386.66    258.97     243.49     0          32.99     
1387.03    259.16     244.79     0          33.03     
1387.4     259.08     245.99     0          33.01     
1387.77    258.97     247.16     0          33        
1388.14    259.13     248.22     0          33.02     
1388.51    259.11     249.12     0          33.02     
1388.88    259.17     249.86     0          33.03     
1389.25    259.01     250.47     0          33        
1389.62    259.17     250.99     0          33.04     
1389.99    259.04     251.52     0          33.03     
1390.36    259.13     252.04     0          33.04     
1390.73    259.06     252.6      0          33.02     
1391.1     259.11     253.04     0          33.02     
1391.47    259.13     253.17     0          32.99     
1391.84    259.17     252.93     0          32.99     
1392.21    259.22     252.32     0          32.98     
1392.58    259.25     251.35     0          32.96     
1392.95    259.37     250.02     0          32.97     
1393.32    259.57     248.41     0          33.01     
1393.69    259.56     246.76     0          33.02     
1394.06    259.68     245.16     0          33.05     
1394.43    259.66     243.9      0          33.07     
1394.8     259.56     243.6      0          33.08     
1395.17    259.46     244.45     0          33.06     
1395.54    259.63     247.01     0          33.03     
1395.71    259.73     246.27     0          33.04     
1395.88    259.86     246.39     0          33.06     
1396.05    259.84     247.19     0          33.06     
1396.22    260        248.5      0          33.12     
1396.4     259.89     250.37     0          33.12     
1396.57    260.03     252.79     0          33.15     
1396.74    259.95     255.68     0          33.14     
1397.11    260.15     259.1      0          33.15     
1397.47    260.37     264.98     0          33.19     
1397.84    260.41     271.95     0          33.21     
1398.21    260.44     278.79     0          33.24     
1398.57    260.44     284.75     0          33.24     
1398.93    260.55     289.09     0          33.27     
1399.29    260.5      291.47     0          33.25     
1399.65    260.68     291.72     0          33.26     
1400.01    260.83     290.47     0          33.24     
1400.37    260.98     288.18     0          33.23     
1400.73    261.4      285.93     0          33.28     
1401.08    261.62     286.34     0          33.37     
1401.43    261.46     297.14     0          33.38     
1401.79    261.58     332.99     0          33.41     
1402.14    261.61     3.96       0          33.4      
1402.49    261.73     11.2       0          33.37     
1402.84    261.81     8.85       0          33.37     
1403.18    262.01     3.37       0          33.39     
1403.53    262.05     356.88     0          33.38     
1403.87    262.06     348.82     0          33.36     
1404.22    262.29     339.91     0          33.35     
1404.56    262.57     330.86     0          33.34     
1404.9     262.7      322.06     0          33.34     
1405.24    263.16     314.49     0          33.38     
1405.57    263.48     309.52     0          33.43     
1405.91    263.49     309.24     0          33.39     
1406.25    263.95     312.57     0          33.36     
1406.58    264.44     315.53     0          33.38     
1406.91    264.65     315.43     0          33.4      
1407.24    264.85     311.82     0          33.41     
1407.38    264.87     298.98     0          33.38     
1407.51    265.35     285.14     0          33.33     
1407.64    265.96     270.37     0          33.36     
1407.77    266.43     254.88     0          33.39     
1407.9     266.5      238.98     0          33.36     
1408.03    266.89     223.49     0          33.31     
1408.16    267.51     210.39     0          33.32     
1408.3     267.9      348.25     0          33.37     
1408.43    268.11     353.57     0          33.41     
1408.56    268.11     341.67     0          33.34     
1408.69    268.73     333.58     0          33.34     
1408.82    269        340.7      0          33.28     
1408.95    269.56     335.61     0          33.28     
1409.07    269.92     317.65     0          33.28     
1409.19    270.29     278.02     0          33.32     
1409.3     270.53     226.81     0          33.35     
1409.41    270.76     196.95     0          33.34     
1409.52    271.01     180.19     0          33.32     
1409.62    271.3      168.58     0          33.3      
1409.71    271.8      159.11     0          33.33     
1409.8     272.12     151.07     0          33.34     
1409.89    272.42     144.26     0          33.39     
1409.97    272.59     138.88     0          33.42     
1410.05    272.5      135.8      0          33.39     
1410.13    272.61     136.11     0          33.34     
1410.2     273.05     139.98     0          33.4      
1410.26    273.05     144.18     0          33.42     
1410.32    273.08     146.17     0          33.4      
1410.38    273.33     145.82     0          33.38     
1410.43    273.6      143.9      0          33.37     
1410.48    273.92     141.17     0          33.42     
1410.52    273.79     138.28     0          33.46     
1410.56    273.55     136.19     0          33.41     
1410.6     273.54     135.86     0          33.37     
1410.63    273.86     137.47     0          33.4      
1410.65    273.91     139.99     0          33.45     
1410.68    273.71     141.83     0          33.45     
1410.69    273.66     142.2      0          33.41     
1410.71    273.67     141.21     0          33.4      
1410.72    273.98     139.34     0          33.5      
1410.72    273.36     137.55     0          33.46     
