~Version
 VERS              .         2.0                           : CWLS LOG ASCII STANDARD - VERSION 2.0
 WRAP              .         NO                            : ONE LINE PER DEPTH STEP
 DLM               .         SPACE                         : DELIMITING CHARACTER(SPACE TAB OR COMMA)
~Well Information
#_______________________________________________________________________________
#
#PARAMETER_NAME    .UNIT     VALUE                         : DESCRIPTION
#_______________________________________________________________________________
STRT               .M        2669.8                        : First reference value
STOP               .M        2775.8                        : Last reference value
STEP               .M        0.2                           : Step increment
NULL               .         -9999                         : Missing value
COMP               .                                       : Company
WELL               .         616                           : Well name
FLD                .                                       : Field
LOC                .                                       : Location
CNTY               .                                       : County
STAT               .                                       : State
CTRY               .                                       : Country
SRVC               .                                       : Service Company
DATE               .                                       : Date
API                .                                       : API number
PROJECT_UPGRADE_TIME .         2021-03-18T21_24_50           : 
group              .         Good                          : 
~Parameter Information Block
#_______________________________________________________________________________
#
#PARAMETER_NAME    .UNIT     VALUE                         : DESCRIPTION
#_______________________________________________________________________________
SET                .         D1812_D                       : 
OTHER              .         Программное обеспечение станции MONITOR-386EX 25/12/99 15_08_10   BGF V52 22/08/01 16_56_30   3.1_SNGF___BGF_N_092049: 
OTHER_10           .         Тарировки_                    : 
OTHER_11           .         TM.GRD = 0.00403*TM$.UE + -1.07: 
OTHER_12           .         MN.ATM = (9.34907e-006*TM.GRD + 0.02171)*(MN$.UE + -7.93*TM.GRD + -1787): 
OTHER_13           .         GK.MKR/H = LM. / 42.4676      : 
OTHER_14           .         GK.FLT = 0.1*GK.MKR/H[-1] + (1-0.1)*GK.MKR/H[0]: 
OTHER_2            .         Kedr.exe версия 3.4.2.51      : 
OTHER_3            .         KedrData.dll версия 3.4.2.24  : 
OTHER_4            .         Драйвер версия 2.1.1.3        : 
OTHER_5            .         Мнемоники версия 3.3 S        : 
OTHER_6            .         Прибор_ КСА-Т4                : 
OTHER_7            .         Номер прибора_ 03             : 
OTHER_8            .         Режим_ КСА-Т4                 : 
OTHER_9            .         Форма_ КВА.                   : 
PROJECT_UPGRADE_TIME .         2021-03-18T21_24_49           : 
TLFamily_DEPT      .         Measured Depth                : 
TLFamily_GK        .         Gamma Ray                     : 
TLFamily_GK$       .                                       : 
TLFamily_GK_2      .         Gamma Ray                     : 
TLFamily_LM        .         Casing Collar locator         : 
TLFamily_METKA     .                                       : 
TLFamily_MN        .                                       : 
TLFamily_MN$       .                                       : 
TLFamily_RCOR      .                                       : 
TLFamily_SPID      .         Spontaneous Potential         : 
TLFamily_TENS      .         Cable Tension                 : 
TLFamily_TIME      .         Time                          : 
TLFamily_TM        .         Temperature                   : 
TLFamily_TM$       .         Temperature                   : 
group              .         prim                          : 
~Curve Information
#_______________________________________________________________________________
#
#LOGNAME           .UNIT     LOG_ID                        : DESCRIPTION
#_______________________________________________________________________________
DEPT               .M                                      : 1 Глубина, м -    0.0 см 
GK                 .MKR/H                                  : 13 Гамма-активность, мкр./ч -  110.0 см 
GK$                .UE                                     : 10 Гамма-активность, усл.ед. -  110.0 см 
GK_2               .FLT                                    : 14 Гамма-активность фильтрованная, мкр./ч -  110.0 см 
LM                 .                                       : 9 Локатор муфт,  -   20.0 см 
METKA              .                                       : 3 Метки,  -    0.0 см 
MN                 .ATM                                    : 12 Давление, атм. -  160.0 см 
MN$                .UE                                     : 8 Давление, усл.ед. -  160.0 см 
RCOR               .CM/KM                                  : 5 Коррекция по ролику, см/км -    0.0 см 
SPID               .M/H                                    : 2 Скорость, м/час -    0.0 см 
TENS               .T                                      : 6 Натяжение кабеля, т -    0.0 см 
TIME               .S                                      : 4 Время, сек -    0.0 см 
TM                 .GRD                                    : 11 Температура, °C -  170.0 см 
TM$                .UE                                     : 7 Температура, усл.ед. -  170.0 см 
~Ascii
# ...
2711.4     12.6       535        12.53      135        0          249.222    13421      -626       533        0.05       7344.61    49.97      12665     
2711.6     12.6       535        12.6       141        0          249.244    13422      -626       535        0.05       7345.92    49.962     12663     
2711.8     11.75      499        11.78      150        0          249.267    13423      -626       530        0.05       7347.3     49.954     12661     
2712       11.66      495        11.69      116        0          249.267    13423      -626       541        0.05       7348.61    49.95      12660     
2712.2     11.21      476        11.22      202        0          249.283    13424      -626       540        0.05       7349.92    49.942     12658     
2712.4     11.14      473        11.17      244        0          249.299    13424      -626       547        0.05       7351.36    49.938     12657     
2712.6     10.88      462        10.89      206        1          249.313    13425      -626       534        0.05       7352.64    49.93      12655     
2712.8     10.24      435        10.43      141        0          249.336    13426      -626       537        0.05       7353.98    49.922     12653     
2713       10.24      435        10.25      99         0          249.358    13427      -626       533        0.05       7355.34    49.918     12652     
2713.2     12.83      545        12.18      62         0          249.381    13428      -626       540        0.05       7356.63    49.914     12651     
2713.4     12.83      545        12.82      122        0          249.404    13429      -626       530        0.05       7358       49.905     12649     
2713.6     14.51      616        14.15      147        0          249.419    13430      -626       543        0.05       7359.33    49.897     12647     
2713.8     14.51      616        14.5       156        0          249.43     13430      -626       537        0.05       7360.63    49.889     12645     
2714       12.57      534        12.7       129        0          249.471    13432      -626       534        0.05       7362.03    49.885     12644     
2714.2     12.57      534        12.58      159        0          249.481    13432      -626       525        0.05       7363.31    49.879     12642     
2714.4     13.61      578        13.54      116        0          249.516    13434      -626       537        0.05       7364.69    49.873     12641     
2714.6     13.61      578        13.61      176        0          249.517    13434      -626       531        0.05       7366       49.869     12640     
2714.8     14.13      600        14.1       157        0          249.54     13435      -626       541        0.05       7367.37    49.861     12638     
2715       12.13      515        12.87      2223       0          249.54     13435      -626       534        0.05       7368.7     49.854     12636     
2715.2     10.15      431        10.21      780        0          249.567    13436      -626       544        0.05       7369.95    49.849     12635     
2715.4     8.11       344        8.86       264        0          249.585    13437      -626       540        0.05       7371.33    49.841     12633     
2715.6     7.61       323        7.65       131        0          249.608    13438      -626       531        0.05       7372.7     49.829     12630     
2715.8     7.59       322        7.59       161        0          249.627    13439      -626       533        0.05       7374.03    49.829     12630     
2716       7.58       322        7.58       157        0          249.653    13440      -626       543        0.05       7375.41    49.825     12629     
2716.2     7.44       316        7.47       141        0          249.676    13441      -626       537        0.05       7376.76    49.817     12627     
2716.4     7.44       316        7.44       196        0          249.69     13442      -626       543        0.05       7378.03    49.813     12626     
2716.6     8.67       368        8.45       177        0          249.702    13442      -626       539        0.05       7379.38    49.807     12625     
2716.8     8.67       368        8.66       204        0          249.721    13443      -626       537        0.05       7380.66    49.801     12623     
2717       13.12      557        12.92      174        0          249.744    13444      -626       539        0.05       7382.03    49.797     12622     
2717.2     13.12      557        13.11      146        0          249.766    13445      -626       531        0.05       7383.43    49.789     12620     
2717.4     13.59      577        13.57      164        0          249.774    13445      -626       531        0.05       7384.72    49.785     12619     
2717.6     13.59      577        13.59      89         0          249.812    13447      -626       532        0.05       7386.1     49.777     12617     
2717.8     11.02      468        11.12      112        0          249.812    13447      -626       532        0.05       7387.41    49.772     12616     
2718       10.47      445        10.68      146        0          249.835    13448      -626       537        0.05       7388.73    49.768     12615     
2718.2     10.36      440        10.37      143        0          249.857    13449      -626       541        0.05       7390.1     49.761     12613     
2718.4     10.05      427        10.16      156        0          249.879    13450      -626       544        0.05       7391.4     49.756     12612     
2718.6     10.05      427        10.06      135        0          249.88     13450      -626       540        0.05       7392.74    49.749     12610     
2718.8     10.15      431        10.12      173        0          249.911    13451      -626       530        0.05       7394.17    49.744     12609     
2719       10.15      431        10.15      176        0          249.943    13453      -626       534        0.05       7395.45    49.744     12609     
2719.2     10.34      439        10.32      150        0          249.947    13453      -626       535        0.05       7396.8     49.738     12607     
2719.4     10.34      439        10.34      137        0          249.97     13454      -626       531        0.05       7398.15    49.732     12606     
2719.6     10.67      453        10.63      134        0          249.992    13455      -626       539        0.05       7399.42    49.728     12605     
2719.8     10.67      453        10.67      133        0          250.037    13457      -626       542        0.05       7400.8     49.724     12604     
2720       10.93      464        10.91      137        2          250.038    13457      -626       544        0.05       7402.11    49.72      12603     
2720.2     10.93      464        10.93      165        0          250.06     13458      -634       544        0.05       7403.94    49.714     12602     
2720.4     10.93      464        10.93      189        0          250.082    13459      -634       528        0.05       7405.37    49.712     12601     
2720.6     10.83      460        10.87      188        0          250.056    13458      -634       541        0.05       7406.71    49.701     12598     
2720.8     10.64      452        10.65      153        0          250.105    13460      -634       531        0.05       7408       49.7       12598     
2721       10.61      451        10.62      162        0          250.119    13461      -634       541        0.05       7409.38    49.696     12597     
2721.2     10.55      448        10.55      136        0          250.15     13462      -634       534        0.07       7410.69    49.692     12596     
2721.4     10.57      449        10.57      136        0          250.173    13463      -634       535        0.07       7412       49.684     12594     
2721.6     10.57      449        10.57      147        0          250.195    13464      -634       531        0.05       7413.38    49.68      12593     
