~Version
 VERS              .         2.0                           : CWLS LOG ASCII STANDARD - VERSION 2.0
 WRAP              .         NO                            : ONE LINE PER DEPTH STEP
 DLM               .         SPACE                         : DELIMITING CHARACTER(SPACE TAB OR COMMA)
~Well Information
#_______________________________________________________________________________
#
#PARAMETER_NAME    .UNIT     VALUE                         : DESCRIPTION
#_______________________________________________________________________________
STRT               .M        2298.8                        : First reference value
STOP               .M        2799.8                        : Last reference value
STEP               .M        0.2                           : Step increment
NULL               .         -9999                         : Missing value
COMP               .                                       : Company
WELL               .         616                           : Well name
FLD                .                                       : Field
LOC                .                                       : Location
CNTY               .                                       : County
STAT               .                                       : State
CTRY               .                                       : Country
SRVC               .                                       : Service Company
DATE               .                                       : Date
API                .                                       : API number
PROJECT_UPGRADE_TIME .         2021-03-18T21_24_50           : 
group              .         Good                          : 
~Parameter Information Block
#_______________________________________________________________________________
#
#PARAMETER_NAME    .UNIT     VALUE                         : DESCRIPTION
#_______________________________________________________________________________
SET                .         D2659_D                       : 
OTHER              .         Программное обеспечение станции MONITOR-386EX 25/12/99 15_08_10   BGF V50 26/12/00 07_26_01   3.1_SNGF___BGF_N_092085: 
OTHER_10           .         Тарировки_                    : 
OTHER_11           .         <_techsia_sc_> Постоянная времени фильтра ПС  0.5 сек, kf=0.139292: 
OTHER_2            .         Kedr.exe версия 3.3.2.32      : 
OTHER_3            .         KedrData.dll версия 3.3.2.17  : 
OTHER_4            .         Драйвер версия 2.1.0.7        : 
OTHER_5            .         Мнемоники версия 3.3 S        : 
OTHER_6            .         Прибор_ К1a-723м              : 
OTHER_7            .         Номер прибора_ 348/72         : 
OTHER_8            .         Режим_ K1A-723M               : 
OTHER_9            .         Форма_ БКЗ                    : 
PROJECT_UPGRADE_TIME .         2021-03-18T21_24_49           : 
TLFamily_BK        .         Lateral Log Resistivity       : 
TLFamily_DEPT      .         Measured Depth                : 
TLFamily_GZ1       .         Extra Shallow Resistivity     : 
TLFamily_GZ2       .         Shallow Resistivity           : 
TLFamily_GZ3       .         Medium Resistivity            : 
TLFamily_GZ4       .         Deep Resistivity              : 
TLFamily_GZ5       .         Extra Deep Resistivity        : 
TLFamily_GZ6       .         Medium Resistivity Inverted   : 
TLFamily_IBK       .                                       : 
TLFamily_IK        .         Conductivity                  : 
TLFamily_IPR       .                                       : 
TLFamily_METKA     .                                       : 
TLFamily_PS        .         Spontaneous Potential         : 
TLFamily_PZ        .         Potential Resistivity         : 
TLFamily_RCOR      .                                       : 
TLFamily_RES       .         Mud Resistivity               : 
TLFamily_SPID      .         Spontaneous Potential         : 
TLFamily_TENS      .         Cable Tension                 : 
TLFamily_TIME      .         Time                          : 
TLFamily_UBK       .         Uranium Concentration         : 
group              .         prim                          : 
~Curve Information
#_______________________________________________________________________________
#
#LOGNAME           .UNIT     LOG_ID                        : DESCRIPTION
#_______________________________________________________________________________
DEPT               .M                                      : 1 Глубина, м -    0.0 см 
BK                 .OHMM                                   : 20 БК, Ом*м - 1768.0 см 
GZ1                .OHMM                                   : 12 A0.4M0.1N, Ом*м - 1295.0 см 
GZ2                .OHMM                                   : 11 A1.0M0.1N, Ом*м - 1355.0 см 
GZ3                .OHMM                                   : 9 A2.0M0.5N, Ом*м - 1475.0 см 
GZ4                .OHMM                                   : 8 A4.0M0.5N, Ом*м - 1025.0 см 
GZ5                .OHMM                                   : 7 A8.0M1.0N, Ом*м - 1450.0 см 
GZ6                .OHMM                                   : 10 N0.5M2.0A, Ом*м - 1025.0 см 
IBK                .A                                      : 18 Ток БК, А - 1768.0 см 
IK                 .MSM/M                                  : 14 ИК, мСм/м - 1961.0 см 
IPR                .MA                                     : 17 Ток прибора, мA -    0.0 см 
METKA              .                                       : 3 Метки,  -    0.0 см 
PS                 .mV                                     : 16 ПС, мВ - 1210.0 см 
PZ                 .OHMM                                   : 13 N11M0.5A, Ом*м - 1225.0 см 
RCOR               .CM/KM                                  : 5 Коррекция по ролику, см/км -    0.0 см 
RES                .OHMM                                   : 15 Резистивиметр, Ом*м -  600.0 см 
SPID               .M/H                                    : 2 Скорость, м/час -    0.0 см 
TENS               .T                                      : 6 Натяжение кабеля, т -    0.0 см 
TIME               .S                                      : 4 Время, сек -    0.0 см 
UBK                .V                                      : 19 Напр. БК, В - 1768.0 см 
~Ascii
# ...
2439.4     7.41       9.2        8.5        6.3        5.3        4.6        6.6        0.031      115.9      431.333    0          531.25     13.4       -357       2.755      -1814      0          29147.86   0.96      
2439.6     6.78       8.9        8.4        6.8        6.6        5.2        7.7        0.033      113.4      428.341    0          531.66     14.9       -357       2.76       -1829      0          29147.46   0.954     
2439.8     8.71       9.1        9.7        8          8.7        5.9        9.5        0.025      113        429.196    1          532.82     15.7       -357       2.757      -1837      0          29147.09   0.927     
2440       13.41      11.4       12.5       9.4        10.6       6.3        10.2       0.016      113.8      432        0          533.25     15.1       -357       2.756      -1819      0          29146.76   0.909     
2440.2     15.83      15.4       14.3       10.2       10.7       6.5        9.1        0.013      113.4      429.333    0          531.97     12.7       -356       2.756      -1785      0          29146.28   0.887     
2440.4     11.15      19         14.8       9.5        9.2        6.2        7.6        0.019      115.5      428.667    0          529.07     11.2       -356       2.758      -1799      0          29145.87   0.874     
2440.6     11.65      18.7       13.9       8.6        7.8        5.4        6.5        0.018      121.2      430        0          525.79     9.7        -356       2.754      -1825      0          29145.46   0.878     
2440.8     9.88       19         15.1       7.6        6.6        4.8        5.7        0.021      128.4      430        0          524.8      8.8        -356       2.755      -1799      0          29145.1    0.894     
2441       7          15.2       14.2       6.8        5.7        4.3        5.1        0.031      137.3      430.5      0          528.75     8.8        -356       2.757      -1797      0          29144.69   0.908     
2441.2     6.15       12.7       13.1       6.1        5.2        4          5.1        0.035      143.5      430        0          531.03     9.3        -356       2.754      -1802      0          29144.29   0.898     
2441.4     5.51       10         11.3       5.9        5          3.9        4.8        0.036      151.6      429        0          530.66     10         -356       2.759      -1811      0          29143.95   0.849     
2441.6     5.83       8.2        9.3        5.6        4.8        4          4.9        0.033      157.6      430        0          522.56     10.7       -356       2.755      -1827      0          29143.5    0.81      
2441.8     8.75       8.3        8.9        5.6        4.7        4          4.8        0.022      164        429        0          511.77     9.6        -356       2.759      -1823      0          29143.1    0.803     
2442       9.05       10.3       9.1        6.1        4.8        4.1        5          0.021      165.6      431.5      0          507.91     9          -356       2.755      -1812      0          29142.76   0.799     
2442.2     9.92       12.8       9.1        7          4.9        4          5.2        0.019      168.2      432        0          508.46     9          -356       2.755      -1829      0          29142.31   0.803     
2442.4     7.74       15.2       9.5        7.5        4.8        4.4        5.1        0.025      169.5      432        0          516.93     9.9        -356       2.759      -1808      0          29141.92   0.802     
2442.6     5.1        11.9       8.2        7.5        4.7        4.6        5.5        0.037      171.1      431.512    0          520.44     11.1       -356       2.758      -1792      0          29141.52   0.797     
2442.8     6.83       8.9        7.6        7          4.8        4.7        5.7        0.028      172.3      428.669    0          512.86     10.2       -356       2.756      -1793      0          29141.19   0.791     
2443       9.77       9.7        8.3        6.6        4.8        4.8        6.1        0.019      173.5      428.8      0          504.78     8.8        -356       2.759      -1795      0          29140.76   0.783     
2443.2     10.07      12.6       8.8        6.5        5          4.8        6.2        0.018      171.2      428        0          506.9      7.7        -356       2.755      -1798      0          29140.37   0.779     
2443.4     9.13       15.7       9.4        6.3        5.3        4.8        6.6        0.02       169.9      431.333    0          517.09     7.5        -356       2.755      -1805      0          29139.99   0.78      
2443.6     5.51       13.9       8.8        6.3        5.7        5          6.6        0.034      167        428        0          527.83     8.2        -356       2.755      -1818      0          29139.54   0.789     
2443.8     5.81       10.3       8.6        6.5        6          5.7        5.3        0.033      168.7      428.667    0          529.4      9.8        -356       2.756      -1795      0          29139.15   0.816     
2444       4.79       8.4        8.2        6.2        6.1        6.2        4.7        0.041      169.7      430        0          524.97     11.3       -356       2.755      -1776      0          29138.77   0.83      
2444.2     7.47       7.8        7          5.5        5.7        6.2        3.9        0.026      171.2      431.333    0          516.58     12         -356       2.756      -1814      0          29138.36   0.83      
2444.4     8.01       8.6        6.3        4.8        5.5        5.6        3.6        0.024      169.1      428.8      0          508.42     11.7       -356       2.758      -1837      0          29137.96   0.804     
2444.6     9.79       11.4       6.3        4.3        4.9        5.1        3.2        0.019      166.7      430.661    0          503.34     10.9       -356       2.756      -1840      0          29137.57   0.799     
2444.8     9.54       13.6       7          4.1        4.7        4.7        3.2        0.02       164.2      432        0          503.33     9.6        -356       2.759      -1825      0          29137.19   0.802     
2445       8.58       14.4       8          4.1        4.8        4.6        3.5        0.022      161.1      432        0          506.94     9.3        -356       2.757      -1797      0          29136.79   0.792     
2445.2     8.7        14         9.7        4.6        5.3        5.7        4.3        0.022      158.8      428        0          513.9      7.9        -356       2.757      -1785      0          29136.4    0.798     
2445.4     6.54       14.2       11.2       5.7        6.8        8.3        6.2        0.028      158        429        0          523.06     6.9        -356       2.757      -1780      0          29136.04   0.778     
2445.6     6.35       10.3       10.1       8          9.9        11.3       9.4        0.028      156.1      428.016    0          529.64     7.4        -356       2.757      -1773      0          29135.61   0.754     
2445.8     7.28       11.7       13.1       11.4       14.4       12.5       13.6       0.024      154.9      430        0          534.55     8          -356       2.758      -1795      0          29135.21   0.731     
2446       6.74       13.5       13.4       11.9       13.7       12.6       12.5       0.025      151.6      430        0          540.36     7.6        -356       2.755      -1825      0          29134.82   0.713     
2446.2     6.85       8.7        6.9        8.6        8.9        11.7       8.6        0.024      150.7      428.4      0          540.46     7.3        -356       2.754      -1847      0          29134.4    0.703     
2446.4     5.34       9.6        5.9        5.6        5.9        9.1        6.7        0.031      152.6      430        0          544.35     7.6        -356       2.755      -1836      0          29134      0.701     
2446.6     5.54       8.2        5.4        4.7        5.1        6.2        6.4        0.03       155.1      430        0          543.27     7.9        -356       2.753      -1817      0          29133.62   0.696     
