~Version
 VERS              .         2.0                           : CWLS LOG ASCII STANDARD - VERSION 2.0
 WRAP              .         NO                            : ONE LINE PER DEPTH STEP
 DLM               .         SPACE                         : DELIMITING CHARACTER(SPACE TAB OR COMMA)
~Well Information
#_______________________________________________________________________________
#
#PARAMETER_NAME    .UNIT     VALUE                         : DESCRIPTION
#_______________________________________________________________________________
STRT               .M        2671                          : First reference value
STOP               .M        2773.4                        : Last reference value
STEP               .M        0.1999998                     : Step increment
NULL               .         -9999                         : Missing value
COMP               .                                       : Company
WELL               .         616                           : Well name
FLD                .                                       : Field
LOC                .                                       : Location
CNTY               .                                       : County
STAT               .                                       : State
CTRY               .                                       : Country
SRVC               .                                       : Service Company
DATE               .                                       : Date
API                .                                       : API number
PROJECT_UPGRADE_TIME .         2021-03-18T21_24_50           : 
group              .         Good                          : 
~Parameter Information Block
#_______________________________________________________________________________
#
#PARAMETER_NAME    .UNIT     VALUE                         : DESCRIPTION
#_______________________________________________________________________________
SET                .         D0402_D                       : 
OTHER              .         Kedr.exe версия 2.1.2.32      : 
OTHER_10           .         TM.GRD = 0.00379*TM$.UE + 7.11: 
OTHER_11           .         MN.ATM = (8e-006*TM.GRD + 0.02)*(MN$.UE + -8*TM.GRD + -1800): 
OTHER_12           .         GK.MKR/H = GK$.UE / 57.17 + 0 : 
OTHER_2            .         KedrData.dll версия 3.2.2.14  : 
OTHER_3            .         LasInf.dll версия 3.2.0.13    : 
OTHER_4            .         Драйвер версия 1.2.0.4        : 
OTHER_5            .         Прибор_ АКП4_90               : 
OTHER_6            .         Номер прибора_ 56             : 
OTHER_7            .         Режим_ АКП4_90 - все каналы   : 
OTHER_8            .         Форма_ Г-1                    : 
OTHER_9            .         Тарировки_                    : 
PROJECT_UPGRADE_TIME .         2021-03-18T21_24_49           : 
TLFamily_DEPT      .         Measured Depth                : 
TLFamily_GK        .         Gamma Ray                     : 
TLFamily_GK$       .                                       : 
TLFamily_LM        .         Casing Collar locator         : 
TLFamily_METKA     .                                       : 
TLFamily_METKA_1   .                                       : 
TLFamily_MN        .                                       : 
TLFamily_MN$       .                                       : 
TLFamily_RCOR      .                                       : 
TLFamily_SPID      .         Spontaneous Potential         : 
TLFamily_TIME      .         Time                          : 
TLFamily_TM        .         Temperature                   : 
TLFamily_TM$       .         Temperature                   : 
group              .         second                        : 
~Curve Information
#_______________________________________________________________________________
#
#LOGNAME           .UNIT     LOG_ID                        : DESCRIPTION
#_______________________________________________________________________________
DEPT               .M                                      : 1 Глубина, м -    0.0 см 
GK                 .MKR/H                                  : 12 Гамма-активность, мкр./ч -   65.0 см 
GK$                .UE                                     : 9 Гамма-активность, усл.ед. -   65.0 см 
LM                 .                                       : 8 Локатор муфт,  -   30.0 см 
METKA              .                                       : 3 Метки,  -    0.0 см 
METKA_1            .                                       : 13 Маркеры - 65 см 
MN                 .ATM                                    : 11 Давление, атм. -  140.0 см 
MN$                .UE                                     : 7 Давление, усл.ед. -  140.0 см 
RCOR               .CM/KM                                  : 5 Коррекция по ролику, см/км -    0.0 см 
SPID               .M/H                                    : 2 Скорость, м/час -    0.0 см 
TIME               .S                                      : 4 Время, сек -    0.0 см 
TM                 .GRD                                    : 10 Температура, °C -  145.0 см 
TM$                .UE                                     : 6 Температура, усл.ед. -  145.0 см 
~Ascii
# ...
2682.2     8.76       525        457        0          0          259.921    15043      0          -320       8155.38    83.175     20070     
2682.4     8.44       515        446        0          0          259.921    15043      0          -320       8153.1     83.179     20071     
2682.6     8.21       456        434        0          0          259.941    15044      0          -280       8150.78    83.18      20071     
2682.8     8.37       475        440        0          0          259.972    15046      0          -320       8148.46    83.187     20073     
2683       8.44       469        485        0          0          259.987    15046      0          -320       8146.15    83.198     20076     
2683.2     8.59       493        461        0          0          260.009    15047      0          -320       8143.83    83.207     20078     
2683.4     8.56       510        499        0          0          260.022    15048      0          -320       8141.52    83.211     20079     
2683.6     8.25       464        457        0          0          260.063    15050      0          -320       8139.2     83.214     20080     
2683.8     8.38       464        474        0          0          260.09     15051      0          -300       8136.89    83.222     20082     
2684       8.58       465        576        0          0          260.104    15052      0          -320       8134.57    83.228     20084     
2684.2     8.7        487        1129       0          0          260.124    15053      0          -320       8132.25    83.236     20086     
2684.4     8.64       511        573        0          0          260.151    15054      0          -320       8129.93    83.244     20088     
2684.6     8.49       499        526        0          0          260.185    15056      0          -320       8127.68    83.251     20090     
2684.8     8.42       480        490        0          0          260.199    15057      0          -320       8125.43    83.251     20090     
2685       8.39       487        429        0          0          260.219    15058      0          -320       8123.06    83.259     20092     
2685.2     8.31       481        469        0          0          260.225    15058      0          -320       8120.74    83.266     20094     
2685.4     8.27       468        554        0          0          260.259    15060      0          -260       8118.48    83.27      20095     
2685.6     8.37       458        1206       0          0          260.293    15061      0          -320       8116.2     83.278     20097     
2685.8     8.65       474        5678       0          0          260.286    15061      0          -280       8113.83    83.285     20099     
2686       8.96       511        5978       0          0          260.306    15062      0          -320       8111.51    83.297     20102     
2686.2     8.99       499        642        0          0          260.34     15064      0          -233       8109.19    83.304     20104     
2686.4     9.26       495        1013       0          0          260.366    15065      0          -320       8106.75    83.319     20108     
2686.6     9.46       524        1108       0          0          260.386    15066      0          -290       8104.5     83.327     20110     
2686.8     9.21       569        559        0          0          260.406    15067      0          -260       8102.24    83.342     20114     
2687       8.96       533        634        0          0          260.411    15067      0          -320       8099.87    83.352     20117     
2687.2     8.87       508        496        0          0          260.447    15069      0          -320       8097.54    83.357     20118     
2687.4     8.88       506        496        0          0          260.467    15070      0          -320       8095.3     83.365     20120     
2687.6     8.9        508        474        0          0          260.48     15071      0          -280       8092.98    83.376     20123     
2687.8     8.99       496        503        0          0          260.507    15072      0          -300       8090.66    83.384     20125     
2688       9.16       522        529        0          0          260.537    15074      0          -320       8088.29    83.391     20127     
2688.2     9.07       550        476        0          0          260.568    15075      0          -320       8085.97    83.399     20129     
2688.4     8.68       504        530        0          0          260.578    15076      0          -320       8083.71    83.403     20130     
2688.6     8.63       467        538        0          0          260.589    15076      0          -320       8081.39    83.399     20129     
2688.8     9.03       504        532        0          0          260.602    15077      0          -260       8079.09    83.406     20131     
2689       9.22       528        540        0          0          260.65     15079      0          -320       8076.77    83.414     20133     
2689.2     9.21       528        500        0          0          260.656    15079      0          -320       8074.46    83.418     20134     
2689.4     9.23       525        490        0          0          260.669    15080      0          -320       8072.18    83.429     20137     
2689.6     9.41       513        472        0          0          260.689    15081      0          -320       8069.95    83.437     20139     
2689.8     9.81       513        497        1          0          260.716    15082      0          -305       8067.54    83.448     20142     
2690       10.16      554        526        0          0          260.75     15084      0          -320       8064.46    83.46      20145     
2690.2     10.38      587        486        0          0          260.77     15085      0          -320       8062.11    83.466     20147     
2690.4     10.26      625        538        0          0          260.777    15085      0          -320       8059.79    83.474     20149     
2690.6     9.7        617        562        0          0          260.811    15087      0          -320       8057.5     83.479     20150     
2690.8     8.65       567        453        0          0          260.836    15088      0          -320       8055.2     83.486     20152     
2691       7.9        505        639        0          0          260.872    15090      0          -320       8052.97    83.494     20154     
2691.2     7.35       461        493        0          0          260.887    15091      0          -320       8050.65    83.501     20156     
2691.4     6.93       426        506        0          0          260.927    15093      0          -305       8048.24    83.514     20159     
2691.6     6.62       378        461        0          0          260.931    15093      0          -320       8046.02    83.531     20164     
2691.8     6.64       376        493        0          0          260.952    15094      0          -320       8043.71    83.538     20166     
2692       6.69       377        468        0          0          260.951    15094      0          -320       8041.39    83.543     20167     
2692.2     6.77       384        485        0          0          260.977    15095      0          -260       8038.98    83.547     20168     
2692.4     6.83       391        457        0          0          261.033    15098      0          -320       8036.66    83.554     20170     
2692.6     6.78       403        475        0          0          261.054    15099      0          -320       8034.35    83.558     20171     
2692.8     6.49       407        527        0          0          261.048    15099      0          -320       8032.13    83.562     20172     
2693       6.27       377        606        0          0          261.074    15100      0          -320       8029.81    83.566     20173     
2693.2     6.39       341        682        0          0          261.094    15101      0          -260       8027.5     83.572     20175     
