~Version
 VERS              .         2.0                           : CWLS LOG ASCII STANDARD - VERSION 2.0
 WRAP              .         NO                            : ONE LINE PER DEPTH STEP
 DLM               .         SPACE                         : DELIMITING CHARACTER(SPACE TAB OR COMMA)
~Well Information
#_______________________________________________________________________________
#
#PARAMETER_NAME    .UNIT     VALUE                         : DESCRIPTION
#_______________________________________________________________________________
STRT               .M        2664.6                        : First reference value
STOP               .M        2772.999892                   : Last reference value
STEP               .M        0.1999998                     : Step increment
NULL               .         -9999                         : Missing value
COMP               .                                       : Company
WELL               .         616                           : Well name
FLD                .                                       : Field
LOC                .                                       : Location
CNTY               .                                       : County
STAT               .                                       : State
CTRY               .                                       : Country
SRVC               .                                       : Service Company
DATE               .                                       : Date
API                .                                       : API number
PROJECT_UPGRADE_TIME .         2021-03-18T21_24_50           : 
group              .         Good                          : 
~Parameter Information Block
#_______________________________________________________________________________
#
#PARAMETER_NAME    .UNIT     VALUE                         : DESCRIPTION
#_______________________________________________________________________________
SET                .         D8102_D_2                     : 
COMM               .                                       : 
OTHER              .         Программное обеспечение станции MONITOR-386EX 25/12/99 15_08_10   BGF V52 22/08/01 16_56_30   4_SNGF_BGF_N_011645: 
OTHER_10           .         Тарировки_                    : 
OTHER_11           .         TM.GRD = 0.00412*TM$.UE + -2.13: 
OTHER_12           .         MN.ATM = (5.87652e-006*TM.GRD + 0.01993)*(MN$.UE + -2.72*TM.GRD + -1925): 
OTHER_13           .         GK.MKR/H = GK$.UE / 57.4657   : 
OTHER_2            .         Kedr.exe версия 3.4.2.51      : 
OTHER_3            .         KedrData.dll версия 3.4.2.24  : 
OTHER_4            .         Драйвер версия 2.1.0.2        : 
OTHER_5            .         Мнемоники версия 3.3 S        : 
OTHER_6            .         Прибор_ АКП4-90               : 
OTHER_7            .         Номер прибора_ 53             : 
OTHER_8            .         Режим_ АКП4_90                : 
OTHER_9            .         Форма_ ПК-53ое                : 
PROJECT_UPGRADE_TIME .         2021-03-18T21_24_50           : 
PRTY               .         ПРП-614                       : N партии
SRVC               .         Глухов М.В.                   : Начальник партии
TLFamily_DEPT      .         Measured Depth                : 
TLFamily_GK        .         Russian Gamma Ray             : 
TLFamily_LM        .         Casing Collar locator         : 
TLFamily_MN        .                                       : 
group              .         second                        : 
~Curve Information
#_______________________________________________________________________________
#
#LOGNAME           .UNIT     LOG_ID                        : DESCRIPTION
#_______________________________________________________________________________
DEPT               .M                                      : Depth curve 
GK                 .мкР/ч                                  : Естественная гамма-активность,мкР/ч 
LM                 .е.ацп                                  : Локатор муфт,е.ацп 
MN                 .атм                                    : 12 Давление, атм. -  140.0 см 
~Ascii
# ...
2700.399964 6.22       338.036    246.654   
2700.599964 6.32       410.982    246.674   
2700.799964 6.65       374.984    246.674   
2700.999964 6.89       343.021    246.674   
2701.199963 6.55       385.958    246.713   
2701.399963 6.74       300.973    246.733   
2701.599963 7.07       246.074    246.773   
2701.799963 6.49       397.877    246.76    
2701.999963 6.01       4227.245   246.793   
2702.199962 6.49       23034.56   246.833   
2702.399962 6.7        3826.304   246.866   
2702.599962 6.18       374.051    246.866   
2702.799962 6.87       476.906    246.893   
2702.999962 7.079      286.03     246.926   
2703.199961 5.86       347.024    246.973   
2703.399961 6.07       394.96     246.972   
2703.599961 6.84       312.965    246.966   
2703.799961 6.63       241.987    246.973   
2703.999961 6.65       215.088    246.992   
2704.19996 6.81       393.964    247.012   
2704.39996 6.91       319.96     246.973   
2704.59996 7.05       237.993    247.032   
2704.79996 7.21       224.014    247.065   
2704.99996 7.26       252.035    247.112   
2705.199959 7.21       323.978    247.132   
2705.399959 7.33       279.017    247.142   
2705.599959 7.22       313.965    247.157   
2705.799959 6.87       243.07     247.212   
2705.999959 7.59       384.987    247.225   
2706.199958 7.73       357.979    247.247   
2706.399958 6.85       314.943    247.252   
2706.599958 7.1        200.012    247.291   
2706.799958 7.38       225.039    247.305   
2706.999958 7.19       304.958    247.331   
2707.199957 7.53       219.98     247.351   
2707.399957 7.34       179.016    247.351   
2707.599957 7.15       212.013    247.351   
2707.799957 7.48       238.01     247.371   
2707.999957 7.62       259.036    247.378   
2708.199956 7.34       331.94     247.371   
2708.399956 7.6        209.005    247.438   
2708.599956 7.69       219.004    247.446   
2708.799956 7.24       227.995    247.466   
2708.999956 7.56       217.011    247.464   
2709.199955 8.23       238.994    247.461   
2709.399955 7.88       226.988    247.504   
2709.599955 7.33       202.014    247.531   
2709.799955 6.67       231.024    247.551   
2709.999955 6.75       280.079    247.57    
2710.199954 6.3        441.302    247.67    
2710.399954 5.92       1055.616   247.61    
2710.599954 5.63       275.008    247.69    
2710.799954 6.381      291.964    247.73    
2710.999954 7.561      218.015    247.75    
2711.199953 8.95       249.041    247.77    
2711.399953 8.9        332.341    247.77    
2711.599953 8.299      1024.581   247.83    
2711.799953 7.14       173.093    247.843   
2711.999953 7.561      363.157    247.849   
2712.199952 9.79       682.154    247.869   
2712.399952 10.049     994.711    247.909   
2712.599952 8.589      407.975    247.889   
2712.799952 7.129      356.982    247.909   
2712.999952 5.63       322.859    247.929   
2713.199951 5.26       4108.682   247.969   
2713.399951 5.45       19707.89   247.982   
2713.599951 5.66       1198.612   248.009   
2713.799951 5.79       410.942    248.009   
2713.999951 5.32       293.153    248.049   
2714.19995 5.011      603.855    248.089   
2714.39995 6.811      309.045    248.108   
2714.59995 9.38       401.031    248.102   
2714.79995 10.2       462.906    248.109   
2714.99995 9.379      272.232    248.168   
2715.199949 8.009      743.725    248.182   
2715.399949 6.87       185.043    248.188   
2715.599949 6.55       273.02     248.218   
2715.799949 6.33       314.056    248.228   
2715.999949 6.28       427.028    248.268   
2716.199948 6.41       483.847    248.275   
2716.399948 6.54       174.041    248.288   
2716.599948 6.41       257.017    248.301   
2716.799948 6.22       291.068    248.348   
2716.999948 6.74       428.912    248.368   
2717.199947 7.06       250.99     248.368   
2717.399947 6.57       231.009    248.368   
2717.599947 6.75       250.029    248.381   
2717.799947 6.99       309.341    248.421   
2717.999947 6.9        1001.655   248.447   
2718.199946 7.45       301.028    248.434   
2718.399946 7.45       357.988    248.454   
2718.599946 7.57       332.986    248.507   
2718.799946 7.69       304.992    248.527   
2718.999946 7.13       287.935    248.54    
2719.199945 6.56       156.121    248.567   
2719.399945 6.47       402.082    248.577   
2719.599945 6.43       569.216    248.607   
2719.799945 7.12       1006.67    248.627   
2719.999945 7.039      336.945    248.647   
2720.199944 5.71       224.987    248.657   
2720.399944 6          197.996    248.647   
2720.599944 6.23       190.157    248.726   
2720.799944 6.74       507.858    248.706   
2720.999944 6.99       220        248.726   
2721.199943 7.37       221.03     248.746   
2721.399943 8.11       281.979    248.786   
2721.599943 8.14       238.948    248.793   
2721.799943 7.55       134.011    248.806   
2721.999943 6.74       157.024    248.793   
2722.199942 6.65       206.098    248.846   
2722.399942 6.45       404.066    248.853   
2722.599942 5.72       536.896    248.872   
2722.799942 4.85       325.046    248.873   
2722.999942 4.73       419.009    248.906   
2723.199941 4.21       437.161    248.926   
2723.399941 4.14       763.542    248.926   
2723.599941 4.33       1863.575   248.939   
2723.799941 4.07       1002.189   248.991   
2723.999941 4.38       3418.895   249.025   
2724.19994 4.93       11316.69   249.045   
2724.39994 5.05       2568.039   249.045   
2724.59994 5.01       617.999    249.085   
2724.79994 5.12       616.086    249.105   
2724.99994 4.99       790.694    249.105   
2725.199939 4.79       170.986    249.125   
2725.399939 4.93       143.048    249.165   
2725.599939 5.01       240.931    249.185   
2725.799939 5.06       102.008    249.185   
2725.999939 4.87       118.053    249.205   
2726.199938 4.8        224.966    249.264   
2726.399938 4.85       156.005    249.245   
2726.599938 5.04       167.21     249.284   
2726.799938 5.561      592.976    249.324   
2726.999938 6.8        544.176    249.324   
2727.199937 7.76       901.612    249.331   
2727.399937 8.29       114.984    249.344   
2727.599937 7.31       82.027     249.354   
2727.799937 6.63       136.997    249.374   
2727.999937 6.47       130.004    249.344   
2728.199936 5.69       139.01     249.411   
2728.399936 5.27       160.01     249.464   
2728.599936 5.15       181.117    249.457   
2728.799936 5.11       419.117    249.47    
2728.999936 4.99       656.732    249.524   
2729.199935 4.21       113        249.524   
2729.399935 3.6        113.009    249.543   
2729.599935 3.97       132.029    249.544   
2729.799935 4.04       190.592    249.603   
2729.999935 4.11       1391.38    249.603   
2730.199934 4.66       2160.206   249.623   
2730.399934 4.38       551.98     249.623   
2730.599934 4.18       511.887    249.69    
2730.799934 4.39       281.991    249.696   
2730.999934 4.39       263.995    249.683   
2731.199933 4.53       252.95     249.703   
2731.399933 5.23       152.036    249.763   
2731.599933 5.22       225.015    249.763   
2731.799933 4.95       255.006    249.763   
2731.999933 5.36       266.955    249.803   
2732.199932 5.44       176.064    249.842   
2732.399932 5.6        304.922    249.849   
2732.599932 5.2        146.029    249.869   
2732.799932 5.26       204.007    249.882   
2732.999932 5.34       218.984    249.862   
2733.199931 5.43       186.028    249.922   
2733.399931 6          243.075    249.922   
2733.599931 6.32       396.012    249.922   
2733.799931 6.1        420.937    249.932   
2733.999931 5.86       293.062    249.962   
2734.19993 5.43       419.109    249.942   
2734.39993 5.39       638.785    249.962   
2734.59993 5.41       203.052    249.975   
2734.79993 4.78       309.141    249.982   
2734.99993 4.14       598.145    250.062   
2735.199929 4.57       6976.234   250.061   
2735.399929 5.06       25665.7    250.082   
2735.599929 4.77       2773.804   250.108   
2735.799929 5.09       351.884    250.151   
2735.999929 5.45       117.001    250.155   
