~Version
 VERS              .         2.0                           : CWLS LOG ASCII STANDARD - VERSION 2.0
 WRAP              .         NO                            : ONE LINE PER DEPTH STEP
 DLM               .         SPACE                         : DELIMITING CHARACTER(SPACE TAB OR COMMA)
~Well Information
#_______________________________________________________________________________
#
#PARAMETER_NAME    .UNIT     VALUE                         : DESCRIPTION
#_______________________________________________________________________________
STRT               .M        2657.8                        : First reference value
STOP               .M        2767.999945                   : Last reference value
STEP               .M        0.1999999                     : Step increment
NULL               .         -9999                         : Missing value
COMP               .                                       : Company
WELL               .         616                           : Well name
FLD                .                                       : Field
LOC                .                                       : Location
CNTY               .                                       : County
STAT               .                                       : State
CTRY               .                                       : Country
SRVC               .                                       : Service Company
DATE               .                                       : Date
API                .                                       : API number
PROJECT_UPGRADE_TIME .         2021-03-18T21_24_50           : 
group              .         Good                          : 
~Parameter Information Block
#_______________________________________________________________________________
#
#PARAMETER_NAME    .UNIT     VALUE                         : DESCRIPTION
#_______________________________________________________________________________
SET                .         D7020_D_2                     : 
NPR                .         155                           : Номер прибора
OTHER              .         Kedr.exe версия 2.1.2.32      : 
OTHER_10           .         TM.GRD = 0.00404*TM$.UE + 0.07: 
OTHER_11           .         MN.ATM = (6.33279e-006*TM.GRD + 0.02401)*(MN$.UE + 2.72*TM.GRD + -2018): 
OTHER_12           .         GK.MKR/H = GK$.UE / 43.5489 + 0: 
OTHER_13           .         RES.SM = 0.00476*CRES.UE - 1.51709: 
OTHER_14           .         PL.GSM3 = 0 + 0 * (PL.UE / 1) +  0 * (PL.UE / 1)^2: 
OTHER_15           .         Постоянная времени ГГП = 6 сек: 
OTHER_16           .         Постоянная времени ГК = 6 сек : 
OTHER_2            .         KedrData.dll версия 3.2.2.14  : 
OTHER_3            .         LasInf.dll версия 3.2.0.13    : 
OTHER_4            .         Драйвер версия 1.2.0.5        : 
OTHER_5            .         Прибор_ КСА-M1                : 
OTHER_6            .         Номер прибора_ 155+р204       : 
OTHER_7            .         Режим_ КСА-М1 + ГГП + Резистивиметр: 
OTHER_8            .         Форма_ 223\2                  : 
OTHER_9            .         Тарировки_                    : 
PR                 .         КСА-Т7 М1                     : Тип прибора
PROJECT_UPGRADE_TIME .         2021-03-18T21_24_50           : 
PRTY               .         ПП-223_2                      : Номер партии
SRV                .         ЦКРС                          : Заказчик
SRVC               .         Лузин  А.Б.                   : Начальник партии
TLFamily_DEPT      .         Measured Depth                : 
TLFamily_LM        .         Casing Collar locator         : 
TLFamily_MN        .                                       : 
TLFamily_SPID      .         Spontaneous Potential         : 
TLFamily_TM        .         Temperature                   : 
group              .         second                        : 
~Curve Information
#_______________________________________________________________________________
#
#LOGNAME           .UNIT     LOG_ID                        : DESCRIPTION
#_______________________________________________________________________________
DEPT               .M                                      : Depth curve 
LM                 .е.ацп                                  : Локация муфт 
MN                 .атм                                    : Манометрия, атм 
SPID               .м/ч                                    : Скорость записи,м/час 
TM                 .град.С                                 : Термометрия,град.С 
~Ascii
# ...
2744.199957 80.997     251.79     579.985    48.18     
2744.399957 68.996     251.8      522.006    48.27     
2744.599957 53.004     251.84     545.009    48.32     
2744.799957 67.006     251.86     580        48.41     
2744.999956 88.994     251.92     580        48.47     
2745.199956 66.006     251.93     580        48.52     
2745.399956 88.994     251.93     580        48.57     
2745.599956 67.004     251.97     580        48.65     
2745.799956 84.009     251.99     579.982    48.75     
2745.999956 119.003    252.03     510.018    48.8      
2746.199956 132.592    252.05     579.994    48.91     
2746.399956 6479.379   252.08     557.006    49.02     
2746.599956 4001.576   252.11     579.985    49.12     
2746.799956 2310.65    252.16     522.006    49.19     
2746.999955 913.835    252.17     545.009    49.31     
2747.199955 254.971    252.22     580        49.38     
2747.399955 139.994    252.26     579.988    49.47     
2747.599955 116.992    252.29     533        49.55     
2747.799955 86.998     252.29     533.012    49.66     
2747.999955 81.021     252.31     579.985    49.73     
2748.199955 164.999    252.35     522.015    49.81     
2748.399955 159.984    252.39     579.994    49.91     
2748.599955 94.994     252.45     557.006    50        
2748.799955 72.005     252.48     579.994    50.15     
2748.999954 89.995     252.5      557.006    50.33     
2749.199954 71.999     252.54     579.995    50.46     
2749.399954 69.003     252.57     559.987    50.6      
2749.599954 81         252.6      510.018    50.71     
2749.799954 81.998     252.64     580        50.86     
2749.999954 74.004     252.68     579.991    51        
2750.199954 89.006     252.68     544.994    51.11     
2750.399954 110.993    252.71     522.015    51.21     
2750.599954 84.995     252.76     579.985    51.35     
2750.799954 66.995     252.8      522.015    51.48     
2750.999953 48.002     252.84     579.986    51.64     
2751.199953 54.999     252.88     523.996    51.79     
2751.399953 53.003     252.91     510.018    51.91     
2751.599953 65.001     252.97     579.988    52.07     
2751.799953 67.002     253.01     533.012    52.22     
2751.999953 74.995     253.05     579.985    52.4      
2752.199953 57.007     253.09     520.015    52.6      
2752.399953 84.003     253.12     580        52.76     
2752.599953 93.996     253.13     579.999    52.93     
2752.799953 76.998     253.2      574.998    53.06     
2752.999952 70         253.22     566.004    53.23     
2753.199952 69.999     253.27     580        53.37     
2753.399952 65.001     253.29     580        53.52     
2753.599952 66.999     253.32     580        53.66     
2753.799952 63         253.37     580        53.81     
2753.999952 64.006     253.38     580        53.95     
2754.199952 86.996     253.42     579.982    54.11     
2754.399952 71.998     253.48     510.018    54.27     
2754.599952 62.995     253.5      580        54.42     
2754.799952 45.001     253.52     580        54.57     
2754.999951 50.006     253.56     580        54.73     
2755.199951 74.001     253.6      580        54.88     
2755.399951 76.001     253.68     580        55.06     
2755.599951 78.002     253.69     580        55.26     
2755.799951 87.009     253.71     580        55.39     
2755.999951 120.995    253.75     580        55.54     
2756.199951 101.047    253.77     579.987    55.69     
2756.399951 285.958    253.79     530.013    55.83     
2756.599951 118.991    253.84     580        55.98     
2756.799951 82.007     253.9      579.988    56.12     
2756.99995 107.995    253.91     533.012    56.27     
2757.19995 89.996     253.95     580        56.45     
2757.39995 76.329     254        580        56.68     
2757.59995 5356.486   253.99     580        56.85     
2757.79995 3312.856   254.04     580        56.89     
2757.99995 2742.036   254.07     579.982    57.06     
2758.19995 2883.486   254.14     510.018    57.17     
2758.39995 842.844    254.14     580        57.34     
2758.59995 222.967    254.17     580        57.53     
2758.79995 90.997     254.19     580        57.64     
2758.999949 78.995     254.23     579.991    57.81     
2759.199949 58.992     254.26     545.009    58        
2759.399949 29         254.31     580        58.25     
2759.599949 29         254.32     580        58.44     
2759.799949 30.001     254.33     580        58.54     
2759.999949 32         254.38     580        58.62     
2760.199949 31         254.38     580        58.68     
2760.399949 31         254.39     579.992    58.76     
2760.599949 30         254.42     550.008    58.83     
2760.799949 29         254.43     580        58.92     
2760.999948 28         254.42     580        58.99     
2761.199948 28         254.43     580        59.08     
2761.399948 29         254.43     579.991    59.18     
2761.599948 28.999     254.42     544.994    59.31     
2761.799948 26         254.42     522.015    59.33     
2761.999948 27         254.41     579.997    59.28     
2762.199948 26         254.35     568.003    59.19     
2762.399948 25         254.37     579.987    59.13     
2762.599948 26         254.34     530.013    59.1      
2762.799948 26         254.32     580        59.08     
2762.999947 25         254.34     579.982    59.09     
2763.199947 25         254.31     510.018    59.12     
2763.399947 25         254.3      579.997    59.12     
2763.599947 24         254.27     567.985    59.11     
2763.799947 24         254.27     510.018    59.08     
2763.999947 25         254.26     580        59.05     
2764.199947 25         254.26     580        59.01     
2764.399947 25         254.27     579.985    59.01     
2764.599947 25         254.19     522.007    59.07     
2764.799947 25         254.21     550.008    59.13     
2764.999946 24         254.21     580        59.18     
2765.199946 23         254.24     579.982    59.2      
2765.399946 -9999      254.24     -9999      59.22     
2765.599946 -9999      254.21     -9999      59.23     
2765.799946 -9999      254.17     -9999      59.21     
2765.999946 -9999      254.16     -9999      59.18     
2766.199946 -9999      254.16     -9999      59.18     
2766.399946 -9999      254.16     -9999      59.19     
2766.599946 -9999      254.14     -9999      59.19     
2766.799946 -9999      254.11     -9999      59.19     
2766.999945 -9999      -9999      -9999      59.19     
2767.199945 -9999      -9999      -9999      -9999     
2767.399945 -9999      -9999      -9999      -9999     
2767.599945 -9999      -9999      -9999      -9999     
2767.799945 -9999      -9999      -9999      -9999     
2767.999945 -9999      -9999      -9999      -9999     
