~Version
 VERS              .         2.0                           : CWLS LOG ASCII STANDARD - VERSION 2.0
 WRAP              .         NO                            : ONE LINE PER DEPTH STEP
 DLM               .         SPACE                         : DELIMITING CHARACTER(SPACE TAB OR COMMA)
~Well Information
#_______________________________________________________________________________
#
#PARAMETER_NAME    .UNIT     VALUE                         : DESCRIPTION
#_______________________________________________________________________________
STRT               .M        2700.4                        : First reference value
STOP               .M        2756.2                        : Last reference value
STEP               .M        0.2000002                     : Step increment
NULL               .         -9999                         : Missing value
COMP               .                                       : Company
WELL               .         616                           : Well name
FLD                .                                       : Field
LOC                .                                       : Location
CNTY               .                                       : County
STAT               .                                       : State
CTRY               .                                       : Country
SRVC               .                                       : Service Company
DATE               .                                       : Date
API                .                                       : API number
PROJECT_UPGRADE_TIME .         2021-03-18T21_24_50           : 
group              .         Good                          : 
~Parameter Information Block
#_______________________________________________________________________________
#
#PARAMETER_NAME    .UNIT     VALUE                         : DESCRIPTION
#_______________________________________________________________________________
SET                .         D4405_D                       : 
OTHER              .         Запись производится в присутствии: 
OTHER_10           .         Максимальная температура      : 
OTHER_11           .         Тип промывочной жидкости      : 
OTHER_12           .         Сопротивление ПЖ (Ом*м) при 20°C: 
OTHER_13           .         Плотность ПЖ(г/см3)           : 
OTHER_14           .         Вязкость ПЖ(с)                : 
OTHER_15           .         Водоотдача ПЖ(см3/30мин)      : 
OTHER_16           .         Уровень ПЖ                    : 
OTHER_17           .         Нефть ПЖ (%)                  : 
OTHER_18           .         Барит ПЖ (%)                  : 
OTHER_19           .         Гематит ПЖ (%)                : 
OTHER_2            .         Заказчик ННСН  ЦДНГ-1         : 
OTHER_20           .         КМЦ ПЖ (%)                    : 
OTHER_21           .         Разгазирование ПЖ (да,нет)    : 
OTHER_22           .         Подъемник                     : 
OTHER_23           .         Лаборатория                   : 
OTHER_24           .         Тип кабеля                    : 
OTHER_25           .         Длина кабеля (м)              : 
OTHER_26           .         Цена последней метки          : 
OTHER_27           .         Цена контрольной метки        : 
OTHER_28           .         Диаметр долота (мм)           : 
OTHER_29           .         Глубина бурения (м)           : 
OTHER_3            .         Площадь                       : 
OTHER_30           .         Искусственный забой (м)       : 
OTHER_31           .         Диаметр колонны (мм)          : 
OTHER_32           .         Толщина колонны (мм)          : 
OTHER_33           .         Башмак колонны (м)            : 
OTHER_34           .         Диаметр НКТ (мм)              : 
OTHER_35           .         Толщина НКТ (мм)              : 
OTHER_36           .         Воронка НКТ (м)               : 
OTHER_37           .         Дата цементожа                : 
OTHER_38           .         Тип, количество(т) и плотность цемента: 
OTHER_39           .         Интервалы перфорации (м)      : 
OTHER_4            .         Категория                     : 
OTHER_40           .         Направление, диаметр (мм)     : 
OTHER_41           .         Направление, глубина (м)      : 
OTHER_42           .         Кондуктор, диаметр (мм)       : 
OTHER_43           .         Кондуктор, глубина (м)        : 
OTHER_44           .         Техническая колонна, диаметр (мм): 
OTHER_45           .         Техническая колонна, глубина (м): 
OTHER_46           .         Эксплуатационная колонна, диаметр (мм): 
OTHER_47           .         Эксплуатационная колонна, глубина (м): 
OTHER_48           .         Программа Кедр-02 версия 3.4  : 
OTHER_49           .         Операционная система Windows NT 5.1 build 2600 Service Pack 2: 
OTHER_5            .         Назначение исследований       : 
OTHER_50           .         Программное обеспечение станции MONITOR-386EX 25/12/99 15_08_10   BGF V54 20/09/05 15_32_17   3.3__BGF_9030071: 
OTHER_51           .         Kedr.exe версия 3.4.2.74      : 
OTHER_52           .         KedrData.dll версия 3.4.2.29  : 
OTHER_53           .         Мнемоники версия 3.18 S       : 
OTHER_54           .         Драйвер версия 2.1.1.4        : 
OTHER_55           .         LasInf.dll 4.3.0.35           : 
OTHER_56           .         Прибор_ КСА-Т4                : 
OTHER_57           .         Номер прибора_ 160            : 
OTHER_58           .         Режим_ КСА-Т4                 : 
OTHER_59           .         Форма_ С.А.Б.                 : 
OTHER_6            .         Альтитуда стола ротора        : 
OTHER_60           .         Тарировки_                    : 
OTHER_61           .         <_techsia_sc_> Дата тарировки температуры 25.05.2010: 
OTHER_62           .         Ручной ввод коэффициентов     : 
OTHER_63           .         TM.DEGC = 0.00402*RTM.E.ACP + -0.994: 
OTHER_64           .         <_techsia_sc_> Дата тарировки давления 25.05.2010: 
OTHER_65           .         Ручной ввод коэффициентов     : 
OTHER_66           .         MN.ATM = (2.27521e-006*TM.DEGC + 0.02078)*(RMN.E.ACP + 6.2*TM.DEGC + -1688): 
OTHER_67           .         <_techsia_sc_> Дата тарировки ГК 25.05.2010: 
OTHER_68           .         Ручной ввод коэффициентов     : 
OTHER_69           .         GR.UR/H = RGR.IMP/MIN / 45.5144: 
OTHER_7            .         Вид исследований 3  6         : 
OTHER_70           .         GK.FLT = 0.1*GR.UR/H[-1] + (1-0.1)*GR.UR/H[0]: 
OTHER_8            .         Начало бурения интервала каротажа: 
OTHER_9            .         Окончание бурения интервала каротажа: 
PROJECT_UPGRADE_TIME .         2021-03-18T21_24_50           : 
TLFamily_CCLC      .                                       : 
TLFamily_DEPT      .         Measured Depth                : 
TLFamily_GK        .         Gamma Ray                     : 
TLFamily_GR        .         Gamma Ray                     : 
TLFamily_METKA     .                                       : 
TLFamily_MN        .                                       : 
TLFamily_RCOR      .                                       : 
TLFamily_RGR       .                                       : 
TLFamily_RMN       .                                       : 
TLFamily_RTEN      .                                       : 
TLFamily_RTM       .                                       : 
TLFamily_SPEE      .         Cable Speed                   : 
TLFamily_TIME      .         Time                          : 
TLFamily_TM        .         Temperature                   : 
group              .         prim                          : 
~Curve Information
#_______________________________________________________________________________
#
#LOGNAME           .UNIT     LOG_ID                        : DESCRIPTION
#_______________________________________________________________________________
DEPT               .M                                      : 1 Глубина, м -    0.0 см 
CCLC               .E.ACP                                  : 9 Локатор муфт,  -   20.0 см 
GK                 .FLT                                    : 14 Гамма-активность фильтрованная, мкр./ч -  110.0 см 
GR                 .UR/H                                   : 13 Гамма-активность, мкр./ч -  110.0 см 
METKA              .CU                                     : 3 Метки,  -    0.0 см 
MN                 .ATM                                    : 12 Давление, атм. -  160.0 см 
RCOR               .CM/KM                                  : 5 Коррекция по ролику, см/км -    0.0 см 
RGR                .IMP/MIN                                : 10 Гамма-активность, усл.ед. -  110.0 см 
RMN                .E.ACP                                  : 8 Давление, усл.ед. -  160.0 см 
RTEN               .T                                      : 6 Натяжение кабеля, т -    0.0 см 
RTM                .E.ACP                                  : 7 Температура, усл.ед. -  170.0 см 
SPEE               .M/H                                    : 2 Скорость, м/час -    0.0 см 
TIME               .S                                      : 4 Время, сек -    0.0 см 
TM                 .DEGC                                   : 11 Температура, °C -  170.0 см 
~Ascii
# ...
2710.8     66         8.22       8.22       0          244.043    -1123      374        13058      0.43       12694      -201       791.94     50.036    
2711       92         10.19      10.19      0          244.062    -1123      464        13059      0.43       12691      -201       788.38     50.024    
2711.2     62         15.29      15.29      0          244.061    -1123      696        13059      0.43       12688      -201       784.63     50.012    
2711.4     49         15.09      15.09      0          244.09     -1123      687        13060      0.43       12685      -201       781.05     49.998    
2711.6     69         12.42      12.42      0          244.098    -1123      565        13061      0.43       12681      -201       777.61     49.984    
2711.8     70         10.99      10.99      0          244.138    -1123      500        13063      0.43       12678      -201       774.11     49.972    
2712       56         10.44      10.44      0          244.147    -1123      475        13064      0.43       12675      -201       770.36     49.958    
2712.2     67         13.56      13.56      0          244.156    -1123      617        13064      0.44       12672      -201       766.79     49.947    
2712.4     70         14.35      14.35      0          244.175    -1123      653        13065      0.44       12669      -200       763.22     49.935    
2712.6     96         14.26      14.26      0          244.194    -1123      649        13066      0.44       12667      -200       759.66     49.927    
2712.8     81         12.24      12.24      0          244.213    -1123      557        13067      0.44       12664      -201       756.09     49.915    
2713       62         7.89       7.89       0          244.232    -1123      359        13068      0.44       12661      -201       752.34     49.903    
2713.2     233        7.14       7.14       0          244.251    -1123      325        13069      0.43       12658      -201       748.77     49.891    
2713.4     1356       6.83       6.83       0          244.271    -1123      311        13070      0.43       12656      -201       745.19     49.883    
2713.6     54         7.16       7.16       0          244.29     -1123      326        13071      0.44       12653      -201       741.63     49.871    
2713.8     63         7.18       7.18       0          244.31     -1123      327        13072      0.44       12651      -201       737.88     49.863    
2714       63         7.69       7.69       0          244.329    -1123      350        13073      0.44       12649      -201       734.31     49.855    
2714.2     59         7.89       7.89       0          244.349    -1123      359        13074      0.44       12647      -201       730.74     49.847    
2714.4     53         8.26       8.26       0          244.369    -1123      376        13075      0.43       12646      -201       727.17     49.841    
2714.6     55         10.26      10.26      0          244.388    -1123      467        13076      0.43       12643      -201       723.42     49.831    
2714.8     56         15.09      15.09      0          244.408    -1123      687        13077      0.44       12642      -201       720.05     49.827    
2715       54         14.9       14.9       0          244.428    -1123      678        13078      0.44       12640      -200       716.48     49.819    
2715.2     50         14.27      14.27      0          244.448    -1123      649        13079      0.44       12638      -201       712.91     49.811    
2715.4     49         10.83      10.83      0          244.468    -1123      493        13080      0.43       12636      -201       709.34     49.803    
2715.6     63         9.16       9.16       0          244.488    -1123      417        13081      0.44       12635      -201       705.59     49.799    
2715.8     86         9.65       9.65       0          244.497    -1123      439        13081      0.44       12633      -201       702.03     49.793    
2716       98         10.02      10.02      2          244.528    -1113      456        13083      0.44       12632      -201       696.58     49.787    
2716.2     107        9.95       9.95       0          244.527    -1113      453        13083      0.44       12631      -201       693.02     49.783    
2716.4     92         9.16       9.16       0          244.547    -1113      417        13084      0.44       12630      -201       689.45     49.779    
2716.6     82         10.12      10.12      0          244.567    -1113      461        13085      0.44       12629      -201       685.89     49.775    
2716.8     91         9.62       9.62       0          244.587    -1113      438        13086      0.44       12627      -201       682.26     49.767    
2717       155        9.01       9.01       0          244.607    -1113      410        13087      0.44       12626      -201       678.75     49.763    
2717.2     86         10.81      10.81      0          244.627    -1113      492        13088      0.44       12624      -201       675        49.754    
2717.4     77         9.73       9.73       0          244.647    -1113      443        13089      0.44       12623      -201       671.44     49.748    
2717.6     82         10.02      10.02      0          244.677    -1113      456        13091      0.44       12621      -201       667.86     49.742    
2717.8     88         9.56       9.56       0          244.708    -1113      435        13092      0.44       12619      -201       664.3      49.734    
2718       67         10.52      10.52      0          244.707    -1113      479        13092      0.44       12618      -201       660.74     49.73     
2718.2     67         9.6        9.6        0          244.748    -1113      437        13094      0.43       12617      -201       656.99     49.726    
2718.4     56         10.85      10.85      0          244.747    -1113      494        13094      0.43       12615      -201       653.41     49.718    
2718.6     68         10.96      10.96      0          244.768    -1113      499        13095      0.44       12614      -201       649.84     49.714    
2718.8     98         10.35      10.35      0          244.809    -1113      471        13097      0.44       12613      -201       646.28     49.71     
2719       48         10.16      10.16      0          244.808    -1113      462        13097      0.44       12612      -200       642.53     49.706    
2719.2     56         11.12      11.12      0          244.828    -1113      506        13098      0.44       12611      -201       638.97     49.702    
2719.4     121        9.6        9.6        0          244.849    -1113      437        13099      0.44       12610      -201       635.39     49.698    
2719.6     97         10.26      10.26      0          244.869    -1113      467        13100      0.44       12610      -200       631.83     49.698    
2719.8     172        9.89       9.89       0          244.868    -1113      450        13100      0.44       12609      -201       628.27     49.694    
2720       313        9.36       9.36       0          244.889    -1113      426        13101      0.44       12608      -201       624.58     49.69     
2720.2     75         8.94       8.94       0          244.91     -1113      407        13102      0.44       12607      -201       621.07     49.686    
2720.4     94         9.12       9.12       0          244.94     -1113      415        13103      0.44       12607      -201       617.44     49.686    
2720.6     67         9.91       9.91       0          244.95     -1113      451        13104      0.44       12606      -201       613.94     49.682    
2720.8     81         10.08      10.08      0          244.971    -1113      459        13105      0.44       12605      -201       610.25     49.678    
2721       69         10.04      10.04      0          244.991    -1113      457        13106      0.44       12604      -201       606.69     49.676    
