~Version
 VERS              .         2.0                           : CWLS LOG ASCII STANDARD - VERSION 2.0
 WRAP              .         NO                            : ONE LINE PER DEPTH STEP
 DLM               .         SPACE                         : DELIMITING CHARACTER(SPACE TAB OR COMMA)
~Well Information
#_______________________________________________________________________________
#
#PARAMETER_NAME    .UNIT     VALUE                         : DESCRIPTION
#_______________________________________________________________________________
STRT               .M        2733.1                        : First reference value
STOP               .M        2798.6                        : Last reference value
STEP               .M        0.1                           : Step increment
NULL               .         -9999                         : Missing value
COMP               .                                       : Company
WELL               .         616                           : Well name
FLD                .                                       : Field
LOC                .                                       : Location
CNTY               .                                       : County
STAT               .                                       : State
CTRY               .                                       : Country
SRVC               .                                       : Service Company
DATE               .                                       : Date
API                .                                       : API number
PROJECT_UPGRADE_TIME .         2021-03-18T21_24_50           : 
group              .         Good                          : 
~Parameter Information Block
#_______________________________________________________________________________
#
#PARAMETER_NAME    .UNIT     VALUE                         : DESCRIPTION
#_______________________________________________________________________________
SET                .         D2661_D                       : 
OTHER              .         Программное обеспечение станции MONITOR-386EX 25/12/99 15_08_10   BGF V50 26/12/00 07_26_01   3.1_SNGF___BGF_N_092085: 
OTHER_10           .         Тарировки_                    : 
OTHER_11           .         IK1.GRD = IK1$.UE - -5.96     : 
OTHER_12           .         IK5.GRD = IK5$.UE - -0.74     : 
OTHER_13           .         IK4.GRD = IK4$.UE - -0.9      : 
OTHER_14           .         IK3.GRD = IK3$.UE - -1.28     : 
OTHER_15           .         IK2.GRD = IK2$.UE - -3.55     : 
OTHER_2            .         Kedr.exe версия 3.3.2.32      : 
OTHER_3            .         KedrData.dll версия 3.3.2.17  : 
OTHER_4            .         Драйвер версия 2.1.0.4        : 
OTHER_5            .         Мнемоники версия 3.3 S        : 
OTHER_6            .         Прибор_ Викиз                 : 
OTHER_7            .         Номер прибора_ 0006012        : 
OTHER_8            .         Режим_ Викиз                  : 
OTHER_9            .         Форма_ ВИКИЗ                  : 
PROJECT_UPGRADE_TIME .         2021-03-18T21_24_49           : 
TLFamily_DEPT      .         Measured Depth                : 
TLFamily_IK1       .         Extra Shallow Resistivity     : 
TLFamily_IK1$      .         Extra Shallow Resistivity     : 
TLFamily_IK2       .         Shallow Resistivity           : 
TLFamily_IK2$      .         Shallow Resistivity           : 
TLFamily_IK3       .         Medium Resistivity            : 
TLFamily_IK3$      .         Medium Resistivity            : 
TLFamily_IK4       .         Deep Resistivity              : 
TLFamily_IK4$      .         Deep Resistivity              : 
TLFamily_IK5       .         Resistivity 20                : 
TLFamily_IK5$      .         Resistivity 20                : 
TLFamily_METKA     .                                       : 
TLFamily_PS        .         Spontaneous Potential         : 
TLFamily_RCOR      .                                       : 
TLFamily_SPID      .         Spontaneous Potential         : 
TLFamily_TENS      .         Cable Tension                 : 
TLFamily_TIME      .         Time                          : 
group              .         prim                          : 
~Curve Information
#_______________________________________________________________________________
#
#LOGNAME           .UNIT     LOG_ID                        : DESCRIPTION
#_______________________________________________________________________________
DEPT               .M                                      : 1 Глубина, м -    0.0 см 
IK1                .GRD                                    : 13 3Ф0.5, град. -  226.0 см 
IK1$               .UE                                     : 7 3Ф0.5, усл.ед. -  226.0 см 
IK2                .GRD                                    : 17 3Ф0.7, град. -  240.0 см 
IK2$               .UE                                     : 11 3Ф0.7, усл.ед. -  240.0 см 
IK3                .GRD                                    : 16 3Ф1.0, град. -  260.0 см 
IK3$               .UE                                     : 10 3Ф1.0, усл.ед. -  260.0 см 
IK4                .GRD                                    : 15 3Ф1.4, град. -  288.0 см 
IK4$               .UE                                     : 9 3Ф1.4, усл.ед. -  288.0 см 
IK5                .GRD                                    : 14 3Ф2.0, град. -  328.0 см 
IK5$               .UE                                     : 8 3Ф2.0, усл.ед. -  328.0 см 
METKA              .                                       : 3 Метки,  -    0.0 см 
PS                 .mV                                     : 12 ПС, мВ -  372.0 см 
RCOR               .CM/KM                                  : 5 Коррекция по ролику, см/км -    0.0 см 
SPID               .M/H                                    : 2 Скорость, м/час -    0.0 см 
TENS               .T                                      : 6 Натяжение кабеля, т -    0.0 см 
TIME               .S                                      : 4 Время, сек -    0.0 см 
~Ascii
# ...
2758.9     14.97      9.01       14.19      10.64      14         12.72      13.48      12.58      13.14      12.4       0          330.97     -299       -1815      0          34431.89  
2759       15.05      9.09       14.28      10.73      14.03      12.75      13.52      12.62      13.17      12.43      0          330.82     -299       -1805      0          34431.71  
2759.1     15.16      9.2        14.33      10.78      14.08      12.8       13.56      12.66      13.22      12.48      0          330.51     -299       -1792      0          34431.52  
2759.2     15.16      9.2        14.32      10.77      14.07      12.79      13.57      12.67      13.27      12.53      0          330.19     -299       -1788      0          34431.31  
2759.3     15.11      9.15       14.24      10.69      14.02      12.74      13.54      12.64      13.28      12.54      0          329.83     -299       -1788      0          34431.13  
2759.4     15.08      9.12       14.19      10.64      13.98      12.7       13.48      12.58      13.28      12.54      0          329.33     -299       -1788      0          34430.94  
2759.5     15.03      9.07       14.13      10.58      13.93      12.65      13.44      12.54      13.28      12.54      0          329.06     -299       -1800      0          34430.75  
2759.6     14.95      8.99       14.06      10.51      13.88      12.6       13.39      12.49      13.26      12.52      0          328.87     -299       -1819      0          34430.54  
2759.7     14.85      8.89       14.01      10.46      13.84      12.56      13.34      12.44      13.25      12.51      0          329.14     -299       -1841      0          34430.34  
2759.8     14.76      8.8        13.99      10.44      13.81      12.53      13.31      12.41      13.24      12.5       0          329.55     -299       -1849      0          34430.14  
2759.9     14.73      8.77       14.01      10.46      13.8       12.52      13.28      12.38      13.23      12.49      1          330.3      -299       -1846      0          34429.92  
2760       14.79      8.83       14.07      10.52      13.82      12.54      13.27      12.37      13.23      12.49      0          330.76     -295       -1841      0          34429.65  
2760.1     14.88      8.92       14.13      10.58      13.82      12.54      13.24      12.34      13.21      12.47      0          330.83     -295       -1836      0          34429.46  
2760.2     14.81      8.85       14.04      10.49      13.73      12.45      13.17      12.27      13.15      12.41      0          330.9      -295       -1829      0          34429.24  
2760.3     14.66      8.7        13.84      10.29      13.59      12.31      13.07      12.17      13.08      12.34      0          330.62     -295       -1822      0          34429.06  
2760.4     14.52      8.56       13.66      10.11      13.45      12.17      12.96      12.06      13         12.26      0          330.28     -295       -1813      0          34428.87  
2760.5     14.25      8.29       13.46      9.91       13.29      12.01      12.88      11.98      12.92      12.18      0          330.11     -295       -1802      0          34428.68  
2760.6     14.02      8.06       13.28      9.73       13.22      11.94      12.85      11.95      12.9       12.16      0          330.08     -295       -1805      0          34428.46  
2760.7     14.04      8.08       13.38      9.83       13.3       12.02      12.92      12.02      12.95      12.21      0          329.7      -295       -1809      0          34428.27  
2760.8     14.39      8.43       13.67      10.12      13.55      12.27      13.1       12.2       13.05      12.31      0          328.95     -295       -1813      0          34428.09  
2760.9     14.62      8.66       13.87      10.32      13.72      12.44      13.23      12.33      13.15      12.41      0          328.66     -295       -1820      0          34427.88  
2761       14.64      8.68       13.91      10.36      13.76      12.48      13.29      12.39      13.24      12.5       0          328.74     -295       -1827      0          34427.69  
2761.1     14.66      8.7        13.93      10.38      13.76      12.48      13.3       12.4       13.29      12.55      0          329.07     -295       -1831      0          34427.5   
2761.2     14.78      8.82       13.99      10.44      13.79      12.51      13.31      12.41      13.31      12.57      0          329.59     -295       -1822      0          34427.29  
2761.3     14.95      8.99       14.11      10.56      13.84      12.56      13.33      12.43      13.32      12.58      0          330.1      -295       -1813      0          34427.09  
2761.4     15.11      9.15       14.21      10.66      13.89      12.61      13.37      12.47      13.32      12.58      0          330.03     -295       -1810      0          34426.91  
2761.5     15.19      9.23       14.28      10.73      13.93      12.65      13.38      12.48      13.3       12.56      0          329.6      -295       -1815      0          34426.73  
2761.6     15.15      9.19       14.26      10.71      13.93      12.65      13.38      12.48      13.28      12.54      0          329.17     -295       -1822      0          34426.5   
2761.7     15.12      9.16       14.25      10.7       13.94      12.66      13.36      12.46      13.24      12.5       0          328.9      -295       -1819      0          34426.31  
2761.8     15.13      9.17       14.25      10.7       13.96      12.68      13.34      12.44      13.19      12.45      0          328.46     -295       -1809      0          34426.13  
2761.9     15.11      9.15       14.23      10.68      13.97      12.69      13.31      12.41      13.15      12.41      0          327.95     -295       -1794      0          34425.9   
2762       15.01      9.05       14.18      10.63      13.92      12.64      13.26      12.36      13.11      12.37      0          327.75     -295       -1793      0          34425.71  
2762.1     14.93      8.97       14.14      10.59      13.87      12.59      13.2       12.3       13.07      12.33      0          328.19     -295       -1794      0          34425.52  
2762.2     14.91      8.95       14.11      10.56      13.8       12.52      13.14      12.24      13.01      12.27      0          328.52     -295       -1795      0          34425.32  
2762.3     14.76      8.8        13.99      10.44      13.71      12.43      13.08      12.18      12.95      12.21      0          328.71     -295       -1796      0          34425.13  
2762.4     14.5       8.54       13.71      10.16      13.55      12.27      13         12.1       12.88      12.14      0          329.07     -295       -1798      0          34424.94  
2762.5     14.34      8.38       13.56      10.01      13.38      12.1       12.9       12         12.81      12.07      0          329.39     -295       -1800      0          34424.76  
2762.6     14.31      8.35       13.49      9.94       13.32      12.04      12.86      11.96      12.77      12.03      0          329.41     -295       -1802      0          34424.54  
2762.7     14.29      8.33       13.45      9.9        13.31      12.03      12.87      11.97      12.77      12.03      0          329.24     -295       -1805      0          34424.34  
2762.8     14.2       8.24       13.42      9.87       13.32      12.04      12.91      12.01      12.81      12.07      0          329        -295       -1809      0          34424.16  
2762.9     14.15      8.19       13.46      9.91       13.38      12.1       13.01      12.11      12.89      12.15      0          328.97     -295       -1814      0          34423.94  
2763       14.42      8.46       13.76      10.21      13.58      12.3       13.14      12.24      13.01      12.27      0          328.87     -295       -1821      0          34423.73  
2763.1     14.83      8.87       14.06      10.51      13.79      12.51      13.31      12.41      13.16      12.42      0          328.75     -295       -1820      0          34423.54  
