~Version
 VERS              .         2.0                           : CWLS LOG ASCII STANDARD - VERSION 2.0
 WRAP              .         NO                            : ONE LINE PER DEPTH STEP
 DLM               .         SPACE                         : DELIMITING CHARACTER(SPACE TAB OR COMMA)
~Well Information
#_______________________________________________________________________________
#
#PARAMETER_NAME    .UNIT     VALUE                         : DESCRIPTION
#_______________________________________________________________________________
STRT               .M        2669.2                        : First reference value
STOP               .M        2776.2                        : Last reference value
STEP               .M        0.2                           : Step increment
NULL               .         -9999                         : Missing value
COMP               .                                       : Company
WELL               .         616                           : Well name
FLD                .                                       : Field
LOC                .                                       : Location
CNTY               .                                       : County
STAT               .                                       : State
CTRY               .                                       : Country
SRVC               .                                       : Service Company
DATE               .                                       : Date
API                .                                       : API number
PROJECT_UPGRADE_TIME .         2021-03-18T21_24_50           : 
group              .         Good                          : 
~Parameter Information Block
#_______________________________________________________________________________
#
#PARAMETER_NAME    .UNIT     VALUE                         : DESCRIPTION
#_______________________________________________________________________________
SET                .         D1809_D                       : 
OTHER              .         Программное обеспечение станции MONITOR-386EX 25/12/99 15_08_10   BGF V52 22/08/01 16_56_30   3.1_SNGF___BGF_N_092049: 
OTHER_10           .         Тарировки_                    : 
OTHER_11           .         TM.GRD = 0.00403*TM$.UE + -1.07: 
OTHER_12           .         MN.ATM = (9.34907e-006*TM.GRD + 0.02171)*(MN$.UE + -7.93*TM.GRD + -1787): 
OTHER_13           .         GK.MKR/H = LM. / 42.4676      : 
OTHER_14           .         GK.FLT = 0.1*GK.MKR/H[-1] + (1-0.1)*GK.MKR/H[0]: 
OTHER_2            .         Kedr.exe версия 3.4.2.51      : 
OTHER_3            .         KedrData.dll версия 3.4.2.24  : 
OTHER_4            .         Драйвер версия 2.1.1.3        : 
OTHER_5            .         Мнемоники версия 3.3 S        : 
OTHER_6            .         Прибор_ КСА-Т4                : 
OTHER_7            .         Номер прибора_ 03             : 
OTHER_8            .         Режим_ КСА-Т4                 : 
OTHER_9            .         Форма_ КВА.                   : 
PROJECT_UPGRADE_TIME .         2021-03-18T21_24_49           : 
TLFamily_DEPT      .         Measured Depth                : 
TLFamily_GK        .         Gamma Ray                     : 
TLFamily_GK$       .                                       : 
TLFamily_GK_2      .         Gamma Ray                     : 
TLFamily_LM        .         Casing Collar locator         : 
TLFamily_METKA     .                                       : 
TLFamily_MN        .                                       : 
TLFamily_MN$       .                                       : 
TLFamily_RCOR      .                                       : 
TLFamily_SPID      .         Spontaneous Potential         : 
TLFamily_TENS      .         Cable Tension                 : 
TLFamily_TIME      .         Time                          : 
TLFamily_TM        .         Temperature                   : 
TLFamily_TM$       .         Temperature                   : 
group              .         prim                          : 
~Curve Information
#_______________________________________________________________________________
#
#LOGNAME           .UNIT     LOG_ID                        : DESCRIPTION
#_______________________________________________________________________________
DEPT               .M                                      : 1 Глубина, м -    0.0 см 
GK                 .MKR/H                                  : 13 Гамма-активность, мкр./ч -  110.0 см 
GK$                .UE                                     : 10 Гамма-активность, усл.ед. -  110.0 см 
GK_2               .FLT                                    : 14 Гамма-активность фильтрованная, мкр./ч -  110.0 см 
LM                 .                                       : 9 Локатор муфт,  -   20.0 см 
METKA              .                                       : 3 Метки,  -    0.0 см 
MN                 .ATM                                    : 12 Давление, атм. -  160.0 см 
MN$                .UE                                     : 8 Давление, усл.ед. -  160.0 см 
RCOR               .CM/KM                                  : 5 Коррекция по ролику, см/км -    0.0 см 
SPID               .M/H                                    : 2 Скорость, м/час -    0.0 см 
TENS               .T                                      : 6 Натяжение кабеля, т -    0.0 см 
TIME               .S                                      : 4 Время, сек -    0.0 см 
TM                 .GRD                                    : 11 Температура, °C -  170.0 см 
TM$                .UE                                     : 7 Температура, усл.ед. -  170.0 см 
~Ascii
# ...
2721.2     11.42      485        11.44      161        0          251.058    13507      -659       569        0.05       6594.83    50.977     12915     
2721.4     10.72      455        10.98      151        0          251.092    13509      -659       564        0.05       6596.08    50.97      12913     
2721.6     10.71      455        10.73      163        0          251.104    13509      -659       563        0.05       6597.33    50.957     12910     
2721.8     10.34      439        10.48      166        0          251.127    13510      -659       570        0.05       6598.58    50.947     12907     
2722       10.15      431        10.16      207        0          251.141    13511      -659       573        0.05       6599.83    50.941     12906     
2722.2     10.17      432        10.16      180        0          251.15     13511      -659       571        0.05       6601.12    50.933     12904     
2722.4     10.27      436        10.26      182        0          251.179    13512      -659       566        0.05       6602.34    50.922     12901     
2722.6     10.56      448        10.45      153        0          251.196    13513      -659       570        0.05       6603.59    50.918     12900     
2722.8     10.62      451        10.61      188        0          251.218    13514      -659       573        0.05       6604.82    50.912     12899     
2723       10.47      444        10.52      181        0          251.219    13514      -659       585        0.05       6606.03    50.903     12896     
2723.2     10.31      438        10.32      195        0          251.241    13515      -659       590        0.05       6607.28    50.897     12895     
2723.4     10.35      440        10.34      229        0          251.264    13516      -659       591        0.05       6608.53    50.889     12893     
2723.6     10.55      448        10.54      233        0          251.264    13516      -659       590        0.05       6609.78    50.877     12890     
2723.8     11.1       471        10.9       207        0          251.3      13518      -659       579        0.05       6611.09    50.877     12890     
2724       11.21      476        11.2       254        0          251.332    13519      -659       588        0.05       6612.31    50.872     12889     
2724.2     11.37      483        11.31      224        0          251.332    13519      -659       586        0.05       6613.53    50.865     12887     
2724.4     11.68      496        11.67      201        0          251.354    13520      -659       584        0.05       6614.78    50.861     12886     
2724.6     10.29      437        10.8       218        0          251.37     13521      -659       583        0.05       6616.04    50.857     12885     
2724.8     10.29      437        10.31      182        0          251.378    13521      -659       582        0.05       6617.23    50.848     12883     
2725       7.89       335        8.77       279        0          251.4      13522      -659       581        0.05       6618.55    50.842     12881     
2725.2     7.42       315        7.47       347        0          251.423    13523      -659       572        0.05       6619.8     50.836     12880     
2725.4     7.14       303        7.24       411        0          251.428    13523      -659       580        0.05       6621.05    50.822     12877     
2725.6     6.57       279        6.59       293        0          251.456    13524      -659       587        0.05       6622.3     50.813     12874     
2725.8     6.52       277        6.54       1413       0          251.469    13525      -659       591        0.05       6623.5     50.808     12873     
2726       6.52       277        6.52       618        0          251.468    13525      -659       588        0.05       6624.74    50.816     12875     
2726.2     6.49       276        6.5        281        0          251.498    13526      -659       585        0.05       6625.99    50.827     12878     
2726.4     6.48       275        6.48       214        0          251.524    13528      -659       584        0.05       6627.25    50.82      12876     
2726.6     6.69       284        6.61       234        0          251.535    13528      -659       583        0.05       6628.46    50.82      12876     
2726.8     7.13       303        7.12       236        0          251.556    13529      -659       575        0.05       6629.75    50.827     12878     
2727       7.92       336        7.63       223        0          251.578    13530      -659       577        0.05       6631       50.828     12878     
2727.2     8.05       342        8.04       193        0          251.577    13530      -659       573        0.05       6632.25    50.842     12881     
2727.4     8.06       342        8.06       220        0          251.598    13531      -659       565        0.05       6633.5     50.863     12887     
2727.6     8.08       343        8.08       187        0          251.608    13531      -659       561        0.05       6634.75    50.88      12891     
2727.8     8.01       340        8.03       185        0          251.638    13533      -659       560        0.05       6635.97    50.884     12892     
2728       7.65       325        7.67       161        0          251.645    13533      -659       569        0.05       6637.21    50.885     12892     
2728.2     7.57       322        7.6        118        0          251.664    13534      -659       571        0.05       6638.5     50.881     12891     
2728.4     7.56       321        7.56       151        0          251.682    13535      -659       563        0.05       6639.72    50.873     12889     
2728.6     7.69       326        7.64       204        0          251.704    13536      -659       568        0.05       6640.94    50.887     12892     
2728.8     7.82       332        7.81       158        0          251.717    13537      -659       572        0.05       6642.2     50.903     12897     
2729       7.82       332        7.82       442        0          251.727    13537      -659       574        0.05       6643.45    50.922     12901     
2729.2     9          382        8.95       385        0          251.749    13538      -659       576        0.05       6644.7     50.933     12904     
2729.4     10.66      453        10.04      186        0          251.771    13539      -659       575        0.05       6645.95    50.933     12904     
2729.6     11         467        10.96      165        0          251.787    13540      -659       580        0.05       6647.19    50.933     12904     
2729.8     11.21      476        11.13      288        0          251.793    13540      -659       578        0.05       6648.47    50.937     12905     
2730       11.63      494        11.61      301        2          251.815    13541      -659       580        0.05       6649.7     50.93      12903     
2730.2     11.63      494        11.63      395        0          251.829    13542      -665       580        0.05       6651.31    50.945     12907     
2730.4     9.89       420        9.96       279        0          251.834    13542      -665       580        0.05       6652.54    50.964     12912     
2730.6     8.37       356        8.93       294        0          251.855    13543      -665       580        0.05       6653.77    50.988     12918     
2730.8     7.61       323        7.64       321        0          251.87     13544      -665       580        0.05       6655.03    50.998     12920     
2731       7.05       299        7.26       194        0          251.877    13544      -665       589        0.05       6656.27    51.002     12921     
2731.2     6.31       268        6.33       135        0          251.906    13545      -665       569        0.05       6657.59    50.995     12919     
2731.4     6.03       256        6.13       90         0          251.923    13546      -665       582        0.05       6658.83    50.99      12918     
