~Version
 VERS              .         2.0                           : CWLS LOG ASCII STANDARD - VERSION 2.0
 WRAP              .         NO                            : ONE LINE PER DEPTH STEP
 DLM               .         SPACE                         : DELIMITING CHARACTER(SPACE TAB OR COMMA)
~Well Information
#_______________________________________________________________________________
#
#PARAMETER_NAME    .UNIT     VALUE                         : DESCRIPTION
#_______________________________________________________________________________
STRT               .M        2298.8                        : First reference value
STOP               .M        2799.8                        : Last reference value
STEP               .M        0.2                           : Step increment
NULL               .         -9999                         : Missing value
COMP               .                                       : Company
WELL               .         616                           : Well name
FLD                .                                       : Field
LOC                .                                       : Location
CNTY               .                                       : County
STAT               .                                       : State
CTRY               .                                       : Country
SRVC               .                                       : Service Company
DATE               .                                       : Date
API                .                                       : API number
PROJECT_UPGRADE_TIME .         2021-03-18T21_24_50           : 
group              .         Good                          : 
~Parameter Information Block
#_______________________________________________________________________________
#
#PARAMETER_NAME    .UNIT     VALUE                         : DESCRIPTION
#_______________________________________________________________________________
SET                .         D2659_D                       : 
OTHER              .         Программное обеспечение станции MONITOR-386EX 25/12/99 15_08_10   BGF V50 26/12/00 07_26_01   3.1_SNGF___BGF_N_092085: 
OTHER_10           .         Тарировки_                    : 
OTHER_11           .         <_techsia_sc_> Постоянная времени фильтра ПС  0.5 сек, kf=0.139292: 
OTHER_2            .         Kedr.exe версия 3.3.2.32      : 
OTHER_3            .         KedrData.dll версия 3.3.2.17  : 
OTHER_4            .         Драйвер версия 2.1.0.7        : 
OTHER_5            .         Мнемоники версия 3.3 S        : 
OTHER_6            .         Прибор_ К1a-723м              : 
OTHER_7            .         Номер прибора_ 348/72         : 
OTHER_8            .         Режим_ K1A-723M               : 
OTHER_9            .         Форма_ БКЗ                    : 
PROJECT_UPGRADE_TIME .         2021-03-18T21_24_49           : 
TLFamily_BK        .         Lateral Log Resistivity       : 
TLFamily_DEPT      .         Measured Depth                : 
TLFamily_GZ1       .         Extra Shallow Resistivity     : 
TLFamily_GZ2       .         Shallow Resistivity           : 
TLFamily_GZ3       .         Medium Resistivity            : 
TLFamily_GZ4       .         Deep Resistivity              : 
TLFamily_GZ5       .         Extra Deep Resistivity        : 
TLFamily_GZ6       .         Medium Resistivity Inverted   : 
TLFamily_IBK       .                                       : 
TLFamily_IK        .         Conductivity                  : 
TLFamily_IPR       .                                       : 
TLFamily_METKA     .                                       : 
TLFamily_PS        .         Spontaneous Potential         : 
TLFamily_PZ        .         Potential Resistivity         : 
TLFamily_RCOR      .                                       : 
TLFamily_RES       .         Mud Resistivity               : 
TLFamily_SPID      .         Spontaneous Potential         : 
TLFamily_TENS      .         Cable Tension                 : 
TLFamily_TIME      .         Time                          : 
TLFamily_UBK       .         Uranium Concentration         : 
group              .         prim                          : 
~Curve Information
#_______________________________________________________________________________
#
#LOGNAME           .UNIT     LOG_ID                        : DESCRIPTION
#_______________________________________________________________________________
DEPT               .M                                      : 1 Глубина, м -    0.0 см 
BK                 .OHMM                                   : 20 БК, Ом*м - 1768.0 см 
GZ1                .OHMM                                   : 12 A0.4M0.1N, Ом*м - 1295.0 см 
GZ2                .OHMM                                   : 11 A1.0M0.1N, Ом*м - 1355.0 см 
GZ3                .OHMM                                   : 9 A2.0M0.5N, Ом*м - 1475.0 см 
GZ4                .OHMM                                   : 8 A4.0M0.5N, Ом*м - 1025.0 см 
GZ5                .OHMM                                   : 7 A8.0M1.0N, Ом*м - 1450.0 см 
GZ6                .OHMM                                   : 10 N0.5M2.0A, Ом*м - 1025.0 см 
IBK                .A                                      : 18 Ток БК, А - 1768.0 см 
IK                 .MSM/M                                  : 14 ИК, мСм/м - 1961.0 см 
IPR                .MA                                     : 17 Ток прибора, мA -    0.0 см 
METKA              .                                       : 3 Метки,  -    0.0 см 
PS                 .mV                                     : 16 ПС, мВ - 1210.0 см 
PZ                 .OHMM                                   : 13 N11M0.5A, Ом*м - 1225.0 см 
RCOR               .CM/KM                                  : 5 Коррекция по ролику, см/км -    0.0 см 
RES                .OHMM                                   : 15 Резистивиметр, Ом*м -  600.0 см 
SPID               .M/H                                    : 2 Скорость, м/час -    0.0 см 
TENS               .T                                      : 6 Натяжение кабеля, т -    0.0 см 
TIME               .S                                      : 4 Время, сек -    0.0 см 
UBK                .V                                      : 19 Напр. БК, В - 1768.0 см 
~Ascii
# ...
2631.8     6.29       8.5        8.3        8.3        6.4        6.5        5.6        0.026      141.3      428        0          562.58     8.2        -320       2.757      -1802      0          28766.04   0.695     
2632       6.44       8.5        8.3        8.1        6.4        6.8        5.6        0.025      144.2      428        0          563.1      8.1        -320       2.758      -1811      0          28765.68   0.685     
2632.2     6.08       8.5        8.3        7.9        6.5        7.2        5.6        0.026      145.5      430        0          563.49     7.9        -320       2.758      -1826      0          28765.28   0.677     
2632.4     6.06       8.1        7.6        7.8        6.6        7.7        5.3        0.026      147.1      428        0          563.58     7.4        -320       2.757      -1854      0          28764.89   0.67      
2632.6     6          8          7.5        8          7.5        8.4        5.5        0.026      150.3      428        0          563.83     7.6        -320       2.757      -1850      0          28764.53   0.662     
2632.8     6.09       8.4        8.1        8.6        9.2        8.5        6          0.025      152.2      430        0          563.18     7.7        -320       2.758      -1842      0          28764.1    0.653     
2633       6.11       8.7        8.6        8.8        9.7        8.6        5.6        0.025      154.6      430        0          563.14     7.6        -320       2.758      -1828      0          28763.72   0.64      
2633.2     6.06       7.9        7.2        8.1        8.8        8.6        5          0.025      157.8      428        0          563.56     7.3        -320       2.758      -1804      0          28763.35   0.633     
2633.4     6.11       8.1        6.8        7.3        8.2        7.9        4.5        0.024      159.4      428.667    0          563.68     7          -320       2.758      -1800      0          28762.93   0.631     
2633.6     5.79       8.1        6.6        6.6        7.8        7.3        4.3        0.026      164.2      429.35     0          563.42     6.8        -320       2.756      -1807      0          28762.54   0.624     
2633.8     5.39       7.8        6.7        6.3        7.4        6.8        4.2        0.027      168.2      429.497    0          564.6      6.7        -320       2.756      -1821      0          28762.15   0.611     
2634       5.29       7.4        6.9        6.1        7.2        6.8        4.2        0.027      173.7      428        0          564.71     6.4        -320       2.757      -1845      0          28761.76   0.601     
2634.2     5.1        6.9        6.7        6.2        7.4        6.9        4.5        0.027      179.6      428        0          564.59     6.3        -320       2.756      -1861      0          28761.37   0.584     
2634.4     5.52       6.8        7          6.5        7.8        6.8        4.7        0.025      185.2      428.667    0          564.68     6          -320       2.758      -1861      0          28760.97   0.57      
2634.6     6.03       7.7        7.5        6.6        7.7        6.9        4.7        0.022      188.6      430        0          564.67     5.6        -320       2.758      -1862      0          28760.58   0.557     
2634.8     5.14       7.3        6.3        6.2        7.1        6.8        4.1        0.025      192.9      428        0          564.62     5.3        -320       2.758      -1840      0          28760.2    0.547     
2635       4.76       7.1        5.7        5.8        6.6        6.5        3.9        0.027      199.1      429.333    0          565.11     5.2        -320       2.757      -1803      0          28759.81   0.536     
2635.2     4.35       6.3        5.5        5.8        6.4        6.1        3.9        0.029      206.9      430        0          565.42     5.2        -320       2.757      -1812      0          28759.49   0.531     
2635.4     4.38       5.7        5.4        5.6        6.3        6.2        4          0.028      212.2      428        0          565.68     5.1        -320       2.755      -1831      0          28759.02   0.525     
2635.6     4.46       5.5        5.3        5.4        6          6          4          0.028      215.8      431.18     0          565.72     5.2        -320       2.757      -1844      0          28758.62   0.521     
2635.8     4.37       5.4        4.8        5.2        5.8        5.8        3.8        0.028      216.4      428        0          565.67     5.2        -320       2.758      -1833      0          28758.24   0.514     
2636       4.41       5.4        4.5        5          5.6        5.7        3.7        0.027      216.6      428        0          565.88     5.3        -320       2.755      -1812      0          28757.86   0.51      
2636.2     4.39       5.3        4.5        4.7        5.6        5.7        3.7        0.027      215.7      428        0          565.68     5.4        -320       2.757      -1803      0          28757.48   0.506     
2636.4     4.49       5.3        4.5        4.8        5.5        5.8        3.5        0.027      216.1      428        0          565.43     5.3        -320       2.759      -1813      0          28757.09   0.507     
2636.6     4.55       5.4        4.4        4.9        5.6        5.8        3.6        0.026      215.5      429.988    0          565.78     5.4        -320       2.759      -1832      0          28756.76   0.504     
2636.8     4.86       5.7        4.8        5          5.7        5.9        3.8        0.024      216.1      428.672    0          565.61     5.2        -320       2.759      -1833      0          28756.31   0.502     
2637       4.77       6          4.8        4.7        5.8        6.4        4          0.025      216.8      428        0          565.32     5.1        -320       2.756      -1819      0          28755.91   0.498     
2637.2     4.46       6          4.8        4.6        5.9        6.6        4          0.026      219.5      431.333    0          565.45     4.9        -320       2.754      -1844      0          28755.53   0.494     
2637.4     4.56       5.8        4.7        4.7        5.7        6.5        4.1        0.026      225.2      428        0          565.92     4.8        -320       2.757      -1847      0          28755.12   0.491     
2637.6     4.43       5.8        4.8        4.7        5.7        6.6        3.9        0.026      226.9      429.19     0          565.96     4.6        -320       2.756      -1837      0          28754.73   0.481     
2637.8     4.26       5.6        4.9        4.5        5.5        6.6        3.9        0.026      233.2      428.794    0          565.9      4.4        -320       2.759      -1821      0          28754.36   0.476     
2638       4.04       5.4        4.7        4.5        5.4        6.4        4          0.028      241.8      430        0          565.9      4.3        -320       2.757      -1839      0          28753.97   0.47      
2638.2     4.2        5.2        4.6        4.5        5.3        6          4          0.026      245.1      428        0          566.11     4.5        -320       2.757      -1857      0          28753.58   0.466     
2638.4     4.24       5.3        4.6        4.4        5          5.6        3.9        0.026      252.5      428        0          566.2      4.6        -320       2.757      -1854      0          28753.18   0.458     
2638.6     3.9        5.1        4.3        3.9        4.5        5.2        3.4        0.027      257.3      429.976    0          566.75     4.5        -320       2.757      -1850      0          28752.81   0.451     
2638.8     3.91       4.2        3.1        3.3        3.8        4.7        2.7        0.027      263.5      430        0          566.2      4.3        -320       2.756      -1842      0          28752.38   0.441     
2639       3.99       4.4        3.1        3          3.4        4          2.5        0.026      268.8      428        0          566.12     4          -320       2.757      -1828      0          28752      0.437     
