~Version
 VERS              .         2.0                           : CWLS LOG ASCII STANDARD - VERSION 2.0
 WRAP              .         NO                            : ONE LINE PER DEPTH STEP
 DLM               .         SPACE                         : DELIMITING CHARACTER(SPACE TAB OR COMMA)
~Well Information
#_______________________________________________________________________________
#
#PARAMETER_NAME    .UNIT     VALUE                         : DESCRIPTION
#_______________________________________________________________________________
STRT               .M        2298.8                        : First reference value
STOP               .M        2799.8                        : Last reference value
STEP               .M        0.2                           : Step increment
NULL               .         -9999                         : Missing value
COMP               .                                       : Company
WELL               .         616                           : Well name
FLD                .                                       : Field
LOC                .                                       : Location
CNTY               .                                       : County
STAT               .                                       : State
CTRY               .                                       : Country
SRVC               .                                       : Service Company
DATE               .                                       : Date
API                .                                       : API number
PROJECT_UPGRADE_TIME .         2021-03-18T21_24_50           : 
group              .         Good                          : 
~Parameter Information Block
#_______________________________________________________________________________
#
#PARAMETER_NAME    .UNIT     VALUE                         : DESCRIPTION
#_______________________________________________________________________________
SET                .         D2659_D                       : 
OTHER              .         Программное обеспечение станции MONITOR-386EX 25/12/99 15_08_10   BGF V50 26/12/00 07_26_01   3.1_SNGF___BGF_N_092085: 
OTHER_10           .         Тарировки_                    : 
OTHER_11           .         <_techsia_sc_> Постоянная времени фильтра ПС  0.5 сек, kf=0.139292: 
OTHER_2            .         Kedr.exe версия 3.3.2.32      : 
OTHER_3            .         KedrData.dll версия 3.3.2.17  : 
OTHER_4            .         Драйвер версия 2.1.0.7        : 
OTHER_5            .         Мнемоники версия 3.3 S        : 
OTHER_6            .         Прибор_ К1a-723м              : 
OTHER_7            .         Номер прибора_ 348/72         : 
OTHER_8            .         Режим_ K1A-723M               : 
OTHER_9            .         Форма_ БКЗ                    : 
PROJECT_UPGRADE_TIME .         2021-03-18T21_24_49           : 
TLFamily_BK        .         Lateral Log Resistivity       : 
TLFamily_DEPT      .         Measured Depth                : 
TLFamily_GZ1       .         Extra Shallow Resistivity     : 
TLFamily_GZ2       .         Shallow Resistivity           : 
TLFamily_GZ3       .         Medium Resistivity            : 
TLFamily_GZ4       .         Deep Resistivity              : 
TLFamily_GZ5       .         Extra Deep Resistivity        : 
TLFamily_GZ6       .         Medium Resistivity Inverted   : 
TLFamily_IBK       .                                       : 
TLFamily_IK        .         Conductivity                  : 
TLFamily_IPR       .                                       : 
TLFamily_METKA     .                                       : 
TLFamily_PS        .         Spontaneous Potential         : 
TLFamily_PZ        .         Potential Resistivity         : 
TLFamily_RCOR      .                                       : 
TLFamily_RES       .         Mud Resistivity               : 
TLFamily_SPID      .         Spontaneous Potential         : 
TLFamily_TENS      .         Cable Tension                 : 
TLFamily_TIME      .         Time                          : 
TLFamily_UBK       .         Uranium Concentration         : 
group              .         prim                          : 
~Curve Information
#_______________________________________________________________________________
#
#LOGNAME           .UNIT     LOG_ID                        : DESCRIPTION
#_______________________________________________________________________________
DEPT               .M                                      : 1 Глубина, м -    0.0 см 
BK                 .OHMM                                   : 20 БК, Ом*м - 1768.0 см 
GZ1                .OHMM                                   : 12 A0.4M0.1N, Ом*м - 1295.0 см 
GZ2                .OHMM                                   : 11 A1.0M0.1N, Ом*м - 1355.0 см 
GZ3                .OHMM                                   : 9 A2.0M0.5N, Ом*м - 1475.0 см 
GZ4                .OHMM                                   : 8 A4.0M0.5N, Ом*м - 1025.0 см 
GZ5                .OHMM                                   : 7 A8.0M1.0N, Ом*м - 1450.0 см 
GZ6                .OHMM                                   : 10 N0.5M2.0A, Ом*м - 1025.0 см 
IBK                .A                                      : 18 Ток БК, А - 1768.0 см 
IK                 .MSM/M                                  : 14 ИК, мСм/м - 1961.0 см 
IPR                .MA                                     : 17 Ток прибора, мA -    0.0 см 
METKA              .                                       : 3 Метки,  -    0.0 см 
PS                 .mV                                     : 16 ПС, мВ - 1210.0 см 
PZ                 .OHMM                                   : 13 N11M0.5A, Ом*м - 1225.0 см 
RCOR               .CM/KM                                  : 5 Коррекция по ролику, см/км -    0.0 см 
RES                .OHMM                                   : 15 Резистивиметр, Ом*м -  600.0 см 
SPID               .M/H                                    : 2 Скорость, м/час -    0.0 см 
TENS               .T                                      : 6 Натяжение кабеля, т -    0.0 см 
TIME               .S                                      : 4 Время, сек -    0.0 см 
UBK                .V                                      : 19 Напр. БК, В - 1768.0 см 
~Ascii
# ...
2661.4     5.3        6          5.8        5          4          2.9        5.5        0.026      171.9      429.333    0          564.54     6.5        -313       2.754      -1821      0          28708.25   0.57      
2661.6     5.42       6.4        5.9        5.3        4.2        3.1        5.4        0.025      171.1      428.012    0          564.65     6.5        -313       2.758      -1807      0          28707.84   0.568     
2661.8     5.29       6.7        5.8        5.7        4.2        3          5.2        0.025      168.3      428.503    0          565.11     6.5        -313       2.758      -1820      0          28707.47   0.568     
2662       5.16       6.7        5.7        5.5        4.4        3.1        5.1        0.026      167.1      430        0          565.68     6.4        -313       2.754      -1845      0          28707.05   0.571     
2662.2     5.25       6.6        5.6        5.3        4.5        3.2        5.1        0.026      170        430        0          565.73     6.3        -313       2.756      -1857      0          28706.67   0.574     
2662.4     5.27       6.7        5.7        5.5        4.7        3.3        5          0.026      170.2      428        0          565.86     6.3        -313       2.758      -1854      0          28706.26   0.576     
2662.6     4.94       6.7        5.8        5.5        5          3.4        5.3        0.028      170.4      428.683    0          566.07     6.4        -313       2.756      -1850      0          28705.87   0.574     
2662.8     5.21       6.6        5.9        5.3        4.9        3.5        5.4        0.026      172.7      428.5      0          565.66     6.4        -313       2.757      -1842      0          28705.54   0.575     
2663       5.22       6.5        6          5.4        5.1        3.4        5.7        0.026      173.8      428.333    0          565.74     6.3        -313       2.756      -1829      0          28705.09   0.571     
2663.2     5.29       6.6        5.7        5.3        5.3        3.6        6          0.025      172.6      430        0          565.93     6.3        -313       2.758      -1806      0          28704.72   0.569     
2663.4     5.2        6.7        5.8        5.3        5.3        3.7        6.4        0.026      174.1      428.5      0          566.52     6.3        -313       2.759      -1811      0          28704.35   0.565     
2663.6     5.16       6.8        5.7        5.3        5.4        3.6        6.9        0.026      176.2      428        0          566.13     6.2        -313       2.758      -1827      0          28703.96   0.562     
2663.8     5.2        6.7        5.7        5.3        5.5        3.8        6.8        0.025      177.8      428        0          566.46     6          -313       2.754      -1857      0          28703.55   0.558     
2664       5.04       6.6        5.6        5.2        5.3        4          6.7        0.026      179.7      428        0          566.91     5.9        -313       2.757      -1858      0          28703.16   0.555     
2664.2     5.07       6.6        5.7        5.2        5          3.7        6.9        0.026      181.3      428.667    0          566.63     5.9        -313       2.758      -1857      0          28702.76   0.557     
2664.4     5.05       6.5        5.7        4.9        5          3.8        7.1        0.026      183        430        0          567.11     5.9        -313       2.758      -1848      0          28702.37   0.557     
2664.6     4.82       6.3        5.5        4.9        4.7        3.7        6.1        0.028      180.1      428        0          566.96     6.3        -313       2.759      -1793      0          28702.02   0.565     
2664.8     4.63       6.1        5.1        4.5        4.4        3.5        4.6        0.03       179.6      428        0          567.04     6.8        -313       2.759      -1787      0          28701.61   0.59      
2665       4.44       5.7        4.7        4.1        4.1        3.3        3.8        0.032      177.9      430        0          566.52     7.6        -313       2.758      -1823      0          28701.22   0.608     
2665.2     5.04       5.2        4.2        3.7        3.7        3.2        3.4        0.029      172.2      428        0          566.18     8.5        -313       2.759      -1849      0          28700.83   0.619     
2665.4     4.88       5.5        4.2        3.5        3.5        3.7        3.6        0.031      164.9      430        0          566.15     9.6        -313       2.755      -1857      0          28700.43   0.63      
2665.6     4.57       5.4        4.1        4          4.1        4.2        4.9        0.034      158.3      429.976    0          565.93     11         -313       2.757      -1855      0          28700.04   0.651     
2665.8     7.52       5.8        5.4        5.2        5.4        4.6        6.5        0.021      151        430        0          564.37     11.4       -313       2.758      -1851      0          28699.64   0.679     
2666       16.66      9.5        7.7        6.4        6.3        5.3        6.7        0.01       139.1      428        0          564.05     10.7       -313       2.755      -1844      0          28699.3    0.684     
2666.2     8.14       13.7       7.9        6.4        5.9        6.4        6.3        0.02       129.5      428.5      0          565.14     9.5        -313       2.756      -1831      0          28698.87   0.686     
2666.4     5.79       12.7       7          6.3        6.5        8.5        8.3        0.028      128.8      430        0          566.06     8.4        -313       2.758      -1810      0          28698.49   0.691     
2666.6     5.72       10.1       8.4        8.8        9.7        10         13.9       0.029      133.5      429.35     0          566.35     9.1        -313       2.756      -1826      0          28698.1    0.701     
2666.8     13.02      11.5       14.6       12.3       13.1       10.6       17.7       0.013      135.7      428        0          566.18     9          -313       2.757      -1853      0          28697.7    0.72      
2667       10.23      15.8       18.2       12.4       12.4       10.7       15.2       0.017      134        428        0          566.49     8.5        -313       2.758      -1881      0          28697.31   0.723     
2667.2     5.82       13.1       9.7        8.7        7.9        9.5        9.8        0.029      136.2      429.6      0          566.55     8.2        -313       2.757      -1850      0          28696.93   0.702     
2667.4     5.46       10.3       6.3        4.4        4.5        6.7        6.8        0.03       142.2      430        0          566.91     8          -313       2.758      -1831      0          28696.54   0.685     
2667.6     5.53       7.8        5.5        3.2        3.4        4.2        6.5        0.03       146.3      428        0          566.69     7.9        -313       2.76       -1809      0          28696.15   0.69      
2667.8     5.83       7.2        6.7        3          3.1        3.5        6.8        0.029      147.7      429.5      0          566.07     7.8        -313       2.758      -1771      0          28695.79   0.705     
2668       6.1        7.5        8.5        3.4        3.2        3.3        7.4        0.027      146.7      428.667    0          565.61     8.1        -313       2.756      -1798      0          28695.39   0.7       
2668.2     6.02       7.7        8.4        3.8        3.2        3.4        7.5        0.027      142.8      428.667    0          566.31     8.6        -313       2.758      -1829      0          28694.99   0.689     
2668.4     5.75       7.7        7.6        3.8        3.3        3.2        7.5        0.029      140.7      428        0          566.34     9          -313       2.757      -1858      0          28694.56   0.695     
2668.6     5.61       7          6.5        3.8        3.1        3.4        7.5        0.03       137.2      428        0          566.34     9.5        -313       2.757      -1856      0          28694.17   0.702     
