~Version
 VERS              .         2.0                           : CWLS LOG ASCII STANDARD - VERSION 2.0
 WRAP              .         NO                            : ONE LINE PER DEPTH STEP
 DLM               .         SPACE                         : DELIMITING CHARACTER(SPACE TAB OR COMMA)
~Well Information
#_______________________________________________________________________________
#
#PARAMETER_NAME    .UNIT     VALUE                         : DESCRIPTION
#_______________________________________________________________________________
STRT               .M        2733.1                        : First reference value
STOP               .M        2798.6                        : Last reference value
STEP               .M        0.1                           : Step increment
NULL               .         -9999                         : Missing value
COMP               .                                       : Company
WELL               .         616                           : Well name
FLD                .                                       : Field
LOC                .                                       : Location
CNTY               .                                       : County
STAT               .                                       : State
CTRY               .                                       : Country
SRVC               .                                       : Service Company
DATE               .                                       : Date
API                .                                       : API number
PROJECT_UPGRADE_TIME .         2021-03-18T21_24_50           : 
group              .         Good                          : 
~Parameter Information Block
#_______________________________________________________________________________
#
#PARAMETER_NAME    .UNIT     VALUE                         : DESCRIPTION
#_______________________________________________________________________________
SET                .         D2661_D                       : 
OTHER              .         Программное обеспечение станции MONITOR-386EX 25/12/99 15_08_10   BGF V50 26/12/00 07_26_01   3.1_SNGF___BGF_N_092085: 
OTHER_10           .         Тарировки_                    : 
OTHER_11           .         IK1.GRD = IK1$.UE - -5.96     : 
OTHER_12           .         IK5.GRD = IK5$.UE - -0.74     : 
OTHER_13           .         IK4.GRD = IK4$.UE - -0.9      : 
OTHER_14           .         IK3.GRD = IK3$.UE - -1.28     : 
OTHER_15           .         IK2.GRD = IK2$.UE - -3.55     : 
OTHER_2            .         Kedr.exe версия 3.3.2.32      : 
OTHER_3            .         KedrData.dll версия 3.3.2.17  : 
OTHER_4            .         Драйвер версия 2.1.0.4        : 
OTHER_5            .         Мнемоники версия 3.3 S        : 
OTHER_6            .         Прибор_ Викиз                 : 
OTHER_7            .         Номер прибора_ 0006012        : 
OTHER_8            .         Режим_ Викиз                  : 
OTHER_9            .         Форма_ ВИКИЗ                  : 
PROJECT_UPGRADE_TIME .         2021-03-18T21_24_49           : 
TLFamily_DEPT      .         Measured Depth                : 
TLFamily_IK1       .         Extra Shallow Resistivity     : 
TLFamily_IK1$      .         Extra Shallow Resistivity     : 
TLFamily_IK2       .         Shallow Resistivity           : 
TLFamily_IK2$      .         Shallow Resistivity           : 
TLFamily_IK3       .         Medium Resistivity            : 
TLFamily_IK3$      .         Medium Resistivity            : 
TLFamily_IK4       .         Deep Resistivity              : 
TLFamily_IK4$      .         Deep Resistivity              : 
TLFamily_IK5       .         Resistivity 20                : 
TLFamily_IK5$      .         Resistivity 20                : 
TLFamily_METKA     .                                       : 
TLFamily_PS        .         Spontaneous Potential         : 
TLFamily_RCOR      .                                       : 
TLFamily_SPID      .         Spontaneous Potential         : 
TLFamily_TENS      .         Cable Tension                 : 
TLFamily_TIME      .         Time                          : 
group              .         prim                          : 
~Curve Information
#_______________________________________________________________________________
#
#LOGNAME           .UNIT     LOG_ID                        : DESCRIPTION
#_______________________________________________________________________________
DEPT               .M                                      : 1 Глубина, м -    0.0 см 
IK1                .GRD                                    : 13 3Ф0.5, град. -  226.0 см 
IK1$               .UE                                     : 7 3Ф0.5, усл.ед. -  226.0 см 
IK2                .GRD                                    : 17 3Ф0.7, град. -  240.0 см 
IK2$               .UE                                     : 11 3Ф0.7, усл.ед. -  240.0 см 
IK3                .GRD                                    : 16 3Ф1.0, град. -  260.0 см 
IK3$               .UE                                     : 10 3Ф1.0, усл.ед. -  260.0 см 
IK4                .GRD                                    : 15 3Ф1.4, град. -  288.0 см 
IK4$               .UE                                     : 9 3Ф1.4, усл.ед. -  288.0 см 
IK5                .GRD                                    : 14 3Ф2.0, град. -  328.0 см 
IK5$               .UE                                     : 8 3Ф2.0, усл.ед. -  328.0 см 
METKA              .                                       : 3 Метки,  -    0.0 см 
PS                 .mV                                     : 12 ПС, мВ -  372.0 см 
RCOR               .CM/KM                                  : 5 Коррекция по ролику, см/км -    0.0 см 
SPID               .M/H                                    : 2 Скорость, м/час -    0.0 см 
TENS               .T                                      : 6 Натяжение кабеля, т -    0.0 см 
TIME               .S                                      : 4 Время, сек -    0.0 см 
~Ascii
# ...
2767.5     14.11      8.15       13.03      9.48       12.64      11.36      12.18      11.28      12.23      11.49      0          330.33     -295       -1832      0          34414.88  
2767.6     14.51      8.55       13.38      9.83       12.92      11.64      12.42      11.52      12.49      11.75      0          329.74     -295       -1842      0          34414.64  
2767.7     14.86      8.9        13.72      10.17      13.12      11.84      12.57      11.67      12.66      11.92      0          329.83     -295       -1837      0          34414.46  
2767.8     15.19      9.23       13.97      10.42      13.31      12.03      12.7       11.8       12.76      12.02      0          330.66     -295       -1832      0          34414.27  
2767.9     15.48      9.52       14.19      10.64      13.51      12.23      12.78      11.88      12.8       12.06      0          331.24     -295       -1824      0          34414.07  
2768       15.62      9.66       14.39      10.84      13.65      12.37      12.84      11.94      12.8       12.06      0          331.33     -295       -1816      0          34413.86  
2768.1     15.56      9.6        14.49      10.94      13.75      12.47      12.87      11.97      12.79      12.05      0          330.96     -295       -1805      0          34413.68  
2768.2     15.45      9.49       14.55      11         13.84      12.56      12.9       12         12.79      12.05      0          330.29     -295       -1798      0          34413.5   
2768.3     15.37      9.41       14.56      11.01      13.92      12.64      12.93      12.03      12.78      12.04      0          329.42     -295       -1801      0          34413.29  
2768.4     15.26      9.3        14.49      10.94      13.99      12.71      12.97      12.07      12.79      12.05      0          328.98     -295       -1803      0          34413.09  
2768.5     15.18      9.22       14.41      10.86      14.04      12.76      13.05      12.15      12.8       12.06      0          328.86     -295       -1806      0          34412.91  
2768.6     15.12      9.16       14.36      10.81      14.1       12.82      13.15      12.25      12.82      12.08      0          329.44     -295       -1810      0          34412.72  
2768.7     15.05      9.09       14.29      10.74      14.14      12.86      13.26      12.36      12.86      12.12      0          330.17     -295       -1816      0          34412.5   
2768.8     15.05      9.09       14.31      10.76      14.19      12.91      13.41      12.51      12.91      12.17      0          330.24     -295       -1822      0          34412.31  
2768.9     15.14      9.18       14.39      10.84      14.26      12.98      13.55      12.65      12.99      12.25      0          330.32     -295       -1830      0          34412.12  
2769       15.25      9.29       14.49      10.94      14.31      13.03      13.66      12.76      13.07      12.33      0          330.14     -295       -1841      0          34411.88  
2769.1     15.33      9.37       14.54      10.99      14.33      13.05      13.71      12.81      13.15      12.41      0          329.8      -295       -1837      0          34411.69  
2769.2     15.36      9.4        14.55      11         14.29      13.01      13.72      12.82      13.22      12.48      0          329.36     -295       -1832      0          34411.51  
2769.3     15.35      9.39       14.51      10.96      14.24      12.96      13.69      12.79      13.26      12.52      0          329.33     -295       -1824      0          34411.29  
2769.4     15.37      9.41       14.48      10.93      14.19      12.91      13.64      12.74      13.28      12.54      0          329.5      -295       -1816      0          34411.11  
2769.5     15.32      9.36       14.41      10.86      14.12      12.84      13.57      12.67      13.28      12.54      0          329.57     -295       -1805      0          34410.93  
2769.6     15.12      9.16       14.27      10.72      14         12.72      13.49      12.59      13.24      12.5       0          329.31     -295       -1794      0          34410.73  
2769.7     14.89      8.93       14.1       10.55      13.87      12.59      13.39      12.49      13.21      12.47      0          328.59     -295       -1795      0          34410.52  
2769.8     14.72      8.76       14.01      10.46      13.78      12.5       13.29      12.39      13.18      12.44      0          327.93     -295       -1797      0          34410.34  
2769.9     14.68      8.72       14         10.45      13.75      12.47      13.25      12.35      13.18      12.44      1          327.07     -295       -1798      0          34410.14  
2770       14.69      8.73       13.99      10.44      13.76      12.48      13.24      12.34      13.2       12.46      0          326.36     -295       -1801      0          34409.92  
2770.1     14.7       8.74       13.98      10.43      13.77      12.49      13.24      12.34      13.23      12.49      0          326.16     -292       -1804      0          34409.67  
2770.2     14.71      8.75       13.98      10.43      13.8       12.52      13.28      12.38      13.26      12.52      0          326.43     -292       -1807      0          34409.48  
2770.3     14.74      8.78       14         10.45      13.83      12.55      13.31      12.41      13.28      12.54      0          327.18     -292       -1812      0          34409.26  
2770.4     14.76      8.8        14.02      10.47      13.85      12.57      13.35      12.45      13.3       12.56      0          327.45     -292       -1818      0          34409.08  
2770.5     14.8       8.84       14.07      10.52      13.85      12.57      13.36      12.46      13.3       12.56      0          327.24     -292       -1824      0          34408.89  
2770.6     14.84      8.88       14.1       10.55      13.85      12.57      13.37      12.47      13.31      12.57      0          327.16     -292       -1834      0          34408.66  
2770.7     14.93      8.97       14.16      10.61      13.85      12.57      13.37      12.47      13.33      12.59      0          326.36     -292       -1841      0          34408.46  
2770.8     15.02      9.06       14.18      10.63      13.86      12.58      13.37      12.47      13.34      12.6       0          325.96     -292       -1836      0          34408.27  
2770.9     14.94      8.98       14.13      10.58      13.86      12.58      13.36      12.46      13.35      12.61      0          326.29     -292       -1829      0          34408.05  
2771       14.94      8.98       14.13      10.58      13.89      12.61      13.38      12.48      13.35      12.61      0          327.2      -292       -1822      0          34407.87  
2771.1     15         9.04       14.21      10.66      13.95      12.67      13.42      12.52      13.35      12.61      0          327.91     -292       -1813      0          34407.68  
2771.2     15.05      9.09       14.3       10.75      14.01      12.73      13.46      12.56      13.35      12.61      0          328.12     -292       -1802      0          34407.49  
2771.3     15.11      9.15       14.35      10.8       14.04      12.76      13.47      12.57      13.35      12.61      0          327.74     -292       -1796      0          34407.29  
2771.4     15.17      9.21       14.37      10.82      14.05      12.77      13.46      12.56      13.35      12.61      0          327.08     -292       -1798      0          34407.1   
2771.5     15.1       9.14       14.29      10.74      14.02      12.74      13.43      12.53      13.32      12.58      0          326.58     -292       -1800      0          34406.91  
2771.6     15.01      9.05       14.22      10.67      13.97      12.69      13.4       12.5       13.26      12.52      0          326.64     -292       -1802      0          34406.71  
2771.7     15.01      9.05       14.21      10.66      13.97      12.69      13.37      12.47      13.19      12.45      0          326.99     -292       -1805      0          34406.5   
