~Version
 VERS              .         2.0                           : CWLS LOG ASCII STANDARD - VERSION 2.0
 WRAP              .         NO                            : ONE LINE PER DEPTH STEP
 DLM               .         SPACE                         : DELIMITING CHARACTER(SPACE TAB OR COMMA)
~Well Information
#_______________________________________________________________________________
#
#PARAMETER_NAME    .UNIT     VALUE                         : DESCRIPTION
#_______________________________________________________________________________
STRT               .M        2654.8                        : First reference value
STOP               .M        2761.6                        : Last reference value
STEP               .M        0.2000001                     : Step increment
NULL               .         -9999                         : Missing value
COMP               .                                       : Company
WELL               .         616                           : Well name
FLD                .                                       : Field
LOC                .                                       : Location
CNTY               .                                       : County
STAT               .                                       : State
CTRY               .                                       : Country
SRVC               .                                       : Service Company
DATE               .                                       : Date
API                .                                       : API number
PROJECT_UPGRADE_TIME .         2021-03-18T21_24_50           : 
group              .         Good                          : 
~Parameter Information Block
#_______________________________________________________________________________
#
#PARAMETER_NAME    .UNIT     VALUE                         : DESCRIPTION
#_______________________________________________________________________________
SET                .         D8107_D                       : 
OTHER              .         Программное обеспечение станции MONITOR-386EX 25/12/99 15_08_10   BGF V52 22/08/01 16_56_30   4_SNGF_BGF_N_011645: 
OTHER_10           .         Тарировки_                    : 
OTHER_11           .         TM.GRD = 0.00412*TM$.UE + -2.13: 
OTHER_12           .         MN.ATM = (5.87652e-006*TM.GRD + 0.01993)*(MN$.UE + -2.72*TM.GRD + -1925): 
OTHER_13           .         GK.MKR/H = GK$.UE / 57.4657   : 
OTHER_2            .         Kedr.exe версия 3.4.2.51      : 
OTHER_3            .         KedrData.dll версия 3.4.2.24  : 
OTHER_4            .         Драйвер версия 2.1.0.2        : 
OTHER_5            .         Мнемоники версия 3.3 S        : 
OTHER_6            .         Прибор_ АКП4-90               : 
OTHER_7            .         Номер прибора_ 53             : 
OTHER_8            .         Режим_ АКП4_90                : 
OTHER_9            .         Форма_ ПК-53ое                : 
PROJECT_UPGRADE_TIME .         2021-03-18T21_24_50           : 
TLFamily_DEPT      .         Measured Depth                : 
TLFamily_GK        .         Gamma Ray                     : 
TLFamily_GK$       .                                       : 
TLFamily_LM        .         Casing Collar locator         : 
TLFamily_METKA     .                                       : 
TLFamily_METKA_1   .                                       : 
TLFamily_MN        .                                       : 
TLFamily_MN$       .                                       : 
TLFamily_RCOR      .                                       : 
TLFamily_SPID      .         Spontaneous Potential         : 
TLFamily_TENS      .         Cable Tension                 : 
TLFamily_TIME      .         Time                          : 
TLFamily_TM        .         Temperature                   : 
TLFamily_TM$       .         Temperature                   : 
group              .         prim                          : 
~Curve Information
#_______________________________________________________________________________
#
#LOGNAME           .UNIT     LOG_ID                        : DESCRIPTION
#_______________________________________________________________________________
DEPT               .M                                      : 1 Глубина, м -    0.0 см 
GK                 .MKR/H                                  : 13 Гамма-активность, мкр./ч -   65.0 см 
GK$                .UE                                     : 10 Гамма-активность, усл.ед. -   65.0 см 
LM                 .                                       : 9 Локатор муфт,  -   30.0 см 
METKA              .                                       : 3 Метки,  -    0.0 см 
METKA_1            .                                       : 14 Маркеры - 65 см 
MN                 .ATM                                    : 12 Давление, атм. -  140.0 см 
MN$                .UE                                     : 8 Давление, усл.ед. -  140.0 см 
RCOR               .CM/KM                                  : 5 Коррекция по ролику, см/км -    0.0 см 
SPID               .M/H                                    : 2 Скорость, м/час -    0.0 см 
TENS               .T                                      : 6 Натяжение кабеля, т -    0.0 см 
TIME               .S                                      : 4 Время, сек -    0.0 см 
TM                 .GRD                                    : 11 Температура, °C -  145.0 см 
TM$                .UE                                     : 7 Температура, усл.ед. -  145.0 см 
~Ascii
# ...
2706.8     6.07       349        335        0          0          248.123    14375      -13        -625       1.05       15510.91   46.96      11915     
2707       6.06       348        769        0          0          248.142    14376      -13        -619       1.05       15509.77   46.894     11899     
2707.2     6.17       354        550        0          0          248.115    14374      -13        -626       1.05       15508.6    46.82      11881     
2707.4     6.18       355        828        0          0          248.197    14378      -13        -621       1.05       15507.46   46.758     11866     
2707.6     6.25       359        833        0          0          248.198    14378      -13        -629       1.05       15506.31   46.694     11850     
2707.8     6.4        368        319        0          0          248.197    14378      -13        -625       1.05       15505.14   46.625     11834     
2708       6.43       369        348        0          0          248.248    14381      -13        -625       1.05       15504      46.559     11818     
2708.2     6.58       378        482        0          0          248.228    14380      -13        -626       1.05       15502.85   46.501     11804     
2708.4     6.56       377        126        1          0          248.24     14381      -13        -622       1.07       15501.67   46.448     11791     
2708.6     6.42       369        76         0          0          248.288    14383      -13        -615       1.05       15500.59   46.401     11779     
2708.8     6.46       371        155        0          0          248.275    14382      -13        -621       1.05       15499.4    46.345     11766     
2709       7.01       403        657        0          0          248.322    14385      -13        -630       1.05       15498.27   46.309     11757     
2709.2     7.01       403        1577       0          0          248.368    14387      -13        -626       1.03       15497.12   46.255     11744     
2709.4     6.89       396        1079       0          0          248.328    14385      -13        -635       1.05       15495.94   46.185     11727     
2709.6     6.72       386        577        0          0          248.405    14389      -13        -633       1.03       15494.8    46.125     11712     
2709.8     6.16       354        429        2          0          248.407    14389      -11        -630       1.05       15493.54   46.079     11701     
2710       5.68       326        219        0          0          248.408    14389      -9         -626       1.05       15492.28   46.039     11691     
2710.2     5.76       331        633        0          0          248.467    14392      -9         -628       1.05       15491.1    45.993     11680     
2710.4     6.06       348        517        0          0          248.447    14391      -9         -630       1.05       15489.97   45.933     11666     
2710.6     6.38       367        379        0          0          248.467    14392      -9         -626       1.05       15488.85   45.897     11657     
2710.8     6.77       389        717        0          0          248.527    14395      -9         -627       1.05       15487.67   45.869     11650     
2711       6.69       385        252        0          0          248.51     14394      -9         -624       1.05       15486.49   45.824     11639     
2711.2     6.33       364        394        0          0          248.577    14398      -9         -632       1.05       15485.36   45.78      11629     
2711.4     6.32       363        343        0          0          248.587    14398      -9         -628       1.05       15484.24   45.72      11614     
2711.6     6.09       350        406        0          0          248.567    14397      -9         -624       1.05       15483.09   45.663     11600     
2711.8     6.13       352        337        0          0          248.647    14401      -9         -625       1.05       15481.95   45.614     11588     
2712       6.53       375        279        0          0          248.647    14401      -9         -626       1.03       15480.78   45.561     11576     
2712.2     6.54       376        486        1          0          248.647    14401      -9         -621       1.05       15479.58   45.515     11564     
2712.4     6.88       396        710        0          0          248.687    14403      -9         -618       1.03       15478.5    45.472     11554     
2712.6     6.98       401        183        0          1          248.687    14403      -9         -625       1.03       15477.33   45.431     11544     
2712.8     7.06       406        194        0          0          248.692    14403      -9         -630       1.05       15476.15   45.404     11537     
2713       7.2        414        324        0          0          248.746    14406      -9         -626       1.03       15475.01   45.366     11528     
2713.2     6.73       387        311        0          0          248.706    14404      -9         -628       1.05       15473.83   45.324     11518     
2713.4     5.75       331        460        0          0          248.766    14407      -9         -624       1.05       15472.76   45.291     11510     
2713.6     5.62       323        733        0          0          248.773    14407      -9         -626       1.05       15471.58   45.248     11499     
2713.8     4.94       284        916        0          0          248.766    14407      -9         -627       1.05       15470.52   45.214     11491     
2714       4.94       284        1100       0          0          248.839    14411      -9         -622       1.05       15469.27   45.181     11483     
2714.2     4.89       281        701        0          0          248.829    14410      -9         -623       1.05       15468.08   45.139     11473     
2714.4     4.87       280        719        0          0          248.843    14411      -9         -623       1.05       15466.95   45.105     11465     
2714.6     4.61       265        2517       1          1          248.906    14414      -9         -619       1.05       15465.82   45.07      11456     
2714.8     4.63       266        1763       0          0          248.886    14413      -9         -631       1.05       15464.67   45.025     11445     
2715       5.03       289        2317       0          0          248.926    14415      -9         -628       1.05       15463.53   44.984     11435     
2715.2     5.22       300        8574       0          0          248.946    14416      -9         -623       1.05       15462.38   44.931     11423     
2715.4     5.28       303        12678      0          0          248.929    14415      -9         -624       1.05       15461.22   44.879     11410     
2715.6     5.44       313        800        0          0          248.971    14417      -9         -621       1.05       15460.09   44.836     11399     
2715.8     5.33       306        1984       0          0          249        14419      -9         -626       1.05       15458.93   44.782     11386     
2716       4.97       286        1787       0          0          249.005    14419      -9         -621       1.05       15457.78   44.729     11373     
2716.2     4.93       284        1182       0          0          249.052    14421      -9         -621       1.05       15456.61   44.681     11362     
2716.4     4.59       264        1164       0          0          249.078    14423      -9         -618       1.05       15455.48   44.628     11349     
2716.6     4.6        264        562        0          0          249.059    14422      -9         -620       1.05       15454.32   44.607     11344     
2716.8     4.63       266        211        0          0          249.114    14424      -9         -619       1.05       15453.16   44.573     11336     
2717       4.64       266        417        0          0          249.085    14423      -9         -626       1.03       15452.03   44.54      11328     
