~Version
 VERS              .         2.0                           : CWLS LOG ASCII STANDARD - VERSION 2.0
 WRAP              .         NO                            : ONE LINE PER DEPTH STEP
 DLM               .         SPACE                         : DELIMITING CHARACTER(SPACE TAB OR COMMA)
~Well Information
#_______________________________________________________________________________
#
#PARAMETER_NAME    .UNIT     VALUE                         : DESCRIPTION
#_______________________________________________________________________________
STRT               .M        749.69                        : First reference value
STOP               .M        1410.72                       : Last reference value
STEP               .M        0                             : Step increment
NULL               .         -9999                         : Missing value
COMP               .                                       : Company
WELL               .         616                           : Well name
FLD                .                                       : Field
LOC                .                                       : Location
CNTY               .                                       : County
STAT               .                                       : State
CTRY               .                                       : Country
SRVC               .                                       : Service Company
DATE               .                                       : Date
API                .                                       : API number
PROJECT_UPGRADE_TIME .         2021-03-18T21_24_50           : 
group              .         Good                          : 
~Parameter Information Block
#_______________________________________________________________________________
#
#PARAMETER_NAME    .UNIT     VALUE                         : DESCRIPTION
#_______________________________________________________________________________
SET                .         D0928                         : 
NPR                .         210404                        : ЗАВ НОМЕР ПРИБОРА
NPRT               .         Каштанов                      : НАЧ ПАРТИИ
PROJECT_UPGRADE_TIME .         2021-03-18T21_24_49           : 
TLFamily_AZIMUTH   .         True Dip Azimuth              : 
TLFamily_DEPTH     .         Measured Depth                : 
TLFamily_DRILL     .                                       : 
TLFamily_METKA     .                                       : 
TLFamily_ZENIT     .                                       : 
group              .         prim                          : 
~Curve Information
#_______________________________________________________________________________
#
#LOGNAME           .UNIT     LOG_ID                        : DESCRIPTION
#_______________________________________________________________________________
DEPTH              .M                                      : 1 ГЛУБИНА 
AZIMUTH            .ГРАД                                   : 4 АЗИМУТ 
DRILL              .ГРАД                                   : 2 ПОВОРОТ 
METKA              .                                       : 5 МАГН МЕТКА 
ZENIT              .ГРАД                                   : 3 ЗЕНИТ 
~Ascii
# ...
1160.07    341.77     140.45     0          32.32     
1160.26    341.71     140.54     0          32.32     
1160.45    340.28     140.67     0          32.31     
1160.63    339.65     140.86     0          32.29     
1160.82    339.51     141.09     0          32.28     
1161       339.57     141.28     0          32.27     
1161.19    338.34     141.49     0          32.27     
1161.37    336.4      141.7      0          32.25     
1161.56    335.56     141.92     0          32.24     
1161.75    336        142.13     0          32.25     
1161.93    338.58     142.45     0          32.22     
1162.12    340.94     142.95     0          32.19     
1162.3     343.42     143.7      0          32.15     
1162.49    341.47     144.69     0          32.17     
1162.67    341.82     145.92     0          32.17     
1162.86    343.19     147.38     0          32.21     
1163.04    343.87     149.1      0          32.23     
1163.23    343.84     151.03     0          32.26     
1163.42    346.12     153.24     0          32.3      
1163.6     346.71     155.74     0          32.35     
1163.79    348.43     158.58     0          32.36     
1163.97    347.83     161.67     0          32.36     
1164.16    347.73     164.89     0          32.34     
1164.34    347.54     167.83     0          32.34     
1164.53    349.28     170.06     0          32.34     
1164.72    349.53     171.29     0          32.37     
1164.9     350.13     171.36     0          32.4      
1165.09    349.93     170.31     0          32.42     
1165.28    350.53     168.43     0          32.45     
1165.46    350.12     165.98     0          32.46     
1165.65    350.84     163.11     0          32.48     
1165.83    350.73     159.97     0          32.5      
1166.02    351.26     156.81     0          32.5      
1166.2     352.08     153.8      0          32.51     
1166.39    352.44     150.93     0          32.49     
1166.58    352.7      148.26     0          32.51     
1166.76    353.25     145.85     0          32.5      
1166.95    354.13     143.73     0          32.53     
1167.13    354.02     141.89     0          32.52     
1167.32    354.92     140.2      0          32.53     
1167.5     355.02     138.33     0          32.55     
1167.69    354.96     135.98     0          32.58     
1167.88    354.72     133.09     0          32.62     
1168.06    355.24     129.88     0          32.62     
1168.25    355.46     126.43     0          32.63     
1168.43    355.47     122.85     0          32.65     
1168.62    355.86     119.33     0          32.67     
1168.81    355.93     116.12     0          32.67     
1168.99    356.64     113.48     0          32.67     
1169.18    357.68     111.59     0          32.67     
1169.36    355.91     110.51     0          32.67     
1169.55    355.92     110.42     0          32.66     
1169.74    357.59     111.41     0          32.71     
1169.92    357.39     113.24     0          32.73     
1170.11    359.61     115.63     0          32.72     
1170.29    359.66     118.33     0          32.71     
1170.48    359.91     120.96     0          32.7      
1170.67    359.45     123.28     0          32.67     
1170.85    359.34     125.29     0          32.67     
1171.04    358.91     127.11     0          32.64     
1171.22    359.28     128.81     0          32.65     
1171.41    359.33     130.37     0          32.65     
1171.59    0.25       131.68     0          32.68     
1171.78    359.72     132.8      0          32.67     
1171.97    359.87     133.74     0          32.71     
1172.15    0.18       134.53     0          32.7      
1172.34    359.98     135.17     0          32.73     
1172.52    0.17       135.69     0          32.72     
1172.71    0.36       136.11     0          32.74     
1172.9     359.11     136.47     0          32.73     
1173.08    358.08     136.78     0          32.74     
1173.27    357.9      137.08     0          32.73     
1173.45    357.29     137.36     0          32.74     
1173.64    358.05     137.62     0          32.72     
1173.83    357.6      137.87     0          32.73     
1174.01    358.02     138.1      0          32.72     
1174.2     357.39     138.29     0          32.73     
1174.38    357.92     138.48     0          32.72     
1174.57    358.01     138.64     0          32.73     
1174.76    357.72     138.73     0          32.73     
1174.94    359.85     138.78     0          32.74     
1175.13    0.76       138.84     0          32.76     
1175.31    0.33       138.9      0          32.75     
1175.5     1.44       138.98     0          32.78     
1175.68    0.18       139.09     0          32.8      
1175.87    0.09       139.22     0          32.82     
1176.05    0.6        139.46     0          32.82     
1176.24    1.16       139.86     0          32.85     
1176.42    1.22       140.26     0          32.87     
1176.61    1.81       140.58     0          32.9      
1176.79    1.44       140.72     0          32.91     
1176.98    1.59       140.75     0          32.91     
1177.16    1.53       140.78     0          32.91     
1177.35    2.2        140.78     0          32.94     
1177.53    2.73       140.73     0          32.92     
1177.72    3.22       140.7      0          32.94     
1177.9     3.6        140.66     0          32.93     
1178.08    3.57       140.58     0          32.95     
1178.27    4.24       140.44     0          32.96     
1178.45    4.35       140.28     0          32.98     
1178.64    5.81       140.17     0          32.96     
1178.82    6.45       140.07     0          32.98     
1179       7.98       139.95     0          32.98     
1179.19    8.54       139.83     0          33        
1179.37    9.72       139.72     0          33        
1179.55    10.2       139.62     0          33.05     
1179.73    10.65      139.61     0          33.07     
1179.92    10.96      139.64     0          33.08     
1180.1     10.82      139.67     0          33.08     
1180.28    10.72      139.7      0          33.1      
1180.46    10.59      139.76     0          33.11     
1180.64    10.39      139.87     0          33.13     
1180.82    12.27      140.01     0          33.16     
1181       14         140.19     0          33.19     
1181.19    15.23      140.34     0          33.22     
1181.37    15.03      140.41     0          33.25     
1181.55    14.88      140.42     0          33.26     
1181.73    14.13      140.4      0          33.26     
1181.91    14.18      140.4      0          33.26     
1182.09    14.52      140.42     0          33.24     
1182.27    15.31      140.48     0          33.23     
1182.45    14.8       140.54     0          33.24     
1182.63    14.4       140.57     0          33.23     
1182.81    13.63      140.56     0          33.22     
1182.99    13.06      140.46     0          33.25     
1183.17    12.21      140.23     0          33.25     
1183.35    11.25      140.05     0          33.24     
1183.53    10.75      140.07     0          33.24     
1183.71    9.17       140.22     0          33.24     
1183.89    8.38       140.38     0          33.24     
1184.07    6.23       140.51     0          33.25     
1184.25    3.82       140.69     0          33.25     
1184.43    0.73       140.94     0          33.25     
1184.61    357.24     141.2      0          33.25     
1184.79    353.56     141.46     0          33.27     
1184.97    349.97     141.74     0          33.24     
1185.15    347.22     142.03     0          33.22     
1185.33    343.98     142.3      0          33.23     
1185.51    341.77     142.54     0          33.23     
1185.7     339.7      142.79     0          33.22     
1185.88    338.61     143        0          33.22     
1186.06    337.98     143.18     0          33.21     
1186.24    335.14     143.34     0          33.21     
1186.42    334.12     143.42     0          33.18     
1186.6     331.59     143.56     0          33.16     
1186.78    331.75     143.98     0          33.13     
