~Version
 VERS              .         2.0                           : CWLS LOG ASCII STANDARD - VERSION 2.0
 WRAP              .         NO                            : ONE LINE PER DEPTH STEP
 DLM               .         SPACE                         : DELIMITING CHARACTER(SPACE TAB OR COMMA)
~Well Information
#_______________________________________________________________________________
#
#PARAMETER_NAME    .UNIT     VALUE                         : DESCRIPTION
#_______________________________________________________________________________
STRT               .M        749.69                        : First reference value
STOP               .M        1410.72                       : Last reference value
STEP               .M        0                             : Step increment
NULL               .         -9999                         : Missing value
COMP               .                                       : Company
WELL               .         616                           : Well name
FLD                .                                       : Field
LOC                .                                       : Location
CNTY               .                                       : County
STAT               .                                       : State
CTRY               .                                       : Country
SRVC               .                                       : Service Company
DATE               .                                       : Date
API                .                                       : API number
PROJECT_UPGRADE_TIME .         2021-03-18T21_24_50           : 
group              .         Good                          : 
~Parameter Information Block
#_______________________________________________________________________________
#
#PARAMETER_NAME    .UNIT     VALUE                         : DESCRIPTION
#_______________________________________________________________________________
SET                .         D0928                         : 
NPR                .         210404                        : ЗАВ НОМЕР ПРИБОРА
NPRT               .         Каштанов                      : НАЧ ПАРТИИ
PROJECT_UPGRADE_TIME .         2021-03-18T21_24_49           : 
TLFamily_AZIMUTH   .         True Dip Azimuth              : 
TLFamily_DEPTH     .         Measured Depth                : 
TLFamily_DRILL     .                                       : 
TLFamily_METKA     .                                       : 
TLFamily_ZENIT     .                                       : 
group              .         prim                          : 
~Curve Information
#_______________________________________________________________________________
#
#LOGNAME           .UNIT     LOG_ID                        : DESCRIPTION
#_______________________________________________________________________________
DEPTH              .M                                      : 1 ГЛУБИНА 
AZIMUTH            .ГРАД                                   : 4 АЗИМУТ 
DRILL              .ГРАД                                   : 2 ПОВОРОТ 
METKA              .                                       : 5 МАГН МЕТКА 
ZENIT              .ГРАД                                   : 3 ЗЕНИТ 
~Ascii
# ...
950.37     4.87       142.59     0          31.06     
950.57     5.95       142.64     0          31.04     
950.76     5.25       142.69     0          31.05     
950.95     5.2        142.71     0          31.03     
951.15     8.33       142.74     0          31.01     
951.34     9.48       142.73     0          31.01     
951.54     9.44       142.66     0          31.01     
951.73     7.27       142.5      0          31.02     
951.92     8.38       142.25     0          30.99     
952.12     7.42       142.11     0          31.01     
952.31     9.36       142.09     0          30.99     
952.51     10.38      142.11     0          31        
952.7      12.67      142.14     0          30.99     
952.89     13.45      142.19     0          31        
953.09     15.32      142.22     0          31.01     
953.28     16.53      142.25     0          30.99     
953.48     16.02      142.28     0          31        
953.67     11.33      142.38     0          30.98     
953.87     9.09       142.48     0          31        
954.06     7.19       142.57     0          31        
954.25     5.56       142.62     0          30.96     
954.45     6.38       142.66     0          30.97     
954.64     6.26       142.76     0          30.93     
954.83     6.72       142.88     0          30.94     
955.03     5.71       143.02     0          30.92     
955.22     7.11       143.17     0          30.91     
955.42     8.01       143.26     0          30.88     
955.61     10.5       143.28     0          30.86     
955.8      12.2       143.28     0          30.87     
956        12.52      143.31     0          30.85     
956.19     12.15      143.36     0          30.86     
956.39     12.28      143.43     0          30.85     
956.58     12.27      143.61     0          30.86     
956.78     11.13      144.07     0          30.83     
956.97     9.62       144.77     0          30.85     
957.16     9.08       145.63     0          30.87     
957.36     9.63       146.69     0          30.83     
957.55     11.27      147.97     0          30.89     
957.75     11.19      149.51     0          30.84     
957.94     11.65      151.06     0          30.87     
958.14     10.82      152.62     0          30.85     
958.33     10.34      154.35     0          30.84     
958.52     9.62       156.25     0          30.89     
958.72     8.41       158.35     0          30.86     
958.91     7.84       160.69     0          30.9      
959.1      7.79       163.29     0          30.95     
959.3      7.71       166.1      0          30.89     
959.49     9.56       169.04     0          30.97     
959.69     9.05       172.22     0          30.9      
959.88     8.05       175.68     0          30.93     
960.08     9.01       179.27     0          30.9      
960.27     9.79       182.54     0          30.91     
960.46     7.81       185.06     0          30.75     
960.66     7.29       186.89     0          30.8      
960.85     9.71       188.21     0          30.82     
961.05     8.72       189.27     0          30.8      
961.24     8.2        190.09     0          30.88     
961.44     7.51       190.26     0          30.91     
961.63     6.99       189.82     0          30.9      
961.82     5.82       188.75     0          31.02     
962.02     7.78       186.97     0          30.95     
962.21     8.58       184.44     0          31.05     
962.41     8.35       180.67     0          30.99     
962.6      9.86       174.27     0          31.07     
962.79     9.8        164.36     0          31.06     
962.99     10.09      151.54     0          31.01     
963.18     9.58       137.29     0          31.09     
963.38     10.1       123.71     0          30.96     
963.57     8.63       112.35     0          31.08     
963.76     9.16       103.97     0          30.95     
963.96     8.62       98.1       0          31.01     
964.15     8.1        94.47      0          30.96     
964.35     7.33       92.62      0          30.95     
964.54     8.24       91.72      0          30.96     
964.74     7.3        91.45      0          30.94     
964.93     7          91.7       0          30.89     
965.12     7.06       92.31      0          30.94     
965.32     6.79       93.09      0          30.88     
965.51     6.71       94.21      0          30.93     
965.71     7.84       96.11      0          30.93     
965.9      6.97       98.84      0          30.97     
966.09     4.64       102.32     0          30.97     
966.29     6.55       106.14     0          31.13     
966.48     6.45       109.86     0          31.08     
966.68     5.73       113.35     0          31.09     
966.87     5.16       116.61     0          31.08     
967.07     5.74       119.69     0          31.03     
967.26     4.09       122.49     0          31        
967.45     3.73       124.98     0          31.03     
967.65     3.64       127.22     0          30.92     
967.84     1.6        129.23     0          30.98     
968.04     0.09       131.02     0          30.92     
968.23     0.12       132.69     0          30.94     
968.43     359.76     134.29     0          30.95     
968.62     358.78     135.71     0          30.93     
968.81     358.7      136.94     0          31.01     
969.01     358.68     138.03     0          30.98     
969.2      358.46     139.01     0          31.05     
969.4      358.5      139.92     0          31.01     
969.59     358.08     140.76     0          31.08     
969.78     357.32     141.53     0          31.08     
969.98     357.57     142.18     0          31.11     
970.17     357.49     142.55     0          31.12     
970.37     356.95     142.76     0          31.13     
970.56     357.11     142.9      0          31.11     
970.75     357.18     142.99     0          31.13     
970.95     356.66     143.09     0          31.14     
971.14     356.16     143.08     0          31.16     
971.34     356.36     142.95     0          31.17     
971.53     354.74     142.83     0          31.15     
971.72     354.48     142.76     0          31.16     
971.92     354.95     142.71     0          31.14     
972.11     355.26     142.63     0          31.17     
972.31     354.19     142.55     0          31.17     
972.5      353.9      142.5      0          31.18     
972.69     353.43     142.44     0          31.19     
972.89     353.33     142.33     0          31.2      
973.08     353.76     142.2      0          31.22     
973.28     353.54     142.1      0          31.22     
973.47     353.45     142.01     0          31.25     
973.66     353.15     141.93     0          31.27     
973.86     353.81     141.83     0          31.29     
974.05     352.54     141.68     0          31.33     
974.24     351.4      141.51     0          31.35     
974.44     350.5      141.36     0          31.38     
974.63     348.18     141.23     0          31.36     
974.82     347.49     141.09     0          31.37     
975.02     344.71     140.98     0          31.37     
975.21     342.65     140.89     0          31.39     
975.4      340.84     140.76     0          31.38     
975.6      338.64     140.58     0          31.38     
975.79     335.7      140.3      0          31.38     
975.99     332.74     140        0          31.34     
976.18     331.29     139.69     0          31.38     
976.37     330.21     139.41     0          31.37     
976.57     328.34     139.24     0          31.4      
976.76     326.96     138.99     0          31.39     
976.95     327.23     138.79     0          31.37     
977.14     326.66     138.77     0          31.37     
977.33     326.55     138.8      0          31.37     
977.53     326.21     138.83     0          31.38     
977.72     325.15     138.94     0          31.38     
977.91     323.64     139.14     0          31.37     
978.1      325.07     139.35     0          31.36     
978.3      324.22     139.56     0          31.35     
978.49     324.39     139.8      0          31.34     
