~Version
 VERS              .         2.0                           : CWLS LOG ASCII STANDARD - VERSION 2.0
 WRAP              .         NO                            : ONE LINE PER DEPTH STEP
 DLM               .         SPACE                         : DELIMITING CHARACTER(SPACE TAB OR COMMA)
~Well Information
#_______________________________________________________________________________
#
#PARAMETER_NAME    .UNIT     VALUE                         : DESCRIPTION
#_______________________________________________________________________________
STRT               .M        10.2                          : First reference value
STOP               .M        2757.4                        : Last reference value
STEP               .M        0.2                           : Step increment
NULL               .         -9999                         : Missing value
COMP               .                                       : Company
WELL               .         616                           : Well name
FLD                .                                       : Field
LOC                .                                       : Location
CNTY               .                                       : County
STAT               .                                       : State
CTRY               .                                       : Country
SRVC               .                                       : Service Company
DATE               .                                       : Date
API                .                                       : API number
PROJECT_UPGRADE_TIME .         2021-03-18T21_24_50           : 
group              .         Good                          : 
~Parameter Information Block
#_______________________________________________________________________________
#
#PARAMETER_NAME    .UNIT     VALUE                         : DESCRIPTION
#_______________________________________________________________________________
SET                .         D7016_D                       : 
OTHER              .         Kedr.exe версия 2.1.2.32      : 
OTHER_10           .         TM.GRD = 0.00404*TM$.UE + 0.07: 
OTHER_11           .         MN.ATM = (6.33279e-006*TM.GRD + 0.02401)*(MN$.UE + 2.72*TM.GRD + -2018): 
OTHER_12           .         GK.MKR/H = GK$.UE / 43.5489 + 0: 
OTHER_13           .         RES.SM = 0.00476*CRES.UE - 1.51709: 
OTHER_14           .         PL.GSM3 = 0 + 0 * (PL.UE / 1) +  0 * (PL.UE / 1)^2: 
OTHER_15           .         Постоянная времени ГГП = 6 сек: 
OTHER_16           .         Постоянная времени ГК = 6 сек : 
OTHER_2            .         KedrData.dll версия 3.2.2.14  : 
OTHER_3            .         LasInf.dll версия 3.2.0.13    : 
OTHER_4            .         Драйвер версия 1.2.0.5        : 
OTHER_5            .         Прибор_ КСА-M1                : 
OTHER_6            .         Номер прибора_ 155+р204       : 
OTHER_7            .         Режим_ КСА-М1 + ГГП + Резистивиметр: 
OTHER_8            .         Форма_ 223\2                  : 
OTHER_9            .         Тарировки_                    : 
PROJECT_UPGRADE_TIME .         2021-03-18T21_24_50           : 
TLFamily_CRES      .                                       : 
TLFamily_DEPT      .         Measured Depth                : 
TLFamily_GK        .         Gamma Ray                     : 
TLFamily_GK$       .                                       : 
TLFamily_LM        .         Casing Collar locator         : 
TLFamily_METKA     .                                       : 
TLFamily_MN        .                                       : 
TLFamily_MN$       .                                       : 
TLFamily_PL        .                                       : 
TLFamily_PL_2      .                                       : 
TLFamily_RCOR      .                                       : 
TLFamily_RES       .         Mud Resistivity               : 
TLFamily_SPID      .         Spontaneous Potential         : 
TLFamily_STD       .                                       : 
TLFamily_TIME      .         Time                          : 
TLFamily_TM        .         Temperature                   : 
TLFamily_TM$       .         Temperature                   : 
TLFamily_VGD       .         Gas Volume                    : 
group              .         prim                          : 
~Curve Information
#_______________________________________________________________________________
#
#LOGNAME           .UNIT     LOG_ID                        : DESCRIPTION
#_______________________________________________________________________________
DEPT               .M                                      : 1 Глубина, м -    0.0 см 
CRES               .UE                                     : 9 Проводимость, усл.ед. -  270.0 см 
GK                 .MKR/H                                  : 16 Гамма-активность, мкр./ч -  106.0 см 
GK$                .UE                                     : 13 Гамма-активность, усл.ед. -  106.0 см 
LM                 .                                       : 11 Локатор муфт,  -   16.0 см 
METKA              .                                       : 3 Метки,  -    0.0 см 
MN                 .ATM                                    : 15 Давление, атм. -  160.0 см 
MN$                .UE                                     : 7 Давление, усл.ед. -  160.0 см 
PL                 .UE                                     : 10 Плотность, усл.ед. -  270.0 см 
PL_2               .GSM3                                   : 18 Плотность, г./см3 -  270.0 см 
RCOR               .CM/KM                                  : 5 Коррекция по ролику, см/км -    0.0 см 
RES                .SM                                     : 17 Проводимость,  -  270.0 см 
SPID               .M/H                                    : 2 Скорость, м/час -    0.0 см 
STD                .                                       : 12 Приток,  -  170.0 см 
TIME               .S                                      : 4 Время, сек -    0.0 см 
TM                 .GRD                                    : 14 Температура, °C -  180.0 см 
TM$                .UE                                     : 6 Температура, усл.ед. -  180.0 см 
VGD                .                                       : 8 Влагомер,  -  170.0 см 
~Ascii
# ...
1838.8     1364       8.36       364        1938       0          164.118    8607       14         0          0          4.9758     1660       10734      5629.54    54.891     13569      6596      
1839       1364       8.36       364        1382       0          164.145    8608       14         0          0          4.9743     1693       10734      5629.96    54.893     13570      6604      
1839.2     1364       8.36       364        1347       0          164.136    8607       14         0          0          4.9742     1730       10734      5630.4     54.895     13571      6602      
1839.4     1364       8.36       364        1209       0          164.173    8609       14         0          0          4.9755     1641       10735      5630.83    54.897     13571      6597      
1839.6     1365       8.36       364        1442       0          164.202    8610       14         0          0          4.9798     1701       10735      5631.27    54.904     13573      6593      
1839.8     1360       8.36       364        1248       0          164.229    8611       14         0          0          4.9565     1730       10737      5631.7     54.905     13573      6592      
1840       1363       8.36       364        901        0          164.234    8611       14         0          0          4.9711     1664       10736      5632.12    54.913     13575      6599      
1840.2     1364       8.36       364        953        1          164.246    8612       14         0          0          4.9776     1660       10737      5632.76    54.913     13575      6598      
1840.4     1366       8.36       364        843        0          164.25     8612       14         0          0          4.9865     1614       10738      5633.21    54.915     13576      6595      
1840.6     1367       8.36       364        735        0          164.279    8613       14         0          0          4.9898     1651       10738      5633.64    54.921     13577      6599      
1840.8     1366       8.36       364        609        0          164.279    8613       13         0          0          4.9873     1660       10739      5634.08    54.923     13577      6590      
1841       1365       8.36       363        617        0          164.313    8614       14         0          0          4.9819     1660       10740      5634.5     54.925     13578      6591      
1841.2     1365       8.35       363        529        0          164.348    8616       14         0          0          4.9803     1660       10740      5634.95    54.931     13579      6598      
1841.4     1366       8.35       363        512        0          164.353    8616       14         0          0          4.9845     1660       10741      5635.39    54.936     13581      6592      
1841.6     1365       8.34       363        426        0          164.377    8617       14         0          0          4.9806     1635       10741      5635.82    54.937     13581      6585      
1841.8     1365       8.34       363        530        0          164.394    8618       14         0          0          4.9803     1633       10744      5636.27    54.945     13583      6605      
1842       1364       8.34       363        515        0          164.422    8619       13         0          0          4.9755     1660       10743      5636.7     54.949     13584      6592      
1842.2     1364       8.34       363        678        0          164.428    8619       13         0          0          4.9755     1660       10744      5637.14    54.952     13585      6599      
1842.4     1365       8.34       363        880        0          164.452    8620       14         0          0          4.9787     1660       10745      5637.56    54.957     13586      6608      
1842.6     1366       8.34       363        641        0          164.478    8621       14         0          0          4.9831     1660       10746      5638.01    54.961     13587      6603      
1842.8     1365       8.34       363        543        0          164.483    8621       13         0          0          4.9803     1660       10746      5638.43    54.966     13588      6607      
1843       1365       8.32       358        633        0          164.511    8622       14         0          0          4.9811     1660       10748      5638.86    54.97      13589      6610      
1843.2     1366       8.25       348        822        0          164.538    8623       14         0          0          4.9851     1660       10747      5639.32    54.974     13590      6610      
1843.4     1366       8.2        348        777        0          164.552    8624       14         0          0          4.9832     1632       10750      5639.76    54.974     13590      6604      
1843.6     1366       8.15       348        4728       0          164.569    8625       14         0          0          4.9851     1635       10750      5640.2     54.976     13591      6607      
1843.8     1367       8.12       348        4333       0          164.597    8626       14         0          0          4.9898     1660       10750      5640.62    54.983     13592      6605      
1844       1367       8.09       348        2904       0          164.603    8626       14         0          0          4.9898     1660       10751      5641.08    54.989     13594      6599      
1844.2     1367       8.07       348        2138       0          164.628    8627       13         0          0          4.9898     1606       10752      5641.51    54.99      13594      6602      
1844.4     1366       8.06       350        1275       0          164.652    8628       14         0          0          4.9851     1600       10752      5641.98    54.998     13596      6607      
1844.6     1366       8.06       350        1442       0          164.657    8628       14         0          0          4.9851     1613       10752      5642.42    54.998     13596      6608      
1844.8     1366       8.05       350        1214       0          164.677    8629       15         0          0          4.9861     1660       10753      5642.85    54.999     13596      6605      
1845       1367       8.05       350        1104       0          164.7      8630       14         0          0          4.9882     1660       10755      5643.29    55.002     13597      6604      
1845.2     1366       8.05       350        1041       0          164.713    8630       14         0          0          4.9872     1627       10758      5643.74    55.006     13598      6611      
1845.4     1366       8.05       350        1371       0          164.719    8631       14         0          0          4.9872     1640       10757      5644.17    55.015     13600      6607      
1845.6     1367       8.04       350        1310       0          164.747    8632       13         0          0          4.9911     1660       10757      5644.63    55.015     13600      6610      
1845.8     1367       8.04       350        1096       0          164.774    8633       14         0          0          4.9909     1603       10759      5645.06    55.017     13601      6607      
1846       1367       8.04       350        903        0          164.779    8633       13         0          0          4.9898     1660       10759      5645.5     55.018     13601      6602      
1846.2     1369       8.04       350        707        0          164.801    8634       13         0          0          4.9991     1647       10760      5645.94    55.023     13602      6599      
1846.4     1368       8          340        652        0          164.809    8634       14         0          0          4.9946     1618       10760      5646.38    55.027     13603      6598      
1846.6     1368       7.87       321        665        0          164.837    8635       13         0          0          4.9946     1660       10760      5646.83    55.03      13604      6602      
1846.8     1368       7.76       321        623        0          164.851    8636       15         0          0          4.9946     1660       10762      5647.25    55.032     13604      6593      
