~Version
 VERS              .         2.0                           : CWLS LOG ASCII STANDARD - VERSION 2.0
 WRAP              .         NO                            : ONE LINE PER DEPTH STEP
 DLM               .         SPACE                         : DELIMITING CHARACTER(SPACE TAB OR COMMA)
~Well Information
#_______________________________________________________________________________
#
#PARAMETER_NAME    .UNIT     VALUE                         : DESCRIPTION
#_______________________________________________________________________________
STRT               .M        1149                          : First reference value
STOP               .M        2127.4                        : Last reference value
STEP               .M        0.2                           : Step increment
NULL               .         -9999                         : Missing value
COMP               .                                       : Company
WELL               .         616                           : Well name
FLD                .                                       : Field
LOC                .                                       : Location
CNTY               .                                       : County
STAT               .                                       : State
CTRY               .                                       : Country
SRVC               .                                       : Service Company
DATE               .                                       : Date
API                .                                       : API number
PROJECT_UPGRADE_TIME .         2021-03-18T21_24_50           : 
group              .         Good                          : 
~Parameter Information Block
#_______________________________________________________________________________
#
#PARAMETER_NAME    .UNIT     VALUE                         : DESCRIPTION
#_______________________________________________________________________________
SET                .         616_9                         : 
CONF               .         00                            : 
END                .         0                             : 
ERR                .         0                             : 
GS00               .M        2125.46                       : 
GS01               .M        1146.68                       : 
MM00               .M        2120.00                       : 
NOKG               .         0                             : 
NPR                .         990907                        : 
PART               .         Ивашин                        : 
PROJECT_UPGRADE_TIME .         2021-03-18T21_24_49           : 
PRZK               .         Шакиров                       : 
TLFamily_AZIMUTH   .         True Dip Azimuth              : 
TLFamily_DEPTH     .         Measured Depth                : 
TLFamily_METKA     .                                       : 
TLFamily_ROLL      .                                       : 
TLFamily_SPEED     .         Spontaneous Potential         : 
TLFamily_ZENIT     .                                       : 
VPRG               .         310                           : 
WAY                .         UP                            : 
group              .         prim                          : 
~Curve Information
#_______________________________________________________________________________
#
#LOGNAME           .UNIT     LOG_ID                        : DESCRIPTION
#_______________________________________________________________________________
DEPTH              .M                                      :  
AZIMUTH            .DEG                                    :  
METKA              .                                       :  
ROLL               .DEG                                    :  
SPEED              .M/H                                    :  
ZENIT              .DEG                                    :  
~Ascii
# ...
1783.4     324.56     0          119.51     684        19.58     
1783.6     316.78     0          131.67     648        19.36     
1783.8     301.72     0          142.03     648        19.56     
1784       332.51     0          148.97     684        19.91     
1784.2     330.44     0          154.1      648        19.65     
1784.4     332.53     0          157.61     648        19.74     
1784.6     314.38     0          159.46     684        19.59     
1784.8     316.52     0          161.68     648        19.52     
1785       311.27     0          163.67     648        19.7      
1785.2     324.4      0          164.65     648        19.4      
1785.4     322.97     0          166.97     684        19.71     
1785.6     330.68     0          170.75     648        19.66     
1785.8     305        0          174.63     684        19.45     
1786       319.64     0          180.48     648        19.68     
1786.2     312.19     0          189.6      648        19.52     
1786.4     314.25     0          202.66     648        19.25     
1786.6     317.33     0          216.34     684        19.44     
1786.8     329.32     0          228.92     648        19.43     
1787       317.24     0          239.41     648        19.6      
1787.2     330.92     0          245.58     684        19.85     
1787.4     310.33     0          249.58     648        19.64     
1787.6     313.31     0          252.89     684        19.91     
1787.8     340.74     0          256.13     648        19.86     
1788       218.88     0          260.61     648        19.68     
1788.2     351.8      0          266.92     684        19.93     
1788.4     343.1      0          274.61     648        20.05     
1788.6     6.92       0          282.98     684        20.03     
1788.8     342.54     0          290.38     648        20.09     
1789       342.85     0          296.12     648        19.87     
1789.2     334.36     0          300.49     684        20        
1789.4     346.88     0          304.62     648        19.82     
1789.6     315.82     0          307.19     648        19.83     
1789.8     2.17       0          308.73     648        19.8      
1790       342.42     0          310.9      684        19.85     
1790.2     322.36     0          314.31     648        19.89     
1790.4     357.8      0          318.12     648        19.85     
1790.6     14.93      0          321.75     684        19.82     
1790.8     0.59       0          324.24     648        19.8      
1791       0.26       0          326.43     648        19.78     
1791.2     6.34       0          328.33     684        19.87     
1791.4     24.84      0          329.35     648        19.71     
1791.6     9.14       0          330.16     648        19.85     
1791.8     15.04      0          331.8      648        19.83     
1792       351.37     1          333.66     648        19.63     
1792.2     32.33      0          338.75     216        19.92     
1792.4     159.63     0          352.31     684        18.38     
1792.6     349.7      0          6.98       648        20.06     
1792.8     0.79       0          19.91      648        19.64     
1793       344.41     0          27.63      648        20.06     
1793.2     352.63     0          34.11      684        19.69     
1793.4     36.49      0          42.59      648        19.84     
1793.6     114.95     0          54.6       648        19.82     
1793.8     146.38     0          69.83      648        20.17     
1794       180        0          86.29      648        20.39     
1794.2     180        0          104.9      684        20.47     
1794.4     78.62      0          123.2      648        19.97     
1794.6     42.6       0          137.35     648        19.72     
1794.8     45.8       0          147.08     684        19.38     
1795       34.73      0          155.54     684        19.2      
1795.2     318.18     0          163.96     648        19.13     
1795.4     347.04     0          173.3      648        18.99     
1795.6     325.38     0          182.66     648        19.09     
1795.8     320.86     0          193.62     648        18.88     
1796       321.24     0          207.16     684        19        
1796.2     332        0          222.29     648        19.28     
1796.4     318.89     0          234.1      648        19.47     
1796.6     295.61     0          240.53     648        19.4      
1796.8     335.37     0          244.51     684        19.59     
1797       300.31     0          248.43     648        19.53     
1797.2     318.38     0          253.23     648        19.59     
1797.4     306.07     0          258.36     648        19.74     
1797.6     298.59     0          262.1      648        19.83     
1797.8     297.44     0          265.61     612        19.78     
1798       327.64     0          272.11     648        19.81     
1798.2     343.49     0          280.31     648        19.95     
1798.4     320.77     0          289.19     648        20.08     
1798.6     340.72     0          299.68     648        20        
1798.8     324.81     0          308.82     648        20.09     
1799       5.69       0          316.11     648        19.87     
1799.2     333.37     0          320.18     648        19.94     
1799.4     329.68     0          322.59     648        19.81     
1799.6     329.15     0          324.6      648        19.81     
1799.8     352.26     0          325.46     612        19.85     
1800       336.54     0          325.45     648        19.74     
1800.2     337.89     0          325.03     648        19.81     
1800.4     354.05     0          324.35     648        19.92     
1800.6     353.87     0          324.77     648        19.83     
1800.8     351.24     0          325.23     648        19.9      
1801       342.29     0          325.25     612        19.81     
1801.2     354.44     0          325.29     648        19.84     
1801.4     296.19     0          325.36     648        19.78     
1801.6     317.54     0          325.31     648        19.75     
1801.8     326.75     0          324.39     648        19.79     
1802       322.37     0          323.61     648        19.74     
1802.2     350.31     1          323.81     576        19.77     
1802.4     334.44     0          323.89     648        19.72     
1802.6     316.68     0          323.97     648        19.76     
1802.8     339.33     0          324        648        19.74     
1803       314.58     0          324.1      648        19.8      
1803.2     337.22     0          324.22     612        19.74     
1803.4     333.26     0          323.96     648        19.73     
1803.6     340.33     0          323.61     684        19.76     
1803.8     184.25     0          323.4      612        19.64     
1804       236.16     0          323.21     648        19.78     
1804.2     180        0          323.03     648        19.75     
1804.4     180        0          323        648        19.7      
1804.6     180        0          323.75     648        19.84     
1804.8     288.68     0          324.85     648        19.73     
1805       306.87     0          324.63     648        19.82     
1805.2     345.45     0          323.6      612        20.05     
1805.4     352.65     0          323.24     648        20.09     
1805.6     354.63     0          323.07     648        20.02     
1805.8     351.88     0          322.35     648        20.07     
1806       348.78     0          321.37     648        20.21     
1806.2     3.08       0          320.83     648        20.1      
1806.4     351.48     0          321.19     648        19.77     
1806.6     354.77     0          321.38     648        19.63     
1806.8     13.81      0          321.77     648        19.49     
1807       5.57       0          321.97     648        19.44     
1807.2     15.92      0          322.11     648        19.24     
1807.4     337.33     0          321.95     648        19.11     
1807.6     308.18     0          321.58     648        19.26     
