~Version
 VERS              .         2.0                           : CWLS LOG ASCII STANDARD - VERSION 2.0
 WRAP              .         NO                            : ONE LINE PER DEPTH STEP
 DLM               .         SPACE                         : DELIMITING CHARACTER(SPACE TAB OR COMMA)
~Well Information
#_______________________________________________________________________________
#
#PARAMETER_NAME    .UNIT     VALUE                         : DESCRIPTION
#_______________________________________________________________________________
STRT               .M        10.2                          : First reference value
STOP               .M        2757.4                        : Last reference value
STEP               .M        0.2                           : Step increment
NULL               .         -9999                         : Missing value
COMP               .                                       : Company
WELL               .         616                           : Well name
FLD                .                                       : Field
LOC                .                                       : Location
CNTY               .                                       : County
STAT               .                                       : State
CTRY               .                                       : Country
SRVC               .                                       : Service Company
DATE               .                                       : Date
API                .                                       : API number
PROJECT_UPGRADE_TIME .         2021-03-18T21_24_50           : 
group              .         Good                          : 
~Parameter Information Block
#_______________________________________________________________________________
#
#PARAMETER_NAME    .UNIT     VALUE                         : DESCRIPTION
#_______________________________________________________________________________
SET                .         D7016_D                       : 
OTHER              .         Kedr.exe версия 2.1.2.32      : 
OTHER_10           .         TM.GRD = 0.00404*TM$.UE + 0.07: 
OTHER_11           .         MN.ATM = (6.33279e-006*TM.GRD + 0.02401)*(MN$.UE + 2.72*TM.GRD + -2018): 
OTHER_12           .         GK.MKR/H = GK$.UE / 43.5489 + 0: 
OTHER_13           .         RES.SM = 0.00476*CRES.UE - 1.51709: 
OTHER_14           .         PL.GSM3 = 0 + 0 * (PL.UE / 1) +  0 * (PL.UE / 1)^2: 
OTHER_15           .         Постоянная времени ГГП = 6 сек: 
OTHER_16           .         Постоянная времени ГК = 6 сек : 
OTHER_2            .         KedrData.dll версия 3.2.2.14  : 
OTHER_3            .         LasInf.dll версия 3.2.0.13    : 
OTHER_4            .         Драйвер версия 1.2.0.5        : 
OTHER_5            .         Прибор_ КСА-M1                : 
OTHER_6            .         Номер прибора_ 155+р204       : 
OTHER_7            .         Режим_ КСА-М1 + ГГП + Резистивиметр: 
OTHER_8            .         Форма_ 223\2                  : 
OTHER_9            .         Тарировки_                    : 
PROJECT_UPGRADE_TIME .         2021-03-18T21_24_50           : 
TLFamily_CRES      .                                       : 
TLFamily_DEPT      .         Measured Depth                : 
TLFamily_GK        .         Gamma Ray                     : 
TLFamily_GK$       .                                       : 
TLFamily_LM        .         Casing Collar locator         : 
TLFamily_METKA     .                                       : 
TLFamily_MN        .                                       : 
TLFamily_MN$       .                                       : 
TLFamily_PL        .                                       : 
TLFamily_PL_2      .                                       : 
TLFamily_RCOR      .                                       : 
TLFamily_RES       .         Mud Resistivity               : 
TLFamily_SPID      .         Spontaneous Potential         : 
TLFamily_STD       .                                       : 
TLFamily_TIME      .         Time                          : 
TLFamily_TM        .         Temperature                   : 
TLFamily_TM$       .         Temperature                   : 
TLFamily_VGD       .         Gas Volume                    : 
group              .         prim                          : 
~Curve Information
#_______________________________________________________________________________
#
#LOGNAME           .UNIT     LOG_ID                        : DESCRIPTION
#_______________________________________________________________________________
DEPT               .M                                      : 1 Глубина, м -    0.0 см 
CRES               .UE                                     : 9 Проводимость, усл.ед. -  270.0 см 
GK                 .MKR/H                                  : 16 Гамма-активность, мкр./ч -  106.0 см 
GK$                .UE                                     : 13 Гамма-активность, усл.ед. -  106.0 см 
LM                 .                                       : 11 Локатор муфт,  -   16.0 см 
METKA              .                                       : 3 Метки,  -    0.0 см 
MN                 .ATM                                    : 15 Давление, атм. -  160.0 см 
MN$                .UE                                     : 7 Давление, усл.ед. -  160.0 см 
PL                 .UE                                     : 10 Плотность, усл.ед. -  270.0 см 
PL_2               .GSM3                                   : 18 Плотность, г./см3 -  270.0 см 
RCOR               .CM/KM                                  : 5 Коррекция по ролику, см/км -    0.0 см 
RES                .SM                                     : 17 Проводимость,  -  270.0 см 
SPID               .M/H                                    : 2 Скорость, м/час -    0.0 см 
STD                .                                       : 12 Приток,  -  170.0 см 
TIME               .S                                      : 4 Время, сек -    0.0 см 
TM                 .GRD                                    : 14 Температура, °C -  180.0 см 
TM$                .UE                                     : 6 Температура, усл.ед. -  180.0 см 
VGD                .                                       : 8 Влагомер,  -  170.0 см 
~Ascii
# ...
2380       1455       10.28      448        98         0          216.385    10727      14         0          0          5.4082     1657       11709      6819.46    59.898     14809      6666      
2380.2     1454       10.28      448        113        1          216.404    10728      14         0          0          5.405      1660       11710      6820.1     59.894     14808      6667      
2380.4     1454       10.28      448        91         0          216.412    10728      13         0          0          5.4047     1660       11709      6820.52    59.893     14808      6666      
2380.6     1453       10.28      448        82         0          216.438    10729      14         0          0          5.4        1660       11708      6820.96    59.889     14807      6645      
2380.8     1454       10.24      437        81         0          216.451    10730      14         0          0          5.4063     1610       11709      6821.4     59.885     14806      6659      
2381       1454       10.15      427        81         0          216.466    10731      14         0          0          5.4039     1600       11708      6821.85    59.88      14804      6644      
2381.2     1454       10.05      427        76         0          216.493    10732      14         0          0          5.4039     1657       11708      6822.29    59.878     14804      6644      
2381.4     1454       10         427        79         0          216.499    10732      14         0          0          5.4039     1600       11709      6822.71    59.875     14803      6622      
2381.6     1454       9.96       427        94         0          216.522    10733      14         0          0          5.4039     1613       11709      6823.16    59.874     14803      6620      
2381.8     1454       9.96       434        76         0          216.56     10735      14         0          0          5.4039     1660       11709      6823.6     59.874     14803      6625      
2382       1453       9.99       441        69         0          216.572    10735      14         0          0          5.3982     1660       11709      6824.04    59.87      14802      6650      
2382.2     1451       10.02      441        80         0          216.589    10736      14         0          0          5.3913     1660       11709      6824.47    59.87      14802      6651      
2382.4     1453       10.04      441        89         0          216.617    10737      14         0          0          5.3979     1623       11708      6824.92    59.867     14801      6640      
2382.6     1452       10.06      441        289        0          216.643    10738      14         0          0          5.3963     1641       11706      6825.35    59.869     14802      6661      
2382.8     1452       10.07      441        1753       0          216.645    10738      14         0          0          5.3944     1660       11705      6825.79    59.866     14801      6661      
2383       1454       10.06      436        6733       0          216.671    10739      14         0          0          5.4037     1660       11703      6826.21    59.862     14800      6662      
2383.2     1453       10.05      436        2561       0          216.692    10740      14         0          0          5.3992     1660       11702      6826.65    59.862     14800      6661      
2383.4     1453       10.04      436        2561       0          216.708    10741      14         0          0          5.3992     1660       11701      6827.1     59.858     14799      6659      
2383.6     1453       10.04      436        1003       0          216.741    10742      13         0          0          5.401      1660       11699      6827.52    59.857     14799      6658      
2383.8     1454       10.03      436        638        0          216.753    10743      14         0          0          5.4039     1660       11699      6827.96    59.854     14798      6659      
2384       1454       10.03      436        409        0          216.78     10744      14         0          0          5.4039     1660       11698      6828.39    59.854     14798      6659      
2384.2     1454       9.96       421        281        0          216.805    10745      14         0          0          5.4039     1660       11695      6828.83    59.851     14797      6662      
2384.4     1455       9.85       410        201        0          216.812    10745      14         0          0          5.4076     1660       11699      6829.27    59.847     14796      6655      
2384.6     1453       9.76       410        171        0          216.831    10746      14         0          0          5.4002     1660       11697      6829.7     59.843     14795      6658      
2384.8     1455       9.69       410        152        0          216.859    10747      14         0          0          5.4082     1660       11695      6830.13    59.839     14794      6657      
2385       1455       9.63       410        171        0          216.86     10747      14         0          0          5.4084     1660       11694      6830.56    59.838     14794      6660      
2385.2     1454       9.59       411        147        0          216.885    10748      14         0          0          5.4039     1660       11693      6831.01    59.834     14793      6646      
2385.4     1454       9.61       422        117        0          216.908    10749      14         0          0          5.4039     1660       11693      6831.44    59.83      14792      6650      
2385.6     1454       9.63       422        70         0          216.915    10749      14         0          0          5.4039     1660       11693      6831.88    59.83      14792      6657      
2385.8     1454       9.64       422        56         0          216.941    10750      14         0          0          5.4039     1660       11692      6832.31    59.826     14791      6640      
2386       1454       9.65       422        55         0          216.967    10751      14         0          0          5.4039     1660       11692      6832.73    59.818     14789      6633      
2386.2     1453       9.66       422        49         0          216.993    10753      14         0          0          5.4014     1675       11693      6833.15    59.816     14789      6621      
2386.4     1453       9.63       414        47         0          217.004    10753      14         0          0          5.3992     1730       11693      6833.58    59.814     14788      6652      
2386.6     1453       9.58       408        58         0          217.02     10754      13         0          0          5.3992     1730       11692      6834.01    59.814     14788      6639      
2386.8     1454       9.53       408        59         0          217.048    10755      14         0          0          5.4032     1702       11692      6834.43    59.811     14787      6658      
2387       1454       9.5        408        64         0          217.074    10756      14         0          0          5.4039     1691       11691      6834.85    59.809     14787      6661      
2387.2     1455       9.47       408        54         0          217.076    10756      14         0          0          5.4087     1730       11691      6835.28    59.809     14787      6662      
2387.4     1454       9.45       408        51         0          217.102    10757      14         0          0          5.4034     1687       11691      6835.71    59.805     14786      6662      
2387.6     1453       9.44       409        52         0          217.124    10758      14         0          0          5.3999     1660       11691      6836.14    59.805     14786      6662      
2387.8     1454       9.43       409        50         0          217.129    10758      14         0          0          5.4039     1712       11690      6836.57    59.801     14785      6661      
2388       1454       9.42       409        55         0          217.155    10759      14         0          0          5.4039     1730       11690      6837       59.801     14785      6663      
