~Version
 VERS              .         2.0                           : CWLS LOG ASCII STANDARD - VERSION 2.0
 WRAP              .         NO                            : ONE LINE PER DEPTH STEP
 DLM               .         SPACE                         : DELIMITING CHARACTER(SPACE TAB OR COMMA)
~Well Information
#_______________________________________________________________________________
#
#PARAMETER_NAME    .UNIT     VALUE                         : DESCRIPTION
#_______________________________________________________________________________
STRT               .M        2671                          : First reference value
STOP               .M        2773.4                        : Last reference value
STEP               .M        0.1999998                     : Step increment
NULL               .         -9999                         : Missing value
COMP               .                                       : Company
WELL               .         616                           : Well name
FLD                .                                       : Field
LOC                .                                       : Location
CNTY               .                                       : County
STAT               .                                       : State
CTRY               .                                       : Country
SRVC               .                                       : Service Company
DATE               .                                       : Date
API                .                                       : API number
PROJECT_UPGRADE_TIME .         2021-03-18T21_24_50           : 
group              .         Good                          : 
~Parameter Information Block
#_______________________________________________________________________________
#
#PARAMETER_NAME    .UNIT     VALUE                         : DESCRIPTION
#_______________________________________________________________________________
SET                .         D0402_D                       : 
OTHER              .         Kedr.exe версия 2.1.2.32      : 
OTHER_10           .         TM.GRD = 0.00379*TM$.UE + 7.11: 
OTHER_11           .         MN.ATM = (8e-006*TM.GRD + 0.02)*(MN$.UE + -8*TM.GRD + -1800): 
OTHER_12           .         GK.MKR/H = GK$.UE / 57.17 + 0 : 
OTHER_2            .         KedrData.dll версия 3.2.2.14  : 
OTHER_3            .         LasInf.dll версия 3.2.0.13    : 
OTHER_4            .         Драйвер версия 1.2.0.4        : 
OTHER_5            .         Прибор_ АКП4_90               : 
OTHER_6            .         Номер прибора_ 56             : 
OTHER_7            .         Режим_ АКП4_90 - все каналы   : 
OTHER_8            .         Форма_ Г-1                    : 
OTHER_9            .         Тарировки_                    : 
PROJECT_UPGRADE_TIME .         2021-03-18T21_24_49           : 
TLFamily_DEPT      .         Measured Depth                : 
TLFamily_GK        .         Gamma Ray                     : 
TLFamily_GK$       .                                       : 
TLFamily_LM        .         Casing Collar locator         : 
TLFamily_METKA     .                                       : 
TLFamily_METKA_1   .                                       : 
TLFamily_MN        .                                       : 
TLFamily_MN$       .                                       : 
TLFamily_RCOR      .                                       : 
TLFamily_SPID      .         Spontaneous Potential         : 
TLFamily_TIME      .         Time                          : 
TLFamily_TM        .         Temperature                   : 
TLFamily_TM$       .         Temperature                   : 
group              .         second                        : 
~Curve Information
#_______________________________________________________________________________
#
#LOGNAME           .UNIT     LOG_ID                        : DESCRIPTION
#_______________________________________________________________________________
DEPT               .M                                      : 1 Глубина, м -    0.0 см 
GK                 .MKR/H                                  : 12 Гамма-активность, мкр./ч -   65.0 см 
GK$                .UE                                     : 9 Гамма-активность, усл.ед. -   65.0 см 
LM                 .                                       : 8 Локатор муфт,  -   30.0 см 
METKA              .                                       : 3 Метки,  -    0.0 см 
METKA_1            .                                       : 13 Маркеры - 65 см 
MN                 .ATM                                    : 11 Давление, атм. -  140.0 см 
MN$                .UE                                     : 7 Давление, усл.ед. -  140.0 см 
RCOR               .CM/KM                                  : 5 Коррекция по ролику, см/км -    0.0 см 
SPID               .M/H                                    : 2 Скорость, м/час -    0.0 см 
TIME               .S                                      : 4 Время, сек -    0.0 см 
TM                 .GRD                                    : 10 Температура, °C -  145.0 см 
TM$                .UE                                     : 6 Температура, усл.ед. -  145.0 см 
~Ascii
# ...
2715.8     8.38       486        545        0          0          263.464    15218      0          -320       7765.19    84.338     20377     
2716       8.3        484        492        0          0          263.498    15220      0          -320       7762.76    84.343     20378     
2716.2     8.1        491        473        0          0          263.526    15221      0          -320       7760.48    84.343     20378     
2716.4     7.67       490        466        0          0          263.594    15224      0          -320       7758.24    84.346     20379     
2716.6     6.99       464        432        0          0          263.607    15225      0          -280       7755.98    84.354     20381     
2716.8     6.15       378        405        0          0          263.617    15225      0          -320       7753.6     84.365     20384     
2717       5.85       337        447        0          0          263.596    15224      0          -300       7751.22    84.373     20386     
2717.2     5.8        340        467        0          0          263.596    15224      0          -320       7748.9     84.381     20388     
2717.4     5.67       356        458        0          0          263.621    15226      0          -300       7746.6     84.384     20389     
2717.6     5.18       332        483        0          0          263.654    15227      0          -320       7744.33    84.388     20390     
2717.8     4.62       332        504        0          0          263.698    15230      0          -320       7742.02    84.396     20392     
2718       4.36       267        578        0          0          263.736    15231      0          -320       7739.71    84.403     20394     
2718.2     4.35       246        534        0          0          263.759    15232      0          -320       7737.46    84.411     20396     
2718.4     4.53       230        1744       0          0          263.749    15232      0          -300       7735.12    84.415     20397     
2718.6     4.75       256        5006       0          0          263.741    15232      0          -320       7732.81    84.418     20398     
2718.8     4.91       267        1969       0          0          263.748    15232      0          -305       7730.5     84.422     20399     
2719       5.18       256        449        0          0          263.779    15234      0          -320       7728.18    84.426     20400     
2719.2     5.64       301        440        0          0          263.82     15236      0          -305       7725.87    84.426     20400     
2719.4     5.86       334        452        0          0          263.861    15237      0          -320       7723.65    84.434     20402     
2719.6     5.87       335        589        0          0          263.906    15240      0          -320       7721.33    84.434     20402     
2719.8     5.88       328        510        1          0          263.926    15241      0          -320       7719.03    84.437     20403     
2720       6.01       334        482        0          0          263.902    15239      0          -320       7716.03    84.441     20404     
2720.2     6.12       342        531        0          0          263.907    15240      0          -320       7713.75    84.445     20405     
2720.4     6.19       347        576        0          0          263.916    15240      0          -320       7711.43    84.453     20407     
2720.6     6.2        355        514        0          0          263.958    15242      0          -320       7709.11    84.46      20409     
2720.8     6.26       332        490        0          0          263.973    15243      0          -290       7706.86    84.46      20409     
2721       6.67       335        528        0          0          264.035    15246      0          -320       7704.55    84.464     20410     
2721.2     7.25       343        556        0          0          264.076    15248      0          -320       7702.17    84.464     20410     
2721.4     7.71       396        521        0          0          264.045    15247      0          -320       7699.86    84.468     20411     
2721.6     7.84       457        553        0          0          264.061    15247      0          -320       7697.53    84.479     20414     
2721.8     7.84       442        514        0          1          264.088    15249      0          -320       7695.22    84.49      20417     
2722       7.74       471        434        0          0          264.115    15250      0          -320       7692.98    84.506     20421     
2722.2     7.24       479        565        0          0          264.176    15253      0          -320       7690.66    84.509     20422     
2722.4     6.52       413        425        0          0          264.207    15254      0          -260       7688.33    84.517     20424     
2722.6     6.05       374        524        0          0          264.238    15256      0          -320       7686.09    84.525     20426     
2722.8     5.69       338        564        0          0          264.251    15257      0          -280       7683.77    84.528     20427     
2723       5.52       320        533        0          0          264.251    15257      0          -320       7681.46    84.536     20429     
2723.2     5.46       319        517        0          0          264.23     15256      0          -300       7679.14    84.54      20430     
2723.4     5.35       319        562        0          0          264.247    15257      0          -320       7676.83    84.543     20431     
2723.6     5.15       319        596        0          0          264.267    15258      0          -280       7674.51    84.544     20431     
2723.8     5.07       293        531        0          1          264.298    15259      0          -320       7672.19    84.551     20433     
2724       4.99       295        538        0          0          264.332    15261      0          -320       7669.9     84.551     20433     
2724.2     4.91       287        464        0          0          264.387    15263      0          -320       7667.69    84.555     20434     
2724.4     4.97       268        524        0          0          264.408    15264      0          -320       7665.38    84.559     20435     
2724.6     5.12       287        570        0          0          264.428    15265      0          -320       7663.07    84.562     20436     
2724.8     5.17       293        613        0          0          264.441    15266      0          -320       7660.75    84.569     20438     
2725       5.22       287        666        0          0          264.427    15265      0          -320       7658.42    84.574     20439     
2725.2     5.39       290        617        0          0          264.414    15265      0          -320       7656.12    84.573     20439     
2725.4     5.62       305        558        0          0          264.426    15265      0          -320       7653.8     84.574     20439     
2725.6     5.84       341        593        0          0          264.441    15266      0          -320       7651.47    84.578     20440     
2725.8     5.73       349        585        0          0          264.482    15268      0          -320       7649.17    84.585     20442     
2726       5.4        334        460        0          0          264.524    15270      0          -320       7646.75    84.589     20443     
2726.2     5.37       303        712        0          0          264.605    15274      0          -320       7644.44    84.597     20445     
2726.4     5.45       302        451        0          0          264.646    15276      0          -320       7642.22    84.606     20447     
2726.6     5.39       322        580        0          0          264.645    15276      0          -320       7639.89    84.612     20449     
2726.8     5.34       307        504        0          0          264.666    15277      0          -260       7637.59    84.612     20449     
