~Version
 VERS              .         2.0                           : CWLS LOG ASCII STANDARD - VERSION 2.0
 WRAP              .         NO                            : ONE LINE PER DEPTH STEP
 DLM               .         SPACE                         : DELIMITING CHARACTER(SPACE TAB OR COMMA)
~Well Information
#_______________________________________________________________________________
#
#PARAMETER_NAME    .UNIT     VALUE                         : DESCRIPTION
#_______________________________________________________________________________
STRT               .M        2659.6                        : First reference value
STOP               .M        2769.6                        : Last reference value
STEP               .M        0.2                           : Step increment
NULL               .         -9999                         : Missing value
COMP               .                                       : Company
WELL               .         616                           : Well name
FLD                .                                       : Field
LOC                .                                       : Location
CNTY               .                                       : County
STAT               .                                       : State
CTRY               .                                       : Country
SRVC               .                                       : Service Company
DATE               .                                       : Date
API                .                                       : API number
PROJECT_UPGRADE_TIME .         2021-03-18T21_24_50           : 
group              .         Good                          : 
~Parameter Information Block
#_______________________________________________________________________________
#
#PARAMETER_NAME    .UNIT     VALUE                         : DESCRIPTION
#_______________________________________________________________________________
SET                .         D1162_D                       : 
OTHER              .         Программное обеспечение станции MONITOR-386EX 25/12/99 15_08_10   BGF V52 22/08/01 16_56_30   3.2_BGF_N_3070031: 
OTHER_10           .         Тарировки_                    : 
OTHER_11           .         TM.GRD = 0.00403*TM$.UE + -1.19: 
OTHER_12           .         MN.ATM = (7.1e-006*TM.GRD + 0.02017)*(MN$.UE + -3.03*TM.GRD + -1833): 
OTHER_13           .         Id error                      : 
OTHER_2            .         Kedr.exe версия 3.4.2.51      : 
OTHER_3            .         KedrData.dll версия 3.4.2.24  : 
OTHER_4            .         Драйвер версия 2.1.1.8        : 
OTHER_5            .         Мнемоники версия 3.3 S        : 
OTHER_6            .         Прибор_ КСА-М1                : 
OTHER_7            .         Номер прибора_ 265            : 
OTHER_8            .         Режим_ КСА-М1                 : 
OTHER_9            .         Форма_ ТЕРМОМЕТР              : 
PROJECT_UPGRADE_TIME .         2021-03-18T21_24_49           : 
TLFamily_DEPT      .         Measured Depth                : 
TLFamily_GK        .         Gamma Ray                     : 
TLFamily_GK$       .                                       : 
TLFamily_LM        .         Casing Collar locator         : 
TLFamily_METKA     .                                       : 
TLFamily_MN        .                                       : 
TLFamily_MN$       .                                       : 
TLFamily_RCOR      .                                       : 
TLFamily_SPID      .         Spontaneous Potential         : 
TLFamily_STD       .                                       : 
TLFamily_TENS      .         Cable Tension                 : 
TLFamily_TIME      .         Time                          : 
TLFamily_TM        .         Temperature                   : 
TLFamily_TM$       .         Temperature                   : 
TLFamily_VGD       .         Gas Volume                    : 
group              .         prim                          : 
~Curve Information
#_______________________________________________________________________________
#
#LOGNAME           .UNIT     LOG_ID                        : DESCRIPTION
#_______________________________________________________________________________
DEPT               .M                                      : 1 Глубина, м -    0.0 см 
GK                 .MKR/H                                  : 15 Гамма-активность, мкр./ч -  110.0 см 
GK$                .UE                                     : 12 Гамма-активность, усл.ед. -  110.0 см 
LM                 .                                       : 10 Локатор муфт,  -   20.0 см 
METKA              .                                       : 3 Метки,  -    0.0 см 
MN                 .ATM                                    : 14 Давление, атм. -  160.0 см 
MN$                .UE                                     : 8 Давление, усл.ед. -  160.0 см 
RCOR               .CM/KM                                  : 5 Коррекция по ролику, см/км -    0.0 см 
SPID               .M/H                                    : 2 Скорость, м/час -    0.0 см 
STD                .                                       : 11 Приток,  -  170.0 см 
TENS               .T                                      : 6 Натяжение кабеля, т -    0.0 см 
TIME               .S                                      : 4 Время, сек -    0.0 см 
TM                 .GRD                                    : 13 Температура, °C -  180.0 см 
TM$                .UE                                     : 7 Температура, усл.ед. -  180.0 см 
VGD                .                                       : 9 Влагомер,  -  170.0 см 
~Ascii
# ...
2669.4     5.96       255        1          0          247.378    13997      -1400      606        32071      0          17468.24   87.32      21963      6509      
2669.6     5.99       258        1          0          247.368    13996      -1400      602        32072      0          17469.46   87.323     21964      6509      
2669.8     6.32       277        1          0          247.412    13998      -1400      606        32073      0          17470.64   87.329     21965      6509      
2670       6.43       277        1          2          247.416    13998      -1400      614        32075      0          17471.81   87.333     21966      6510      
2670.2     6.78       299        1          0          247.449    14000      -1400      614        32075      0          17473.11   87.337     21967      6509      
2670.4     6.92       299        1          0          247.469    14001      -1400      602        32078      0          17474.35   87.343     21968      6509      
2670.6     7.05       306        1          0          247.473    14001      -1400      602        32079      0          17475.52   87.35      21970      6510      
2670.8     7.13       306        940        0          247.535    14004      -1400      607        32081      0          17476.7    87.353     21971      6509      
2671       7.28       321        56         0          247.5      14002      -1400      601        32084      0          17477.9    87.356     21972      6509      
2671.2     7.44       321        1          0          247.559    14005      -1400      604        32084      0          17479.09   87.361     21973      6509      
2671.4     7.56       330        1          0          247.559    14005      -1400      607        32089      0          17480.28   87.366     21974      6510      
2671.6     7.67       330        1          0          247.601    14007      -1400      605        32090      0          17481.46   87.373     21976      6509      
2671.8     7.84       343        1          0          247.628    14008      -1400      604        32091      0          17482.61   87.377     21977      6509      
2672       7.96       343        1          0          247.628    14008      -1400      611        32094      0          17483.8    87.381     21978      6509      
2672.2     8.12       357        1          0          247.679    14011      -1400      612        32097      0          17484.94   87.389     21980      6509      
2672.4     8.27       357        1          0          247.658    14010      -1400      609        32098      0          17486.23   87.393     21981      6508      
2672.6     8.35       360        1          0          247.723    14013      -1400      605        32097      0          17487.34   87.397     21982      6508      
2672.8     8.46       364        1          0          247.702    14012      -1400      608        32100      0          17488.52   87.404     21984      6507      
2673       8.5        364        1          0          247.765    14015      -1400      611        32099      0          17489.7    87.407     21984      6508      
2673.2     8.39       356        1          0          247.748    14014      -1400      613        32104      0          17490.94   87.414     21986      6507      
2673.4     8.32       353        1          0          247.765    14015      -1400      612        32106      0          17492.11   87.418     21987      6507      
2673.6     8.18       347        1          0          247.822    14018      -1400      610        32110      0          17493.23   87.424     21989      6507      
2673.8     8.14       347        1          0          247.786    14016      -1400      607        32114      0          17494.47   87.426     21989      6508      
2674       7.88       331        1          0          247.848    14019      -1400      604        32113      0          17495.64   87.433     21991      6507      
2674.2     7.79       331        1          0          247.828    14018      -1400      611        32118      0          17496.81   87.434     21991      6508      
2674.4     8.01       350        1          0          247.89     14021      -1400      609        32118      0          17497.99   87.439     21992      6507      
2674.6     8.13       350        1          0          247.873    14020      -1400      602        32123      0          17499.23   87.442     21993      6507      
2674.8     8.08       342        1          0          247.899    14021      -1400      610        32124      0          17500.37   87.45      21995      6507      
2675       8.03       342        1          0          247.923    14023      -1400      612        32127      0          17501.56   87.454     21996      6508      
2675.2     8.01       342        1          0          247.932    14023      -1400      613        32131      0          17502.76   87.458     21997      6508      
2675.4     8          342        1          0          247.992    14026      -1400      609        32129      0          17503.93   87.466     21999      6507      
2675.6     8.34       374        1          0          247.953    14024      -1400      614        32132      0          17505.11   87.466     21999      6508      
2675.8     8.62       374        1          0          248.022    14027      -1400      617        32132      0          17506.29   87.472     22001      6508      
2676       8.63       365        1          0          247.995    14026      -1400      613        32136      0          17507.52   87.475     22001      6507      
2676.2     8.54       363        1          0          248.034    14028      -1400      609        32138      0          17508.66   87.482     22003      6507      
2676.4     8.45       357        1          0          248.068    14029      -1400      609        32139      0          17509.87   87.487     22004      6507      
2676.6     8.21       346        1          0          248.048    14029      -1400      601        32143      0          17511.04   87.492     22006      6508      
2676.8     8.13       346        1          0          248.12     14032      -1400      605        32143      0          17512.23   87.502     22008      6507      
2677       8.18       351        1          0          248.079    14030      -1400      610        32149      0          17513.4    87.506     22009      6506      
2677.2     8.21       352        1          0          248.159    14034      -1400      608        32149      0          17514.57   87.51      22010      6506      
2677.4     8.27       355        1          0          248.138    14033      -1400      601        32153      0          17515.81   87.514     22011      6506      
2677.6     8.29       355        1          0          248.183    14035      -1400      606        32156      0          17516.94   87.522     22013      6506      
2677.8     8.41       362        1          0          248.204    14036      -1400      611        32158      0          17518.13   87.522     22013      6506      
2678       8.45       362        1          0          248.192    14035      -1400      600        32161      0          17519.33   87.529     22015      6505      
2678.2     8.65       377        1          0          248.26     14039      -1400      602        32161      0          17520.52   87.53      22015      6505      
2678.4     8.77       377        1          0          248.225    14037      -1400      607        32162      0          17521.69   87.535     22016      6505      
2678.6     8.96       392        1          0          248.299    14041      -1400      607        32161      0          17522.84   87.539     22017      6505      
2678.8     9.1        392        1          0          248.282    14040      -1400      602        32164      0          17524.09   87.545     22019      6505      
2679       9.21       397        1          0          248.332    14042      -1400      600        32163      0          17525.23   87.551     22020      6504      
