~Version
 VERS              .         2.0                           : CWLS LOG ASCII STANDARD - VERSION 2.0
 WRAP              .         NO                            : ONE LINE PER DEPTH STEP
 DLM               .         SPACE                         : DELIMITING CHARACTER(SPACE TAB OR COMMA)
~Well Information
#_______________________________________________________________________________
#
#PARAMETER_NAME    .UNIT     VALUE                         : DESCRIPTION
#_______________________________________________________________________________
STRT               .M        10.2                          : First reference value
STOP               .M        2757.4                        : Last reference value
STEP               .M        0.2                           : Step increment
NULL               .         -9999                         : Missing value
COMP               .                                       : Company
WELL               .         616                           : Well name
FLD                .                                       : Field
LOC                .                                       : Location
CNTY               .                                       : County
STAT               .                                       : State
CTRY               .                                       : Country
SRVC               .                                       : Service Company
DATE               .                                       : Date
API                .                                       : API number
PROJECT_UPGRADE_TIME .         2021-03-18T21_24_50           : 
group              .         Good                          : 
~Parameter Information Block
#_______________________________________________________________________________
#
#PARAMETER_NAME    .UNIT     VALUE                         : DESCRIPTION
#_______________________________________________________________________________
SET                .         D7016_D                       : 
OTHER              .         Kedr.exe версия 2.1.2.32      : 
OTHER_10           .         TM.GRD = 0.00404*TM$.UE + 0.07: 
OTHER_11           .         MN.ATM = (6.33279e-006*TM.GRD + 0.02401)*(MN$.UE + 2.72*TM.GRD + -2018): 
OTHER_12           .         GK.MKR/H = GK$.UE / 43.5489 + 0: 
OTHER_13           .         RES.SM = 0.00476*CRES.UE - 1.51709: 
OTHER_14           .         PL.GSM3 = 0 + 0 * (PL.UE / 1) +  0 * (PL.UE / 1)^2: 
OTHER_15           .         Постоянная времени ГГП = 6 сек: 
OTHER_16           .         Постоянная времени ГК = 6 сек : 
OTHER_2            .         KedrData.dll версия 3.2.2.14  : 
OTHER_3            .         LasInf.dll версия 3.2.0.13    : 
OTHER_4            .         Драйвер версия 1.2.0.5        : 
OTHER_5            .         Прибор_ КСА-M1                : 
OTHER_6            .         Номер прибора_ 155+р204       : 
OTHER_7            .         Режим_ КСА-М1 + ГГП + Резистивиметр: 
OTHER_8            .         Форма_ 223\2                  : 
OTHER_9            .         Тарировки_                    : 
PROJECT_UPGRADE_TIME .         2021-03-18T21_24_50           : 
TLFamily_CRES      .                                       : 
TLFamily_DEPT      .         Measured Depth                : 
TLFamily_GK        .         Gamma Ray                     : 
TLFamily_GK$       .                                       : 
TLFamily_LM        .         Casing Collar locator         : 
TLFamily_METKA     .                                       : 
TLFamily_MN        .                                       : 
TLFamily_MN$       .                                       : 
TLFamily_PL        .                                       : 
TLFamily_PL_2      .                                       : 
TLFamily_RCOR      .                                       : 
TLFamily_RES       .         Mud Resistivity               : 
TLFamily_SPID      .         Spontaneous Potential         : 
TLFamily_STD       .                                       : 
TLFamily_TIME      .         Time                          : 
TLFamily_TM        .         Temperature                   : 
TLFamily_TM$       .         Temperature                   : 
TLFamily_VGD       .         Gas Volume                    : 
group              .         prim                          : 
~Curve Information
#_______________________________________________________________________________
#
#LOGNAME           .UNIT     LOG_ID                        : DESCRIPTION
#_______________________________________________________________________________
DEPT               .M                                      : 1 Глубина, м -    0.0 см 
CRES               .UE                                     : 9 Проводимость, усл.ед. -  270.0 см 
GK                 .MKR/H                                  : 16 Гамма-активность, мкр./ч -  106.0 см 
GK$                .UE                                     : 13 Гамма-активность, усл.ед. -  106.0 см 
LM                 .                                       : 11 Локатор муфт,  -   16.0 см 
METKA              .                                       : 3 Метки,  -    0.0 см 
MN                 .ATM                                    : 15 Давление, атм. -  160.0 см 
MN$                .UE                                     : 7 Давление, усл.ед. -  160.0 см 
PL                 .UE                                     : 10 Плотность, усл.ед. -  270.0 см 
PL_2               .GSM3                                   : 18 Плотность, г./см3 -  270.0 см 
RCOR               .CM/KM                                  : 5 Коррекция по ролику, см/км -    0.0 см 
RES                .SM                                     : 17 Проводимость,  -  270.0 см 
SPID               .M/H                                    : 2 Скорость, м/час -    0.0 см 
STD                .                                       : 12 Приток,  -  170.0 см 
TIME               .S                                      : 4 Время, сек -    0.0 см 
TM                 .GRD                                    : 14 Температура, °C -  180.0 см 
TM$                .UE                                     : 6 Температура, усл.ед. -  180.0 см 
VGD                .                                       : 8 Влагомер,  -  170.0 см 
~Ascii
# ...
379.2      954        5.12       227        548        0          35.918     3445       14         0          0          3.0239     1660       4333       2423.39    22.154     5466       6591      
379.4      954        5.14       227        517        0          35.943     3446       14         0          0          3.0239     1660       4335       2423.82    22.16      5468       6588      
379.6      954        5.15       227        6745       0          35.949     3446       14         0          0          3.0239     1627       4334       2424.26    22.165     5469       6585      
379.8      953        5.17       227        4385       0          35.977     3447       14         0          0          3.0198     1648       4336       2424.71    22.17      5470       6587      
380        954        5.18       227        3042       0          35.992     3448       14         0          0          3.0239     1660       4337       2425.15    22.174     5471       6588      
380.2      954        5.09       205        1605       1          36.011     3449       14         0          0          3.0239     1660       4338       2425.76    22.179     5473       6589      
380.4      954        5.01       204        1053       0          36.038     3450       14         0          0          3.0261     1660       4338       2426.2     22.187     5475       6585      
380.6      954        4.94       204        693        0          36.045     3450       14         0          0          3.0257     1547       4339       2426.65    22.189     5475       6581      
380.8      952        4.88       204        358        0          36.073     3451       14         0          0          3.0161     1660       4340       2427.07    22.198     5477       6583      
381        955        4.84       204        299        0          36.091     3452       14         0          0          3.0279     1660       4344       2427.52    22.203     5479       6583      
381.2      956        4.77       200        293        0          36.105     3453       14         0          0          3.0335     1660       4343       2427.95    22.211     5480       6585      
381.4      956        4.74       200        248        0          36.136     3454       14         0          0          3.0319     1660       4343       2428.38    22.215     5482       6581      
381.6      955        4.7        200        229        0          36.141     3454       14         0          0          3.0287     1660       4345       2428.81    22.224     5484       6584      
381.8      954        4.68       200        201        0          36.179     3456       14         0          0          3.0253     1726       4347       2429.25    22.229     5485       6586      
382        954        4.66       200        198        0          36.19      3456       14         0          0          3.0239     1726       4348       2429.68    22.236     5487       6587      
382.2      954        4.65       201        227        0          36.213     3457       14         0          0          3.0239     1660       4349       2430.12    22.237     5487       6584      
382.4      953        4.69       211        242        0          36.217     3457       14         0          0          3.0198     1660       4350       2430.55    22.241     5488       6583      
382.6      954        4.72       211        309        0          36.246     3458       14         0          0          3.0258     1625       4351       2430.99    22.246     5489       6583      
382.8      955        4.75       211        967        0          36.264     3459       14         0          0          3.0287     1699       4351       2431.43    22.251     5490       6582      
383        955        4.77       211        1373       0          36.279     3460       14         0          0          3.0287     1730       4351       2431.85    22.257     5492       6583      
383.2      955        4.79       211        582        0          36.307     3461       14         0          0          3.0287     1604       4354       2432.28    22.264     5494       6584      
383.4      955        4.8        210        410        0          36.313     3461       14         0          0          3.0287     1660       4353       2432.72    22.269     5495       6583      
383.6      955        4.74       197        357        0          36.339     3462       14         0          0          3.0287     1660       4355       2433.16    22.274     5496       6585      
383.8      956        4.69       197        278        0          36.362     3463       14         0          0          3.0327     1660       4357       2433.6     22.278     5497       6585      
384        956        4.66       197        255        0          36.373     3463       14         0          0          3.0335     1660       4358       2434.05    22.283     5498       6587      
384.2      956        4.63       197        309        0          36.401     3465       14         0          0          3.0326     1600       4359       2434.5     22.289     5500       6583      
384.4      955        4.6        197        216        0          36.412     3465       14         0          0          3.0287     1613       4361       2434.95    22.294     5501       6583      
384.6      955        4.59       197        203        0          36.433     3466       14         0          0          3.0287     1640       4362       2435.37    22.297     5502       6584      
384.8      956        4.54       191        231        0          36.438     3466       14         0          0          3.032      1600       4363       2435.8     22.302     5503       6585      
385        956        4.51       191        210        0          36.467     3467       14         0          0          3.0335     1642       4363       2436.25    22.306     5504       6584      
385.2      957        4.48       191        174        0          36.485     3468       14         0          0          3.0382     1660       4365       2436.7     22.311     5505       6584      
385.4      957        4.46       191        174        0          36.5       3469       14         0          0          3.0382     1660       4365       2437.1     22.316     5506       6587      
385.6      957        4.44       191        156        0          36.53      3470       14         0          0          3.0382     1660       4366       2437.55    22.321     5508       6586      
385.8      957        4.46       197        148        0          36.535     3470       14         0          0          3.0382     1660       4367       2437.97    22.326     5509       6586      
386        957        4.47       197        166        0          36.565     3471       14         0          0          3.0382     1660       4368       2438.42    22.33      5510       6585      
386.2      958        4.49       197        160        0          36.584     3472       14         0          0          3.0422     1618       4370       2438.86    22.336     5511       6583      
386.4      958        4.49       197        169        0          36.597     3473       14         0          0          3.043      1600       4370       2439.3     22.344     5513       6585      
386.6      957        4.5        197        166        0          36.626     3474       14         0          0          3.0382     1653       4372       2439.75    22.351     5515       6588      
386.8      957        4.51       197        177        0          36.634     3474       14         0          0          3.0402     1600       4372       2440.2     22.357     5517       6585      
387        957        4.49       192        149        0          36.659     3475       14         0          0          3.04       1630       4374       2440.65    22.362     5518       6585      
387.2      958        4.47       192        141        0          36.683     3476       14         0          0          3.0419     1660       4375       2441.08    22.371     5520       6584      
