~Version
 VERS              .         2.0                           : CWLS LOG ASCII STANDARD - VERSION 2.0
 WRAP              .         NO                            : ONE LINE PER DEPTH STEP
 DLM               .         SPACE                         : DELIMITING CHARACTER(SPACE TAB OR COMMA)
~Well Information
#_______________________________________________________________________________
#
#PARAMETER_NAME    .UNIT     VALUE                         : DESCRIPTION
#_______________________________________________________________________________
STRT               .M        2671                          : First reference value
STOP               .M        2773.4                        : Last reference value
STEP               .M        0.1999998                     : Step increment
NULL               .         -9999                         : Missing value
COMP               .                                       : Company
WELL               .         616                           : Well name
FLD                .                                       : Field
LOC                .                                       : Location
CNTY               .                                       : County
STAT               .                                       : State
CTRY               .                                       : Country
SRVC               .                                       : Service Company
DATE               .                                       : Date
API                .                                       : API number
PROJECT_UPGRADE_TIME .         2021-03-18T21_24_50           : 
group              .         Good                          : 
~Parameter Information Block
#_______________________________________________________________________________
#
#PARAMETER_NAME    .UNIT     VALUE                         : DESCRIPTION
#_______________________________________________________________________________
SET                .         D0402_D                       : 
OTHER              .         Kedr.exe версия 2.1.2.32      : 
OTHER_10           .         TM.GRD = 0.00379*TM$.UE + 7.11: 
OTHER_11           .         MN.ATM = (8e-006*TM.GRD + 0.02)*(MN$.UE + -8*TM.GRD + -1800): 
OTHER_12           .         GK.MKR/H = GK$.UE / 57.17 + 0 : 
OTHER_2            .         KedrData.dll версия 3.2.2.14  : 
OTHER_3            .         LasInf.dll версия 3.2.0.13    : 
OTHER_4            .         Драйвер версия 1.2.0.4        : 
OTHER_5            .         Прибор_ АКП4_90               : 
OTHER_6            .         Номер прибора_ 56             : 
OTHER_7            .         Режим_ АКП4_90 - все каналы   : 
OTHER_8            .         Форма_ Г-1                    : 
OTHER_9            .         Тарировки_                    : 
PROJECT_UPGRADE_TIME .         2021-03-18T21_24_49           : 
TLFamily_DEPT      .         Measured Depth                : 
TLFamily_GK        .         Gamma Ray                     : 
TLFamily_GK$       .                                       : 
TLFamily_LM        .         Casing Collar locator         : 
TLFamily_METKA     .                                       : 
TLFamily_METKA_1   .                                       : 
TLFamily_MN        .                                       : 
TLFamily_MN$       .                                       : 
TLFamily_RCOR      .                                       : 
TLFamily_SPID      .         Spontaneous Potential         : 
TLFamily_TIME      .         Time                          : 
TLFamily_TM        .         Temperature                   : 
TLFamily_TM$       .         Temperature                   : 
group              .         second                        : 
~Curve Information
#_______________________________________________________________________________
#
#LOGNAME           .UNIT     LOG_ID                        : DESCRIPTION
#_______________________________________________________________________________
DEPT               .M                                      : 1 Глубина, м -    0.0 см 
GK                 .MKR/H                                  : 12 Гамма-активность, мкр./ч -   65.0 см 
GK$                .UE                                     : 9 Гамма-активность, усл.ед. -   65.0 см 
LM                 .                                       : 8 Локатор муфт,  -   30.0 см 
METKA              .                                       : 3 Метки,  -    0.0 см 
METKA_1            .                                       : 13 Маркеры - 65 см 
MN                 .ATM                                    : 11 Давление, атм. -  140.0 см 
MN$                .UE                                     : 7 Давление, усл.ед. -  140.0 см 
RCOR               .CM/KM                                  : 5 Коррекция по ролику, см/км -    0.0 см 
SPID               .M/H                                    : 2 Скорость, м/час -    0.0 см 
TIME               .S                                      : 4 Время, сек -    0.0 см 
TM                 .GRD                                    : 10 Температура, °C -  145.0 см 
TM$                .UE                                     : 6 Температура, усл.ед. -  145.0 см 
~Ascii
2671.0000000 -9999      -9999      -9999      -9999      0          -9999      -9999      -9999      -9999      -9999      -9999      -9999     
2671.2     -9999      -9999      -9999      -9999      0          -9999      -9999      -9999      -9999      -9999      -9999      -9999     
2671.4     -9999      -9999      -9999      0          0          -9999      -9999      0          -320       8280.78    -9999      -9999     
2671.6     -9999      -9999      574        0          0          -9999      -9999      0          -320       8278.46    -9999      -9999     
2671.8     -9999      -9999      543        0          0          -9999      -9999      0          -320       8276.13    -9999      -9999     
2672       5.76       327        553        0          0          -9999      -9999      0          -320       8273.83    -9999      -9999     
2672.2     5.8        325        559        0          0          -9999      -9999      0          -260       8271.5     -9999      -9999     
2672.4     5.89       329        662        0          0          -9999      -9999      0          -320       8269.29    -9999      -9999     
2672.6     5.92       333        567        0          0          -9999      -9999      0          -320       8266.96    -9999      -9999     
2672.8     6.04       330        490        0          0          258.906    14993      0          -365       8264.66    82.902     19998     
2673       6.29       328        523        0          0          258.925    14994      0          -320       8262.35    82.91      20000     
2673.2     6.48       357        527        0          0          258.925    14994      0          -260       8260.06    82.915     20001     
2673.4     6.6        368        553        0          0          258.966    14996      0          -320       8257.7     82.927     20004     
2673.6     6.66       379        503        0          0          258.986    14997      0          -351       8255.39    82.935     20006     
2673.8     6.71       374        510        0          0          259.002    14998      0          -320       8253.11    82.937     20007     
2674       6.84       377        551        0          0          259.012    14998      0          -305       8250.76    82.937     20007     
2674.2     6.99       402        638        0          0          259.026    14999      0          -320       8248.45    82.948     20010     
2674.4     6.99       389        864        0          0          259.062    15001      0          -280       8246.16    82.952     20011     
2674.6     7.15       391        5880       0          0          259.088    15002      0          -290       8243.88    82.955     20012     
2674.8     7.41       418        4815       0          0          259.093    15002      0          -320       8241.51    82.963     20014     
2675       7.49       420        466        0          0          259.123    15004      0          -260       8239.19    82.971     20016     
2675.2     7.56       425        438        0          0          259.149    15005      0          -320       8236.94    82.974     20017     
2675.4     7.5        438        433        0          0          259.17     15006      0          -320       8234.62    82.977     20018     
2675.6     7.41       434        693        0          0          259.19     15007      0          -320       8232.31    82.98      20018     
2675.8     7.39       420        808        0          0          259.203    15008      0          -290       8229.98    82.986     20020     
2676       7.48       414        2022       0          0          259.241    15010      0          -320       8227.65    82.99      20021     
2676.2     7.65       419        1736       0          0          259.237    15009      0          -320       8225.41    82.997     20023     
2676.4     7.87       429        463        0          0          259.257    15010      0          -320       8222.97    83.001     20024     
2676.6     8.07       457        496        0          0          259.302    15013      0          -320       8220.71    83.009     20026     
2676.8     8.1        467        512        0          0          259.322    15014      0          -320       8218.4     83.009     20026     
2677       8.04       465        603        0          0          259.332    15014      0          -320       8216.14    83.016     20028     
2677.2     7.99       454        1029       0          0          259.342    15014      0          -320       8213.76    83.024     20030     
2677.4     8.03       468        2744       0          0          259.383    15016      0          -320       8211.44    83.027     20031     
2677.6     7.89       448        472        0          0          259.4      15017      0          -320       8209.18    83.031     20032     
2677.8     7.94       448        416        0          0          259.413    15018      0          -280       8206.86    83.039     20034     
2678       8.13       440        407        0          0          259.454    15020      0          -290       8204.49    83.05      20037     
2678.2     7.96       485        446        0          0          259.474    15021      0          -280       8202.24    83.054     20038     
2678.4     7.73       460        385        0          0          259.502    15022      0          -320       8199.93    83.054     20038     
2678.6     7.6        444        435        0          0          259.515    15023      0          -260       8197.6     83.065     20041     
2678.8     7.68       419        455        0          0          259.525    15024      0          -320       8195.29    83.069     20042     
2679       7.91       432        456        0          0          259.569    15026      0          -320       8192.98    83.081     20045     
2679.2     8.01       465        424        0          0          259.582    15026      0          -320       8190.66    83.084     20046     
2679.4     7.95       453        398        0          0          259.595    15027      0          -300       8188.34    83.096     20049     
2679.6     7.92       465        457        0          0          259.615    15028      0          -320       8186.03    83.107     20052     
2679.8     7.75       453        526        1          0          259.636    15029      0          -300       8183.71    83.115     20054     
2680       7.63       431        552        0          0          259.663    15030      0          -320       8180.75    83.115     20054     
2680.2     7.72       433        710        0          0          259.698    15032      0          -260       8178.44    83.115     20054     
2680.4     7.83       445        480        0          0          259.697    15032      0          -320       8176.13    83.122     20056     
2680.6     7.79       451        436        0          0          259.738    15034      0          -320       8173.8     83.126     20057     
2680.8     7.63       430        491        0          0          259.758    15035      0          -320       8171.58    83.136     20060     
2681       7.73       427        450        0          0          259.771    15036      0          -320       8169.26    83.141     20061     
2681.2     7.97       436        485        0          0          259.785    15036      0          -320       8166.95    83.148     20063     
2681.4     8.13       447        428        0          0          259.84     15039      0          -320       8164.65    83.152     20064     
2681.6     8.41       447        427        0          0          259.839    15039      0          -320       8162.33    83.156     20065     
2681.8     8.67       473        507        0          0          259.86     15040      0          -320       8160.04    83.164     20067     
2682       8.84       497        514        0          0          259.9      15042      0          -320       8157.6     83.172     20069     
