~Version
 VERS              .         2.0                           : CWLS LOG ASCII STANDARD - VERSION 2.0
 WRAP              .         NO                            : ONE LINE PER DEPTH STEP
 DLM               .         SPACE                         : DELIMITING CHARACTER(SPACE TAB OR COMMA)
~Well Information
#_______________________________________________________________________________
#
#PARAMETER_NAME    .UNIT     VALUE                         : DESCRIPTION
#_______________________________________________________________________________
STRT               .M        2700.7                        : First reference value
STOP               .M        2753.100157                   : Last reference value
STEP               .M        0.1000003                     : Step increment
NULL               .         -9999                         : Missing value
COMP               .                                       : Company
WELL               .         616                           : Well name
FLD                .                                       : Field
LOC                .                                       : Location
CNTY               .                                       : County
STAT               .                                       : State
CTRY               .                                       : Country
SRVC               .                                       : Service Company
DATE               .                                       : Date
API                .                                       : API number
PROJECT_UPGRADE_TIME .         2021-03-18T21_24_50           : 
group              .         Good                          : 
~Parameter Information Block
#_______________________________________________________________________________
#
#PARAMETER_NAME    .UNIT     VALUE                         : DESCRIPTION
#_______________________________________________________________________________
SET                .         D7030_D_2                     : 
NPR                .         155                           : Номер прибора
OTHER              .         Kedr.exe версия 2.1.2.32      : 
OTHER_10           .         RGD. = 0.647457 * RGD. + 2.35279: 
OTHER_2            .         KedrData.dll версия 3.2.2.14  : 
OTHER_3            .         LasInf.dll версия 3.2.0.13    : 
OTHER_4            .         Драйвер версия 1.2.0.6        : 
OTHER_5            .         Прибор_ Расходомер            : 
OTHER_6            .         Номер прибора_ 963            : 
OTHER_7            .         Режим_ Расходомер             : 
OTHER_8            .         Форма_ Саня                   : 
OTHER_9            .         Тарировки_                    : 
PR                 .         КСА-Т7 М1                     : Тип прибора
PROJECT_UPGRADE_TIME .         2021-03-18T21_24_50           : 
PRTY               .         ПП-223_2                      : Номер партии
SRV                .         ЦКРС                          : Заказчик
SRVC               .         Лузин  А.Б.                   : Начальник партии
TLFamily_DEPT      .         Measured Depth                : 
TLFamily_RGD       .                                       : 
TLFamily_SPID      .         Spontaneous Potential         : 
group              .         second                        : 
~Curve Information
#_______________________________________________________________________________
#
#LOGNAME           .UNIT     LOG_ID                        : DESCRIPTION
#_______________________________________________________________________________
DEPT               .M                                      : Depth curve 
RGD                .м3/сут                                 : Механическая расходометрия, м3/сут 
SPID               .м/ч                                    : Скорость записи,м/час 
~Ascii
# ...
2724.300071 50.593     -189.971  
2724.400071 63.544     -190      
2724.500071 60.402     -130.029  
2724.600072 53.523     -189.971  
2724.700072 58.478     -190      
2724.800072 56.441     -190      
2724.900073 52.092     -190      
2725.000073 64.494     -190      
2725.100073 53.545     -190      
2725.200073 59.017     -190      
2725.300074 61.329     -190      
2725.400074 52.524     -190      
2725.500074 59.127     -190      
2725.600075 55.842     -190      
2725.700075 52.632     -190      
2725.800075 55.019     -190      
2725.900076 48.303     -190      
2726.000076 52.398     -190      
2726.100076 54.559     -190      
2726.200076 49.552     -190      
2726.300077 56.587     -131.029  
2726.400077 59.319     -189.971  
2726.500077 55.652     -190      
2726.600078 52.142     -190      
2726.700078 55.988     -190      
2726.800078 55.69      -190      
2726.900079 63.826     -190      
2727.000079 54.215     -190      
2727.100079 49.572     -130.029  
2727.200079 47.991     -189.971  
2727.30008 51.908     -130.029  
2727.40008 38.806     -189.971  
2727.50008 34.702     -190      
2727.600081 31.512     -160.015  
2727.700081 47.572     -189.985  
2727.800081 44.991     -192.999  
2727.900082 37.963     -190.001  
2728.000082 43.637     -190      
2728.100082 44.65      -190      
2728.200083 38.013     -190      
2728.300083 44.537     -161.014  
2728.400083 42.581     -189.986  
2728.500083 42.89      -190      
2728.600084 40.801     -190      
2728.700084 42.189     -190      
2728.800084 43.699     -190      
2728.900085 41.821     -190      
2729.000085 32.055     -190      
2729.100085 36.878     -190      
2729.200085 32.392     -190      
2729.300086 28.972     -190      
2729.400086 39.025     -190      
2729.500086 34.202     -190      
2729.600087 28.733     -190      
2729.700087 37.146     -190      
2729.800087 28.274     -190      
2729.900088 35.497     -190      
2730.000088 32.601     -130.029  
2730.100088 33.879     -189.971  
2730.200088 36.589     -190      
2730.300089 32.012     -190      
2730.400089 28.082     -190      
2730.500089 29.359     -130.029  
2730.60009 24.402     -189.971  
2730.70009 17.293     -190      
2730.80009 13.432     -190      
2730.900091 17.108     -190      
2731.000091 21.398     -190      
2731.100091 16.932     -190      
2731.200091 13.602     -190      
2731.300092 19.397     -189      
2731.400092 13.983     -130.029  
2731.500092 18.378     -189.971  
2731.600093 27.056     -190      
2731.700093 32.737     -130.029  
2731.800093 25.693     -189.971  
2731.900094 31.757     -190      
2732.000094 21.435     -190      
2732.100094 16.792     -130.029  
2732.200094 27.625     -189.971  
2732.300095 19.734     -190      
2732.400095 14.852     -190      
2732.500095 9.952      -190      
2732.600096 19.985     -190      
2732.700096 13.933     -190      
2732.800096 19.507     -190      
2732.900097 24.528     -190      
2733.000097 11.346     -190      
2733.100097 14.558     -190      
2733.200097 16.839     -190      
2733.300098 11.513     -190      
2733.400098 14.958     -190      
2733.500098 15.37      -190      
2733.600099 12.122     -190      
2733.700099 25.024     -130.029  
2733.800099 22.431     -189.971  
2733.9001  10.416     -190      
2734.0001  21.035     -190      
2734.1001  13.104     -190      
2734.2001  9.112      -190      
2734.300101 18.046     -190      
2734.400101 11.873     -190      
2734.500101 15.838     -190      
2734.600102 15.61      -190      
2734.700102 10.413     -190      
2734.800102 21.095     -190      
2734.900103 14.983     -190      
2735.000103 11.222     -190      
2735.100103 22.934     -190      
2735.200103 17.523     -130.029  
2735.300104 16.171     -189.971  
2735.400104 22.557     -190      
2735.500104 14.214     -190      
2735.600105 16.639     -190      
2735.700105 12.632     -190      
2735.800105 16.108     -130.029  
2735.900106 17.14      -189.971  
2736.000106 11.073     -190      
2736.100106 22.604     -190      
2736.200106 19.521     -190      
2736.300107 11.364     -189      
2736.400107 12.559     -190      
2736.500107 16.478     -190      
2736.600108 9.343      -190      
2736.700108 9.96       -190      
2736.800108 20.015     -190      
2736.900109 16.892     -130.029  
2737.000109 11.253     -189.971  
2737.100109 11.16      -190      
2737.200109 10.53      -190      
2737.30011 22.384     -190      
2737.40011 17.972     -190      
2737.50011 12.793     -190      
2737.600111 26.593     -130.029  
2737.700111 18.864     -130      
2737.800111 28.865     -189.971  
2737.900112 17.166     -190      
2738.000112 28.115     -190      
2738.100112 16.726     -190      
2738.200112 10.453     -130.029  
2738.300113 21.075     -189.971  
2738.400113 16.142     -190      
2738.500113 11.632     -190      
2738.600114 15.278     -190      
2738.700114 16.13      -130.029  
2738.800114 10.563     -189.971  
2738.900115 21.385     -130.029  
2739.000115 15.383     -189.971  
2739.100115 11.192     -190      
2739.200115 22.864     -130.029  
2739.300116 15.084     -189.971  
2739.400116 11.991     -190      
2739.500116 23.644     -190      
2739.600117 19.782     -190      
2739.700117 20.44      -190      
2739.800117 16.332     -159.015  
2739.900118 22.887     -189.985  
2740.000118 36.903     -190      
2740.100118 20.268     -190      
2740.200118 18.941     -190      
2740.300119 17.691     -190      
2740.400119 14.062     -190      
2740.500119 10.282     -190      
2740.60012 20.735     -190      
2740.70012 17.302     -190      
2740.80012 15.681     -190      
2740.900121 22.567     -190      
2741.000121 34.704     -130.029  
2741.100121 24.535     -189.971  
2741.200122 19.263     -190      
2741.300122 17.461     -190      
2741.400122 21.108     -130.029  
2741.500122 15.073     -189.971  
2741.600123 12.621     -190      
2741.700123 19.906     -130.029  
2741.800123 17.891     -189.971  
2741.900124 15.111     -190      
2742.000124 15.72      -190      
2742.100124 11.632     -130.029  
2742.200124 23.894     -189.971  
2742.300125 23.03      -190      
2742.400125 25.329     -190      
2742.500125 23.711     -190      
2742.600126 24.67      -190      
2742.700126 28.218     -190      
2742.800126 26.981     -131.028  
2742.900127 28.689     -189.972  
2743.000127 16.756     -190      
2743.100127 15.311     -130.029  
2743.200127 13.151     -189.971  
2743.300128 27.283     -190      
2743.400128 17.685     -190      
2743.500128 17.46      -190      
2743.600129 24.277     -190      
2743.700129 23.9       -190      
2743.800129 27.009     -161.014  
2743.90013 28.729     -189.986  
2744.00013 37.316     -190      
2744.10013 20.608     -130.029  
2744.20013 18.901     -130      
2744.300131 17.031     -189.971  
2744.400131 29.134     -130.029  
2744.500131 33.208     -189.971  
2744.600132 35.749     -190      
2744.700132 29.633     -190      
2744.800132 22.723     -190      
2744.900133 30.246     -190      
2745.000133 21.904     -190      
2745.100133 22.76      -190      
2745.200133 25.948     -130.029  
2745.300134 24.561     -189.971  
2745.400134 27.339     -130.029  
2745.500134 29.189     -189.971  
2745.600135 30.399     -190      
2745.700135 25.262     -130.029  
2745.800135 28.918     -189.971  
2745.900136 35.897     -190      
2746.000136 16.599     -190      
2746.100136 25.816     -190      
2746.200136 17.404     -190      
2746.300137 19.109     -190      
2746.400137 19.45      -190      
2746.500137 20.619     -130.029  
2746.600138 29.236     -189.971  
2746.700138 26.451     -190      
2746.800138 20.853     -130.029  
2746.900139 29.476     -189.971  
2747.000139 22.453     -190      
2747.100139 27.588     -190      
2747.200139 33.327     -190      
2747.30014 22.925     -130.029  
2747.40014 27.508     -189.971  
2747.50014 30.908     -130.029  
2747.600141 21.634     -189.971  
2747.700141 26.867     -190      
2747.800141 28.489     -131.028  
