~Version
 VERS              .         2.0                           : CWLS LOG ASCII STANDARD - VERSION 2.0
 WRAP              .         NO                            : ONE LINE PER DEPTH STEP
 DLM               .         SPACE                         : DELIMITING CHARACTER(SPACE TAB OR COMMA)
~Well Information
#_______________________________________________________________________________
#
#PARAMETER_NAME    .UNIT     VALUE                         : DESCRIPTION
#_______________________________________________________________________________
STRT               .M        549.2                         : First reference value
STOP               .M        805.2                         : Last reference value
STEP               .M        0.2                           : Step increment
NULL               .         -9999                         : Missing value
COMP               .                                       : Company
WELL               .         616                           : Well name
FLD                .                                       : Field
LOC                .                                       : Location
CNTY               .                                       : County
STAT               .                                       : State
CTRY               .                                       : Country
SRVC               .                                       : Service Company
DATE               .                                       : Date
API                .                                       : API number
PROJECT_UPGRADE_TIME .         2021-03-18T21_24_50           : 
group              .         Good                          : 
~Parameter Information Block
#_______________________________________________________________________________
#
#PARAMETER_NAME    .UNIT     VALUE                         : DESCRIPTION
#_______________________________________________________________________________
SET                .         616_4                         : 
CONF               .         00                            : 
END                .         0                             : 
ERR                .         0                             : 
GS00               .M        0803.23                       : 
GS01               .M        0546.74                       : 
MM00               .M        0120.00                       : 
NOKG               .         0                             : 
NPR                .         980402                        : 
PART               .         Палагутин                     : 
PROJECT_UPGRADE_TIME .         2021-03-18T21_24_49           : 
PRZK               .         Шакиров                       : 
TLFamily_AZIMUTH   .         True Dip Azimuth              : 
TLFamily_DEPTH     .         Measured Depth                : 
TLFamily_METKA     .                                       : 
TLFamily_ROLL      .                                       : 
TLFamily_SPEED     .         Spontaneous Potential         : 
TLFamily_ZENIT     .                                       : 
VPRG               .         310                           : 
WAY                .         UP                            : 
group              .         prim                          : 
~Curve Information
#_______________________________________________________________________________
#
#LOGNAME           .UNIT     LOG_ID                        : DESCRIPTION
#_______________________________________________________________________________
DEPTH              .M                                      :  
AZIMUTH            .DEG                                    :  
METKA              .                                       :  
ROLL               .DEG                                    :  
SPEED              .M/H                                    :  
ZENIT              .DEG                                    :  
~Ascii
# ...
744.4      258.47     0          234.65     648        31.24     
744.6      256.78     0          234.15     648        31.17     
744.8      255.2      0          234.09     612        30.86     
745        257.11     0          234.38     684        30.96     
745.2      255.91     0          234.86     648        30.8      
745.4      255.38     0          235.2      648        30.75     
745.6      257.36     0          235.34     576        31.12     
745.8      255.31     0          234.47     648        30.9      
746        256.75     0          234.06     684        31.07     
746.2      255.21     0          234.43     648        30.82     
746.4      254.99     0          234.53     648        30.67     
746.6      254.59     0          234.86     648        30.6      
746.8      254.76     0          235.11     648        30.65     
747        253.5      0          235.6      648        30.43     
747.2      252.83     0          235.68     612        30.52     
747.4      255.66     0          235.26     684        31.11     
747.6      254        0          235.11     612        30.78     
747.8      254.63     0          235.09     648        30.84     
748        255.43     0          234.88     648        31.07     
748.2      254.98     0          234.7      612        31.02     
748.4      254.77     0          235.01     684        30.93     
748.6      255.41     0          235.39     612        31.11     
748.8      255.35     0          235.45     648        31.08     
749        254.95     0          235.53     648        31        
749.2      255.41     0          235.76     648        31.12     
749.4      255.63     0          235.81     576        31.15     
749.6      254.72     0          235.65     648        31        
749.8      254.89     0          235.67     684        31.07     
750        255.83     0          236.06     648        31.27     
750.2      254.74     0          236.78     648        31        
750.4      255.25     0          237.34     648        31.13     
750.6      255.87     0          237.59     612        31.3      
750.8      254.44     0          237.72     648        30.98     
751        255.99     0          237.73     648        31.35     
751.2      255.93     0          237.45     648        31.31     
751.4      255.09     0          237.26     648        31.19     
751.6      255.72     0          237.23     576        31.34     
751.8      256.12     0          237.61     684        31.41     
752        255.16     0          237.89     648        31.18     
752.2      255.06     1          237.81     684        31.19     
752.4      256.11     0          237.69     648        31.43     
752.6      254.62     0          237.84     648        31.11     
752.8      255.65     0          237.65     612        31.33     
753        256.27     0          237.14     648        31.49     
753.2      255.43     0          236.42     648        31.27     
753.4      256.3      0          235.96     648        31.41     
753.6      256.97     0          236.01     648        31.53     
753.8      255.75     0          235.87     612        31.27     
754        257.39     0          235.54     648        31.47     
754.2      258.17     0          234.77     648        31.59     
754.4      258.15     0          234.24     612        31.31     
754.6      263.65     0          234.14     648        31.59     
754.8      277.4      0          234.36     612        31.65     
755        315.8      0          235.12     684        31.59     
755.2      253.82     0          236.08     648        31.44     
755.4      192.06     0          236.22     612        31.73     
755.6      348.93     0          235.73     612        31.63     
755.8      322.35     0          235.98     648        31.53     
756        275.64     0          236.52     648        31.96     
756.2      262.58     0          236.36     648        31.76     
756.4      258.85     0          235.84     648        31.79     
756.6      257.56     0          235.24     612        31.84     
756.8      255.93     0          234.81     648        31.49     
757        256.03     0          234.83     684        31.48     
757.2      256.25     0          234.93     648        31.65     
757.4      255.67     0          235.15     648        31.63     
757.6      254.83     0          235.44     648        31.41     
757.8      255.42     0          235.75     648        31.57     
758        255.31     0          235.87     684        31.68     
758.2      254.15     0          235.75     612        31.42     
758.4      254.75     0          235.44     648        31.39     
758.6      255.51     0          235.42     648        31.55     
758.8      254.49     0          235.33     612        31.38     
759        256.72     0          235.26     648        31.79     
759.2      256.58     0          235.71     612        31.91     
759.4      255.84     0          235.43     612        31.54     
759.6      255.27     0          235.11     648        31.69     
759.8      255.15     0          235.07     648        31.66     
760        254.74     0          235.08     648        31.55     
760.2      255.05     0          235.18     648        31.68     
760.4      255.29     0          235.6      612        31.71     
760.6      254.42     0          236.09     648        31.53     
760.8      254.66     0          236.39     684        31.62     
761        255.77     0          236.51     648        31.84     
761.2      254.61     0          236.46     648        31.61     
761.4      254.88     0          236.47     612        31.71     
761.6      255.35     0          236.5      612        31.82     
761.8      254.25     0          236.48     684        31.63     
762        255.34     0          236.44     684        31.92     
762.2      255.82     1          236.48     648        32.01     
762.4      254.03     0          236.46     576        31.62     
762.6      255.4      0          236.38     612        31.91     
762.8      255.21     0          236.25     612        31.88     
763        254.51     0          236.13     684        31.72     
763.2      255.11     0          235.79     648        31.85     
763.4      255.59     0          235.32     648        32        
763.6      254.1      0          235.31     612        31.72     
763.8      254.41     0          235.99     684        31.67     
764        255.69     0          236.4      648        32.02     
764.2      255        0          236.56     684        31.83     
764.4      254.57     0          236.3      612        31.76     
764.6      255.4      0          235.9      648        31.97     
764.8      255        0          235.79     612        31.87     
765        255.09     0          235.81     648        31.91     
765.2      255.68     0          235.78     648        32.04     
765.4      254.7      0          235.75     612        31.84     
765.6      255.14     0          235.89     648        31.91     
765.8      255.52     0          236.11     648        31.98     
766        255.34     0          236.3      648        31.9      
766.2      255        0          236.47     648        31.73     
766.4      256.33     0          236.63     612        31.94     
766.6      259.16     0          237.51     648        32.27     
766.8      260.59     0          238.02     648        31.95     
767        270.72     0          237.55     684        32.34     
767.2      307.53     0          237.21     648        32.23     
767.4      309.29     0          236.95     612        32.05     
767.6      212.89     0          236.99     648        32.3      
767.8      300.57     0          237.13     648        32.3      
768        307.74     0          236.97     648        32.18     
768.2      269.6      0          236.38     612        32.29     
768.4      260.39     0          235.36     648        32.21     
768.6      256.77     0          234.2      648        32.13     
