~Version
 VERS              .         2.0                           : CWLS LOG ASCII STANDARD - VERSION 2.0
 WRAP              .         NO                            : ONE LINE PER DEPTH STEP
 DLM               .         SPACE                         : DELIMITING CHARACTER(SPACE TAB OR COMMA)
~Well Information
#_______________________________________________________________________________
#
#PARAMETER_NAME    .UNIT     VALUE                         : DESCRIPTION
#_______________________________________________________________________________
STRT               .M        10.2                          : First reference value
STOP               .M        2774.8                        : Last reference value
STEP               .M        0.2                           : Step increment
NULL               .         -9999                         : Missing value
COMP               .                                       : Company
WELL               .         616                           : Well name
FLD                .                                       : Field
LOC                .                                       : Location
CNTY               .                                       : County
STAT               .                                       : State
CTRY               .                                       : Country
SRVC               .                                       : Service Company
DATE               .                                       : Date
API                .                                       : API number
PROJECT_UPGRADE_TIME .         2021-03-18T21_24_50           : 
group              .         Good                          : 
~Parameter Information Block
#_______________________________________________________________________________
#
#PARAMETER_NAME    .UNIT     VALUE                         : DESCRIPTION
#_______________________________________________________________________________
SET                .         D1813_D_2                     : 
NPR                .                                       : 
OTHER              .         Программное обеспечение станции MONITOR-386EX 25/12/99 15_08_10   BGF V52 22/08/01 16_56_30   3.1_SNGF___BGF_N_092049: 
OTHER_10           .         Тарировки_                    : 
OTHER_11           .         TM.GRD = 0.00403*TM$.UE + -1.07: 
OTHER_12           .         MN.ATM = (9.34907e-006*TM.GRD + 0.02171)*(MN$.UE + -7.93*TM.GRD + -1787): 
OTHER_13           .         GK.MKR/H = LM. / 42.4676      : 
OTHER_14           .         GK.FLT = 0.1*GK.MKR/H[-1] + (1-0.1)*GK.MKR/H[0]: 
OTHER_2            .         Kedr.exe версия 3.4.2.51      : 
OTHER_3            .         KedrData.dll версия 3.4.2.24  : 
OTHER_4            .         Драйвер версия 2.1.1.3        : 
OTHER_5            .         Мнемоники версия 3.3 S        : 
OTHER_6            .         Прибор_ КСА-Т4                : 
OTHER_7            .         Номер прибора_ 03             : 
OTHER_8            .         Режим_ КСА-Т4                 : 
OTHER_9            .         Форма_ КВА.                   : 
PR                 .                                       : 
PROJECT_UPGRADE_TIME .         2021-03-18T21_24_49           : 
PRTY               .         ПП-603-1                      : N партии
SRV                .                                       : 
SRVC               .         Карпов                        : Начальник партии
TLFamily_DEPT      .         Measured Depth                : 
TLFamily_LM        .         Casing Collar locator         : 
TLFamily_MN        .                                       : 
TLFamily_TM        .         Temperature                   : 
group              .         second                        : 
~Curve Information
#_______________________________________________________________________________
#
#LOGNAME           .UNIT     LOG_ID                        : DESCRIPTION
#_______________________________________________________________________________
DEPT               .M                                      : Depth curve 
LM                 .е.ацп                                  : Локатор муфт,е.ацп 
MN                 .атм                                    : Манометрия, атм 
TM                 .град.C                                 : Термограмма по стволу скважины,град.C 
~Ascii
10.2       -9999      -9999      -9999     
10.4       -9999      -9999      -9999     
10.6       -9999      -9999      -9999     
10.8       125        -9999      -9999     
11         150        -9999      -9999     
11.2       139        -9999      -9999     
11.4       156        -9999      -9999     
11.6       161        -9999      -9999     
11.8       143        -9999      -9999     
12         92         -9999      -9999     
12.2       90         1.462      16.535    
12.4       90         1.483      16.541    
12.6       111        1.493      16.544    
12.8       101        1.525      16.548    
13         87         1.547      16.553    
13.2       92         1.568      16.557    
13.4       90         1.589      16.558    
13.6       97         1.61       16.561    
13.8       97         1.632      16.565    
14         94         1.653      16.568    
14.2       93         1.675      16.569    
14.4       108        1.697      16.569    
14.6       111        1.718      16.569    
14.8       136        1.74       16.573    
15         129        1.756      16.573    
15.2       113        1.777      16.577    
15.4       110        1.804      16.578    
15.6       120        1.81       16.581    
15.8       174        1.848      16.581    
16         151        1.848      16.581    
16.2       151        1.881      16.582    
16.4       289        1.891      16.585    
16.6       545        1.915      16.585    
16.8       1807.999   1.934      16.589    
17         4245.999   1.956      16.589    
17.2       712.002    1.977      16.59     
17.4       106        1.999      16.593    
17.6       120        2.019      16.598    
17.8       105        2.041      16.602    
18         99         2.062      16.603    
18.2       103        2.084      16.606    
18.4       113        2.105      16.61     
18.6       117        2.127      16.61     
18.8       132        2.148      16.611    
19         147        2.148      16.614    
19.2       114        2.18       16.615    
19.4       100        2.191      16.618    
19.6       117        2.224      16.619    
19.8       100        2.238      16.622    
20         116        2.256      16.622    
20.2       120        2.281      16.622    
20.4       116        2.309      16.626    
20.6       85         2.324      16.626    
20.8       103        2.364      16.626    
21         107        2.386      16.63     
21.2       103        2.408      16.63     
21.4       101        2.429      16.634    
21.6       91         2.451      16.634    
21.8       95         2.47       16.636    
22         108        2.494      16.638    
22.2       114        2.516      16.638    
22.4       118        2.537      16.642    
22.6       102        2.556      16.642    
22.8       103        2.58       16.645    
23         136        2.58       16.646    
23.2       134        2.609      16.646    
23.4       157        2.64       16.65     
23.6       107        2.652      16.65     
23.8       86         2.667      16.65     
24         97         2.694      16.654    
24.2       99         2.71       16.651    
24.4       100        2.754      16.654    
24.6       109        2.766      16.654    
24.8       121        2.776      16.654    
25         97         2.797      16.654    
25.2       115        2.819      16.658    
25.4       121        2.84       16.658    
25.6       127        2.84       16.658    
25.8       144        2.862      16.658    
26         154        2.906      16.658    
26.2       122        2.927      16.662    
26.4       127        2.927      16.662    
26.6       161        2.949      16.662    
26.8       207        2.971      16.662    
27         139        3.008      16.662    
27.2       163        3.014      16.666    
27.4       388        3.036      16.666    
27.6       829        3.057      16.67     
27.8       1929       3.079      16.67     
28         2933.999   3.101      16.67     
28.2       89         3.122      16.67     
28.4       141        3.144      16.674    
28.6       142        3.166      16.674    
28.8       152        3.187      16.677    
29         144        3.209      16.678    
29.2       112        3.23       16.678    
29.4       132        3.245      16.682    
29.6       173        3.269      16.682    
29.8       185        3.295      16.682    
30         181        3.317      16.682    
30.2       145        3.327      16.682    
30.4       127        3.35       16.682    
30.6       129        3.376      16.682    
30.8       119        3.426      16.685    
31         130        3.448      16.686    
31.2       117        3.47       16.686    
31.4       115        3.492      16.686    
31.6       167        3.513      16.689    
31.8       160        3.535      16.69     
32         179        3.548      16.69     
32.2       178        3.57       16.69     
32.4       134        3.591      16.69     
32.6       111        3.613      16.694    
32.8       130        3.634      16.694    
33         156        3.657      16.694    
33.2       170        3.675      16.694    
33.4       198        3.695      16.694    
33.6       139        3.71       16.698    
33.8       204        3.734      16.698    
34         252        3.752      16.698    
34.2       210        3.774      16.698    
34.4       251        3.796      16.698    
34.6       233        3.817      16.698    
34.8       241        3.819      16.702    
35         272        3.862      16.702    
35.2       224        3.882      16.702    
35.4       213        3.895      16.702    
35.6       215        3.926      16.702    
35.8       233        3.947      16.706    
36         257        3.965      16.706    
36.2       272        3.985      16.706    
36.4       292        4.003      16.706    
36.6       300        4.018      16.71     
36.8       326        4.056      16.71     
37         281        4.056      16.71     
37.2       294        4.09       16.71     
37.4       311        4.104      16.712    
37.6       376        4.121      16.714    
37.8       795.001    4.143      16.714    
38         1806.001   4.165      16.714    
38.2       2780.002   4.186      16.717    
38.4       4172.995   4.213      16.716    
38.6       251        4.229      16.718    
38.8       255        4.241      16.718    
39         220        4.273      16.718    
39.2       164        4.287      16.722    
39.4       168        4.316      16.722    
39.6       199        4.336      16.722    
39.8       232        4.351      16.722    
40         264        4.365      16.722    
40.2       191        4.399      16.722    
40.4       191        4.411      16.725    
40.6       168        4.427      16.726    
40.8       196        4.454      16.726    
41         159        4.469      16.726    
41.2       172        4.469      16.726    
41.4       179        4.506      16.726    
41.6       259        4.534      16.726    
41.8       291        4.554      16.731    
42         278        4.567      16.731    
42.2       339        4.581      16.731    
42.4       292        4.599      16.731    
42.6       288        4.629      16.731    
42.8       253        4.643      16.731    
43         246        4.68       16.731    
43.2       266        4.693      16.732    
43.4       206        4.708      16.735    
43.6       225        4.73       16.735    
43.8       211        4.751      16.735    
44         207        4.768      16.735    
44.2       273        4.795      16.735    
44.4       245        4.816      16.739    
44.6       216        4.83       16.739    
44.8       214        4.86       16.739    
45         184        4.878      16.739    
45.2       257        4.89       16.743    
45.4       284        4.905      16.743    
45.6       257        4.925      16.743    
45.8       233        4.954      16.743    
46         226        4.969      16.746    
46.2       290        4.99       16.745    
46.4       294        5.012      16.747    
