~Version
 VERS              .         2.0                           : CWLS LOG ASCII STANDARD - VERSION 2.0
 WRAP              .         NO                            : ONE LINE PER DEPTH STEP
 DLM               .         SPACE                         : DELIMITING CHARACTER(SPACE TAB OR COMMA)
~Well Information
#_______________________________________________________________________________
#
#PARAMETER_NAME    .UNIT     VALUE                         : DESCRIPTION
#_______________________________________________________________________________
STRT               .M        2664.6                        : First reference value
STOP               .M        2772.999892                   : Last reference value
STEP               .M        0.1999998                     : Step increment
NULL               .         -9999                         : Missing value
COMP               .                                       : Company
WELL               .         616                           : Well name
FLD                .                                       : Field
LOC                .                                       : Location
CNTY               .                                       : County
STAT               .                                       : State
CTRY               .                                       : Country
SRVC               .                                       : Service Company
DATE               .                                       : Date
API                .                                       : API number
PROJECT_UPGRADE_TIME .         2021-03-18T21_24_50           : 
group              .         Good                          : 
~Parameter Information Block
#_______________________________________________________________________________
#
#PARAMETER_NAME    .UNIT     VALUE                         : DESCRIPTION
#_______________________________________________________________________________
SET                .         D8102_D_2                     : 
COMM               .                                       : 
OTHER              .         Программное обеспечение станции MONITOR-386EX 25/12/99 15_08_10   BGF V52 22/08/01 16_56_30   4_SNGF_BGF_N_011645: 
OTHER_10           .         Тарировки_                    : 
OTHER_11           .         TM.GRD = 0.00412*TM$.UE + -2.13: 
OTHER_12           .         MN.ATM = (5.87652e-006*TM.GRD + 0.01993)*(MN$.UE + -2.72*TM.GRD + -1925): 
OTHER_13           .         GK.MKR/H = GK$.UE / 57.4657   : 
OTHER_2            .         Kedr.exe версия 3.4.2.51      : 
OTHER_3            .         KedrData.dll версия 3.4.2.24  : 
OTHER_4            .         Драйвер версия 2.1.0.2        : 
OTHER_5            .         Мнемоники версия 3.3 S        : 
OTHER_6            .         Прибор_ АКП4-90               : 
OTHER_7            .         Номер прибора_ 53             : 
OTHER_8            .         Режим_ АКП4_90                : 
OTHER_9            .         Форма_ ПК-53ое                : 
PROJECT_UPGRADE_TIME .         2021-03-18T21_24_50           : 
PRTY               .         ПРП-614                       : N партии
SRVC               .         Глухов М.В.                   : Начальник партии
TLFamily_DEPT      .         Measured Depth                : 
TLFamily_GK        .         Russian Gamma Ray             : 
TLFamily_LM        .         Casing Collar locator         : 
TLFamily_MN        .                                       : 
group              .         second                        : 
~Curve Information
#_______________________________________________________________________________
#
#LOGNAME           .UNIT     LOG_ID                        : DESCRIPTION
#_______________________________________________________________________________
DEPT               .M                                      : Depth curve 
GK                 .мкР/ч                                  : Естественная гамма-активность,мкР/ч 
LM                 .е.ацп                                  : Локатор муфт,е.ацп 
MN                 .атм                                    : 12 Давление, атм. -  140.0 см 
~Ascii
# ...
2736.199928 5.38       119        250.161   
2736.399928 5.34       119.095    250.201   
2736.599928 5.06       311.9      250.241   
2736.799928 5.17       110.01     250.241   
2736.999928 5.6        130.026    250.241   
2737.199927 5.84       182.999    250.281   
2737.399927 5.71       179.999    250.281   
2737.599927 4.87       178.01     250.301   
2737.799927 5.2        198.022    250.301   
2737.999927 6.18       243.02     250.361   
2738.199926 6.451      282.947    250.387   
2738.399926 7.951      175.009    250.381   
2738.599926 9.41       194.063    250.401   
2738.799926 9.05       321.012    250.44    
2738.999926 9.35       345.945    250.46    
2739.199925 10.13      233.989    250.46    
2739.399925 10.01      210.978    250.46    
2739.599925 10.04      166.042    250.52    
2739.799925 9.78       250.996    250.527   
2739.999925 10.25      241.943    250.533   
2740.199924 10.66      127.012    250.56    
2740.399924 11.01      151.078    250.56    
2740.599924 10.179     308.974    250.62    
2740.799924 8.85       255.927    250.6     
2740.999924 8.65       109.022    250.64    
2741.199923 7.95       153.008    250.653   
2741.399923 7.41       169.142    250.699   
2741.599923 7.85       456.896    250.689   
2741.799923 7.74       246.009    250.686   
2741.999923 7.19       264.965    250.719   
2742.199922 7.08       194.013    250.719   
2742.399922 7.55       220.969    250.719   
2742.599922 7.43       159.001    250.759   
2742.799922 7.38       161.045    250.786   
2742.999922 7.33       252.972    250.819   
2743.199921 7.28       196.952    250.819   
2743.399921 7.2        99.021     250.832   
2743.599921 6.97       142.083    250.852   
2743.799921 6.56       309.069    250.859   
2743.999921 6.26       447.886    250.879   
2744.19992 7.07       217.063    250.899   
2744.39992 7.6        344.016    250.919   
2744.59992 7.32       375.865    250.959   
2744.79992 6.82       101.998    250.965   
2744.99992 6.8        97.038     250.968   
2745.199919 6.67       173.05     251.018   
2745.399919 6.18       274.971    251.038   
2745.599919 6.26       216.06     251.038   
2745.799919 6.63       338.183    251.038   
2745.999919 6.49       708.98     251.091   
2746.199918 5.88       672.04     251.125   
2746.399918 6.58       8847.457   251.111   
2746.599918 7.56       21890.43   251.151   
2746.799918 7.67       514.859    251.168   
2746.999918 8.11       230.123    251.198   
2747.199917 8.23       477.83     251.191   
2747.399917 7.81       134.039    251.198   
2747.599917 7.19       213.15     251.258   
2747.799917 6.8        515.899    251.277   
2747.999917 6.67       312.068    251.258   
2748.199916 6.89       448.904    251.277   
2748.399916 7.31       254.046    251.317   
2748.599916 7.42       346.919    251.317   
2748.799916 7.37       183.022    251.324   
2748.999916 8.11       227.196    251.39    
2749.199915 8.02       623.795    251.412   
2749.399915 7.52       208.987    251.417   
2749.599915 7.5        181.956    251.417   
2749.799915 7.41       94.015     251.457   
2749.999915 7.06       125.078    251.463   
2750.199914 7.05       283.004    251.477   
2750.399914 7.48       291.041    251.477   
2750.599914 7.47       373.079    251.517   
2750.799914 7.46       532.872    251.543   
2750.999914 7.23       274.96     251.55    
2751.199913 6.87       195.028    251.556   
2751.399913 6.32       250.982    251.596   
2751.599913 6.24       215.133    251.61    
2751.799913 6.84       483.88     251.63    
2751.999913 7.64       241.046    251.636   
2752.199912 7.73       333.981    251.656   
2752.399912 7.64       295.029    251.696   
2752.599912 7.64       353.059    251.636   
2752.799912 7.24       472.235    251.656   
2752.999912 6.98       946.656    251.676   
2753.199911 6.93       250.98     251.703   
2753.399911 7.38       211.019    251.696   
2753.599911 7.9        249.082    251.743   
2753.799911 7.81       414.997    251.756   
2753.999911 7.43       408.885    251.815   
2754.19991 7.28       177.019    251.816   
2754.39991 6.97       215.15     251.816   
2754.59991 7.05       518.204    251.835   
2754.79991 6.8        930.739    251.855   
2754.99991 6.48       402.856    251.876   
2755.199909 7.03       112.023    251.935   
2755.399909 7.17       159.2      251.948   
2755.599909 6.79       563.894    251.948   
2755.799909 6.87       348.939    251.97    
2755.999909 6.67       225.115    251.995   
2756.199908 6.43       457.051    252.035   
2756.399908 5.86       559.138    252.035   
2756.599908 5.49       837.623    252.048   
2756.799908 4.85       76.047     252.035   
2756.999908 4.95       170.101    252.055   
2757.199907 5.49       373.119    252.055   
2757.399907 5.01       617.25     252.068   
2757.599907 5.68       7185.466   252.161   
2757.799907 6.63       24261.23   252.104   
2757.999907 6.44       513.073    252.184   
2758.199906 6.28       660.845    252.134   
2758.399906 6.44       348.951    252.227   
2758.599906 6.38       251.023    252.247   
2758.799906 6.16       296.985    252.274   
2758.999906 6.02       267.17     252.294   
2759.199905 5.99       610.804    252.324   
2759.399905 5.9        216.029    252.354   
2759.599905 5.8        274.994    252.374   
2759.799905 5.62       262.126    252.413   
2759.999905 5.59       517.094    252.413   
2760.199904 5.72       706.798    252.473   
2760.399904 5.69       299.108    252.473   
2760.599904 5.86       517.905    252.473   
2760.799904 5.43       326.19     252.513   
2760.999904 5.69       708.781    252.533   
2761.199903 6.13       267.153    252.553   
2761.399903 6.08       574.861    252.56    
2761.599903 6.15       294.167    252.593   
2761.799903 6.25       631.02     252.606   
2761.999903 6.03       671.147    252.633   
2762.199902 5.47       967.936    252.673   
2762.399902 5.16       837.813    252.692   
2762.599902 5.11       461.044    252.712   
2762.799902 6          548.968    252.712   
2762.999902 6.83       484.892    252.746   
2763.199901 6.49       267.246    252.752   
2763.399901 6.18       764.05     252.762   
2763.599901 5.74       864.856    252.779   
2763.799901 5.38       575.051    252.832   
2763.999901 5.69       676.953    252.832   
2764.1999  6.59       581.927    252.832   
2764.3999  6.73       435.118    252.852   
2764.5999  5.8        673.956    252.885   
2764.7999  5.27       586.135    252.919   
2764.9999  5.72       858.084    252.925   
2765.199899 6.14       1027.849   252.932   
2765.399899 6.03       723.977    252.985   
2765.599899 5.6        678.016    252.991   
2765.799899 5.33       710.133    253.031   
2765.999899 5.46       978.088    253.045   
2766.199898 5.29       1154.805   253.064   
2766.399898 5.01       761.746    253.084   
2766.599898 4.82       2265.639   253.104   
2766.799898 4.88       3552.845   253.111   
2766.999898 4.87       3239.545   253.131   
2767.199897 5.11       306.848    253.151   
2767.399897 5.74       1          253.197   
2767.599897 5.5        1          253.244   
2767.799897 5.68       1          253.257   
2767.999897 5.95       1          253.251   
2768.199896 5.92       1          253.251   
2768.399896 5.72       1          253.27    
2768.599896 5.67       1          253.271   
2768.799896 5.85       1          253.31    
2768.999896 6.17       1          253.317   
2769.199895 6.21       1          253.337   
2769.399895 6.2        1          253.33    
2769.599895 6.23       1          253.31    
2769.799895 6.04       1          253.31    
2769.999895 5.62       1          253.31    
2770.199894 5.55       1          253.32    
2770.399894 5.63       1          253.344   
2770.599894 5.72       1          253.35    
2770.799894 5.82       1          253.33    
2770.999894 5.8        1          253.291   
2771.199893 45.92      1          253.271   
2771.399893 85.521     1          253.277   
2771.599893 570.18     1          253.284   
2771.799893 570.18     1          253.304   
