~Version
 VERS              .         2.0                           : CWLS LOG ASCII STANDARD - VERSION 2.0
 WRAP              .         NO                            : ONE LINE PER DEPTH STEP
 DLM               .         SPACE                         : DELIMITING CHARACTER(SPACE TAB OR COMMA)
~Well Information
#_______________________________________________________________________________
#
#PARAMETER_NAME    .UNIT     VALUE                         : DESCRIPTION
#_______________________________________________________________________________
STRT               .M        1.8                           : First reference value
STOP               .M        2776                          : Last reference value
STEP               .M        0.2                           : Step increment
NULL               .         -9999                         : Missing value
COMP               .                                       : Company
WELL               .         616                           : Well name
FLD                .                                       : Field
LOC                .                                       : Location
CNTY               .                                       : County
STAT               .                                       : State
CTRY               .                                       : Country
SRVC               .                                       : Service Company
DATE               .                                       : Date
API                .                                       : API number
PROJECT_UPGRADE_TIME .         2021-03-18T21_24_50           : 
group              .         Good                          : 
~Parameter Information Block
#_______________________________________________________________________________
#
#PARAMETER_NAME    .UNIT     VALUE                         : DESCRIPTION
#_______________________________________________________________________________
SET                .         D1799_D                       : 
OTHER              .         Программное обеспечение станции MONITOR-386EX 25/12/99 15_08_10   BGF V52 22/08/01 16_56_30   3.1_SNGF___BGF_N_092049: 
OTHER_10           .         Тарировки_                    : 
OTHER_11           .         TM.GRD = 0.00403*TM$.UE + -1.07: 
OTHER_12           .         MN.ATM = (9.34907e-006*TM.GRD + 0.02171)*(MN$.UE + -7.93*TM.GRD + -1787): 
OTHER_13           .         GK.MKR/H = LM. / 42.4676      : 
OTHER_14           .         GK.FLT = 0.1*GK.MKR/H[-1] + (1-0.1)*GK.MKR/H[0]: 
OTHER_2            .         Kedr.exe версия 3.4.2.51      : 
OTHER_3            .         KedrData.dll версия 3.4.2.24  : 
OTHER_4            .         Драйвер версия 2.1.1.3        : 
OTHER_5            .         Мнемоники версия 3.3 S        : 
OTHER_6            .         Прибор_ КСА-Т4                : 
OTHER_7            .         Номер прибора_ 03             : 
OTHER_8            .         Режим_ КСА-Т4                 : 
OTHER_9            .         Форма_ КВА.                   : 
PROJECT_UPGRADE_TIME .         2021-03-18T21_24_49           : 
TLFamily_DEPT      .         Measured Depth                : 
TLFamily_GK        .         Gamma Ray                     : 
TLFamily_GK$       .                                       : 
TLFamily_GK_2      .         Gamma Ray                     : 
TLFamily_LM        .         Casing Collar locator         : 
TLFamily_METKA     .                                       : 
TLFamily_MN        .                                       : 
TLFamily_MN$       .                                       : 
TLFamily_RCOR      .                                       : 
TLFamily_SPID      .         Spontaneous Potential         : 
TLFamily_TENS      .         Cable Tension                 : 
TLFamily_TIME      .         Time                          : 
TLFamily_TM        .         Temperature                   : 
TLFamily_TM$       .         Temperature                   : 
group              .         prim                          : 
~Curve Information
#_______________________________________________________________________________
#
#LOGNAME           .UNIT     LOG_ID                        : DESCRIPTION
#_______________________________________________________________________________
DEPT               .M                                      : 1 Глубина, м -    0.0 см 
GK                 .MKR/H                                  : 13 Гамма-активность, мкр./ч -  110.0 см 
GK$                .UE                                     : 10 Гамма-активность, усл.ед. -  110.0 см 
GK_2               .FLT                                    : 14 Гамма-активность фильтрованная, мкр./ч -  110.0 см 
LM                 .                                       : 9 Локатор муфт,  -   20.0 см 
METKA              .                                       : 3 Метки,  -    0.0 см 
MN                 .ATM                                    : 12 Давление, атм. -  160.0 см 
MN$                .UE                                     : 8 Давление, усл.ед. -  160.0 см 
RCOR               .CM/KM                                  : 5 Коррекция по ролику, см/км -    0.0 см 
SPID               .M/H                                    : 2 Скорость, м/час -    0.0 см 
TENS               .T                                      : 6 Натяжение кабеля, т -    0.0 см 
TIME               .S                                      : 4 Время, сек -    0.0 см 
TM                 .GRD                                    : 11 Температура, °C -  170.0 см 
TM$                .UE                                     : 7 Температура, усл.ед. -  170.0 см 
~Ascii
# ...
927.4      9.4        399        9.4        736        0          84.357     5907       -908       2033       -0.09      2039.27    37.271     9514      
927.6      9.4        399        9.4        802        0          84.376     5908       -908       2034       -0.09      2039.61    37.274     9515      
927.8      9.4        399        9.4        802        0          84.382     5908       -908       2036       -0.09      2039.96    37.28      9516      
928        9.49       403        9.46       715        0          84.395     5909       -908       2035       -0.09      2040.33    37.284     9517      
928.2      9.49       403        9.48       654        0          84.416     5910       -908       2029       -0.09      2040.68    37.288     9518      
928.4      9.49       403        9.49       623        0          84.437     5911       -908       2029       -0.09      2041.03    37.292     9519      
928.6      9.49       403        9.49       768        0          84.458     5912       -908       2037       -0.09      2041.39    37.3       9521      
928.8      9.49       403        9.49       745        0          84.479     5913       -908       2042       -0.09      2041.73    37.304     9522      
929        9.49       403        9.49       690        0          84.488     5913       -908       2042       -0.09      2042.05    37.308     9523      
929.2      9.49       403        9.49       675        0          84.496     5913       -908       2036       -0.09      2042.43    37.311     9524      
929.4      9.58       407        9.55       691        0          84.517     5914       -908       2031       -0.09      2042.78    37.315     9525      
929.6      9.61       408        9.59       804        0          84.539     5915       -908       2033       -0.09      2043.13    37.319     9526      
929.8      9.61       408        9.6        733        0          84.56      5916       -908       2035       -0.09      2043.5     37.323     9527      
930        9.61       408        9.6        665        0          84.58      5917       -908       2036       -0.09      2043.84    37.327     9528      
930.2      9.61       408        9.61       645        2          84.595     5918       -911       2037       -0.09      2044.25    37.334     9530      
930.4      9.61       408        9.61       641        0          84.599     5918       -911       2031       -0.09      2044.58    37.339     9531      
930.6      9.61       408        9.61       643        0          84.618     5919       -911       2027       -0.09      2044.94    37.343     9532      
930.8      9.37       398        9.46       619        0          84.64      5920       -911       2029       -0.09      2045.28    37.347     9533      
931        9.18       390        9.29       628        0          84.658     5921       -911       2031       -0.09      2045.65    37.353     9534      
931.2      9.18       390        9.22       603        0          84.66      5921       -911       2033       -0.09      2046.01    37.358     9536      
931.4      9.18       390        9.2        590        0          84.702     5923       -911       2028       -0.09      2046.36    37.362     9537      
931.6      9.18       390        9.19       625        0          84.722     5924       -911       2030       -0.09      2046.73    37.368     9538      
931.8      9.18       390        9.19       589        0          84.725     5924       -911       2031       -0.09      2047.05    37.375     9540      
932        9.18       390        9.18       564        0          84.744     5925       -911       2033       -0.09      2047.38    37.379     9541      
932.2      9.01       383        9.08       541        1          84.765     5926       -911       2030       -0.09      2047.76    37.38      9541      
932.4      8.81       374        8.91       515        0          84.765     5926       -911       2025       -0.09      2048.12    37.382     9541      
932.6      8.81       374        8.84       530        0          84.806     5928       -911       2025       -0.09      2048.48    37.386     9542      
932.8      8.81       374        8.82       569        0          84.829     5929       -911       2028       -0.09      2048.83    37.39      9543      
933        8.81       374        8.81       566        0          84.849     5930       -911       2030       -0.09      2049.18    37.394     9544      
933.2      8.81       374        8.81       554        0          84.871     5931       -911       2032       -0.09      2049.51    37.398     9545      
933.4      8.81       374        8.81       556        0          84.872     5931       -911       2033       -0.09      2049.86    37.402     9546      
933.6      8.83       375        8.82       722        0          84.887     5932       -911       2035       -0.09      2050.22    37.405     9547      
933.8      8.9        378        8.87       722        0          84.909     5933       -911       2037       -0.09      2050.57    37.409     9548      
934        8.9        378        8.89       697        0          84.93      5934       -911       2038       -0.09      2050.92    37.413     9549      
934.2      8.9        378        8.9        618        0          84.952     5935       -911       2039       -0.09      2051.28    37.417     9550      
934.4      8.9        378        8.9        812        0          84.972     5936       -911       2038       -0.09      2051.64    37.422     9551      
934.6      8.9        378        8.9        1325       0          84.979     5936       -911       2032       -0.09      2051.98    37.429     9553      
934.8      8.9        378        8.9        5447       0          84.99      5937       -911       2030       -0.09      2052.34    37.433     9554      
935        9.58       407        9.33       6555       0          85.01      5938       -911       2037       -0.09      2052.7     37.437     9555      
935.2      9.65       410        9.53       4218       0          85.031     5938       -911       2038       -0.09      2053.02    37.445     9557      
935.4      9.65       410        9.61       2774       0          85.042     5939       -911       2039       -0.09      2053.38    37.449     9558      
935.6      9.65       410        9.64       1845       0          85.059     5940       -911       2040       -0.09      2053.75    37.452     9559      
935.8      9.65       410        9.65       1321       0          85.085     5941       -911       2034       -0.09      2054.11    37.456     9560      
936        9.65       410        9.65       1014       0          85.093     5941       -911       2029       -0.09      2054.45    37.46      9561      
936.2      9.65       410        9.65       838        0          85.112     5942       -911       2031       -0.09      2054.79    37.464     9562      
936.4      9.67       411        9.66       921        0          85.127     5943       -911       2033       -0.09      2055.14    37.471     9564      
936.6      9.68       411        9.67       837        0          85.136     5943       -911       2034       -0.09      2055.49    37.476     9565      
936.8      9.68       411        9.68       913        0          85.172     5945       -911       2030       -0.09      2055.86    37.48      9566      
937        9.68       411        9.68       793        0          85.192     5946       -911       2031       -0.09      2056.21    37.483     9567      
937.2      9.68       411        9.68       742        0          85.193     5946       -911       2033       -0.09      2056.57    37.49      9568      
937.4      9.68       411        9.68       721        0          85.213     5947       -911       2034       -0.09      2056.9     37.495     9570      
937.6      9.68       411        9.68       597        0          85.234     5948       -911       2036       -0.09      2057.25    37.499     9571      
