~Version
 VERS              .         2.0                           : CWLS LOG ASCII STANDARD - VERSION 2.0
 WRAP              .         NO                            : ONE LINE PER DEPTH STEP
 DLM               .         SPACE                         : DELIMITING CHARACTER(SPACE TAB OR COMMA)
~Well Information
#_______________________________________________________________________________
#
#PARAMETER_NAME    .UNIT     VALUE                         : DESCRIPTION
#_______________________________________________________________________________
STRT               .M        2659.8                        : First reference value
STOP               .M        2768.999945                   : Last reference value
STEP               .M        0.1999999                     : Step increment
NULL               .         -9999                         : Missing value
COMP               .                                       : Company
WELL               .         616                           : Well name
FLD                .                                       : Field
LOC                .                                       : Location
CNTY               .                                       : County
STAT               .                                       : State
CTRY               .                                       : Country
SRVC               .                                       : Service Company
DATE               .                                       : Date
API                .                                       : API number
PROJECT_UPGRADE_TIME .         2021-03-18T21_24_50           : 
group              .         Good                          : 
~Parameter Information Block
#_______________________________________________________________________________
#
#PARAMETER_NAME    .UNIT     VALUE                         : DESCRIPTION
#_______________________________________________________________________________
SET                .         D1169_D                       : 
OTHER              .         Программное обеспечение станции MONITOR-386EX 25/12/99 15_08_10   BGF V52 22/08/01 16_56_30   3.2_BGF_N_3070031: 
OTHER_10           .         Тарировки_                    : 
OTHER_11           .         TM.GRD = 0.00403*TM$.UE + -1.19: 
OTHER_12           .         MN.ATM = (7.1e-006*TM.GRD + 0.02017)*(MN$.UE + -3.03*TM.GRD + -1833): 
OTHER_13           .         Id error                      : 
OTHER_2            .         Kedr.exe версия 3.4.2.51      : 
OTHER_3            .         KedrData.dll версия 3.4.2.24  : 
OTHER_4            .         Драйвер версия 2.1.1.8        : 
OTHER_5            .         Мнемоники версия 3.3 S        : 
OTHER_6            .         Прибор_ КСА-М1                : 
OTHER_7            .         Номер прибора_ 265            : 
OTHER_8            .         Режим_ КСА-М1                 : 
OTHER_9            .         Форма_ ТЕРМОМЕТР              : 
PROJECT_UPGRADE_TIME .         2021-03-18T21_24_49           : 
TLFamily_DEPT      .         Measured Depth                : 
TLFamily_GK        .         Gamma Ray                     : 
TLFamily_GK$       .                                       : 
TLFamily_LM        .         Casing Collar locator         : 
TLFamily_METKA     .                                       : 
TLFamily_MN        .                                       : 
TLFamily_MN$       .                                       : 
TLFamily_RCOR      .                                       : 
TLFamily_SPID      .         Spontaneous Potential         : 
TLFamily_STD       .                                       : 
TLFamily_TENS      .         Cable Tension                 : 
TLFamily_TIME      .         Time                          : 
TLFamily_TM        .         Temperature                   : 
TLFamily_TM$       .         Temperature                   : 
TLFamily_VGD       .         Gas Volume                    : 
group              .         prim                          : 
~Curve Information
#_______________________________________________________________________________
#
#LOGNAME           .UNIT     LOG_ID                        : DESCRIPTION
#_______________________________________________________________________________
DEPT               .M                                      : 1 Глубина, м -    0.0 см 
GK                 .MKR/H                                  : 15 Гамма-активность, мкр./ч -  110.0 см 
GK$                .UE                                     : 12 Гамма-активность, усл.ед. -  110.0 см 
LM                 .                                       : 10 Локатор муфт,  -   20.0 см 
METKA              .                                       : 3 Метки,  -    0.0 см 
MN                 .ATM                                    : 14 Давление, атм. -  160.0 см 
MN$                .UE                                     : 8 Давление, усл.ед. -  160.0 см 
RCOR               .CM/KM                                  : 5 Коррекция по ролику, см/км -    0.0 см 
SPID               .M/H                                    : 2 Скорость, м/час -    0.0 см 
STD                .                                       : 11 Приток,  -  170.0 см 
TENS               .T                                      : 6 Натяжение кабеля, т -    0.0 см 
TIME               .S                                      : 4 Время, сек -    0.0 см 
TM                 .GRD                                    : 13 Температура, °C -  180.0 см 
TM$                .UE                                     : 7 Температура, усл.ед. -  180.0 см 
VGD                .                                       : 9 Влагомер,  -  170.0 см 
~Ascii
# ...
2738.199961 8.62       376        1          0          262.707    14731      -1400      589        32375      0          26036.78   89.517     22508      6557      
2738.399961 8.78       381        1          0          262.728    14732      -1400      582        32374      0          26038.02   89.529     22511      6558      
2738.599961 8.88       382        1          0          262.74     14733      -1400      578        32375      0          26039.31   89.537     22513      6557      
2738.79996 8.96       387        1          0          262.75     14733      -1400      579        32374      0          26040.49   89.544     22515      6557      
2738.99996 9.13       393        1          0          262.771    14734      -1400      590        32375      0          26041.73   89.554     22517      6557      
2739.19996 9.18       394        1          0          262.792    14735      -1400      588        32374      0          26042.96   89.564     22520      6558      
2739.39996 9.25       397        1          0          262.792    14735      -1400      586        32374      0          26044.21   89.578     22523      6557      
2739.59996 9.28       397        1          0          262.813    14736      -1400      584        32374      0          26045.45   89.582     22524      6557      
2739.79996 8.86       370        1          0          262.834    14737      -1400      589        32375      0          26046.64   89.593     22527      6558      
2739.99996 8.72       370        1          2          262.843    14737      -1400      574        32374      0          26048.01   89.598     22528      6558      
2740.19996 8.92       387        1          0          262.876    14739      -1400      575        32374      0          26049.28   89.602     22529      6558      
2740.39996 9.07       394        1          0          262.879    14739      -1400      577        32374      0          26050.45   89.61      22531      6558      
2740.59996 9.45       411        1          0          262.897    14740      -1400      588        32374      0          26051.75   89.615     22532      6558      
2740.79996 9.56       411        1          0          262.915    14741      -1400      581        32374      0          26052.99   89.626     22535      6559      
2740.999959 9.26       390        1          0          262.918    14741      -1400      585        32373      0          26054.17   89.634     22537      6558      
2741.199959 9.16       390        1          0          262.939    14742      -1400      585        32374      0          26055.4    89.642     22539      6558      
2741.399959 9.04       384        1          0          262.96     14743      -1400      584        32374      0          26056.64   89.65      22541      6558      
2741.599959 9          384        1          0          262.971    14744      -1400      583        32375      0          26057.88   89.654     22542      6558      
2741.799959 8.73       367        1          0          262.99     14744      -1400      593        32373      0          26059.11   89.658     22543      6557      
2741.999959 8.58       361        1          0          263.002    14745      -1400      590        32374      0          26060.35   89.662     22544      6558      
2742.199959 8.31       350        1          0          263.023    14746      -1400      587        32374      0          26061.59   89.667     22545      6558      
2742.399959 8.22       350        1          0          263.023    14746      -1400      585        32374      0          26062.81   89.675     22547      6557      
2742.599959 7.83       327        1          0          263.044    14747      -1400      589        32373      0          26064      89.678     22548      6557      
2742.799959 7.7        327        1          0          263.065    14748      -1400      580        32374      0          26065.28   89.678     22548      6558      
2742.999958 7.83       338        1          0          263.086    14749      -1400      585        32374      0          26066.48   89.682     22549      6557      
2743.199958 7.88       338        1          0          263.107    14750      -1400      589        32374      0          26067.66   89.687     22550      6558      
2743.399958 8.49       381        1          0          263.128    14751      -1400      587        32374      0          26069.02   89.691     22551      6558      
2743.599958 8.78       381        1          0          263.149    14752      -1400      584        32374      0          26070.2    89.695     22552      6557      
2743.799958 8.71       371        1          0          263.167    14753      -1400      589        32374      0          26071.4    89.703     22554      6558      
2743.999958 8.69       371        1          0          263.191    14754      -1400      589        32374      0          26072.6    89.71      22556      6558      
2744.199958 8.42       354        1          0          263.2      14754      -1400      584        32374      0          26073.86   89.715     22557      6558      
2744.399958 8.32       354        1          0          263.233    14756      -1400      589        32374      0          26075.15   89.719     22558      6559      
2744.599958 8.45       365        1          0          263.254    14757      -1400      587        32374      0          26076.32   89.723     22559      6558      
2744.799958 8.51       365        1          0          263.272    14758      -1400      585        32374      0          26077.56   89.727     22560      6559      
2744.999957 8.82       388        1          0          263.295    14759      -1400      584        32373      0          26078.79   89.73      22561      6560      
2745.199957 9          388        1          0          263.31     14760      -1400      588        32374      0          26079.99   89.735     22562      6559      
2745.399957 8.96       380        1          0          263.327    14761      -1400      586        32374      0          26081.26   89.739     22563      6559      
2745.599957 8.91       380        1          0          263.337    14761      -1400      584        32374      0          26082.51   89.745     22565      6559      
2745.799957 8.44       348        1          0          263.358    14762      -1400      583        32374      0          26083.69   89.748     22565      6560      
2745.999957 8.23       348        1          0          263.379    14763      -1400      587        32374      0          26084.93   89.752     22566      6560      
2746.199957 8.13       345        1          0          263.4      14764      -1400      586        32374      0          26086.22   89.759     22568      6560      
2746.399957 8.09       345        1          0          263.4      14764      -1400      585        32374      0          26087.42   89.763     22569      6559      
2746.599957 8.28       363        1          0          263.433    14766      -1400      583        32374      0          26088.67   89.77      22571      6560      
2746.799957 8.43       363        1          0          263.463    14767      -1400      594        32374      0          26089.85   89.775     22572      6560      
2746.999956 8.31       347        1          0          263.468    14767      -1400      589        32373      0          26091.1    89.779     22573      6560      
2747.199956 8.18       347        1          0          263.484    14768      -1400      592        32374      0          26092.34   89.783     22574      6560      
2747.399956 7.34       287        1          0          263.505    14769      -1400      589        32374      0          26093.55   89.788     22575      6560      
2747.599956 6.91       287        1          0          263.526    14770      -1400      589        32374      0          26094.83   89.795     22577      6560      
2747.799956 6.84       293        1          0          263.547    14771      -1400      583        32374      0          26096.06   89.798     22578      6561      
