~Version
 VERS              .         2.0                           : CWLS LOG ASCII STANDARD - VERSION 2.0
 WRAP              .         NO                            : ONE LINE PER DEPTH STEP
 DLM               .         SPACE                         : DELIMITING CHARACTER(SPACE TAB OR COMMA)
~Well Information
#_______________________________________________________________________________
#
#PARAMETER_NAME    .UNIT     VALUE                         : DESCRIPTION
#_______________________________________________________________________________
STRT               .M        2697.8                        : First reference value
STOP               .M        2752.8                        : Last reference value
STEP               .M        0.2                           : Step increment
NULL               .         -9999                         : Missing value
COMP               .                                       : Company
WELL               .         616                           : Well name
FLD                .                                       : Field
LOC                .                                       : Location
CNTY               .                                       : County
STAT               .                                       : State
CTRY               .                                       : Country
SRVC               .                                       : Service Company
DATE               .                                       : Date
API                .                                       : API number
PROJECT_UPGRADE_TIME .         2021-03-18T21_24_50           : 
group              .         Good                          : 
~Parameter Information Block
#_______________________________________________________________________________
#
#PARAMETER_NAME    .UNIT     VALUE                         : DESCRIPTION
#_______________________________________________________________________________
SET                .         D1170_D                       : 
OTHER              .         Программное обеспечение станции MONITOR-386EX 25/12/99 15_08_10   BGF V52 22/08/01 16_56_30   3.2_BGF_N_3070031: 
OTHER_10           .         Тарировки_                    : 
OTHER_11           .         RGD.M3/SUT = 0.603482 * RGD.UE + 9.9644: 
OTHER_2            .         Kedr.exe версия 3.4.2.51      : 
OTHER_3            .         KedrData.dll версия 3.4.2.24  : 
OTHER_4            .         Драйвер версия 2.1.0.2        : 
OTHER_5            .         Мнемоники версия 3.3 S        : 
OTHER_6            .         Прибор_ Гранат                : 
OTHER_7            .         Номер прибора_ 257            : 
OTHER_8            .         Режим_ КСА_Гранат             : 
OTHER_9            .         Форма_ РАСХОД                 : 
PROJECT_UPGRADE_TIME .         2021-03-18T21_24_49           : 
TLFamily_DEPT      .         Measured Depth                : 
TLFamily_METKA     .                                       : 
TLFamily_RCOR      .                                       : 
TLFamily_RGD       .                                       : 
TLFamily_RGD_2     .                                       : 
TLFamily_SPID      .         Spontaneous Potential         : 
TLFamily_TENS      .         Cable Tension                 : 
TLFamily_TIME      .         Time                          : 
group              .         prim                          : 
~Curve Information
#_______________________________________________________________________________
#
#LOGNAME           .UNIT     LOG_ID                        : DESCRIPTION
#_______________________________________________________________________________
DEPT               .M                                      : 1 Глубина, м -    0.0 см 
METKA              .                                       : 3 Метки,  -    0.0 см 
RCOR               .CM/KM                                  : 5 Коррекция по ролику, см/км -    0.0 см 
RGD                .UE                                     : 7 Расход, имп/мин -  232.0 см 
RGD_2              .M3/SUT                                 : 8 Расход, м3/сут -  232.0 см 
SPID               .M/H                                    : 2 Скорость, м/час -    0.0 см 
TENS               .T                                      : 6 Натяжение кабеля, т -    0.0 см 
TIME               .S                                      : 4 Время, сек -    0.0 см 
~Ascii
# ...
2734.2     0          -1400      74         54.89      -171       0          26703.64  
2734.4     0          -1400      77         56.54      -185       0          26699.44  
2734.6     0          -1400      73         54.28      -179       0          26695.34  
2734.8     0          -1400      77         56.49      -181       0          26690.95  
2735       0          -1400      84         60.36      -166       0          26686.96  
2735.2     0          -1400      85         61.22      -185       0          26682.86  
2735.4     0          -1400      84         60.38      -175       0          26678.67  
2735.6     0          -1400      73         54         -177       0          26674.47  
2735.8     0          -1400      72         53.69      -181       0          26670.28  
2736       0          -1400      75         55.14      -185       0          26666.29  
2736.2     0          -1400      82         59.58      -158       0          26662.19  
2736.4     0          -1400      89         63.7       -166       0          26657.79  
2736.6     0          -1400      84         60.66      -186       0          26653.71  
2736.8     0          -1400      78         57.27      -182       0          26649.61  
2737       0          -1400      72         53.54      -182       0          26645.31  
2737.2     0          -1400      81         58.83      -161       0          26641.22  
2737.4     0          -1400      75         54.95      -165       0          26637.12  
2737.6     0          -1400      78         57.09      -163       0          26633.03  
2737.8     0          -1400      87         62.76      -167       0          26628.74  
2738       0          -1400      81         58.73      -169       0          26624.64  
2738.2     0          -1400      79         57.37      -171       0          26620.55  
2738.4     0          -1400      82         59.47      -178       0          26616.25  
2738.6     0          -1400      95         67.36      -183       0          26612.16  
2738.8     0          -1400      83         59.83      -165       0          26608.16  
2739       0          -1400      79         57.44      -190       0          26604.27  
2739.2     0          -1400      84         60.84      -195       0          26600.38  
2739.4     0          -1400      85         61.01      -191       0          26596.78  
2739.6     0          -1400      84         60.87      -173       0          26593.09  
2739.8     0          -1400      83         59.94      -204       0          26589.39  
2740       2          -1400      78         56.83      -192       0          26585.8   
2740.2     0          -1400      83         59.95      -189       0          26581.6   
2740.4     0          -1400      90         64.06      -212       0          26577.8   
2740.6     0          -1400      88         62.94      -194       0          26574.21  
2740.8     0          -1400      91         65.17      -193       0          26570.62  
2741       0          -1400      96         67.84      -203       0          26567.02  
2741.2     0          -1400      100        70.52      -198       0          26563.23  
2741.4     0          -1400      94         66.58      -191       0          26559.53  
2741.6     0          -1400      105        73.18      -205       0          26555.93  
2741.8     0          -1400      103        71.92      -186       0          26552.34  
2742       0          -1400      100        70.31      -192       0          26548.64  
2742.2     0          -1400      104        72.71      -210       0          26544.95  
2742.4     0          -1400      91         65.11      -185       0          26541.35  
2742.6     0          -1400      92         65.22      -214       0          26537.46  
2742.8     0          -1400      92         65.18      -214       0          26533.87  
2743       0          -1400      94         66.68      -190       0          26530.27  
2743.2     0          -1400      90         64.18      -179       0          26526.67  
2743.4     0          -1400      98         68.94      -191       0          26522.88  
2743.6     0          -1400      87         62.61      -210       0          26519.18  
2743.8     0          -1400      81         59.08      -190       0          26515.59  
2744       0          -1400      98         69.25      -190       0          26511.79  
2744.2     0          -1400      97         68.34      -198       0          26508.1   
2744.4     0          -1400      90         64.42      -189       0          26504.5   
2744.6     0          -1400      98         68.85      -187       0          26500.8   
2744.8     0          -1400      95         67.58      -191       0          26497.02  
2745       0          -1400      93         66.15      -213       0          26493.43  
2745.2     0          -1400      99         69.81      -187       0          26489.83  
2745.4     0          -1400      95         67.53      -214       0          26485.93  
2745.6     0          -1400      94         66.76      -192       0          26482.34  
2745.8     0          -1400      93         66.07      -190       0          26478.64  
2746       0          -1400      88         63.2       -188       0          26475.05  
2746.2     0          -1400      85         61         -191       0          26471.25  
2746.4     0          -1400      98         68.99      -217       0          26467.66  
2746.6     0          -1400      97         68.49      -188       0          26463.96  
2746.8     0          -1400      95         67.36      -219       0          26460.17  
2747       0          -1400      95         67.59      -192       0          26456.47  
2747.2     0          -1400      104        72.9       -218       0          26452.88  
2747.4     0          -1400      92         65.46      -165       0          26449.18  
2747.6     0          -1400      98         69.38      -209       0          26445.48  
2747.8     0          -1400      98         68.91      -198       0          26441.79  
2748       0          -1400      89         63.62      -187       0          26438.2   
2748.2     0          -1400      95         67.48      -192       0          26434.3   
2748.4     0          -1400      92         65.41      -197       0          26430.71  
2748.6     0          -1400      98         68.85      -190       0          26427.01  
2748.8     0          -1400      95         67.05      -172       0          26423.31  
2749       0          -1400      88         62.79      -193       0          26419.52  
2749.2     0          -1400      84         60.9       -190       0          26415.72  
2749.4     0          -1400      90         64.15      -183       0          26411.93  
2749.6     0          -1400      97         68.68      -190       0          26407.84  
2749.8     0          -1400      93         66.18      -170       0          26403.95  
2750       2          -1400      86         61.73      -166       0          26400.05  
2750.2     0          -1400      78         57         -156       0          26398.65  
2750.4     0          -1400      79         57.78      -170       0          26393.85  
2750.6     0          -9999      77         56.47      -9999      -9999      -9999     
2750.8     -9999      -9999      72         53.58      -9999      -9999      -9999     
2751       -9999      -9999      64         48.45      -9999      -9999      -9999     
2751.2     -9999      -9999      68         50.84      -9999      -9999      -9999     
2751.4     -9999      -9999      71         52.57      -9999      -9999      -9999     
2751.6     -9999      -9999      74         54.82      -9999      -9999      -9999     
2751.8     -9999      -9999      52         41.62      -9999      -9999      -9999     
2752       -9999      -9999      52         41.09      -9999      -9999      -9999     
2752.2     -9999      -9999      26         25.62      -9999      -9999      -9999     
