~Version
 VERS              .         2.0                           : CWLS LOG ASCII STANDARD - VERSION 2.0
 WRAP              .         NO                            : ONE LINE PER DEPTH STEP
 DLM               .         SPACE                         : DELIMITING CHARACTER(SPACE TAB OR COMMA)
~Well Information
#_______________________________________________________________________________
#
#PARAMETER_NAME    .UNIT     VALUE                         : DESCRIPTION
#_______________________________________________________________________________
STRT               .M        2649.8                        : First reference value
STOP               .M        2761.600056                   : Last reference value
STEP               .M        0.2000001                     : Step increment
NULL               .         -9999                         : Missing value
COMP               .                                       : Company
WELL               .         616                           : Well name
FLD                .                                       : Field
LOC                .                                       : Location
CNTY               .                                       : County
STAT               .                                       : State
CTRY               .                                       : Country
SRVC               .                                       : Service Company
DATE               .                                       : Date
API                .                                       : API number
PROJECT_UPGRADE_TIME .         2021-03-18T21_24_50           : 
group              .         Good                          : 
~Parameter Information Block
#_______________________________________________________________________________
#
#PARAMETER_NAME    .UNIT     VALUE                         : DESCRIPTION
#_______________________________________________________________________________
SET                .         D8106_D                       : 
OTHER              .         Программное обеспечение станции MONITOR-386EX 25/12/99 15_08_10   BGF V52 22/08/01 16_56_30   4_SNGF_BGF_N_011645: 
OTHER_10           .         Тарировки_                    : 
OTHER_11           .         TM.GRD = 0.00412*TM$.UE + -2.13: 
OTHER_12           .         MN.ATM = (5.87652e-006*TM.GRD + 0.01993)*(MN$.UE + -2.72*TM.GRD + -1925): 
OTHER_13           .         GK.MKR/H = GK$.UE / 57.4657   : 
OTHER_2            .         Kedr.exe версия 3.4.2.51      : 
OTHER_3            .         KedrData.dll версия 3.4.2.24  : 
OTHER_4            .         Драйвер версия 2.1.0.2        : 
OTHER_5            .         Мнемоники версия 3.3 S        : 
OTHER_6            .         Прибор_ АКП4-90               : 
OTHER_7            .         Номер прибора_ 53             : 
OTHER_8            .         Режим_ АКП4_90                : 
OTHER_9            .         Форма_ ПК-53ое                : 
PROJECT_UPGRADE_TIME .         2021-03-18T21_24_50           : 
TLFamily_DEPT      .         Measured Depth                : 
TLFamily_GK        .         Gamma Ray                     : 
TLFamily_GK$       .                                       : 
TLFamily_LM        .         Casing Collar locator         : 
TLFamily_METKA     .                                       : 
TLFamily_METKA_1   .                                       : 
TLFamily_MN        .                                       : 
TLFamily_MN$       .                                       : 
TLFamily_RCOR      .                                       : 
TLFamily_SPID      .         Spontaneous Potential         : 
TLFamily_TENS      .         Cable Tension                 : 
TLFamily_TIME      .         Time                          : 
TLFamily_TM        .         Temperature                   : 
TLFamily_TM$       .         Temperature                   : 
group              .         prim                          : 
~Curve Information
#_______________________________________________________________________________
#
#LOGNAME           .UNIT     LOG_ID                        : DESCRIPTION
#_______________________________________________________________________________
DEPT               .M                                      : 1 Глубина, м -    0.0 см 
GK                 .MKR/H                                  : 13 Гамма-активность, мкр./ч -   65.0 см 
GK$                .UE                                     : 10 Гамма-активность, усл.ед. -   65.0 см 
LM                 .                                       : 9 Локатор муфт,  -   30.0 см 
METKA              .                                       : 3 Метки,  -    0.0 см 
METKA_1            .                                       : 14 Маркеры - 65 см 
MN                 .ATM                                    : 12 Давление, атм. -  140.0 см 
MN$                .UE                                     : 8 Давление, усл.ед. -  140.0 см 
RCOR               .CM/KM                                  : 5 Коррекция по ролику, см/км -    0.0 см 
SPID               .M/H                                    : 2 Скорость, м/час -    0.0 см 
TENS               .T                                      : 6 Натяжение кабеля, т -    0.0 см 
TIME               .S                                      : 4 Время, сек -    0.0 см 
TM                 .GRD                                    : 11 Температура, °C -  145.0 см 
TM$                .UE                                     : 7 Температура, усл.ед. -  145.0 см 
~Ascii
2649.8000488 -9999      -9999      -9999      0          0          -9999      -9999      -9999      -9999      -9999      -9999      -9999      -9999     
2650       -9999      -9999      -9999      0          0          -9999      -9999      0          267        0.59       14365.04   -9999      -9999     
2650.2     -9999      -9999      22         0          0          -9999      -9999      0          267        0.56       14367.45   -9999      -9999     
2650.4     -9999      -9999      17         0          1          -9999      -9999      0          342        0.55       14368.82   -9999      -9999     
2650.6     6.37       366        1576       0          0          -9999      -9999      0          397        0.55       14370.26   -9999      -9999     
2650.800001 6.25       359        923        0          0          -9999      -9999      0          434        0.55       14371.7    -9999      -9999     
2651.000001 6.05       348        268        0          0          -9999      -9999      0          458        0.55       14373.05   -9999      -9999     
2651.200001 6.04       347        230        0          0          -9999      -9999      0          475        0.55       14374.49   -9999      -9999     
2651.400001 6.66       383        374        0          0          242.409    14088      0          486        0.54       14375.88   65.965     16528     
2651.600001 7.05       405        187        0          0          242.548    14095      0          494        0.53       14377.29   65.965     16528     
2651.800001 7.2        414        466        0          0          242.727    14104      0          498        0.53       14378.73   65.965     16528     
2652.000001 6.56       377        308        0          0          242.484    14092      0          494        0.53       14380.17   65.969     16529     
2652.200001 6.42       369        452        0          0          242.576    14096      0          499        0.55       14381.55   65.965     16528     
2652.400001 6.15       354        161        0          0          242.485    14092      0          492        0.55       14383      65.961     16527     
2652.600001 6.14       353        165        0          0          242.707    14103      0          498        0.55       14384.4    65.957     16526     
2652.800002 6.89       396        107        0          0          242.681    14102      0          502        0.55       14385.84   65.953     16525     
2653.000002 6.93       398        531        0          0          242.723    14104      0          504        0.55       14387.22   65.943     16522     
2653.200002 6.96       400        318        0          0          242.592    14097      0          506        0.55       14388.61   65.937     16521     
2653.400002 6.64       382        417        0          0          242.628    14099      0          507        0.55       14390.06   65.928     16519     
2653.600002 6.6        379        260        0          0          242.688    14102      0          508        0.55       14391.44   65.924     16518     
2653.800002 6.86       394        165        0          0          242.807    14108      0          503        0.55       14392.87   65.918     16516     
2654.000002 6.87       395        85         0          0          242.787    14107      0          505        0.55       14394.34   65.911     16515     
2654.200002 6.74       387        368        0          0          242.767    14106      0          495        0.55       14395.67   65.899     16512     
2654.400002 6.62       380        400        0          0          242.694    14102      0          500        0.55       14397.13   65.895     16511     
2654.600002 6.43       369        445        0          0          242.787    14107      0          504        0.55       14398.57   65.887     16509     
2654.800003 6.55       376        353        0          0          242.797    14108      0          506        0.55       14399.99   65.886     16509     
2655.000003 6.61       380        166        0          0          242.907    14113      0          507        0.55       14401.48   65.879     16507     
2655.200003 6.74       387        113        0          0          242.827    14109      0          498        0.55       14402.79   65.871     16505     
2655.400003 6.75       388        461        0          0          242.871    14111      0          503        0.55       14404.24   65.862     16503     
2655.600003 7.2        414        414        0          0          242.787    14107      0          504        0.55       14405.64   65.854     16501     
2655.800003 7.22       415        354        0          0          242.93     14114      0          506        0.55       14407.01   65.846     16499     
2656.000003 7.61       437        309        0          0          242.92     14114      0          502        0.55       14408.46   65.839     16497     
2656.200003 7.35       422        101        0          0          243.022    14119      0          506        0.55       14409.88   65.831     16496     
2656.400003 7.26       417        117        0          0          242.915    14113      0          506        0.55       14411.29   65.825     16494     
2656.600003 6.62       381        330        0          0          242.97     14116      0          507        0.55       14412.68   65.821     16493     
2656.800004 6.53       375        222        0          0          242.94     14115      0          508        0.55       14414.12   65.813     16491     
2657.000004 6.56       377        450        0          0          243.053    14120      0          505        0.55       14415.56   65.805     16489     
2657.200004 6.58       378        308        0          0          243.066    14121      0          505        0.55       14416.97   65.792     16486     
2657.400004 6.76       389        326        0          0          243.056    14120      0          506        0.55       14418.42   65.788     16485     
2657.600004 6.75       388        147        0          0          243.011    14118      0          499        0.55       14419.87   65.786     16484     
2657.800004 6.72       386        244        0          0          243.046    14120      0          502        0.55       14421.25   65.776     16482     
2658.000004 6.53       375        501        0          0          243.066    14121      0          494        0.55       14422.7    65.768     16480     
2658.200004 6.51       374        1317       0          0          243.15     14125      0          494        0.55       14424.18   65.76      16478     
2658.400004 6.3        362        857        0          0          243.158    14126      0          499        0.55       14425.54   65.753     16476     
2658.600004 5.83       335        570        0          0          243.133    14124      0          503        0.55       14427.06   65.739     16473     
2658.800005 5.11       294        213        0          0          243.153    14125      0          500        0.55       14428.44   65.726     16470     
2659.000005 4.76       274        329        0          0          243.166    14126      0          498        0.55       14429.93   65.718     16468     
2659.200005 4.6        264        141        0          0          243.226    14129      0          502        0.55       14431.34   65.707     16465     
2659.400005 5.05       290        457        0          0          243.265    14131      0          498        0.55       14432.8    65.691     16461     
2659.600005 5.15       296        343        0          0          243.27     14131      0          498        0.55       14434.24   65.681     16459     
2659.800005 5.3        305        659        2          0          243.245    14130      0          498        0.55       14435.67   65.673     16457     
2660.000005 5.45       313        197        0          0          243.266    14131      -2         496        0.55       14437.26   65.656     16453     
