~Version
 VERS              .         2.0                           : CWLS LOG ASCII STANDARD - VERSION 2.0
 WRAP              .         NO                            : ONE LINE PER DEPTH STEP
 DLM               .         SPACE                         : DELIMITING CHARACTER(SPACE TAB OR COMMA)
~Well Information
#_______________________________________________________________________________
#
#PARAMETER_NAME    .UNIT     VALUE                         : DESCRIPTION
#_______________________________________________________________________________
STRT               .M        2670                          : First reference value
STOP               .M        2776                          : Last reference value
STEP               .M        0.2                           : Step increment
NULL               .         -9999                         : Missing value
COMP               .                                       : Company
WELL               .         616                           : Well name
FLD                .                                       : Field
LOC                .                                       : Location
CNTY               .                                       : County
STAT               .                                       : State
CTRY               .                                       : Country
SRVC               .                                       : Service Company
DATE               .                                       : Date
API                .                                       : API number
PROJECT_UPGRADE_TIME .         2021-03-18T21_24_50           : 
group              .         Good                          : 
~Parameter Information Block
#_______________________________________________________________________________
#
#PARAMETER_NAME    .UNIT     VALUE                         : DESCRIPTION
#_______________________________________________________________________________
SET                .         D1803_D                       : 
OTHER              .         Программное обеспечение станции MONITOR-386EX 25/12/99 15_08_10   BGF V52 22/08/01 16_56_30   3.1_SNGF___BGF_N_092049: 
OTHER_10           .         Тарировки_                    : 
OTHER_11           .         TM.GRD = 0.00403*TM$.UE + -1.07: 
OTHER_12           .         MN.ATM = (9.34907e-006*TM.GRD + 0.02171)*(MN$.UE + -7.93*TM.GRD + -1787): 
OTHER_13           .         GK.MKR/H = LM. / 42.4676      : 
OTHER_14           .         GK.FLT = 0.1*GK.MKR/H[-1] + (1-0.1)*GK.MKR/H[0]: 
OTHER_2            .         Kedr.exe версия 3.4.2.51      : 
OTHER_3            .         KedrData.dll версия 3.4.2.24  : 
OTHER_4            .         Драйвер версия 2.1.1.3        : 
OTHER_5            .         Мнемоники версия 3.3 S        : 
OTHER_6            .         Прибор_ КСА-Т4                : 
OTHER_7            .         Номер прибора_ 03             : 
OTHER_8            .         Режим_ КСА-Т4                 : 
OTHER_9            .         Форма_ КВА.                   : 
PROJECT_UPGRADE_TIME .         2021-03-18T21_24_49           : 
TLFamily_DEPT      .         Measured Depth                : 
TLFamily_GK        .         Gamma Ray                     : 
TLFamily_GK$       .                                       : 
TLFamily_GK_2      .         Gamma Ray                     : 
TLFamily_LM        .         Casing Collar locator         : 
TLFamily_METKA     .                                       : 
TLFamily_MN        .                                       : 
TLFamily_MN$       .                                       : 
TLFamily_RCOR      .                                       : 
TLFamily_SPID      .         Spontaneous Potential         : 
TLFamily_TENS      .         Cable Tension                 : 
TLFamily_TIME      .         Time                          : 
TLFamily_TM        .         Temperature                   : 
TLFamily_TM$       .         Temperature                   : 
group              .         prim                          : 
~Curve Information
#_______________________________________________________________________________
#
#LOGNAME           .UNIT     LOG_ID                        : DESCRIPTION
#_______________________________________________________________________________
DEPT               .M                                      : 1 Глубина, м -    0.0 см 
GK                 .MKR/H                                  : 13 Гамма-активность, мкр./ч -  110.0 см 
GK$                .UE                                     : 10 Гамма-активность, усл.ед. -  110.0 см 
GK_2               .FLT                                    : 14 Гамма-активность фильтрованная, мкр./ч -  110.0 см 
LM                 .                                       : 9 Локатор муфт,  -   20.0 см 
METKA              .                                       : 3 Метки,  -    0.0 см 
MN                 .ATM                                    : 12 Давление, атм. -  160.0 см 
MN$                .UE                                     : 8 Давление, усл.ед. -  160.0 см 
RCOR               .CM/KM                                  : 5 Коррекция по ролику, см/км -    0.0 см 
SPID               .M/H                                    : 2 Скорость, м/час -    0.0 см 
TENS               .T                                      : 6 Натяжение кабеля, т -    0.0 см 
TIME               .S                                      : 4 Время, сек -    0.0 см 
TM                 .GRD                                    : 11 Температура, °C -  170.0 см 
TM$                .UE                                     : 7 Температура, усл.ед. -  170.0 см 
~Ascii
# ...
2701.2     8.64       367        8.64       286        0          337.95     17422      -639       550        0.01       1722.09    49.789     12620     
2701.4     8.86       376        8.78       295        0          338.224    17434      -639       551        -0.01      1723.3     49.797     12622     
2701.6     8.9        378        8.9        341        0          338.488    17446      -639       563        0.01       1724.56    49.802     12623     
2701.8     9.35       397        9.18       325        0          337.884    17419      -639       577        0.01       1725.83    49.815     12627     
2702       10.24      435        10.21      311        0          338.779    17459      -639       578        0.01       1727.09    49.824     12629     
2702.2     10.1       429        10.15      330        0          339.102    17474      -639       578        0.01       1728.31    49.829     12630     
2702.4     10.1       429        10.1       319        0          343.313    17664      -639       579        0.01       1729.58    49.84      12633     
2702.6     9.75       414        9.88       367        0          339.429    17488      -639       573        0.01       1730.84    49.849     12635     
2702.8     9.4        399        9.41       367        0          338.52     17447      -639       575        0.01       1732.11    49.853     12636     
2703       10.67      453        10.24      338        0          340.556    17539      -639       577        0.01       1733.32    49.862     12638     
2703.2     10.67      453        10.65      406        0          337.612    17407      -639       578        0.01       1734.56    49.871     12640     
2703.4     11.06      470        10.92      377        0          338.819    17461      -639       578        0.01       1735.8     49.881     12643     
2703.6     11.33      481        11.31      2027       0          337.008    17379      -639       579        0.01       1737.06    49.886     12644     
2703.8     10.24      435        10.56      906        0          338.931    17466      -639       579        0.01       1738.29    49.895     12646     
2704       10.24      435        10.26      458        0          339.209    17479      -639       575        0.01       1739.58    49.904     12649     
2704.2     9.79       416        9.96       343        0          340.659    17544      -639       574        0.01       1740.81    49.91      12650     
2704.4     9.61       408        9.62       418        0          341.941    17602      -639       577        0.01       1742.08    49.922     12653     
2704.6     9.75       414        9.7        380        0          339.957    17512      -639       582        0.01       1743.29    49.928     12655     
2704.8     10.03      426        10.02      403        0          340.151    17521      -639       576        0.01       1744.56    49.938     12657     
2705       10.03      426        10.03      416        0          340.783    17550      -639       572        0.01       1745.76    49.95      12660     
2705.2     10.03      426        10.03      401        0          338.687    17455      -639       569        0.01       1747.03    49.959     12662     
2705.4     9.69       412        9.82       387        0          337.997    17424      -639       572        0.01       1748.27    49.968     12665     
2705.6     9.35       397        9.36       369        0          338.223    17434      -639       568        0.01       1749.52    49.97      12665     
2705.8     9.84       418        9.66       483        0          339.921    17511      -639       572        0.01       1750.82    49.979     12667     
2706       9.84       418        9.83       454        0          339.651    17499      -639       574        0.03       1752.05    49.988     12670     
2706.2     10.56      449        10.3       497        0          341.359    17576      -639       576        0.03       1753.28    50.001     12673     
2706.4     11.28      479        11.25      590        0          340.671    17545      -639       577        0.03       1754.52    50.006     12674     
2706.6     11.84      503        11.66      674        0          340.992    17559      -639       578        0.01       1755.72    50.018     12677     
2706.8     11.84      503        11.84      591        0          340.861    17553      -639       575        0.01       1756.99    50.026     12679     
2707       11.4       484        11.57      630        0          340.863    17553      -639       566        0.01       1758.26    50.026     12679     
2707.2     11.18      475        11.2       615        0          340.779    17550      -639       549        0.01       1759.53    50.035     12681     
2707.4     11.06      470        11.11      596        0          340.524    17538      -639       552        0.01       1760.8     50.045     12683     
2707.6     10.76      457        10.78      969        0          342.055    17607      -639       566        0.01       1762.01    50.053     12686     
2707.8     11.11      472        10.98      892        0          341.85     17598      -639       572        0.01       1763.27    50.067     12689     
2708       11.28      479        11.27      669        0          343.763    17684      -639       574        0.01       1764.48    50.08      12692     
2708.2     11.3       480        11.29      495        0          342.1      17609      -639       576        0.01       1765.75    50.089     12694     
2708.4     11.33      481        11.32      542        0          342.877    17644      -639       577        0.01       1766.95    50.102     12698     
2708.6     10.7       454        10.93      549        0          343.69     17681      -639       578        0.01       1768.28    50.111     12700     
2708.8     10.6       450        10.61      524        1          343.205    17659      -639       567        -0.02      1769.55    50.121     12702     
2709       10.7       455        10.66      513        0          343.784    17685      -639       571        0.01       1770.76    50.131     12705     
2709.2     10.81      459        10.8       562        0          345.342    17755      -639       573        0.01       1772.02    50.139     12707     
2709.4     10.88      462        10.85      530        0          345.129    17746      -639       575        0.01       1773.23    50.147     12709     
2709.6     10.88      462        10.88      507        0          344.576    17721      -639       577        0.01       1774.5     50.155     12711     
2709.8     11.15      473        11.05      490        0          343.251    17661      -639       578        0.01       1775.74    50.166     12714     
2710       11.28      479        11.27      518        2          343.813    17687      -639       583        0.01       1776.92    50.171     12715     
2710.2     11.87      504        11.67      403        0          343.424    17669      -647       588        0          1778.75    50.18      12717     
2710.4     11.87      504        11.86      338        0          343.541    17674      -647       583        0.01       1780.02    50.184     12718     
2710.6     11.6       493        11.7       275        0          343.533    17674      -647       575        0.01       1781.29    50.188     12719     
2710.8     11.47      487        11.47      207        0          343.181    17658      -647       580        0.01       1782.47    50.192     12720     
2711       11.72      498        11.63      321        0          342.334    17620      -647       580        0.01       1783.7     50.196     12721     
2711.2     12.34      524        12.33      262        0          345.321    17755      -647       580        0.01       1784.97    50.2       12722     
2711.4     13.4       569        13.27      279        0          343.533    17674      -647       580        0.03       1786.17    50.204     12723     
