~Version
 VERS              .         2.0                           : CWLS LOG ASCII STANDARD - VERSION 2.0
 WRAP              .         NO                            : ONE LINE PER DEPTH STEP
 DLM               .         SPACE                         : DELIMITING CHARACTER(SPACE TAB OR COMMA)
~Well Information
#_______________________________________________________________________________
#
#PARAMETER_NAME    .UNIT     VALUE                         : DESCRIPTION
#_______________________________________________________________________________
STRT               .M        2298.8                        : First reference value
STOP               .M        2799.8                        : Last reference value
STEP               .M        0.2                           : Step increment
NULL               .         -9999                         : Missing value
COMP               .                                       : Company
WELL               .         616                           : Well name
FLD                .                                       : Field
LOC                .                                       : Location
CNTY               .                                       : County
STAT               .                                       : State
CTRY               .                                       : Country
SRVC               .                                       : Service Company
DATE               .                                       : Date
API                .                                       : API number
PROJECT_UPGRADE_TIME .         2021-03-18T21_24_50           : 
group              .         Good                          : 
~Parameter Information Block
#_______________________________________________________________________________
#
#PARAMETER_NAME    .UNIT     VALUE                         : DESCRIPTION
#_______________________________________________________________________________
SET                .         D2659_D                       : 
OTHER              .         Программное обеспечение станции MONITOR-386EX 25/12/99 15_08_10   BGF V50 26/12/00 07_26_01   3.1_SNGF___BGF_N_092085: 
OTHER_10           .         Тарировки_                    : 
OTHER_11           .         <_techsia_sc_> Постоянная времени фильтра ПС  0.5 сек, kf=0.139292: 
OTHER_2            .         Kedr.exe версия 3.3.2.32      : 
OTHER_3            .         KedrData.dll версия 3.3.2.17  : 
OTHER_4            .         Драйвер версия 2.1.0.7        : 
OTHER_5            .         Мнемоники версия 3.3 S        : 
OTHER_6            .         Прибор_ К1a-723м              : 
OTHER_7            .         Номер прибора_ 348/72         : 
OTHER_8            .         Режим_ K1A-723M               : 
OTHER_9            .         Форма_ БКЗ                    : 
PROJECT_UPGRADE_TIME .         2021-03-18T21_24_49           : 
TLFamily_BK        .         Lateral Log Resistivity       : 
TLFamily_DEPT      .         Measured Depth                : 
TLFamily_GZ1       .         Extra Shallow Resistivity     : 
TLFamily_GZ2       .         Shallow Resistivity           : 
TLFamily_GZ3       .         Medium Resistivity            : 
TLFamily_GZ4       .         Deep Resistivity              : 
TLFamily_GZ5       .         Extra Deep Resistivity        : 
TLFamily_GZ6       .         Medium Resistivity Inverted   : 
TLFamily_IBK       .                                       : 
TLFamily_IK        .         Conductivity                  : 
TLFamily_IPR       .                                       : 
TLFamily_METKA     .                                       : 
TLFamily_PS        .         Spontaneous Potential         : 
TLFamily_PZ        .         Potential Resistivity         : 
TLFamily_RCOR      .                                       : 
TLFamily_RES       .         Mud Resistivity               : 
TLFamily_SPID      .         Spontaneous Potential         : 
TLFamily_TENS      .         Cable Tension                 : 
TLFamily_TIME      .         Time                          : 
TLFamily_UBK       .         Uranium Concentration         : 
group              .         prim                          : 
~Curve Information
#_______________________________________________________________________________
#
#LOGNAME           .UNIT     LOG_ID                        : DESCRIPTION
#_______________________________________________________________________________
DEPT               .M                                      : 1 Глубина, м -    0.0 см 
BK                 .OHMM                                   : 20 БК, Ом*м - 1768.0 см 
GZ1                .OHMM                                   : 12 A0.4M0.1N, Ом*м - 1295.0 см 
GZ2                .OHMM                                   : 11 A1.0M0.1N, Ом*м - 1355.0 см 
GZ3                .OHMM                                   : 9 A2.0M0.5N, Ом*м - 1475.0 см 
GZ4                .OHMM                                   : 8 A4.0M0.5N, Ом*м - 1025.0 см 
GZ5                .OHMM                                   : 7 A8.0M1.0N, Ом*м - 1450.0 см 
GZ6                .OHMM                                   : 10 N0.5M2.0A, Ом*м - 1025.0 см 
IBK                .A                                      : 18 Ток БК, А - 1768.0 см 
IK                 .MSM/M                                  : 14 ИК, мСм/м - 1961.0 см 
IPR                .MA                                     : 17 Ток прибора, мA -    0.0 см 
METKA              .                                       : 3 Метки,  -    0.0 см 
PS                 .mV                                     : 16 ПС, мВ - 1210.0 см 
PZ                 .OHMM                                   : 13 N11M0.5A, Ом*м - 1225.0 см 
RCOR               .CM/KM                                  : 5 Коррекция по ролику, см/км -    0.0 см 
RES                .OHMM                                   : 15 Резистивиметр, Ом*м -  600.0 см 
SPID               .M/H                                    : 2 Скорость, м/час -    0.0 см 
TENS               .T                                      : 6 Натяжение кабеля, т -    0.0 см 
TIME               .S                                      : 4 Время, сек -    0.0 см 
UBK                .V                                      : 19 Напр. БК, В - 1768.0 см 
~Ascii
# ...
2506       3.89       4.6        3.8        3.8        4.3        4.5        2.8        0.026      275.6      428        0          554.68     3.8        -346       2.755      -1838      0          29015.81   0.42      
2506.2     3.81       4.6        3.9        3.6        4.2        4.3        2.7        0.025      284.7      429        0          554.31     3.5        -346       2.759      -1820      0          29015.46   0.407     
2506.4     3.84       4.5        3.9        3.5        4.2        4.3        2.9        0.024      297.5      430        0          553.95     3.3        -346       2.76       -1792      0          29015.05   0.391     
2506.6     3.7        4.5        3.8        3.7        4.2        4.2        2.7        0.024      309.4      428.024    0          554.48     3          -346       2.754      -1788      0          29014.67   0.381     
2506.8     3.35       4.4        3.7        3.7        4.2        4          2.8        0.027      321.7      428.672    0          554.26     2.8        -346       2.754      -1803      0          29014.34   0.375     
2507       3.01       3.8        3.6        3.5        3.9        3.9        2.9        0.029      333.9      430        0          554.71     2.8        -346       2.759      -1848      0          29013.87   0.374     
2507.2     2.85       3.4        3.3        3.2        3.7        3.8        3.2        0.031      341.5      431.333    0          554.79     3          -346       2.753      -1838      0          29013.47   0.373     
2507.4     2.66       3          3          3.1        3.6        3.7        3.3        0.033      347.4      429.333    0          556.34     3.3        -346       2.754      -1821      0          29013.07   0.375     
2507.6     2.55       2.5        2.5        2.8        3.4        3.7        3.4        0.035      347.9      428.65     0          554.87     3.7        -346       2.757      -1804      0          29012.68   0.376     
2507.8     2.86       2.3        2.1        2.6        3.2        3.5        3.7        0.031      340.1      428.503    0          554.23     4.1        -346       2.755      -1816      0          29012.27   0.38      
2508       3.67       2.7        2.2        2.5        3.2        3.4        4          0.025      320.4      430        0          554.05     4.2        -346       2.755      -1791      0          29011.88   0.384     
2508.2     3.87       3.4        2.2        2.7        3.1        3.5        4          0.024      295.7      431.333    0          554.81     4.3        -346       2.756      -1769      0          29011.53   0.392     
2508.4     3.9        4          2.3        2.7        3.2        3.5        4          0.024      278.3      430        0          554.06     4.3        -346       2.754      -1798      0          29011.14   0.401     
2508.6     4.15       4.5        2.7        2.6        3.3        3.5        4.1        0.024      264.3      430.016    1          554.48     4.3        -346       2.755      -1804      0          29010.71   0.413     
2508.8     4.09       4.8        3          2.7        3.4        3.5        4.3        0.025      259.7      430.667    0          555        4.3        -346       2.755      -1816      0          29010.35   0.427     
2509       3.94       4.9        3.3        2.7        3.3        3.4        4.4        0.027      254.5      431.5      0          555.3      4.2        -346       2.756      -1828      0          29009.9    0.441     
2509.2     3.94       4.8        3.6        2.7        3.2        3.4        4.5        0.027      254.8      430        0          555.49     4.2        -346       2.754      -1802      0          29009.5    0.441     
2509.4     3.91       4.7        3.5        2.7        3.2        3.3        4.7        0.027      254        430        0          556.12     4.3        -346       2.757      -1796      0          29009.17   0.439     
2509.6     3.87       4.7        3.7        2.6        3.2        3.3        4.8        0.027      252.9      430        0          556.12     4.2        -346       2.76       -1801      0          29008.71   0.443     
2509.8     3.87       4.5        3.6        2.7        3.1        3.1        5          0.027      251.6      431.6      1          555.11     4.2        -346       2.754      -1809      0          29008.35   0.447     
2510       4.1        4.5        3.5        2.7        3          3.1        5.1        0.026      248.8      428        0          554.94     4.3        -344       2.755      -1826      0          29007.89   0.451     
2510.2     3.68       4.7        3.6        2.7        2.9        3          5.5        0.03       244.8      431.333    0          554.64     4.6        -344       2.755      -1823      0          29007.51   0.458     
2510.4     3.3        4.4        3.4        2.9        2.9        2.9        6.1        0.034      240.1      430        0          554.88     5.1        -344       2.752      -1801      0          29007.1    0.469     
2510.6     3.84       3.8        3.2        2.7        2.7        2.9        6.6        0.03       234.8      430        0          554.88     5.5        -344       2.755      -1810      0          29006.69   0.479     
2510.8     4.53       4          3.4        2.7        2.7        2.9        6.7        0.026      221.9      428.503    0          555.24     5.9        -344       2.754      -1786      0          29006.32   0.492     
2511       4.51       4.8        3.4        2.9        2.7        2.7        6.8        0.026      207.1      429.333    0          555.45     6.3        -344       2.755      -1771      0          29005.9    0.504     
2511.2     4.61       5.2        3.3        3          2.7        2.9        6.9        0.027      194.2      430        0          554.83     6.6        -344       2.757      -1802      0          29005.51   0.522     
2511.4     5.07       5.4        3.7        3          2.7        2.8        6.9        0.025      185.2      428        0          555.09     7          -344       2.756      -1811      0          29005.17   0.543     
2511.6     5.29       5.9        4.2        3.1        3          2.9        6.9        0.026      174.4      428.016    0          556.45     7.4        -344       2.754      -1828      0          29004.73   0.571     
2511.8     5.58       6.4        4.5        3.3        3          3          6.6        0.025      165.3      428.667    1          556.26     7.8        -344       2.756      -1845      0          29004.32   0.593     
2512       5.6        6.9        4.9        3.5        3          2.8        6.3        0.026      159        432        0          553.26     8.2        -344       2.756      -1832      0          29003.96   0.606     
2512.2     5.76       6.9        5.2        3.6        3          2.8        5.9        0.025      155.2      428.667    0          552.41     8.2        -344       2.754      -1812      0          29003.53   0.615     
2512.4     6.52       7.2        5.5        3.7        3.1        2.8        5.7        0.023      152.9      428        0          551.79     7.9        -344       2.756      -1792      0          29003.14   0.622     
2512.6     6.69       7.8        6          4.1        3.3        2.8        5.6        0.022      150.4      429.012    0          551.75     7.4        -344       2.756      -1793      0          29002.76   0.628     
2512.8     6.57       8.6        6.7        4.3        3.4        2.7        5.7        0.023      150.1      430        0          551.99     7          -344       2.753      -1796      0          29002.37   0.629     
2513       5.95       8.7        7.4        4.7        3.7        3          5.8        0.025      152.5      430        0          553.39     6.8        -344       2.755      -1801      0          29001.97   0.628     
2513.2     5.66       8.3        7.7        5.2        4          3          6.3        0.026      155.7      430        0          554.19     6.6        -344       2.753      -1809      0          29001.56   0.62      
