~Version
 VERS              .         2.0                           : CWLS LOG ASCII STANDARD - VERSION 2.0
 WRAP              .         NO                            : ONE LINE PER DEPTH STEP
 DLM               .         SPACE                         : DELIMITING CHARACTER(SPACE TAB OR COMMA)
~Well Information
#_______________________________________________________________________________
#
#PARAMETER_NAME    .UNIT     VALUE                         : DESCRIPTION
#_______________________________________________________________________________
STRT               .M        2669.8                        : First reference value
STOP               .M        2775.8                        : Last reference value
STEP               .M        0.2                           : Step increment
NULL               .         -9999                         : Missing value
COMP               .                                       : Company
WELL               .         616                           : Well name
FLD                .                                       : Field
LOC                .                                       : Location
CNTY               .                                       : County
STAT               .                                       : State
CTRY               .                                       : Country
SRVC               .                                       : Service Company
DATE               .                                       : Date
API                .                                       : API number
PROJECT_UPGRADE_TIME .         2021-03-18T21_24_50           : 
group              .         Good                          : 
~Parameter Information Block
#_______________________________________________________________________________
#
#PARAMETER_NAME    .UNIT     VALUE                         : DESCRIPTION
#_______________________________________________________________________________
SET                .         D1812_D                       : 
OTHER              .         Программное обеспечение станции MONITOR-386EX 25/12/99 15_08_10   BGF V52 22/08/01 16_56_30   3.1_SNGF___BGF_N_092049: 
OTHER_10           .         Тарировки_                    : 
OTHER_11           .         TM.GRD = 0.00403*TM$.UE + -1.07: 
OTHER_12           .         MN.ATM = (9.34907e-006*TM.GRD + 0.02171)*(MN$.UE + -7.93*TM.GRD + -1787): 
OTHER_13           .         GK.MKR/H = LM. / 42.4676      : 
OTHER_14           .         GK.FLT = 0.1*GK.MKR/H[-1] + (1-0.1)*GK.MKR/H[0]: 
OTHER_2            .         Kedr.exe версия 3.4.2.51      : 
OTHER_3            .         KedrData.dll версия 3.4.2.24  : 
OTHER_4            .         Драйвер версия 2.1.1.3        : 
OTHER_5            .         Мнемоники версия 3.3 S        : 
OTHER_6            .         Прибор_ КСА-Т4                : 
OTHER_7            .         Номер прибора_ 03             : 
OTHER_8            .         Режим_ КСА-Т4                 : 
OTHER_9            .         Форма_ КВА.                   : 
PROJECT_UPGRADE_TIME .         2021-03-18T21_24_49           : 
TLFamily_DEPT      .         Measured Depth                : 
TLFamily_GK        .         Gamma Ray                     : 
TLFamily_GK$       .                                       : 
TLFamily_GK_2      .         Gamma Ray                     : 
TLFamily_LM        .         Casing Collar locator         : 
TLFamily_METKA     .                                       : 
TLFamily_MN        .                                       : 
TLFamily_MN$       .                                       : 
TLFamily_RCOR      .                                       : 
TLFamily_SPID      .         Spontaneous Potential         : 
TLFamily_TENS      .         Cable Tension                 : 
TLFamily_TIME      .         Time                          : 
TLFamily_TM        .         Temperature                   : 
TLFamily_TM$       .         Temperature                   : 
group              .         prim                          : 
~Curve Information
#_______________________________________________________________________________
#
#LOGNAME           .UNIT     LOG_ID                        : DESCRIPTION
#_______________________________________________________________________________
DEPT               .M                                      : 1 Глубина, м -    0.0 см 
GK                 .MKR/H                                  : 13 Гамма-активность, мкр./ч -  110.0 см 
GK$                .UE                                     : 10 Гамма-активность, усл.ед. -  110.0 см 
GK_2               .FLT                                    : 14 Гамма-активность фильтрованная, мкр./ч -  110.0 см 
LM                 .                                       : 9 Локатор муфт,  -   20.0 см 
METKA              .                                       : 3 Метки,  -    0.0 см 
MN                 .ATM                                    : 12 Давление, атм. -  160.0 см 
MN$                .UE                                     : 8 Давление, усл.ед. -  160.0 см 
RCOR               .CM/KM                                  : 5 Коррекция по ролику, см/км -    0.0 см 
SPID               .M/H                                    : 2 Скорость, м/час -    0.0 см 
TENS               .T                                      : 6 Натяжение кабеля, т -    0.0 см 
TIME               .S                                      : 4 Время, сек -    0.0 см 
TM                 .GRD                                    : 11 Температура, °C -  170.0 см 
TM$                .UE                                     : 7 Температура, усл.ед. -  170.0 см 
~Ascii
# ...
2753       10.08      428        10.11      79         0          253.22     13605      -654       541        0.06       7624.93    51.1       12945     
2753.2     10.35      440        10.25      71         0          253.225    13606      -654       547        0.07       7626.2     51.2       12970     
2753.4     10.62      451        10.61      73         0          253.256    13607      -654       540        0.07       7627.58    51.278     12990     
2753.6     10.62      451        10.62      62         0          253.265    13608      -654       539        0.07       7628.9     51.387     13017     
2753.8     10.62      451        10.62      77         0          253.279    13609      -654       535        0.07       7630.2     51.528     13052     
2754       11.02      468        10.95      69         0          253.292    13610      -654       540        0.07       7631.58    51.638     13079     
2754.2     11.02      468        11.02      77         0          253.28     13610      -654       526        0.07       7632.95    51.793     13117     
2754.4     11.82      502        11.68      83         0          253.289    13611      -654       539        0.07       7634.27    52.003     13169     
2754.6     11.82      502        11.82      104        0          253.29     13612      -654       536        0.07       7635.64    52.166     13210     
2754.8     11.02      468        11.06      84         0          253.287    13612      -654       535        0.07       7636.93    52.352     13256     
2755       11.02      468        11.02      99         0          253.313    13614      -654       527        0.07       7638.28    52.51      13295     
2755.2     10.17      432        10.21      87         0          253.329    13615      -654       540        0.07       7639.64    52.646     13329     
2755.4     10.17      432        10.17      90         0          253.334    13616      -654       533        0.07       7640.92    52.819     13372     
2755.6     10.27      436        10.26      101        0          253.347    13617      -654       537        0.07       7642.34    53.041     13427     
2755.8     11.29      479        10.91      97         0          253.336    13617      -654       523        0.07       7643.69    53.249     13479     
2756       11.49      488        11.47      114        0          253.36     13619      -654       534        0.07       7644.97    53.389     13513     
2756.2     11.02      468        11.19      96         0          253.358    13619      -654       531        0.07       7646.34    53.549     13553     
2756.4     11.02      468        11.03      108        0          253.347    13619      -654       532        0.07       7647.66    53.725     13597     
2756.6     9.84       418        10.28      102        0          253.38     13621      -654       529        0.07       7648.97    53.881     13635     
2756.8     9.84       418        9.86       103        0          253.382    13622      -654       537        0.07       7650.34    54.089     13687     
2757       9.37       398        9.42       126        0          253.375    13622      -654       538        0.07       7651.64    54.278     13734     
2757.2     9.37       398        9.37       157        0          253.408    13624      -654       535        0.07       7653.04    54.431     13772     
2757.4     9.32       396        9.33       208        0          253.395    13624      -654       528        0.07       7654.41    54.603     13815     
2757.6     9.32       396        9.32       96         0          253.402    13625      -654       531        0.07       7655.71    54.816     13867     
2757.8     9.63       409        9.61       107        0          253.4      13626      -654       527        0.07       7657.05    55.057     13927     
2758       9.63       409        9.63       76         0          253.401    13626      -654       539        0.07       7658.42    55.243     13973     
2758.2     9.4        399        9.4        103        0          253.424    13628      -654       533        0.07       7659.7     55.398     14012     
2758.4     9.21       391        9.28       112        0          253.426    13628      -654       542        0.07       7661.08    55.557     14051     
2758.6     8.85       376        8.87       124        0          253.443    13630      -654       538        0.07       7662.38    55.741     14097     
2758.8     8.4        357        8.57       119        0          253.429    13630      -654       542        0.07       7663.78    56.014     14165     
2759       7.72       328        7.74       143        0          253.436    13631      -654       532        0.07       7665.11    56.257     14225     
2759.2     7.54       320        7.58       138        0          253.437    13632      -654       544        0.07       7666.44    56.434     14269     
2759.4     7.54       320        7.54       5405       0          253.433    13632      -654       534        0.07       7667.73    56.656     14324     
2759.6     7.21       306        7.29       2167       0          253.436    13633      -654       540        0.07       7669.09    56.898     14384     
2759.8     7.21       306        7.21       381        0          253.443    13634      -654       536        0.07       7670.42    57.097     14434     
2760       7.77       330        7.73       172        2          253.451    13635      -654       541        0.07       7671.73    57.325     14490     
2760.2     7.77       330        7.77       149        0          253.483    13637      -661       535        0.05       7673.63    57.494     14532     
2760.4     9.37       398        9.25       146        0          253.488    13638      -661       534        0.05       7674.92    57.74      14593     
2760.6     9.37       398        9.37       136        0          253.485    13639      -661       534        0.05       7676.28    57.939     14642     
2760.8     9.44       401        9.44       108        0          253.488    13639      -661       542        0.05       7677.63    58.112     14685     
2761       9.44       401        9.44       122        0          253.504    13640      -661       535        0.07       7678.92    58.198     14707     
2761.2     9.44       401        9.44       130        0          253.514    13641      -661       536        0.07       7680.29    58.322     14737     
2761.4     9.56       406        9.54       129        0          253.522    13642      -661       531        0.07       7681.56    58.514     14785     
2761.6     9.56       406        9.56       107        0          253.528    13643      -661       536        0.07       7683       58.754     14845     
2761.8     9.02       383        9.05       107        0          253.526    13644      -661       523        0.07       7684.34    59.088     14927     
2762       9.02       383        9.02       91         0          253.546    13645      -661       530        0.07       7685.67    59.29      14978     
2762.2     8.55       363        8.58       78         0          253.551    13646      -661       530        0.07       7687.05    59.424     15011     
2762.4     8.55       363        8.55       106        0          253.563    13647      -661       543        0.07       7688.38    59.557     15044     
2762.6     8.45       359        8.46       104        0          253.552    13647      -661       533        0.07       7689.7     59.712     15082     
2762.8     8.32       353        8.37       111        0          253.579    13649      -661       545        0.07       7691.02    59.85      15117     
2763       8.19       348        8.2        123        0          253.604    13650      -661       538        0.07       7692.34    59.958     15143     
2763.2     8.67       368        8.49       140        0          253.593    13650      -661       540        0.07       7693.73    60.07      15171     
