~Version
 VERS              .         2.0                           : CWLS LOG ASCII STANDARD - VERSION 2.0
 WRAP              .         NO                            : ONE LINE PER DEPTH STEP
 DLM               .         SPACE                         : DELIMITING CHARACTER(SPACE TAB OR COMMA)
~Well Information
#_______________________________________________________________________________
#
#PARAMETER_NAME    .UNIT     VALUE                         : DESCRIPTION
#_______________________________________________________________________________
STRT               .M        2671                          : First reference value
STOP               .M        2773.4                        : Last reference value
STEP               .M        0.1999998                     : Step increment
NULL               .         -9999                         : Missing value
COMP               .                                       : Company
WELL               .         616                           : Well name
FLD                .                                       : Field
LOC                .                                       : Location
CNTY               .                                       : County
STAT               .                                       : State
CTRY               .                                       : Country
SRVC               .                                       : Service Company
DATE               .                                       : Date
API                .                                       : API number
PROJECT_UPGRADE_TIME .         2021-03-18T21_24_50           : 
group              .         Good                          : 
~Parameter Information Block
#_______________________________________________________________________________
#
#PARAMETER_NAME    .UNIT     VALUE                         : DESCRIPTION
#_______________________________________________________________________________
SET                .         D0402_D                       : 
OTHER              .         Kedr.exe версия 2.1.2.32      : 
OTHER_10           .         TM.GRD = 0.00379*TM$.UE + 7.11: 
OTHER_11           .         MN.ATM = (8e-006*TM.GRD + 0.02)*(MN$.UE + -8*TM.GRD + -1800): 
OTHER_12           .         GK.MKR/H = GK$.UE / 57.17 + 0 : 
OTHER_2            .         KedrData.dll версия 3.2.2.14  : 
OTHER_3            .         LasInf.dll версия 3.2.0.13    : 
OTHER_4            .         Драйвер версия 1.2.0.4        : 
OTHER_5            .         Прибор_ АКП4_90               : 
OTHER_6            .         Номер прибора_ 56             : 
OTHER_7            .         Режим_ АКП4_90 - все каналы   : 
OTHER_8            .         Форма_ Г-1                    : 
OTHER_9            .         Тарировки_                    : 
PROJECT_UPGRADE_TIME .         2021-03-18T21_24_49           : 
TLFamily_DEPT      .         Measured Depth                : 
TLFamily_GK        .         Gamma Ray                     : 
TLFamily_GK$       .                                       : 
TLFamily_LM        .         Casing Collar locator         : 
TLFamily_METKA     .                                       : 
TLFamily_METKA_1   .                                       : 
TLFamily_MN        .                                       : 
TLFamily_MN$       .                                       : 
TLFamily_RCOR      .                                       : 
TLFamily_SPID      .         Spontaneous Potential         : 
TLFamily_TIME      .         Time                          : 
TLFamily_TM        .         Temperature                   : 
TLFamily_TM$       .         Temperature                   : 
group              .         second                        : 
~Curve Information
#_______________________________________________________________________________
#
#LOGNAME           .UNIT     LOG_ID                        : DESCRIPTION
#_______________________________________________________________________________
DEPT               .M                                      : 1 Глубина, м -    0.0 см 
GK                 .MKR/H                                  : 12 Гамма-активность, мкр./ч -   65.0 см 
GK$                .UE                                     : 9 Гамма-активность, усл.ед. -   65.0 см 
LM                 .                                       : 8 Локатор муфт,  -   30.0 см 
METKA              .                                       : 3 Метки,  -    0.0 см 
METKA_1            .                                       : 13 Маркеры - 65 см 
MN                 .ATM                                    : 11 Давление, атм. -  140.0 см 
MN$                .UE                                     : 7 Давление, усл.ед. -  140.0 см 
RCOR               .CM/KM                                  : 5 Коррекция по ролику, см/км -    0.0 см 
SPID               .M/H                                    : 2 Скорость, м/час -    0.0 см 
TIME               .S                                      : 4 Время, сек -    0.0 см 
TM                 .GRD                                    : 10 Температура, °C -  145.0 см 
TM$                .UE                                     : 6 Температура, усл.ед. -  145.0 см 
~Ascii
# ...
2704.6     6.04       347        406        0          0          262.35     15163      0          -341       7895.21    83.969     20279     
2704.8     6.01       347        469        0          0          262.345    15163      0          -320       7892.89    83.972     20280     
2705       6.09       328        452        0          0          262.37     15164      0          -320       7890.58    83.983     20283     
2705.2     6.34       341        448        0          0          262.375    15164      0          -320       7888.23    83.988     20284     
2705.4     6.56       364        419        1          0          262.39     15165      0          -320       7885.94    83.998     20287     
2705.6     6.67       386        431        0          0          262.394    15165      0          -320       7883.63    84.009     20290     
2705.8     6.58       393        491        0          0          262.444    15168      0          -320       7881.32    84.018     20292     
2706       6.33       364        417        0          0          262.471    15169      0          -320       7879.01    84.024     20294     
2706.2     6.3        371        431        0          0          262.491    15170      0          -320       7876.57    84.032     20296     
2706.4     6.13       371        429        0          0          262.497    15170      0          -320       7874.34    84.039     20298     
2706.6     5.81       372        420        0          0          262.511    15171      0          -300       7872.05    84.045     20299     
2706.8     5.76       326        473        0          0          262.531    15172      0          -320       7869.71    84.051     20301     
2707       6.12       295        551        0          0          262.558    15173      0          -300       7867.42    84.058     20303     
2707.2     6.54       337        478        0          0          262.599    15175      0          -320       7865.11    84.066     20305     
2707.4     6.69       395        592        0          0          262.633    15177      0          -320       7862.79    84.07      20306     
2707.6     6.46       400        1890       0          0          262.592    15175      0          -320       7860.52    84.077     20308     
2707.8     6.16       367        4913       0          0          262.632    15177      0          -320       7858.19    84.082     20309     
2708       6.04       339        476        0          0          262.646    15178      0          -280       7855.94    84.09      20311     
2708.2     6.14       338        522        0          0          262.688    15180      0          -320       7853.63    84.098     20313     
2708.4     6.28       365        441        0          0          262.742    15182      0          -320       7851.31    84.105     20315     
2708.6     6.21       355        497        0          0          262.755    15183      0          -320       7848.99    84.111     20317     
2708.8     6.21       340        397        0          0          262.775    15184      0          -300       7846.67    84.115     20318     
2709       6.44       372        436        0          0          262.775    15184      0          -320       7844.36    84.123     20320     
2709.2     6.38       372        429        0          0          262.774    15184      0          -380       7842.05    84.127     20321     
2709.4     6.45       356        591        0          0          262.808    15186      0          -320       7839.73    84.13      20322     
2709.6     6.73       349        751        0          0          262.842    15187      0          -320       7837.44    84.142     20325     
2709.8     6.99       381        362        1          0          262.89     15190      0          -320       7835.1     84.153     20328     
2710       7.13       396        386        0          0          262.882    15189      0          -320       7832.02    84.157     20329     
2710.2     7.15       425        417        0          0          262.875    15189      0          -280       7829.7     84.164     20331     
2710.4     7.03       402        476        0          0          262.896    15190      0          -320       7827.42    84.164     20331     
2710.6     7.09       381        500        0          0          262.93     15192      0          -260       7825.19    84.176     20334     
2710.8     7.38       415        558        0          0          262.964    15193      0          -320       7822.78    84.176     20334     
2711       7.3        446        445        0          0          263.009    15196      0          -320       7820.46    84.181     20335     
2711.2     6.91       439        384        0          0          263.046    15197      0          -320       7818.15    84.187     20337     
2711.4     6.46       369        455        0          0          263.018    15196      0          -320       7815.94    84.195     20339     
2711.6     6.59       333        428        0          0          263.052    15198      0          -320       7813.61    84.201     20341     
2711.8     7.19       385        875        0          0          263.09     15200      0          -320       7811.29    84.209     20343     
2712       7.54       430        556        0          0          263.121    15201      0          -320       7808.98    84.21      20343     
2712.2     7.55       423        513        0          0          263.136    15202      0          -320       7806.68    84.216     20345     
2712.4     7.72       423        417        0          0          263.151    15203      0          -320       7804.36    84.221     20346     
2712.6     7.99       455        461        0          0          263.135    15202      0          -275       7802.12    84.229     20348     
2712.8     7.66       486        417        0          0          263.16     15203      0          -320       7799.72    84.233     20349     
2713       6.99       478        442        0          0          263.181    15204      0          -260       7797.41    84.24      20351     
2713.2     6.67       391        483        0          0          263.221    15206      0          -320       7795.09    84.248     20353     
2713.4     6.74       362        512        0          0          263.262    15208      0          -260       7792.79    84.259     20356     
2713.6     6.99       379        452        0          0          263.303    15210      0          -320       7790.55    84.263     20357     
2713.8     7.2        397        447        0          0          263.302    15210      0          -320       7788.24    84.274     20360     
2714       7.35       414        418        0          0          263.307    15210      0          -320       7785.93    84.282     20362     
2714.2     7.36       444        428        0          0          263.302    15210      0          -320       7783.61    84.286     20363     
2714.4     7.03       432        454        0          0          263.342    15212      0          -320       7781.33    84.293     20365     
2714.6     6.61       374        438        0          1          263.363    15213      0          -300       7779.01    84.301     20367     
2714.8     6.69       334        451        0          0          263.424    15216      0          -320       7776.69    84.305     20368     
2715       7.42       347        403        0          0          263.414    15216      0          -320       7774.38    84.312     20370     
2715.2     8.09       387        470        0          0          263.46     15218      0          -320       7772.06    84.32      20372     
2715.4     8.39       459        432        0          0          263.449    15217      0          -320       7769.81    84.324     20373     
2715.6     8.44       487        482        0          0          263.454    15217      0          -320       7767.49    84.335     20376     
