~Version
 VERS              .         2.0                           : CWLS LOG ASCII STANDARD - VERSION 2.0
 WRAP              .         NO                            : ONE LINE PER DEPTH STEP
 DLM               .         SPACE                         : DELIMITING CHARACTER(SPACE TAB OR COMMA)
~Well Information
#_______________________________________________________________________________
#
#PARAMETER_NAME    .UNIT     VALUE                         : DESCRIPTION
#_______________________________________________________________________________
STRT               .M        2298.8                        : First reference value
STOP               .M        2799.8                        : Last reference value
STEP               .M        0.2                           : Step increment
NULL               .         -9999                         : Missing value
COMP               .                                       : Company
WELL               .         616                           : Well name
FLD                .                                       : Field
LOC                .                                       : Location
CNTY               .                                       : County
STAT               .                                       : State
CTRY               .                                       : Country
SRVC               .                                       : Service Company
DATE               .                                       : Date
API                .                                       : API number
PROJECT_UPGRADE_TIME .         2021-03-18T21_24_50           : 
group              .         Good                          : 
~Parameter Information Block
#_______________________________________________________________________________
#
#PARAMETER_NAME    .UNIT     VALUE                         : DESCRIPTION
#_______________________________________________________________________________
SET                .         D2659_D                       : 
OTHER              .         Программное обеспечение станции MONITOR-386EX 25/12/99 15_08_10   BGF V50 26/12/00 07_26_01   3.1_SNGF___BGF_N_092085: 
OTHER_10           .         Тарировки_                    : 
OTHER_11           .         <_techsia_sc_> Постоянная времени фильтра ПС  0.5 сек, kf=0.139292: 
OTHER_2            .         Kedr.exe версия 3.3.2.32      : 
OTHER_3            .         KedrData.dll версия 3.3.2.17  : 
OTHER_4            .         Драйвер версия 2.1.0.7        : 
OTHER_5            .         Мнемоники версия 3.3 S        : 
OTHER_6            .         Прибор_ К1a-723м              : 
OTHER_7            .         Номер прибора_ 348/72         : 
OTHER_8            .         Режим_ K1A-723M               : 
OTHER_9            .         Форма_ БКЗ                    : 
PROJECT_UPGRADE_TIME .         2021-03-18T21_24_49           : 
TLFamily_BK        .         Lateral Log Resistivity       : 
TLFamily_DEPT      .         Measured Depth                : 
TLFamily_GZ1       .         Extra Shallow Resistivity     : 
TLFamily_GZ2       .         Shallow Resistivity           : 
TLFamily_GZ3       .         Medium Resistivity            : 
TLFamily_GZ4       .         Deep Resistivity              : 
TLFamily_GZ5       .         Extra Deep Resistivity        : 
TLFamily_GZ6       .         Medium Resistivity Inverted   : 
TLFamily_IBK       .                                       : 
TLFamily_IK        .         Conductivity                  : 
TLFamily_IPR       .                                       : 
TLFamily_METKA     .                                       : 
TLFamily_PS        .         Spontaneous Potential         : 
TLFamily_PZ        .         Potential Resistivity         : 
TLFamily_RCOR      .                                       : 
TLFamily_RES       .         Mud Resistivity               : 
TLFamily_SPID      .         Spontaneous Potential         : 
TLFamily_TENS      .         Cable Tension                 : 
TLFamily_TIME      .         Time                          : 
TLFamily_UBK       .         Uranium Concentration         : 
group              .         prim                          : 
~Curve Information
#_______________________________________________________________________________
#
#LOGNAME           .UNIT     LOG_ID                        : DESCRIPTION
#_______________________________________________________________________________
DEPT               .M                                      : 1 Глубина, м -    0.0 см 
BK                 .OHMM                                   : 20 БК, Ом*м - 1768.0 см 
GZ1                .OHMM                                   : 12 A0.4M0.1N, Ом*м - 1295.0 см 
GZ2                .OHMM                                   : 11 A1.0M0.1N, Ом*м - 1355.0 см 
GZ3                .OHMM                                   : 9 A2.0M0.5N, Ом*м - 1475.0 см 
GZ4                .OHMM                                   : 8 A4.0M0.5N, Ом*м - 1025.0 см 
GZ5                .OHMM                                   : 7 A8.0M1.0N, Ом*м - 1450.0 см 
GZ6                .OHMM                                   : 10 N0.5M2.0A, Ом*м - 1025.0 см 
IBK                .A                                      : 18 Ток БК, А - 1768.0 см 
IK                 .MSM/M                                  : 14 ИК, мСм/м - 1961.0 см 
IPR                .MA                                     : 17 Ток прибора, мA -    0.0 см 
METKA              .                                       : 3 Метки,  -    0.0 см 
PS                 .mV                                     : 16 ПС, мВ - 1210.0 см 
PZ                 .OHMM                                   : 13 N11M0.5A, Ом*м - 1225.0 см 
RCOR               .CM/KM                                  : 5 Коррекция по ролику, см/км -    0.0 см 
RES                .OHMM                                   : 15 Резистивиметр, Ом*м -  600.0 см 
SPID               .M/H                                    : 2 Скорость, м/час -    0.0 см 
TENS               .T                                      : 6 Натяжение кабеля, т -    0.0 см 
TIME               .S                                      : 4 Время, сек -    0.0 см 
UBK                .V                                      : 19 Напр. БК, В - 1768.0 см 
~Ascii
# ...
2594.8     6.48       8.7        9.1        6.7        8.2        5.3        7.2        0.027      132.7      430        0          556.45     8.7        -330       2.759      -1755      0          28839.02   0.738     
2595       6.49       8.5        8.7        6.5        7.9        5.3        7.2        0.027      133.9      428        0          556.99     8.8        -330       2.76       -1772      0          28838.54   0.729     
2595.2     6.72       8.5        8.4        6.5        7.6        5          7.1        0.025      133.8      428        0          556.92     8.9        -330       2.756      -1758      0          28838.15   0.716     
2595.4     6.39       8.3        7.9        6.4        7.1        5          6.9        0.026      134.5      430.667    0          556.55     8.8        -330       2.757      -1769      0          28837.78   0.707     
2595.6     6.28       8.1        7.5        6.7        6.7        4.8        6.8        0.026      135.7      428.988    0          556.51     8.6        -330       2.757      -1784      0          28837.33   0.699     
2595.8     6.34       8          7.6        7.2        6.7        4.9        6.5        0.026      137.5      428        0          555.57     8.4        -330       2.756      -1780      0          28836.93   0.692     
2596       7.99       8.4        8.3        7.9        6.9        4.8        6.5        0.02       140.1      430.667    0          555.91     8          -330       2.755      -1771      0          28836.53   0.687     
2596.2     6.72       9.3        8.5        8          7          5.1        6.2        0.024      138.8      428        0          556.75     7.8        -330       2.756      -1757      0          28836.14   0.686     
2596.4     6.03       8.9        8.1        7.7        6.6        5.1        6          0.027      140.1      429.2      0          559.23     7.7        -330       2.756      -1742      0          28835.73   0.686     
2596.6     5.8        8          7.6        7.4        6.6        4.9        6.2        0.028      142.4      430.634    0          558.91     8          -330       2.758      -1752      0          28835.32   0.692     
2596.8     5.68       7.5        7.6        7.1        6.5        5.1        6.2        0.029      144.1      430        0          559.17     8.4        -330       2.758      -1771      0          28834.98   0.695     
2597       5.55       7.1        7.1        7          6.4        5.1        6.3        0.029      144.2      430        0          558.04     8.9        -330       2.757      -1784      0          28834.48   0.689     
2597.2     5.87       6.8        6.6        7          6.7        5.4        6.5        0.028      144.1      428        0          556.85     8.7        -330       2.754      -1779      0          28834.08   0.681     
2597.4     6.23       7          6.6        7.2        7.2        5.9        6.8        0.026      142.3      429.333    0          556.27     8.4        -330       2.755      -1770      0          28833.67   0.673     
2597.6     6.58       7.3        7          8.2        8.5        6.4        7.7        0.024      140.8      431.21     0          555.43     8.6        -330       2.758      -1755      0          28833.33   0.663     
2597.8     9.82       9.4        9.2        9.2        10         6.6        8.1        0.016      140        428        0          555.71     8.1        -330       2.758      -1743      0          28832.9    0.655     
2598       6.15       10.2       9.2        9.2        9.9        6.6        7.2        0.025      139.3      428        0          556.87     7.6        -330       2.754      -1754      0          28832.49   0.654     
2598.2     6.19       8.9        7.4        7.7        8.5        6.4        6          0.025      144.6      429        0          557.92     7.2        -330       2.757      -1774      0          28832.11   0.653     
2598.4     6.1        8.5        7.5        7          7.6        5.9        5.6        0.025      149.5      428        0          558.57     7.1        -330       2.756      -1785      0          28831.65   0.649     
2598.6     5.4        8          7.5        6.7        7.4        6.1        5.6        0.028      154.8      428.016    0          559.87     7.1        -330       2.757      -1781      0          28831.24   0.645     
2598.8     5.27       7.3        7.6        6.4        7.2        6.6        5.7        0.029      156.4      429.333    0          559.32     7.1        -330       2.76       -1774      0          28830.84   0.648     
2599       5.44       6.6        7.3        6.2        6.8        7.1        5.5        0.028      159.4      429.667    0          559.78     7.1        -330       2.758      -1762      0          28830.5    0.638     
2599.2     5.62       6.6        6.7        6.2        6.6        6.8        5.6        0.026      160.4      428.5      0          559.57     7.4        -330       2.755      -1742      0          28830.07   0.626     
2599.4     5.37       7.1        6.8        6.1        6.6        6.6        5.8        0.027      160.8      428        0          559.31     7.5        -330       2.755      -1714      0          28829.67   0.62      
2599.6     5.33       6.6        6.2        6.1        6.5        6.4        5.5        0.027      161.5      428.65     0          559.3      7.4        -330       2.759      -1761      0          28829.27   0.615     
2599.8     6.27       6.3        5.9        6          6.3        6.3        5.3        0.023      162.6      429.328    1          558.71     7.2        -330       2.758      -1789      0          28828.85   0.608     
2600       6.63       7.1        6.3        6.3        6.2        6.1        5.4        0.021      162.9      429.5      0          558.5      6.9        -327       2.758      -1788      0          28828.35   0.601     
2600.2     5.48       8          6.6        6.6        6.2        6          5.5        0.026      165.3      428.5      0          559.54     6.7        -327       2.759      -1787      0          28827.96   0.596     
2600.4     5.44       7.5        6.6        6.6        6.1        5.8        5.7        0.026      167.5      428.5      0          559.66     6.4        -327       2.759      -1784      0          28827.57   0.592     
2600.6     5.98       6.9        6.6        6.3        6          5.7        5.8        0.023      171.1      430        0          559.74     6.1        -327       2.755      -1779      0          28827.16   0.592     
2600.8     5.1        7          6.5        6.1        5.9        5.7        6.4        0.027      173.3      431.328    0          559.79     6.1        -327       2.755      -1770      0          28826.75   0.589     
2601       4.71       6.8        6.3        5.9        5.7        5.6        6.9        0.029      174.6      428        0          560.73     6.1        -327       2.758      -1754      0          28826.42   0.584     
2601.2     4.57       5.9        5.8        5.9        5.6        5.6        7.5        0.03       176.9      428        0          560.37     6.2        -327       2.759      -1774      0          28825.94   0.579     
2601.4     5.08       5.5        5.7        6          5.9        5.9        8          0.027      177.3      428        0          560.61     6.5        -327       2.758      -1785      0          28825.54   0.578     
2601.6     5.09       5.8        5.9        6.4        6.2        5.9        8.3        0.027      174        430        0          560.68     7          -327       2.757      -1781      0          28825.16   0.575     
2601.8     5.35       6.4        5.9        6.3        6.1        5.5        7.7        0.025      170.2      430        0          560.48     7          -327       2.754      -1774      0          28824.73   0.575     
2602       5.85       5.9        4.7        5.4        5.5        5.4        6.1        0.024      168.2      429.5      0          559.39     6.9        -327       2.756      -1761      0          28824.35   0.581     
