~Version
 VERS              .         2.0                           : CWLS LOG ASCII STANDARD - VERSION 2.0
 WRAP              .         NO                            : ONE LINE PER DEPTH STEP
 DLM               .         SPACE                         : DELIMITING CHARACTER(SPACE TAB OR COMMA)
~Well Information
#_______________________________________________________________________________
#
#PARAMETER_NAME    .UNIT     VALUE                         : DESCRIPTION
#_______________________________________________________________________________
STRT               .M        2648.8                        : First reference value
STOP               .M        2755.39984                    : Last reference value
STEP               .M        0.1999997                     : Step increment
NULL               .         -9999                         : Missing value
COMP               .                                       : Company
WELL               .         616                           : Well name
FLD                .                                       : Field
LOC                .                                       : Location
CNTY               .                                       : County
STAT               .                                       : State
CTRY               .                                       : Country
SRVC               .                                       : Service Company
DATE               .                                       : Date
API                .                                       : API number
PROJECT_UPGRADE_TIME .         2021-03-18T21_24_50           : 
group              .         Good                          : 
~Parameter Information Block
#_______________________________________________________________________________
#
#PARAMETER_NAME    .UNIT     VALUE                         : DESCRIPTION
#_______________________________________________________________________________
SET                .         D7023_D                       : 
OTHER              .         Kedr.exe версия 2.1.2.32      : 
OTHER_10           .         TM.GRD = 0.00404*TM$.UE + 0.07: 
OTHER_11           .         MN.ATM = (6.33279e-006*TM.GRD + 0.02401)*(MN$.UE + 2.72*TM.GRD + -2018): 
OTHER_12           .         GK.MKR/H = GK$.UE / 43.5489 + 0: 
OTHER_13           .         RES.SM = 0.00476*CRES.UE - 1.51709: 
OTHER_14           .         PL.GSM3 = 0 + 0 * (PL.UE / 1) +  0 * (PL.UE / 1)^2: 
OTHER_15           .         Постоянная времени ГГП = 6 сек: 
OTHER_16           .         Постоянная времени ГК = 6 сек : 
OTHER_2            .         KedrData.dll версия 3.2.2.14  : 
OTHER_3            .         LasInf.dll версия 3.2.0.13    : 
OTHER_4            .         Драйвер версия 1.2.0.5        : 
OTHER_5            .         Прибор_ КСА-M1                : 
OTHER_6            .         Номер прибора_ 155+р204       : 
OTHER_7            .         Режим_ КСА-М1 + ГГП + Резистивиметр: 
OTHER_8            .         Форма_ 223\2                  : 
OTHER_9            .         Тарировки_                    : 
PROJECT_UPGRADE_TIME .         2021-03-18T21_24_50           : 
TLFamily_CRES      .                                       : 
TLFamily_DEPT      .         Measured Depth                : 
TLFamily_GK        .         Gamma Ray                     : 
TLFamily_GK$       .                                       : 
TLFamily_LM        .         Casing Collar locator         : 
TLFamily_METKA     .                                       : 
TLFamily_MN        .                                       : 
TLFamily_MN$       .                                       : 
TLFamily_PL        .                                       : 
TLFamily_PL_2      .                                       : 
TLFamily_RCOR      .                                       : 
TLFamily_RES       .         Mud Resistivity               : 
TLFamily_SPID      .         Spontaneous Potential         : 
TLFamily_STD       .                                       : 
TLFamily_TIME      .         Time                          : 
TLFamily_TM        .         Temperature                   : 
TLFamily_TM$       .         Temperature                   : 
TLFamily_VGD       .         Gas Volume                    : 
group              .         prim                          : 
~Curve Information
#_______________________________________________________________________________
#
#LOGNAME           .UNIT     LOG_ID                        : DESCRIPTION
#_______________________________________________________________________________
DEPT               .M                                      : 1 Глубина, м -    0.0 см 
CRES               .UE                                     : 9 Проводимость, усл.ед. -  222.0 см 
GK                 .MKR/H                                  : 16 Гамма-активность, мкр./ч -  106.0 см 
GK$                .UE                                     : 13 Гамма-активность, усл.ед. -  106.0 см 
LM                 .                                       : 11 Локатор муфт,  -   16.0 см 
METKA              .                                       : 3 Метки,  -    0.0 см 
MN                 .ATM                                    : 15 Давление, атм. -  160.0 см 
MN$                .UE                                     : 7 Давление, усл.ед. -  160.0 см 
PL                 .UE                                     : 10 Плотность, усл.ед. -  270.0 см 
PL_2               .GSM3                                   : 18 Плотность, г./см3 -  270.0 см 
RCOR               .CM/KM                                  : 5 Коррекция по ролику, см/км -    0.0 см 
RES                .SM                                     : 17 Проводимость,  -  222.0 см 
SPID               .M/H                                    : 2 Скорость, м/час -    0.0 см 
STD                .                                       : 12 Приток,  -  170.0 см 
TIME               .S                                      : 4 Время, сек -    0.0 см 
TM                 .GRD                                    : 14 Температура, °C -  180.0 см 
TM$                .UE                                     : 6 Температура, усл.ед. -  180.0 см 
VGD                .                                       : 8 Влагомер,  -  170.0 см 
~Ascii
2648.8000488 -9999      -9999      -9999      -9999      -9999      -9999      -9999      -9999      -9999      -9999      -9999      -9999      -9999      -9999      -9999      -9999      -9999     
2649       -9999      -9999      -9999      -9999      0          -9999      -9999      -9999      -9999      0          -9999      130        -9999      14698.59   -9999      -9999      -9999     
2649.199999 -9999      -9999      -9999      100        0          -9999      -9999      -9999      -9999      0          -9999      260        -9999      14702.97   -9999      -9999      -9999     
2649.399999 -9999      -9999      -9999      111        0          -9999      -9999      -9999      -9999      0          -9999      450        -9999      14704.77   -9999      -9999      -9999     
2649.599999 -9999      -9999      -9999      571        0          -9999      -9999      -9999      -9999      0          -9999      580        -9999      14706.06   -9999      -9999      -9999     
2649.799999 -9999      -9999      -9999      253        0          -9999      -9999      -9999      -9999      0          -9999      640        -9999      14707.23   -9999      -9999      -9999     
2649.999998 -9999      9.92       429        250        0          -9999      -9999      -9999      -9999      0          -9999      580        -9999      14708.16   -9999      -9999      -9999     
2650.199998 -9999      9.8        427        202        1          -9999      -9999      -9999      -9999      0          -9999      580        -9999      14709.36   -9999      -9999      -9999     
2650.399998 -9999      9.79       426        385        0          -9999      -9999      -9999      -9999      0          -9999      640        -9999      14710.56   -9999      -9999      -9999     
2650.599997 -9999      9.79       426        252        0          352.726    16350      -9999      -9999      0          -9999      580        10701      14711.82   -9999      -9999      6681      
2650.799997 -9999      10.07      455        167        0          354.536    16424      -9999      -9999      0          -9999      580        10763      14713.08   54.913     13575      6671      
2650.999997 -9999      10.24      455        184        0          353.071    16364      -9999      -9999      0          -9999      533        10763      14714.42   54.917     13576      6682      
2651.199996 1228       10.24      444        170        0          352.754    16351      -9999      -9999      0          4.3306     580        10763      14715.68   54.921     13577      6682      
2651.399996 1229       10.22      444        168        0          353.398    16377      -9999      -9999      0          4.333      568        10762      14717.02   54.917     13576      6683      
2651.599996 1230       9.94       413        224        0          355.553    16466      14         0          0          4.3369     580        10757      14718.27   54.913     13575      6675      
2651.799996 1229       9.72       413        225        0          355.698    16472      14         0          0          4.3343     580        10754      14719.57   54.909     13574      6680      
2651.999995 1231       9.66       422        176        0          355.067    16446      14         0          0          4.3425     510        10752      14720.87   54.905     13573      6676      
2652.199995 1231       9.68       422        206        0          355.246    16453      13         0          0          4.3416     580        10750      14722.27   54.905     13573      6680      
2652.399995 1231       9.76       431        195        0          354.845    16437      14         0          0          4.3441     580        10750      14723.56   54.908     13574      6671      
2652.599994 1231       9.83       431        166        0          354.082    16405      14         0          0          4.3432     580        10750      14724.87   54.902     13572      6668      
2652.799994 1231       10.05      450        156        0          353.966    16401      14         0          0          4.3438     580        10749      14726.19   54.897     13571      6671      
2652.999994 1231       10.18      450        134        0          353.818    16395      14         0          0          4.3425     510        10747      14727.48   54.893     13570      6681      
2653.199993 1232       10.47      468        198        0          353.781    16393      14         0          0          4.3472     580        10747      14728.78   54.892     13570      6677      
2653.399993 1238       10.6       468        161        0          353.375    16377      14         0          0          4.3758     568        10744      14730.04   54.887     13569      6689      
2653.599993 1232       10.5       451        155        0          352.76     16351      15         0          0          4.3472     580        10743      14731.38   54.877     13566      6683      
2653.799993 1232       10.4       444        134        0          353.527    16383      14         0          0          4.3472     545        10744      14732.7    54.877     13566      6688      
2653.999992 1232       9.93       411        150        0          353        16361      14         0          0          4.3479     530        10743      14733.98   54.873     13565      6687      
2654.199992 1230       9.69       412        134        0          352.837    16355      15         0          0          4.3401     510        10742      14735.3    54.869     13564      6680      
2654.399992 1230       9.59       413        137        0          353.865    16397      14         0          0          4.3377     568        10741      14736.57   54.865     13563      6682      
2654.599991 1231       9.54       415        105        0          355.401    16460      14         0          0          4.3425     600        10739      14737.82   54.86      13562      6686      
2654.799991 1230       9.62       422        140        0          355.044    16445      14         0          0          4.3397     537        10739      14739.15   54.855     13561      6684      
2654.999991 1232       9.57       404        147        0          355.45     16462      14         0          0          4.3456     510        10738      14740.49   54.848     13559      6682      
2655.19999 1231       9.39       400        156        0          356.238    16494      14         0          0          4.3425     580        10738      14741.75   54.845     13558      6685      
2655.39999 1236       9.28       398        139        0          355.266    16455      14         0          0          4.3663     553        10738      14743      54.84      13557      6683      
2655.59999 1230       9.21       398        134        0          355.462    16463      14         0          0          4.3377     550        10736      14744.3    54.828     13554      6690      
2655.79999 1230       9.09       385        133        0          355.589    16468      14         0          0          4.3377     510        10734      14745.62   54.828     13554      6676      
2655.999989 1225       8.96       385        145        0          355.592    16468      14         0          0          4.3131     570        10735      14746.93   54.824     13553      6686      
2656.199989 1229       8.54       311        121        0          355.174    16451      13         0          0          4.3343     580        10737      14748.19   54.819     13552      6686      
2656.399989 1229       7.85       311        136        0          354.535    16425      14         0          0          4.3314     580        10735      14749.53   54.815     13551      6688      
2656.599988 1229       7.54       317        142        0          353.058    16364      13         0          0          4.333      510        10733      14750.8    54.808     13549      6685      
2656.799988 1233       7.41       317        111        0          353.839    16396      14         0          0          4.3519     580        10731      14752.12   54.8       13547      6687      
