~Version
 VERS              .         2.0                           : CWLS LOG ASCII STANDARD - VERSION 2.0
 WRAP              .         NO                            : ONE LINE PER DEPTH STEP
 DLM               .         SPACE                         : DELIMITING CHARACTER(SPACE TAB OR COMMA)
~Well Information
#_______________________________________________________________________________
#
#PARAMETER_NAME    .UNIT     VALUE                         : DESCRIPTION
#_______________________________________________________________________________
STRT               .M        2669.2                        : First reference value
STOP               .M        2776.2                        : Last reference value
STEP               .M        0.2                           : Step increment
NULL               .         -9999                         : Missing value
COMP               .                                       : Company
WELL               .         616                           : Well name
FLD                .                                       : Field
LOC                .                                       : Location
CNTY               .                                       : County
STAT               .                                       : State
CTRY               .                                       : Country
SRVC               .                                       : Service Company
DATE               .                                       : Date
API                .                                       : API number
PROJECT_UPGRADE_TIME .         2021-03-18T21_24_50           : 
group              .         Good                          : 
~Parameter Information Block
#_______________________________________________________________________________
#
#PARAMETER_NAME    .UNIT     VALUE                         : DESCRIPTION
#_______________________________________________________________________________
SET                .         D1809_D                       : 
OTHER              .         Программное обеспечение станции MONITOR-386EX 25/12/99 15_08_10   BGF V52 22/08/01 16_56_30   3.1_SNGF___BGF_N_092049: 
OTHER_10           .         Тарировки_                    : 
OTHER_11           .         TM.GRD = 0.00403*TM$.UE + -1.07: 
OTHER_12           .         MN.ATM = (9.34907e-006*TM.GRD + 0.02171)*(MN$.UE + -7.93*TM.GRD + -1787): 
OTHER_13           .         GK.MKR/H = LM. / 42.4676      : 
OTHER_14           .         GK.FLT = 0.1*GK.MKR/H[-1] + (1-0.1)*GK.MKR/H[0]: 
OTHER_2            .         Kedr.exe версия 3.4.2.51      : 
OTHER_3            .         KedrData.dll версия 3.4.2.24  : 
OTHER_4            .         Драйвер версия 2.1.1.3        : 
OTHER_5            .         Мнемоники версия 3.3 S        : 
OTHER_6            .         Прибор_ КСА-Т4                : 
OTHER_7            .         Номер прибора_ 03             : 
OTHER_8            .         Режим_ КСА-Т4                 : 
OTHER_9            .         Форма_ КВА.                   : 
PROJECT_UPGRADE_TIME .         2021-03-18T21_24_49           : 
TLFamily_DEPT      .         Measured Depth                : 
TLFamily_GK        .         Gamma Ray                     : 
TLFamily_GK$       .                                       : 
TLFamily_GK_2      .         Gamma Ray                     : 
TLFamily_LM        .         Casing Collar locator         : 
TLFamily_METKA     .                                       : 
TLFamily_MN        .                                       : 
TLFamily_MN$       .                                       : 
TLFamily_RCOR      .                                       : 
TLFamily_SPID      .         Spontaneous Potential         : 
TLFamily_TENS      .         Cable Tension                 : 
TLFamily_TIME      .         Time                          : 
TLFamily_TM        .         Temperature                   : 
TLFamily_TM$       .         Temperature                   : 
group              .         prim                          : 
~Curve Information
#_______________________________________________________________________________
#
#LOGNAME           .UNIT     LOG_ID                        : DESCRIPTION
#_______________________________________________________________________________
DEPT               .M                                      : 1 Глубина, м -    0.0 см 
GK                 .MKR/H                                  : 13 Гамма-активность, мкр./ч -  110.0 см 
GK$                .UE                                     : 10 Гамма-активность, усл.ед. -  110.0 см 
GK_2               .FLT                                    : 14 Гамма-активность фильтрованная, мкр./ч -  110.0 см 
LM                 .                                       : 9 Локатор муфт,  -   20.0 см 
METKA              .                                       : 3 Метки,  -    0.0 см 
MN                 .ATM                                    : 12 Давление, атм. -  160.0 см 
MN$                .UE                                     : 8 Давление, усл.ед. -  160.0 см 
RCOR               .CM/KM                                  : 5 Коррекция по ролику, см/км -    0.0 см 
SPID               .M/H                                    : 2 Скорость, м/час -    0.0 см 
TENS               .T                                      : 6 Натяжение кабеля, т -    0.0 см 
TIME               .S                                      : 4 Время, сек -    0.0 см 
TM                 .GRD                                    : 11 Температура, °C -  170.0 см 
TM$                .UE                                     : 7 Температура, усл.ед. -  170.0 см 
~Ascii
# ...
2679.6     7.32       311        7.33       258        0          247.517    13359      -625       573        0.05       6332.83    54.578     13809     
2679.8     6.5        276        6.64       260        0          247.542    13360      -625       573        0.05       6334.06    54.541     13799     
2680       6.5        276        6.5        253        2          247.563    13361      -625       577        0.05       6335.33    54.502     13790     
2680.2     7.42       315        7.19       235        0          247.569    13361      -631       564        0.05       6336.9     54.467     13781     
2680.4     7.42       315        7.41       257        0          247.594    13362      -631       576        0.05       6338.19    54.433     13773     
2680.6     8.19       348        7.97       260        0          247.619    13363      -631       583        0.05       6339.39    54.398     13764     
2680.8     8.19       348        8.19       217        0          247.629    13363      -631       579        0.05       6340.7     54.361     13754     
2681       7.68       326        7.75       256        0          247.647    13364      -631       582        0.05       6341.96    54.322     13745     
2681.2     7.68       326        7.68       223        0          247.671    13365      -631       585        0.05       6343.18    54.287     13736     
2681.4     7.13       303        7.18       220        0          247.689    13366      -631       584        0.05       6344.47    54.257     13729     
2681.6     7.13       303        7.14       235        0          247.72     13367      -631       587        0.05       6345.66    54.222     13720     
2681.8     7.54       320        7.49       1672       0          247.666    13364      -631       591        0.05       6346.91    54.183     13710     
2682       7.54       320        7.53       670        0          247.754    13368      -631       593        0.05       6348.18    54.146     13701     
2682.2     8.5        361        8.45       275        0          247.772    13369      -631       596        0.05       6349.42    54.118     13694     
2682.4     8.5        361        8.5        233        0          247.775    13369      -631       593        0.05       6350.73    54.082     13685     
2682.6     8.95       380        8.91       190        0          247.799    13370      -631       597        0.05       6351.98    54.051     13678     
2682.8     8.95       380        8.95       231        0          247.824    13371      -631       595        0.05       6353.23    54.016     13669     
2683       8.81       374        8.82       217        0          247.849    13372      -631       593        0.05       6354.48    53.982     13660     
2683.2     8.81       374        8.81       221        0          247.851    13372      -631       579        0.05       6355.73    53.952     13653     
2683.4     8.97       381        8.96       194        0          247.875    13373      -631       584        0.05       6356.98    53.917     13644     
2683.6     8.97       381        8.97       211        0          247.897    13374      -631       578        0.05       6358.23    53.881     13636     
2683.8     9.44       401        9.41       263        0          247.907    13374      -631       573        0.05       6359.43    53.851     13628     
2684       9.44       401        9.44       170        0          247.927    13375      -631       558        0.05       6360.73    53.815     13619     
2684.2     10.03      426        9.97       217        0          247.951    13376      -631       556        0.05       6361.98    53.792     13613     
2684.4     10.03      426        10.03      215        0          247.961    13376      -631       555        0.05       6363.19    53.761     13606     
2684.6     9.63       409        9.66       193        0          247.992    13378      -631       552        0.05       6364.49    53.734     13599     
2684.8     9.63       409        9.63       233        0          248.002    13378      -631       551        0.05       6365.72    53.702     13591     
2685       8.74       371        8.8        226        0          248.011    13378      -631       550        0.05       6366.94    53.676     13585     
2685.2     8.74       371        8.74       203        0          248.028    13379      -631       551        0.05       6368.19    53.655     13579     
2685.4     9.07       385        9.05       222        0          248.052    13380      -631       551        0.05       6369.48    53.623     13571     
2685.6     9.07       385        9.07       232        0          248.077    13381      -631       554        0.05       6370.75    53.588     13563     
2685.8     9.49       403        9.47       195        0          248.093    13382      -631       553        0.05       6372       53.561     13556     
2686       9.49       403        9.49       195        0          248.103    13382      -631       553        0.05       6373.25    53.531     13549     
2686.2     8.83       375        8.89       193        0          248.127    13383      -631       552        0.05       6374.5     53.508     13543     
2686.4     8.83       375        8.83       150        0          248.142    13384      -631       551        0.05       6375.75    53.476     13535     
2686.6     8.59       365        8.6        195        0          248.152    13384      -631       550        0.05       6377       53.458     13530     
2686.8     8.59       365        8.6        229        0          248.176    13385      -631       548        0.05       6378.27    53.434     13524     
2687       9.42       400        9.38       206        0          248.192    13386      -631       550        0.05       6379.54    53.405     13517     
2687.2     9.42       400        9.42       213        0          248.202    13386      -631       550        0.05       6380.77    53.381     13511     
2687.4     9.82       417        9.79       224        0          248.226    13387      -631       561        0.05       6382.02    53.358     13506     
2687.6     9.82       417        9.82       224        0          248.243    13388      -631       564        0.05       6383.27    53.331     13499     
2687.8     9.68       411        9.68       183        0          248.252    13388      -631       560        0.05       6384.49    53.304     13492     
2688       9.68       411        9.68       189        0          248.276    13389      -631       557        0.05       6385.77    53.28      13486     
2688.2     10.05      427        10.04      187        0          248.3      13390      -631       563        0.05       6386.95    53.258     13481     
2688.4     10.05      427        10.05      195        0          248.324    13391      -631       568        0.05       6388.2     53.229     13474     
2688.6     10.55      448        10.51      173        0          248.348    13392      -631       572        0.05       6389.52    53.212     13469     
2688.8     10.55      448        10.55      199        0          248.349    13392      -631       558        0.05       6390.77    53.175     13460     
2689       10.29      437        10.3       220        0          248.373    13393      -631       568        0.05       6392.02    53.167     13458     
2689.2     10.29      437        10.29      194        0          248.375    13393      -631       571        0.05       6393.28    53.14      13452     
2689.4     10.05      427        10.07      192        0          248.399    13394      -631       572        0.05       6394.52    53.117     13446     
2689.6     10.05      427        10.06      223        0          248.423    13395      -631       581        0.05       6395.78    53.096     13441     
2689.8     9.63       409        9.66       189        0          248.446    13396      -631       581        0.05       6397.03    53.071     13434     
