~Version
 VERS              .         2.0                           : CWLS LOG ASCII STANDARD - VERSION 2.0
 WRAP              .         NO                            : ONE LINE PER DEPTH STEP
 DLM               .         SPACE                         : DELIMITING CHARACTER(SPACE TAB OR COMMA)
~Well Information
#_______________________________________________________________________________
#
#PARAMETER_NAME    .UNIT     VALUE                         : DESCRIPTION
#_______________________________________________________________________________
STRT               .M        2659.8                        : First reference value
STOP               .M        2768.999945                   : Last reference value
STEP               .M        0.1999999                     : Step increment
NULL               .         -9999                         : Missing value
COMP               .                                       : Company
WELL               .         616                           : Well name
FLD                .                                       : Field
LOC                .                                       : Location
CNTY               .                                       : County
STAT               .                                       : State
CTRY               .                                       : Country
SRVC               .                                       : Service Company
DATE               .                                       : Date
API                .                                       : API number
PROJECT_UPGRADE_TIME .         2021-03-18T21_24_50           : 
group              .         Good                          : 
~Parameter Information Block
#_______________________________________________________________________________
#
#PARAMETER_NAME    .UNIT     VALUE                         : DESCRIPTION
#_______________________________________________________________________________
SET                .         D1169_D                       : 
OTHER              .         Программное обеспечение станции MONITOR-386EX 25/12/99 15_08_10   BGF V52 22/08/01 16_56_30   3.2_BGF_N_3070031: 
OTHER_10           .         Тарировки_                    : 
OTHER_11           .         TM.GRD = 0.00403*TM$.UE + -1.19: 
OTHER_12           .         MN.ATM = (7.1e-006*TM.GRD + 0.02017)*(MN$.UE + -3.03*TM.GRD + -1833): 
OTHER_13           .         Id error                      : 
OTHER_2            .         Kedr.exe версия 3.4.2.51      : 
OTHER_3            .         KedrData.dll версия 3.4.2.24  : 
OTHER_4            .         Драйвер версия 2.1.1.8        : 
OTHER_5            .         Мнемоники версия 3.3 S        : 
OTHER_6            .         Прибор_ КСА-М1                : 
OTHER_7            .         Номер прибора_ 265            : 
OTHER_8            .         Режим_ КСА-М1                 : 
OTHER_9            .         Форма_ ТЕРМОМЕТР              : 
PROJECT_UPGRADE_TIME .         2021-03-18T21_24_49           : 
TLFamily_DEPT      .         Measured Depth                : 
TLFamily_GK        .         Gamma Ray                     : 
TLFamily_GK$       .                                       : 
TLFamily_LM        .         Casing Collar locator         : 
TLFamily_METKA     .                                       : 
TLFamily_MN        .                                       : 
TLFamily_MN$       .                                       : 
TLFamily_RCOR      .                                       : 
TLFamily_SPID      .         Spontaneous Potential         : 
TLFamily_STD       .                                       : 
TLFamily_TENS      .         Cable Tension                 : 
TLFamily_TIME      .         Time                          : 
TLFamily_TM        .         Temperature                   : 
TLFamily_TM$       .         Temperature                   : 
TLFamily_VGD       .         Gas Volume                    : 
group              .         prim                          : 
~Curve Information
#_______________________________________________________________________________
#
#LOGNAME           .UNIT     LOG_ID                        : DESCRIPTION
#_______________________________________________________________________________
DEPT               .M                                      : 1 Глубина, м -    0.0 см 
GK                 .MKR/H                                  : 15 Гамма-активность, мкр./ч -  110.0 см 
GK$                .UE                                     : 12 Гамма-активность, усл.ед. -  110.0 см 
LM                 .                                       : 10 Локатор муфт,  -   20.0 см 
METKA              .                                       : 3 Метки,  -    0.0 см 
MN                 .ATM                                    : 14 Давление, атм. -  160.0 см 
MN$                .UE                                     : 8 Давление, усл.ед. -  160.0 см 
RCOR               .CM/KM                                  : 5 Коррекция по ролику, см/км -    0.0 см 
SPID               .M/H                                    : 2 Скорость, м/час -    0.0 см 
STD                .                                       : 11 Приток,  -  170.0 см 
TENS               .T                                      : 6 Натяжение кабеля, т -    0.0 см 
TIME               .S                                      : 4 Время, сек -    0.0 см 
TM                 .GRD                                    : 13 Температура, °C -  180.0 см 
TM$                .UE                                     : 7 Температура, усл.ед. -  180.0 см 
VGD                .                                       : 9 Влагомер,  -  170.0 см 
~Ascii
# ...
2708.799976 7.43       319        1          1          259.862    14600      -1400      584        31022      0          25855.06   84.864     21353      6571      
2708.999975 7.95       355        1          0          259.866    14600      -1400      576        31031      0          25856.35   84.887     21359      6571      
2709.199975 8.2        355        1          0          259.884    14601      -1400      571        31042      0          25857.58   84.91      21365      6572      
2709.399975 8.6        380        1          0          259.905    14602      -1400      583        31050      0          25858.81   84.926     21369      6572      
2709.599975 8.8        380        1          0          259.926    14603      -1400      584        31058      0          25860.06   84.942     21373      6571      
2709.799975 8.39       337        1          0          259.948    14604      -1400      580        31066      0          25861.33   84.964     21378      6572      
2709.999975 8.03       337        1          2          259.948    14604      -1400      582        31072      0          25862.56   84.986     21384      6572      
2710.199975 7.84       329        1          0          259.991    14606      -1400      581        31082      0          25863.79   85.011     21390      6571      
2710.399975 7.74       329        1          0          259.991    14606      -1400      576        31089      0          25865.09   85.033     21395      6570      
2710.599975 7.79       335        1          0          260.033    14608      -1400      580        31098      0          25866.32   85.052     21400      6570      
2710.799975 7.82       335        1          0          260.051    14609      -1400      580        31107      0          25867.55   85.072     21405      6571      
2710.999974 8.02       349        1          0          260.055    14609      -1400      586        31117      0          25868.84   85.088     21409      6571      
2711.199974 8.12       349        1          0          260.089    14611      -1400      578        31124      0          25870.07   85.107     21414      6571      
2711.399974 8.03       339        1          0          260.109    14612      -1400      583        31134      0          25871.3    85.125     21418      6571      
2711.599974 7.96       339        1          0          260.128    14612      -1400      589        31140      0          25872.47   85.149     21424      6571      
2711.799974 8.09       353        1          0          260.16     14614      -1400      584        31147      0          25873.76   85.164     21428      6570      
2711.999974 8.21       353        1          1          260.182    14615      -1400      583        31155      0          25874.99   85.178     21431      6570      
2712.199974 8.57       385        1          0          260.203    14616      -1400      578        31162      0          25876.22   85.194     21435      6570      
2712.399974 8.87       385        1          0          260.203    14616      -1400      578        31169      0          25877.45   85.21      21439      6570      
2712.599974 9.1        395        1          0          260.224    14617      -1400      579        31177      0          25878.74   85.221     21442      6571      
2712.799974 9.2        395        1          0          260.246    14618      -1400      584        31183      0          25879.97   85.241     21447      6571      
2712.999973 9.11       386        1          0          260.267    14619      -1400      583        31190      0          25881.16   85.26      21452      6571      
2713.199973 9.06       386        1          1          260.288    14620      -1400      580        31195      0          25882.5    85.274     21455      6571      
2713.399973 8.04       299        1          0          260.309    14621      -1400      586        31201      0          25883.7    85.283     21457      6570      
2713.599973 7.3        299        1          0          260.33     14622      -1400      585        31204      0          25884.9    85.286     21458      6571      
2713.799973 6.62       253        1          0          260.333    14622      -1400      589        31206      0          25886.22   85.29      21459      6570      
2713.999973 6.13       253        1          0          260.35     14623      -1400      580        31208      0          25887.42   85.29      21459      6571      
2714.199973 5.79       231        1          0          260.371    14624      -1400      580        31208      0          25888.65   85.29      21459      6570      
2714.399973 5.51       231        46         0          260.392    14625      -1400      586        31208      0          25889.88   85.298     21461      6571      
2714.599973 5.03       198        1294       0          260.413    14626      -1400      578        31208      0          25891.17   85.298     21461      6571      
2714.799972 4.75       198        161        0          260.428    14627      -1400      582        31208      0          25892.4    85.296     21461      6571      
2714.999972 4.57       190        1          0          260.454    14628      -1400      583        31208      0          25893.63   85.294     21460      6571      
2715.199972 4.48       190        1          0          260.454    14628      -1400      582        31208      0          25894.9    85.292     21460      6571      
2715.399972 4.58       202        1          0          260.475    14629      -1400      571        31206      0          25896.15   85.29      21459      6571      
2715.599972 4.68       202        1          0          260.495    14630      -1400      576        31204      0          25897.32   85.285     21458      6571      
2715.799972 5.39       273        1          0          260.515    14631      -1400      577        31200      0          25898.55   85.272     21455      6572      
2715.999972 6.08       273        1          0          260.532    14632      -1400      570        31197      0          25899.84   85.245     21448      6572      
2716.199972 6.64       316        1          0          260.551    14633      -1400      572        31189      0          25901.07   85.211     21440      6572      
2716.399972 7.18       316        1          0          260.552    14633      -1400      574        31165      0          25902.3    85.129     21419      6572      
2716.599972 6.74       267        1          0          260.571    14634      -1400      587        31141      0          25903.53   85.052     21400      6573      
2716.799972 6.4        267        1          0          260.591    14635      -1400      579        31122      0          25904.82   84.988     21384      6573      
2716.999971 6.25       263        1          0          260.62     14636      -1400      579        31101      0          25906.02   84.941     21372      6573      
2717.199971 6.18       263        88         0          260.631    14637      -1400      591        31086      0          25907.22   84.913     21366      6574      
2717.399971 6.44       292        1          0          260.651    14638      -1400      579        31073      0          25908.55   84.898     21362      6572      
2717.599971 6.7        292        1          0          260.67     14639      -1400      581        31059      0          25909.74   84.863     21353      6574      
2717.799971 7.02       318        1          0          260.688    14640      -1400      581        31037      0          25910.97   84.786     21334      6574      
2717.999971 7.31       318        1          0          260.706    14641      -1400      581        31007      0          25912.2    84.69      21310      6574      
2718.199971 7.75       362        1          0          260.717    14642      -1400      578        30974      0          25913.49   84.597     21287      6574      
2718.399971 8.39       371        1          0          260.745    14643      -1400      580        30944      0          25914.72   84.539     21273      6574      
