~Version
 VERS              .         2.0                           : CWLS LOG ASCII STANDARD - VERSION 2.0
 WRAP              .         NO                            : ONE LINE PER DEPTH STEP
 DLM               .         SPACE                         : DELIMITING CHARACTER(SPACE TAB OR COMMA)
~Well Information
#_______________________________________________________________________________
#
#PARAMETER_NAME    .UNIT     VALUE                         : DESCRIPTION
#_______________________________________________________________________________
STRT               .M        2648.8                        : First reference value
STOP               .M        2755.39984                    : Last reference value
STEP               .M        0.1999997                     : Step increment
NULL               .         -9999                         : Missing value
COMP               .                                       : Company
WELL               .         616                           : Well name
FLD                .                                       : Field
LOC                .                                       : Location
CNTY               .                                       : County
STAT               .                                       : State
CTRY               .                                       : Country
SRVC               .                                       : Service Company
DATE               .                                       : Date
API                .                                       : API number
PROJECT_UPGRADE_TIME .         2021-03-18T21_24_50           : 
group              .         Good                          : 
~Parameter Information Block
#_______________________________________________________________________________
#
#PARAMETER_NAME    .UNIT     VALUE                         : DESCRIPTION
#_______________________________________________________________________________
SET                .         D7023_D                       : 
OTHER              .         Kedr.exe версия 2.1.2.32      : 
OTHER_10           .         TM.GRD = 0.00404*TM$.UE + 0.07: 
OTHER_11           .         MN.ATM = (6.33279e-006*TM.GRD + 0.02401)*(MN$.UE + 2.72*TM.GRD + -2018): 
OTHER_12           .         GK.MKR/H = GK$.UE / 43.5489 + 0: 
OTHER_13           .         RES.SM = 0.00476*CRES.UE - 1.51709: 
OTHER_14           .         PL.GSM3 = 0 + 0 * (PL.UE / 1) +  0 * (PL.UE / 1)^2: 
OTHER_15           .         Постоянная времени ГГП = 6 сек: 
OTHER_16           .         Постоянная времени ГК = 6 сек : 
OTHER_2            .         KedrData.dll версия 3.2.2.14  : 
OTHER_3            .         LasInf.dll версия 3.2.0.13    : 
OTHER_4            .         Драйвер версия 1.2.0.5        : 
OTHER_5            .         Прибор_ КСА-M1                : 
OTHER_6            .         Номер прибора_ 155+р204       : 
OTHER_7            .         Режим_ КСА-М1 + ГГП + Резистивиметр: 
OTHER_8            .         Форма_ 223\2                  : 
OTHER_9            .         Тарировки_                    : 
PROJECT_UPGRADE_TIME .         2021-03-18T21_24_50           : 
TLFamily_CRES      .                                       : 
TLFamily_DEPT      .         Measured Depth                : 
TLFamily_GK        .         Gamma Ray                     : 
TLFamily_GK$       .                                       : 
TLFamily_LM        .         Casing Collar locator         : 
TLFamily_METKA     .                                       : 
TLFamily_MN        .                                       : 
TLFamily_MN$       .                                       : 
TLFamily_PL        .                                       : 
TLFamily_PL_2      .                                       : 
TLFamily_RCOR      .                                       : 
TLFamily_RES       .         Mud Resistivity               : 
TLFamily_SPID      .         Spontaneous Potential         : 
TLFamily_STD       .                                       : 
TLFamily_TIME      .         Time                          : 
TLFamily_TM        .         Temperature                   : 
TLFamily_TM$       .         Temperature                   : 
TLFamily_VGD       .         Gas Volume                    : 
group              .         prim                          : 
~Curve Information
#_______________________________________________________________________________
#
#LOGNAME           .UNIT     LOG_ID                        : DESCRIPTION
#_______________________________________________________________________________
DEPT               .M                                      : 1 Глубина, м -    0.0 см 
CRES               .UE                                     : 9 Проводимость, усл.ед. -  222.0 см 
GK                 .MKR/H                                  : 16 Гамма-активность, мкр./ч -  106.0 см 
GK$                .UE                                     : 13 Гамма-активность, усл.ед. -  106.0 см 
LM                 .                                       : 11 Локатор муфт,  -   16.0 см 
METKA              .                                       : 3 Метки,  -    0.0 см 
MN                 .ATM                                    : 15 Давление, атм. -  160.0 см 
MN$                .UE                                     : 7 Давление, усл.ед. -  160.0 см 
PL                 .UE                                     : 10 Плотность, усл.ед. -  270.0 см 
PL_2               .GSM3                                   : 18 Плотность, г./см3 -  270.0 см 
RCOR               .CM/KM                                  : 5 Коррекция по ролику, см/км -    0.0 см 
RES                .SM                                     : 17 Проводимость,  -  222.0 см 
SPID               .M/H                                    : 2 Скорость, м/час -    0.0 см 
STD                .                                       : 12 Приток,  -  170.0 см 
TIME               .S                                      : 4 Время, сек -    0.0 см 
TM                 .GRD                                    : 14 Температура, °C -  180.0 см 
TM$                .UE                                     : 6 Температура, усл.ед. -  180.0 см 
VGD                .                                       : 8 Влагомер,  -  170.0 см 
~Ascii
# ...
2706.199914 1203       12.4       457        50         0          362.087    16747      14         0          0          4.2092     580        10375      15075.73   52.911     13079      6710      
2706.399914 1201       11.44      457        37         0          362.937    16782      14         0          0          4.1997     580        10374      15077      52.897     13076      6710      
2706.599913 1202       10.48      400        60         0          364.345    16840      14         0          0          4.2028     580        10371      15078.27   52.876     13071      6710      
2706.799913 1202       9.85       400        51         0          364.595    16851      14         0          0          4.2044     580        10368      15079.59   52.861     13067      6710      
2706.999913 1202       9.7        418        67         0          366.452    16927      14         0          0          4.2044     510        10366      15080.92   52.854     13065      6710      
2707.199912 1203       9.65       418        55         0          365.422    16885      14         0          0          4.2092     568        10365      15082.18   52.845     13063      6710      
2707.399912 1202       9.76       434        73         0          365.904    16904      13         0          0          4.206      580        10363      15083.52   52.84      13062      6709      
2707.599912 1204       9.86       434        58         0          365.673    16895      14         0          0          4.2124     580        10362      15084.77   52.834     13060      6710      
2707.799912 1201       9.94       437        67         0          366.808    16942      14         0          0          4.1976     580        10358      15086.1    52.826     13058      6710      
2707.999911 1202       9.99       437        64         0          365.864    16903      14         0          0          4.2036     510        10355      15087.37   52.812     13055      6711      
2708.199911 1200       9.94       431        63         0          365.771    16899      14         0          0          4.1933     580        10352      15088.71   52.791     13050      6710      
2708.399911 1200       9.88       423        64         0          364.661    16854      15         0          0          4.1949     560        10350      15089.97   52.774     13046      6709      
2708.59991 1201       9.7        414        74         0          363.636    16812      14         0          0          4.1989     510        10351      15091.29   52.757     13041      6705      
2708.79991 1200       9.6        414        73         0          364.187    16835      14         0          0          4.1949     580        10350      15092.56   52.748     13039      6710      
2708.99991 1199       9.49       408        76         1          363.597    16810      14         0          0          4.1901     545        10348      15093.89   52.744     13038      6709      
2709.199909 1201       9.46       415        73         0          363.593    16810      14         0          0          4.1997     533        10347      15095.14   52.739     13037      6705      
2709.399909 1200       9.56       421        78         0          362.787    16777      14         0          0          4.1963     580        10347      15096.48   52.722     13033      6701      
2709.599909 1199       9.66       431        108        0          363.544    16809      14         0          0          4.191      580        10346      15097.75   52.707     13029      6705      
2709.799909 1199       9.78       431        85         0          364.312    16840      14         0          0          4.1886     540        10345      15099.05   52.69      13025      6709      
2709.999908 1199       9.85       433        95         0          363.956    16826      14         0          0          4.1917     580        10342      15100.35   52.675     13021      6708      
2710.199908 1198       9.89       433        73         1          365.158    16875      14         0          0          4.1854     568        10339      15102.4    52.66      13017      6699      
2710.399908 1199       10         451        67         0          363.518    16808      14         0          0          4.1886     580        10337      15103.67   52.643     13013      6702      
2710.599907 1196       10.17      451        77         0          365.12     16874      14         0          0          4.1779     510        10333      15105      52.625     13009      6694      
2710.799907 1195       10.32      460        65         0          365.737    16899      14         0          0          4.1727     580        10328      15106.28   52.606     13004      6695      
2710.999907 1195       10.44      460        83         0          366.894    16947      14         0          0          4.1718     580        10324      15107.59   52.583     12998      6705      
2711.199906 1197       10.09      426        115        0          366.832    16944      13         0          0          4.1822     580        10319      15108.86   52.574     12996      6709      
2711.399906 1200       9.94       426        123        1          366.175    16917      14         0          0          4.1933     533        10315      15110.18   52.57      12995      6709      
2711.599906 1197       10.22      458        102        0          366.527    16932      14         0          0          4.1806     493        10313      15111.51   52.562     12993      6704      
2711.799906 1200       10.45      476        91         0          365.43     16887      14         0          0          4.1936     580        10312      15112.84   52.551     12990      6705      
2711.999905 1199       10.78      485        62         0          366.088    16914      14         0          0          4.1901     522        10309      15114.11   52.537     12987      6702      
2712.199905 1199       10.89      471        101        0          365.473    16889      14         0          0          4.1881     545        10307      15115.43   52.533     12986      6706      
2712.399905 1197       10.85      471        192        0          366.408    16927      14         0          0          4.1783     580        10306      15116.69   52.519     12982      6698      
2712.599904 1192       10.86      474        150        1          366.842    16945      14         0          0          4.1551     510        10298      15118.03   52.498     12977      6707      
2712.799904 1198       10.87      474        199        0          367.455    16971      14         0          0          4.1854     524        10285      15119.31   52.466     12969      6708      
2712.999904 1198       10.58      419        150        0          366.553    16934      14         0          0          4.1868     580        10273      15120.61   52.445     12964      6701      
2713.199903 1199       10.11      419        97         0          366.044    16913      14         0          0          4.1901     560        10267      15121.9    52.432     12961      6698      
2713.399903 1199       9.21       321        208        0          365.951    16909      14         0          0          4.1901     510        10268      15123.22   52.423     12959      6699      
2713.599903 1198       8.29       321        436        0          365.791    16903      14         0          0          4.1854     580        10270      15124.49   52.42      12958      6698      
2713.799903 1199       7.63       297        648        0          365.211    16879      14         0          0          4.1917     545        10268      15125.8    52.414     12956      6701      
2713.999902 1199       7.24       297        771        0          364.674    16857      14         0          0          4.1901     580        10267      15127.07   52.418     12957      6703      
2714.199902 1200       7.3        324        1715       0          363.855    16823      14         0          0          4.1942     510        10265      15128.4    52.404     12954      6703      
