~Version
 VERS              .         2.0                           : CWLS LOG ASCII STANDARD - VERSION 2.0
 WRAP              .         NO                            : ONE LINE PER DEPTH STEP
 DLM               .         SPACE                         : DELIMITING CHARACTER(SPACE TAB OR COMMA)
~Well Information
#_______________________________________________________________________________
#
#PARAMETER_NAME    .UNIT     VALUE                         : DESCRIPTION
#_______________________________________________________________________________
STRT               .M        1.8                           : First reference value
STOP               .M        2776                          : Last reference value
STEP               .M        0.2                           : Step increment
NULL               .         -9999                         : Missing value
COMP               .                                       : Company
WELL               .         616                           : Well name
FLD                .                                       : Field
LOC                .                                       : Location
CNTY               .                                       : County
STAT               .                                       : State
CTRY               .                                       : Country
SRVC               .                                       : Service Company
DATE               .                                       : Date
API                .                                       : API number
PROJECT_UPGRADE_TIME .         2021-03-18T21_24_50           : 
group              .         Good                          : 
~Parameter Information Block
#_______________________________________________________________________________
#
#PARAMETER_NAME    .UNIT     VALUE                         : DESCRIPTION
#_______________________________________________________________________________
SET                .         D1799_D                       : 
OTHER              .         Программное обеспечение станции MONITOR-386EX 25/12/99 15_08_10   BGF V52 22/08/01 16_56_30   3.1_SNGF___BGF_N_092049: 
OTHER_10           .         Тарировки_                    : 
OTHER_11           .         TM.GRD = 0.00403*TM$.UE + -1.07: 
OTHER_12           .         MN.ATM = (9.34907e-006*TM.GRD + 0.02171)*(MN$.UE + -7.93*TM.GRD + -1787): 
OTHER_13           .         GK.MKR/H = LM. / 42.4676      : 
OTHER_14           .         GK.FLT = 0.1*GK.MKR/H[-1] + (1-0.1)*GK.MKR/H[0]: 
OTHER_2            .         Kedr.exe версия 3.4.2.51      : 
OTHER_3            .         KedrData.dll версия 3.4.2.24  : 
OTHER_4            .         Драйвер версия 2.1.1.3        : 
OTHER_5            .         Мнемоники версия 3.3 S        : 
OTHER_6            .         Прибор_ КСА-Т4                : 
OTHER_7            .         Номер прибора_ 03             : 
OTHER_8            .         Режим_ КСА-Т4                 : 
OTHER_9            .         Форма_ КВА.                   : 
PROJECT_UPGRADE_TIME .         2021-03-18T21_24_49           : 
TLFamily_DEPT      .         Measured Depth                : 
TLFamily_GK        .         Gamma Ray                     : 
TLFamily_GK$       .                                       : 
TLFamily_GK_2      .         Gamma Ray                     : 
TLFamily_LM        .         Casing Collar locator         : 
TLFamily_METKA     .                                       : 
TLFamily_MN        .                                       : 
TLFamily_MN$       .                                       : 
TLFamily_RCOR      .                                       : 
TLFamily_SPID      .         Spontaneous Potential         : 
TLFamily_TENS      .         Cable Tension                 : 
TLFamily_TIME      .         Time                          : 
TLFamily_TM        .         Temperature                   : 
TLFamily_TM$       .         Temperature                   : 
group              .         prim                          : 
~Curve Information
#_______________________________________________________________________________
#
#LOGNAME           .UNIT     LOG_ID                        : DESCRIPTION
#_______________________________________________________________________________
DEPT               .M                                      : 1 Глубина, м -    0.0 см 
GK                 .MKR/H                                  : 13 Гамма-активность, мкр./ч -  110.0 см 
GK$                .UE                                     : 10 Гамма-активность, усл.ед. -  110.0 см 
GK_2               .FLT                                    : 14 Гамма-активность фильтрованная, мкр./ч -  110.0 см 
LM                 .                                       : 9 Локатор муфт,  -   20.0 см 
METKA              .                                       : 3 Метки,  -    0.0 см 
MN                 .ATM                                    : 12 Давление, атм. -  160.0 см 
MN$                .UE                                     : 8 Давление, усл.ед. -  160.0 см 
RCOR               .CM/KM                                  : 5 Коррекция по ролику, см/км -    0.0 см 
SPID               .M/H                                    : 2 Скорость, м/час -    0.0 см 
TENS               .T                                      : 6 Натяжение кабеля, т -    0.0 см 
TIME               .S                                      : 4 Время, сек -    0.0 см 
TM                 .GRD                                    : 11 Температура, °C -  170.0 см 
TM$                .UE                                     : 7 Температура, усл.ед. -  170.0 см 
~Ascii
# ...
2404.2     8.19       348        8.21       189        0          217.732    12020      -1281      2022       0.01       4685.65    55.039     13923     
2404.4     8.19       348        8.2        2298       0          217.747    12021      -1281      2020       0.01       4685.99    55.035     13922     
2404.6     8.19       348        8.2        1453       0          217.747    12021      -1281      2023       0.01       4686.35    55.031     13921     
2404.8     8.19       348        8.2        949        0          217.759    12022      -1281      2025       0.01       4686.71    55.027     13920     
2405       8.52       362        8.4        631        0          217.791    12023      -1281      2027       0.01       4687.08    55.024     13919     
2405.2     8.59       365        8.52       467        0          217.824    12024      -1281      2023       0.01       4687.42    55.02      13918     
2405.4     8.59       365        8.57       385        0          217.837    12025      -1281      2019       0.01       4687.78    55.016     13917     
2405.6     8.59       365        8.58       329        0          217.844    12025      -1281      2021       0.01       4688.12    55.012     13916     
2405.8     8.59       365        8.59       273        0          217.872    12027      -1281      2018       0.01       4688.49    55.011     13916     
2406       8.59       365        8.59       241        0          217.909    12028      -1281      2015       0.01       4688.83    55.006     13915     
2406.2     8.64       367        8.62       226        0          217.93     12029      -1281      2016       0.01       4689.19    55.001     13913     
2406.4     8.69       369        8.66       204        0          217.95     12030      -1281      2015       0.01       4689.53    54.997     13912     
2406.6     8.69       369        8.68       222        0          217.948    12030      -1281      2012       0.01       4689.89    54.995     13912     
2406.8     8.69       369        8.69       199        0          217.908    12028      -1281      2012       0.01       4690.25    54.993     13912     
2407       8.69       369        8.69       162        0          218.007    12033      -1281      2016       0.01       4690.6     54.988     13910     
2407.2     8.69       369        8.69       162        0          218.018    12033      -1281      2019       0.01       4690.96    54.982     13909     
2407.4     8.69       369        8.69       176        0          218.036    12034      -1281      2020       0.01       4691.32    54.978     13908     
2407.6     8.68       369        8.68       206        0          218.057    12035      -1281      2018       0.01       4691.67    54.974     13907     
2407.8     8.55       363        8.6        218        0          218.078    12036      -1281      2021       0.01       4692.04    54.97      13906     
2408       8.55       363        8.57       210        0          218.099    12037      -1281      2022       0.01       4692.38    54.967     13905     
2408.2     8.55       363        8.56       197        0          218.12     12038      -1281      2019       0.01       4692.74    54.963     13904     
2408.4     8.55       363        8.55       219        0          218.131    12038      -1281      2022       0.01       4693.08    54.963     13904     
2408.6     8.55       363        8.55       233        0          218.15     12039      -1281      2025       0.01       4693.45    54.955     13902     
2408.8     8.55       363        8.55       247        1          218.185    12040      -1281      2027       0.01       4693.79    54.951     13901     
2409       8.55       363        8.55       231        0          218.207    12041      -1281      2023       0.01       4694.15    54.944     13899     
2409.2     8.41       357        8.46       235        0          218.221    12042      -1281      2025       0.01       4694.49    54.94      13898     
2409.4     8.34       354        8.38       232        0          218.228    12042      -1281      2027       0.01       4694.86    54.936     13897     
2409.6     8.34       354        8.35       226        0          218.248    12043      -1281      2024       0.01       4695.24    54.932     13896     
2409.8     8.34       354        8.34       236        0          218.27     12044      -1281      2025       0.01       4695.57    54.928     13895     
2410       8.34       354        8.34       217        2          218.29     12045      -1283      2028       0.01       4695.97    54.927     13895     
2410.2     8.34       354        8.34       231        0          218.312    12046      -1284      2030       0.01       4696.33    54.927     13895     
2410.4     8.43       358        8.39       246        0          218.333    12047      -1284      2032       0.01       4696.7     54.923     13894     
2410.6     8.64       367        8.55       256        0          218.354    12048      -1284      2029       0.01       4697.04    54.919     13893     
2410.8     8.64       367        8.61       254        0          218.375    12049      -1284      2028       0.01       4697.39    54.917     13893     
2411       8.64       367        8.63       215        0          218.397    12050      -1284      2027       0.01       4697.76    54.915     13892     
2411.2     8.64       367        8.64       219        0          218.419    12051      -1284      2022       0.01       4698.12    54.915     13892     
2411.4     8.64       367        8.64       197        0          218.439    12052      -1284      2021       0.01       4698.46    54.915     13892     
2411.6     8.64       367        8.64       197        0          218.463    12053      -1284      2024       0.01       4698.8     54.915     13892     
2411.8     8.65       367        8.65       207        0          218.485    12054      -1284      2026       0.01       4699.17    54.91      13891     
2412       8.85       376        8.78       190        0          218.506    12055      -1284      2027       0.01       4699.52    54.901     13889     
2412.2     8.85       376        8.83       239        0          218.526    12056      -1284      2024       0.01       4699.87    54.91      13891     
2412.4     8.85       376        8.84       221        0          218.547    12057      -1284      2026       0.01       4700.22    54.906     13890     
2412.6     8.85       376        8.85       281        0          218.569    12058      -1284      2027       0.01       4700.6     54.902     13889     
2412.8     8.85       376        8.85       311        0          218.581    12058      -1284      2018       0.01       4700.94    54.899     13888     
2413       8.85       376        8.85       350        0          218.59     12058      -1284      2026       0.01       4701.28    54.883     13884     
2413.2     8.85       376        8.85       324        0          218.616    12060      -1284      2034       0.01       4701.66    54.893     13886     
2413.4     8.91       378        8.89       320        0          218.654    12061      -1284      2030       0.01       4702.02    54.891     13886     
2413.6     8.95       380        8.93       267        0          218.67     12062      -1284      2026       0.01       4702.38    54.888     13885     
2413.8     8.95       380        8.94       274        0          218.674    12062      -1284      2021       0.01       4702.73    54.884     13884     
2414       8.95       380        8.94       273        0          218.694    12063      -1284      2022       0.01       4703.09    54.88      13883     
2414.2     8.95       380        8.95       269        0          218.718    12064      -1284      2020       0.01       4703.44    54.874     13882     
2414.4     8.95       380        8.95       249        0          218.737    12065      -1284      2017       0.01       4703.79    54.868     13880     
