~Version
 VERS              .         2.0                           : CWLS LOG ASCII STANDARD - VERSION 2.0
 WRAP              .         NO                            : ONE LINE PER DEPTH STEP
 DLM               .         SPACE                         : DELIMITING CHARACTER(SPACE TAB OR COMMA)
~Well Information
#_______________________________________________________________________________
#
#PARAMETER_NAME    .UNIT     VALUE                         : DESCRIPTION
#_______________________________________________________________________________
STRT               .M        1740.47                       : First reference value
STOP               .M        2787.78                       : Last reference value
STEP               .M        0                             : Step increment
NULL               .         -9999                         : Missing value
COMP               .                                       : Company
WELL               .         616                           : Well name
FLD                .                                       : Field
LOC                .                                       : Location
CNTY               .                                       : County
STAT               .                                       : State
CTRY               .                                       : Country
SRVC               .                                       : Service Company
DATE               .                                       : Date
API                .                                       : API number
PROJECT_UPGRADE_TIME .         2021-03-18T21_24_50           : 
group              .         Good                          : 
~Parameter Information Block
#_______________________________________________________________________________
#
#PARAMETER_NAME    .UNIT     VALUE                         : DESCRIPTION
#_______________________________________________________________________________
SET                .         D2664                         : 
NPR                .         980607                        : ЗАВ НОМЕР ПРИБОРА
NPRT               .         Мещеряков                     : НАЧ ПАРТИИ
PROJECT_UPGRADE_TIME .         2021-03-18T21_24_50           : 
TLFamily_AZIMUTH   .         True Dip Azimuth              : 
TLFamily_DEPTH     .         Measured Depth                : 
TLFamily_DRILL     .                                       : 
TLFamily_METKA     .                                       : 
TLFamily_ZENIT     .                                       : 
group              .         prim                          : 
~Curve Information
#_______________________________________________________________________________
#
#LOGNAME           .UNIT     LOG_ID                        : DESCRIPTION
#_______________________________________________________________________________
DEPTH              .M                                      : 1 ГЛУБИНА 
AZIMUTH            .ГРАД                                   : 4 АЗИМУТ 
DRILL              .ГРАД                                   : 2 ПОВОРОТ 
METKA              .                                       : 5 МАГН МЕТКА 
ZENIT              .ГРАД                                   : 3 ЗЕНИТ 
~Ascii
# ...
1849.27    260.82     1.12       0          18.83     
1849.66    260.82     2.27       0          18.83     
1850.06    260.82     3.33       0          18.83     
1850.25    260.79     3.61       0          18.83     
1850.64    260.8      4          0          18.83     
1851.04    260.82     4.39       0          18.82     
1851.43    260.86     4.81       0          18.82     
1851.82    260.69     5.33       0          18.79     
1852.22    260.78     5.86       0          18.79     
1852.61    260.79     6.28       0          18.78     
1853.01    260.77     6.58       0          18.77     
1853.4     260.74     6.83       0          18.76     
1853.79    260.73     7.17       0          18.75     
1854.19    260.7      7.57       0          18.73     
1854.58    260.7      8          0          18.72     
1854.98    260.7      8.43       0          18.71     
1855.37    260.72     8.83       0          18.71     
1855.76    260.7      9.22       0          18.69     
1856.16    260.72     9.58       0          18.68     
1856.55    260.7      9.87       0          18.67     
1856.94    260.71     10.08      0          18.66     
1857.34    260.67     10.27      0          18.65     
1857.73    260.65     10.45      0          18.64     
1858.13    260.66     10.63      0          18.63     
1858.52    260.69     10.78      0          18.63     
1858.91    260.69     10.9       0          18.62     
1859.31    260.67     11.02      0          18.61     
1859.7     260.66     11.17      0          18.6      
1860.1     260.68     11.32      0          18.6      
1860.49    260.68     11.5       0          18.59     
1860.89    260.69     11.73      0          18.58     
1861.28    260.73     11.96      0          18.58     
1861.67    260.71     12.18      0          18.57     
1862.07    260.78     12.37      0          18.57     
1862.26    260.78     12.44      0          18.57     
1862.46    260.77     12.53      0          18.57     
1862.65    260.8      12.63      0          18.58     
1863.04    260.8      13.54      0          18.58     
1863.44    260.64     14.63      0          18.55     
1863.83    260.71     15.95      0          18.55     
1864.23    260.68     17.45      0          18.53     
1864.62    260.69     19.09      0          18.52     
1865.02    260.68     20.78      0          18.51     
1865.41    260.7      22.51      0          18.5      
1865.8     260.69     24.33      0          18.49     
1866.2     260.7      26.26      0          18.47     
1866.59    260.69     28.34      0          18.46     
1866.99    260.75     30.59      0          18.45     
1867.38    260.68     33         0          18.43     
1867.78    260.7      35.56      0          18.41     
1868.17    260.76     38.28      0          18.41     
1868.57    260.82     41.11      0          18.39     
1868.96    260.83     44         0          18.38     
1869.35    260.83     46.95      0          18.37     
1869.75    260.86     49.96      0          18.36     
1870.14    260.87     52.99      0          18.35     
1870.54    260.91     56.05      0          18.34     
1870.93    260.91     59.13      0          18.32     
1871.33    260.94     62.2       0          18.31     
1871.72    260.97     65.24      0          18.3      
1872.11    260.96     68.25      0          18.28     
1872.51    260.95     71.24      0          18.26     
1872.9     260.97     74.2       0          18.25     
1873.3     260.95     77.09      0          18.22     
1873.69    260.95     79.96      0          18.2      
1874.09    260.91     82.81      0          18.18     
1874.48    260.91     85.6       0          18.15     
1874.68    260.98     87.84      0          18.15     
1874.87    261.03     89.9       0          18.14     
1875.26    260.97     92.84      0          18.12     
1875.66    261.05     95.69      0          18.11     
1876.05    261.06     98.46      0          18.09     
1876.45    261.06     101.11     0          18.08     
1876.84    261.06     103.74     0          18.07     
1877.23    261.09     106.45     0          18.06     
1877.63    261.07     109.24     0          18.05     
1878.02    261.12     112.01     0          18.04     
1878.42    261.13     114.75     0          18.04     
1878.81    261.13     117.52     0          18.03     
1879.2     261.15     120.41     0          18.03     
1879.6     261.12     123.41     0          18.02     
1879.99    261.09     126.58     0          18.02     
1880.39    261.09     130        0          18.02     
1880.78    261.13     133.68     0          18.03     
1881.17    261.11     137.61     0          18.03     
1881.57    261.1      141.78     0          18.03     
1881.96    261.1      146.2      0          18.03     
1882.36    261.13     150.83     0          18.03     
1882.75    261.13     155.68     0          18.02     
1883.14    261.16     160.72     0          18.01     
1883.54    261.17     166.03     0          18        
1883.93    261.18     171.66     0          17.99     
1884.32    261.22     177.71     0          17.99     
1884.72    261.25     184.27     0          17.98     
1885.11    261.32     191.37     0          17.98     
1885.51    261.35     198.93     0          17.98     
1885.9     261.39     206.88     0          17.97     
1886.3     261.4      215.04     0          17.97     
1886.69    261.46     223.15     0          17.97     
1886.88    261.51     231.71     0          17.97     
1887.28    261.54     240.37     0          17.97     
1887.67    261.55     249.29     0          17.96     
1888.07    261.63     258.08     0          17.96     
1888.46    261.62     266.41     0          17.94     
1888.85    261.65     274.11     0          17.94     
1889.25    261.69     281.12     0          17.94     
1889.64    261.68     287.44     0          17.93     
1890.04    261.69     293.16     0          17.92     
1890.43    261.78     298.41     0          17.93     
1890.82    261.8      303.34     0          17.92     
1891.22    261.81     307.92     0          17.91     
1891.61    261.87     312.14     0          17.9      
1892.01    261.9      316.01     0          17.89     
1892.4     261.89     319.62     0          17.87     
1892.79    261.93     323        0          17.85     
1893.19    261.94     326.21     0          17.83     
1893.58    261.93     329.24     0          17.82     
1893.98    261.95     332.09     0          17.8      
1894.37    261.92     334.74     0          17.79     
1894.77    261.93     337.14     0          17.79     
1895.16    261.9      339.31     0          17.79     
1895.55    261.88     341.3      0          17.79     
1895.95    261.84     343.13     0          17.78     
1896.34    261.81     344.88     0          17.77     
1896.73    261.8      346.6      0          17.76     
1897.13    261.78     348.2      0          17.75     
1897.52    261.77     349.66     0          17.75     
1897.91    261.77     350.97     0          17.75     
1898.31    261.77     352.13     0          17.74     
1898.7     261.74     353.21     0          17.73     
1898.9     261.69     353.78     0          17.73     
1899.29    261.72     354.3      0          17.73     
1899.69    261.74     354.83     0          17.73     
1900.08    261.74     355.44     0          17.72     
1900.47    261.75     356.19     0          17.71     
1900.87    261.77     356.98     0          17.71     
1901.26    261.88     357.71     0          17.7      
1901.66    261.86     358.37     0          17.69     
1902.05    261.83     358.96     0          17.68     
1902.45    261.8      359.46     0          17.66     
1902.84    261.79     359.92     0          17.67     
1903.24    261.78     0.42       0          17.66     
1903.63    261.77     0.94       0          17.66     
1904.03    261.76     1.46       0          17.65     
1904.42    261.74     1.96       0          17.64     
1904.82    261.76     2.4        0          17.64     
