~Version
 VERS              .         2.0                           : CWLS LOG ASCII STANDARD - VERSION 2.0
 WRAP              .         NO                            : ONE LINE PER DEPTH STEP
 DLM               .         SPACE                         : DELIMITING CHARACTER(SPACE TAB OR COMMA)
~Well Information
#_______________________________________________________________________________
#
#PARAMETER_NAME    .UNIT     VALUE                         : DESCRIPTION
#_______________________________________________________________________________
STRT               .M        2665.8                        : First reference value
STOP               .M        2774.199892                   : Last reference value
STEP               .M        0.1999998                     : Step increment
NULL               .         -9999                         : Missing value
COMP               .                                       : Company
WELL               .         616                           : Well name
FLD                .                                       : Field
LOC                .                                       : Location
CNTY               .                                       : County
STAT               .                                       : State
CTRY               .                                       : Country
SRVC               .                                       : Service Company
DATE               .                                       : Date
API                .                                       : API number
PROJECT_UPGRADE_TIME .         2021-03-18T21_24_50           : 
group              .         Good                          : 
~Parameter Information Block
#_______________________________________________________________________________
#
#PARAMETER_NAME    .UNIT     VALUE                         : DESCRIPTION
#_______________________________________________________________________________
SET                .         D1801_D_2                     : 
NPR                .                                       : 
OTHER              .         Программное обеспечение станции MONITOR-386EX 25/12/99 15_08_10   BGF V52 22/08/01 16_56_30   3.1_SNGF___BGF_N_092049: 
OTHER_10           .         Тарировки_                    : 
OTHER_11           .         TM.GRD = 0.00403*TM$.UE + -1.07: 
OTHER_12           .         MN.ATM = (9.34907e-006*TM.GRD + 0.02171)*(MN$.UE + -7.93*TM.GRD + -1787): 
OTHER_13           .         GK.MKR/H = LM. / 42.4676      : 
OTHER_14           .         GK.FLT = 0.1*GK.MKR/H[-1] + (1-0.1)*GK.MKR/H[0]: 
OTHER_2            .         Kedr.exe версия 3.4.2.51      : 
OTHER_3            .         KedrData.dll версия 3.4.2.24  : 
OTHER_4            .         Драйвер версия 2.1.1.3        : 
OTHER_5            .         Мнемоники версия 3.3 S        : 
OTHER_6            .         Прибор_ КСА-Т4                : 
OTHER_7            .         Номер прибора_ 03             : 
OTHER_8            .         Режим_ КСА-Т4                 : 
OTHER_9            .         Форма_ КВА.                   : 
PR                 .                                       : 
PROJECT_UPGRADE_TIME .         2021-03-18T21_24_49           : 
PRTY               .         ПП-603-1                      : N партии
SRV                .                                       : 
SRVC               .         Карпов                        : Начальник партии
TLFamily_DEPT      .         Measured Depth                : 
TLFamily_LM        .         Casing Collar locator         : 
TLFamily_MN        .                                       : 
TLFamily_TM        .         Temperature                   : 
group              .         second                        : 
~Curve Information
#_______________________________________________________________________________
#
#LOGNAME           .UNIT     LOG_ID                        : DESCRIPTION
#_______________________________________________________________________________
DEPT               .M                                      : Depth curve 
LM                 .е.ацп                                  : Локатор муфт,е.ацп 
MN                 .атм                                    : Манометрия, атм 
TM                 .град.C                                 : Термограмма по стволу скважины,град.C 
~Ascii
# ...
2701.599964 75         247.532    45.364    
2701.799964 77.001     247.554    45.36     
2701.999964 82.558     247.562    45.355    
2702.199964 2342.578   247.599    45.35     
2702.399963 634.897    247.609    45.348    
2702.599963 215.975    247.636    45.347    
2702.799963 115.03     247.644    45.344    
2702.999963 234.986    247.667    45.336    
2703.199963 176.987    247.689    45.327    
2703.399962 126        247.711    45.327    
2703.599962 126.001    247.734    45.324    
2703.799962 129.994    247.75     45.315    
2703.999962 105.003    247.757    45.307    
2704.199962 119.006    247.78     45.299    
2704.399961 145.011    247.803    45.291    
2704.599961 190.984    247.825    45.281    
2704.799961 126.989    247.848    45.278    
2704.999961 83.006     247.863    45.271    
2705.199961 106.007    247.871    45.262    
2705.39996 135.002    247.916    45.255    
2705.59996 144.991    247.931    45.251    
2705.79996 109.004    247.939    45.247    
2705.99996 124.008    247.961    45.239    
2706.19996 158.002    247.983    45.235    
2706.399959 166.998    248.006    45.231    
2706.599959 159.997    248.028    45.231    
2706.799959 146.981    248.051    45.223    
2706.999959 71.006     248.073    45.219    
2707.199959 97.008     248.073    45.219    
2707.399958 130.995    248.096    45.211    
2707.599958 110.014    248.118    45.206    
2707.799958 166.993    248.141    45.206    
2707.999958 138.003    248.163    45.202    
2708.199958 150.993    248.185    45.198    
2708.399957 123.991    248.185    45.196    
2708.599957 87.011     248.221    45.191    
2708.799957 133.007    248.249    45.19     
2708.999957 162.989    248.256    45.184    
2709.199957 117.998    248.275    45.179    
2709.399956 109.009    248.294    45.174    
2709.599956 146.986    248.32     45.174    
2709.799956 91.019     248.342    45.171    
2709.999956 167.991    248.361    45.17     
2710.199956 130.986    248.398    45.166    
2710.399955 76.009     248.409    45.162    
2710.599955 111.998    248.41     45.158    
2710.799955 103.01     248.443    45.155    
2710.999955 142.019    248.454    45.15     
2711.199955 218.984    248.477    45.15     
2711.399954 152.988    248.499    45.146    
2711.599954 104.014    248.521    45.141    
2711.799954 161.014    248.544    45.137    
2711.999954 215.988    248.551    45.134    
2712.199954 167.995    248.566    45.134    
2712.399953 146.004    248.592    45.129    
2712.599953 160.983    248.611    45.123    
2712.799953 91         248.633    45.122    
2712.999953 93.045     248.656    45.121    
2713.199953 276.356    248.663    45.118    
2713.399952 1714.751   248.7      45.114    
2713.599952 709.882    248.704    45.11     
2713.799952 234.977    248.723    45.11     
2713.999952 142.998    248.745    45.106    
2714.199952 134.011    248.768    45.102    
2714.399951 176.989    248.79     45.099    
2714.599951 134.015    248.798    45.098    
2714.799951 196.012    248.835    45.094    
2714.999951 246.002    248.857    45.09     
2715.199951 254.996    248.868    45.09     
2715.39995 238.007    248.885    45.086    
2715.59995 264.972    248.92     45.086    
2715.79995 151.98     248.935    45.086    
2715.99995 71.002     248.946    45.082    
2716.19995 78.01      248.968    45.078    
2716.399949 118.011    248.99     45.082    
2716.599949 163        249.013    45.078    
2716.799949 162.981    249.035    45.076    
2716.999949 87.026     249.042    45.074    
2717.199949 191.008    249.076    45.073    
2717.399948 224.977    249.083    45.071    
2717.599948 133.987    249.102    45.069    
2717.799948 81.995     249.124    45.069    
2717.999948 60.999     249.146    45.069    
2718.199948 58.008     249.168    45.069    
2718.399947 91.997     249.183    45.069    
2718.599947 81.003     249.191    45.068    
2718.799947 94.008     249.235    45.065    
2718.999947 127.989    249.251    45.065    
2719.199947 83.998     249.257    45.061    
2719.399946 76.006     249.279    45.061    
2719.599946 101.998    249.302    45.057    
2719.799946 93.006     249.321    45.057    
2719.999946 118.992    249.324    45.057    
2720.199946 88.003     249.368    45.053    
2720.399945 102.012    249.391    45.053    
2720.599945 152.006    249.391    45.053    
2720.799945 174.984    249.413    45.051    
2720.999945 109.995    249.435    45.049    
2721.199945 89.014     249.479    45.049    
2721.399944 144.996    249.479    45.045    
2721.599944 130.008    249.502    45.047    
2721.799944 160.996    249.513    45.045    
2721.999944 143.013    249.524    45.045    
2722.199944 196.992    249.546    45.045    
2722.399943 164.997    249.568    45.045    
2722.599943 150.996    249.59     45.045    
2722.799943 136.011    249.616    45.045    
2722.999943 181.994    249.635    45.045    
2723.199943 157.018    249.65     45.045    
2723.399942 229.997    249.657    45.041    
2723.599942 219.021    249.679    45.038    
2723.799942 304.983    249.701    45.037    
2723.999942 237.179    249.724    45.037    
2724.199942 957.859    249.746    45.036    
2724.399941 391.981    249.783    45.033    
2724.599941 314.985    249.79     45.033    
2724.799941 255.988    249.798    45.029    
2724.999941 206.015    249.835    45.033    
2725.199941 266.975    249.857    45.029    
2725.39994 165.004    249.879    45.029    
2725.59994 183.025    249.879    45.029    
2725.79994 284.059    249.901    45.033    
2725.99994 519.932    249.923    45.037    
2726.19994 247.988    249.945    45.037    
2726.399939 199.989    249.967    45.037    
2726.599939 154.994    249.974    45.039    
2726.799939 130.044    250.011    45.041    
2726.999939 306.965    250.033    45.039    
2727.199939 168.055    250.033    45.037    
2727.399938 388.974    250.055    45.045    
2727.599938 284.961    250.076    45.054    
2727.799938 128.991    250.098    45.061    
2727.999938 90.998     250.109    45.069    
2728.199938 83.041     250.142    45.069    
2728.399937 249.004    250.09     45.069    
2728.599937 264.022    250.174    45.08     
2728.799937 350.968    250.202    45.09     
2728.999937 223.014    250.205    45.106    
2729.199937 281        250.237    45.121    
2729.399936 281.968    250.266    45.131    
2729.599936 154.011    250.27     45.138    
2729.799936 197.043    250.283    45.142    
2729.999936 368.967    250.291    45.146    
2730.199936 235.283    250.316    45.15     
2730.399935 1372.797   250.357    45.157    
2730.599935 558.921    250.379    45.162    
2730.799935 242.357    250.379    45.162    
2730.999935 1675.699   250.402    45.155    
2731.199935 465.928    250.42     45.149    
2731.399934 175.999    250.447    45.138    
2731.599934 172.006    250.479    45.127    
2731.799934 195.995    250.494    45.114    
2731.999934 177.015    250.495    45.096    
2732.199934 236.993    250.54     45.083    
2732.399933 209.009    250.552    45.07     
2732.599933 247.006    250.564    45.061    
2732.799933 270.976    250.588    45.041    
2732.999933 176.009    250.567    44.997    
2733.199933 212.008    95.662     44.955    
2733.399932 244.983    250.659    44.957    
2733.599932 177.042    250.682    44.953    
2733.799932 344.96     250.701    44.941    
2733.999932 184.995    250.727    44.932    
2734.199932 163.004    250.727    44.928    
2734.399931 180.996    250.749    44.924    
2734.599931 165.998    250.772    44.922    
2734.799931 156.008    250.794    44.917    
2734.999931 187.003    250.817    44.913    
2735.199931 201.123    250.839    44.912    
2735.39993 4703.301   250.861    44.911    
2735.59993 1898.657   250.883    44.912    
2735.79993 522.911    250.906    44.908    
2735.99993 165.001    250.906    44.908    
2736.19993 170.989    250.928    44.904    
2736.399929 126        250.95     44.907    
2736.599929 124.005    250.979    44.908    
2736.799929 144.996    251.009    44.908    
2736.999929 130.003    251.016    44.908    
2737.199929 141.023    251.038    44.907    
