~Version
 VERS              .         2.0                           : CWLS LOG ASCII STANDARD - VERSION 2.0
 WRAP              .         NO                            : ONE LINE PER DEPTH STEP
 DLM               .         SPACE                         : DELIMITING CHARACTER(SPACE TAB OR COMMA)
~Well Information
#_______________________________________________________________________________
#
#PARAMETER_NAME    .UNIT     VALUE                         : DESCRIPTION
#_______________________________________________________________________________
STRT               .M        2648.8                        : First reference value
STOP               .M        2753.600052                   : Last reference value
STEP               .M        0.2000001                     : Step increment
NULL               .         -9999                         : Missing value
COMP               .                                       : Company
WELL               .         616                           : Well name
FLD                .                                       : Field
LOC                .                                       : Location
CNTY               .                                       : County
STAT               .                                       : State
CTRY               .                                       : Country
SRVC               .                                       : Service Company
DATE               .                                       : Date
API                .                                       : API number
PROJECT_UPGRADE_TIME .         2021-03-18T21_24_50           : 
group              .         Good                          : 
~Parameter Information Block
#_______________________________________________________________________________
#
#PARAMETER_NAME    .UNIT     VALUE                         : DESCRIPTION
#_______________________________________________________________________________
SET                .         D7027_D                       : 
OTHER              .         Kedr.exe версия 2.1.2.32      : 
OTHER_10           .         TM.GRD = 0.00404*TM$.UE + 0.07: 
OTHER_11           .         MN.ATM = (6.33279e-006*TM.GRD + 0.02401)*(MN$.UE + 2.72*TM.GRD + -2018): 
OTHER_12           .         GK.MKR/H = GK$.UE / 43.5489 + 0: 
OTHER_13           .         RES.SM = 0.00476*CRES.UE - 1.51709: 
OTHER_14           .         PL.GSM3 = 0 + 0 * (PL.UE / 1) +  0 * (PL.UE / 1)^2: 
OTHER_15           .         Постоянная времени ГГП = 6 сек: 
OTHER_16           .         Постоянная времени ГК = 6 сек : 
OTHER_2            .         KedrData.dll версия 3.2.2.14  : 
OTHER_3            .         LasInf.dll версия 3.2.0.13    : 
OTHER_4            .         Драйвер версия 1.2.0.5        : 
OTHER_5            .         Прибор_ КСА-M1                : 
OTHER_6            .         Номер прибора_ 155+р204       : 
OTHER_7            .         Режим_ КСА-М1 + ГГП + Резистивиметр: 
OTHER_8            .         Форма_ 223\2                  : 
OTHER_9            .         Тарировки_                    : 
PROJECT_UPGRADE_TIME .         2021-03-18T21_24_50           : 
TLFamily_CRES      .                                       : 
TLFamily_DEPT      .         Measured Depth                : 
TLFamily_GK        .         Gamma Ray                     : 
TLFamily_GK$       .                                       : 
TLFamily_LM        .         Casing Collar locator         : 
TLFamily_METKA     .                                       : 
TLFamily_MN        .                                       : 
TLFamily_MN$       .                                       : 
TLFamily_PL        .                                       : 
TLFamily_PL_2      .                                       : 
TLFamily_RCOR      .                                       : 
TLFamily_RES       .         Mud Resistivity               : 
TLFamily_SPID      .         Spontaneous Potential         : 
TLFamily_STD       .                                       : 
TLFamily_TIME      .         Time                          : 
TLFamily_TM        .         Temperature                   : 
TLFamily_TM$       .         Temperature                   : 
TLFamily_VGD       .         Gas Volume                    : 
group              .         prim                          : 
~Curve Information
#_______________________________________________________________________________
#
#LOGNAME           .UNIT     LOG_ID                        : DESCRIPTION
#_______________________________________________________________________________
DEPT               .M                                      : 1 Глубина, м -    0.0 см 
CRES               .UE                                     : 9 Проводимость, усл.ед. -  222.0 см 
GK                 .MKR/H                                  : 16 Гамма-активность, мкр./ч -  106.0 см 
GK$                .UE                                     : 13 Гамма-активность, усл.ед. -  106.0 см 
LM                 .                                       : 11 Локатор муфт,  -   16.0 см 
METKA              .                                       : 3 Метки,  -    0.0 см 
MN                 .ATM                                    : 15 Давление, атм. -  160.0 см 
MN$                .UE                                     : 7 Давление, усл.ед. -  160.0 см 
PL                 .UE                                     : 10 Плотность, усл.ед. -  270.0 см 
PL_2               .GSM3                                   : 18 Плотность, г./см3 -  270.0 см 
RCOR               .CM/KM                                  : 5 Коррекция по ролику, см/км -    0.0 см 
RES                .SM                                     : 17 Проводимость,  -  222.0 см 
SPID               .M/H                                    : 2 Скорость, м/час -    0.0 см 
STD                .                                       : 12 Приток,  -  170.0 см 
TIME               .S                                      : 4 Время, сек -    0.0 см 
TM                 .GRD                                    : 14 Температура, °C -  180.0 см 
TM$                .UE                                     : 6 Температура, усл.ед. -  180.0 см 
VGD                .                                       : 8 Влагомер,  -  170.0 см 
~Ascii
2648.8000488 -9999      -9999      -9999      -9999      -9999      -9999      -9999      -9999      -9999      -9999      -9999      -9999      -9999      -9999      -9999      -9999      -9999     
2649       -9999      -9999      -9999      27         0          -9999      -9999      -9999      -9999      0          -9999      190        -9999      17997.84   -9999      -9999      -9999     
2649.2     -9999      -9999      -9999      27         0          -9999      -9999      -9999      -9999      0          -9999      380        -9999      17999.95   -9999      -9999      -9999     
2649.4     -9999      -9999      -9999      24         0          -9999      -9999      -9999      -9999      0          -9999      545        -9999      18001.34   -9999      -9999      -9999     
2649.6     -9999      -9999      -9999      412        0          -9999      -9999      -9999      -9999      0          -9999      580        -9999      18002.57   -9999      -9999      -9999     
2649.800001 -9999      -9999      -9999      322        0          -9999      -9999      -9999      -9999      0          -9999      580        -9999      18003.79   -9999      -9999      -9999     
2650.000001 -9999      9.57       416        197        0          -9999      -9999      -9999      -9999      0          -9999      580        -9999      18004.92   -9999      -9999      -9999     
2650.200001 -9999      9.88       436        147        1          -9999      -9999      -9999      -9999      0          -9999      580        -9999      18006.04   -9999      -9999      -9999     
2650.400001 -9999      9.89       431        178        0          -9999      -9999      -9999      -9999      0          -9999      580        -9999      18007.33   -9999      -9999      -9999     
2650.600001 -9999      9.82       414        169        0          244.009    11874      -9999      -9999      0          -9999      580        11199      18008.63   -9999      -9999      6593      
2650.800001 -9999      9.59       406        152        0          244.033    11875      -9999      -9999      0          -9999      580        11213      18009.93   57.232     14149      6594      
2651.000001 -9999      9.56       430        114        0          244.021    11874      -9999      -9999      0          -9999      580        11215      18011.25   57.232     14149      6593      
2651.200001 1202       9.68       430        147        0          243.998    11874      -9999      -9999      0          4.2044     510        11216      18012.54   57.232     14149      6595      
2651.400001 1203       9.77       430        151        0          243.985    11873      -9999      -9999      0          4.2092     580        11212      18013.83   57.232     14149      6595      
2651.600001 1205       9.93       440        146        0          244.009    11874      14         0          0          4.2179     580        11210      18015.15   57.233     14149      6616      
2651.800002 1199       10.03      443        244        0          244.041    11875      14         0          0          4.1881     580        11208      18016.45   57.236     14150      6610      
2652.000002 1199       10.26      457        175        0          244.091    11877      14         0          0          4.1901     510        11206      18017.74   57.228     14148      6612      
2652.200002 1200       10.48      480        141        0          244.106    11878      14         0          0          4.1933     510        11204      18019.05   57.228     14148      6622      
2652.400002 1199       10.81      486        161        0          244.105    11878      14         0          0          4.1901     580        11204      18020.37   57.228     14148      6604      
2652.600002 1198       10.94      477        140        0          244.092    11877      14         0          0          4.1844     559        11201      18021.7    57.22      14146      6590      
2652.800002 1198       10.73      458        152        0          244.104    11878      14         0          0          4.1861     580        11198      18023.01   57.218     14145      6587      
2653.000002 1199       10.53      436        116        0          244.128    11879      14         0          0          4.1901     510        11201      18024.34   57.217     14145      6590      
2653.200002 1213       10.28      436        129        0          244.176    11881      14         0          0          4.2576     580        11199      18025.6    57.212     14144      6583      
2653.400002 1258       10.09      425        133        0          244.175    11881      14         0          0          4.4702     510        11195      18026.91   57.206     14143      6598      
2653.600002 1209       9.92       425        183        0          244.174    11881      14         0          0          4.2373     580        11196      18028.18   57.197     14140      6588      
2653.800003 1200       9.84       426        172        0          244.173    11881      14         0          0          4.1949     580        11191      18029.47   57.192     14139      6590      
2654.000003 1258       9.81       426        119        0          244.197    11882      14         0          0          4.4714     533        11191      18030.74   57.183     14137      6583      
2654.200003 1279       9.77       422        107        0          244.22     11883      14         0          0          4.573      580        11189      18032.06   57.179     14136      6585      
2654.400003 1285       9.73       422        111        0          244.268    11885      14         0          0          4.5971     580        11188      18033.38   57.172     14134      6583      
2654.600003 1287       9.68       418        136        0          244.268    11885      14         0          0          4.6107     580        11187      18034.64   57.167     14133      6582      
2654.800003 1286       9.64       418        147        0          244.283    11886      14         0          0          4.6043     560        11186      18035.91   57.159     14131      6578      
2655.000003 1287       10.02      459        116        0          244.266    11885      14         0          0          4.6082     510        11186      18037.23   57.155     14130      6583      
2655.200003 1286       10.28      459        102        0          244.289    11886      14         0          0          4.6051     580        11182      18038.54   57.147     14128      6580      
2655.400003 1288       10.58      478        93         0          244.313    11887      14         0          0          4.6122     533        11182      18039.86   57.139     14126      6582      
2655.600003 1286       10.77      478        118        0          244.353    11889      14         0          0          4.6043     580        11181      18041.13   57.133     14125      6585      
2655.800004 1286       10.49      440        125        0          244.36     11889      14         0          0          4.6058     580        11182      18042.37   57.131     14124      6581      
2656.000004 1286       10.3       440        128        0          244.367    11889      14         0          0          4.605      540        11182      18043.73   57.123     14122      6587      
2656.200004 1283       9.57       385        111        0          244.371    11890      14         0          0          4.59       533        11181      18045.01   57.118     14121      6590      
2656.400004 1285       9.21       385        111        0          244.4      11891      13         0          0          4.5995     580        11181      18046.27   57.111     14119      6587      
2656.600004 1285       8.5        333        103        0          244.405    11891      14         0          0          4.5994     568        11178      18047.59   57.104     14117      6592      
2656.800004 1283       8.07       332        97         0          244.437    11892      14         0          0          4.5885     580        11176      18048.85   57.095     14115      6593      
