~Version
 VERS              .         2.0                           : CWLS LOG ASCII STANDARD - VERSION 2.0
 WRAP              .         NO                            : ONE LINE PER DEPTH STEP
 DLM               .         SPACE                         : DELIMITING CHARACTER(SPACE TAB OR COMMA)
~Well Information
#_______________________________________________________________________________
#
#PARAMETER_NAME    .UNIT     VALUE                         : DESCRIPTION
#_______________________________________________________________________________
STRT               .M        1549.2                        : First reference value
STOP               .M        2296.2                        : Last reference value
STEP               .M        0.2                           : Step increment
NULL               .         -9999                         : Missing value
COMP               .                                       : Company
WELL               .         616                           : Well name
FLD                .                                       : Field
LOC                .                                       : Location
CNTY               .                                       : County
STAT               .                                       : State
CTRY               .                                       : Country
SRVC               .                                       : Service Company
DATE               .                                       : Date
API                .                                       : API number
PROJECT_UPGRADE_TIME .         2021-03-18T21_24_50           : 
group              .         Good                          : 
~Parameter Information Block
#_______________________________________________________________________________
#
#PARAMETER_NAME    .UNIT     VALUE                         : DESCRIPTION
#_______________________________________________________________________________
SET                .         616_10                        : 
CONF               .         00                            : 
END                .         0                             : 
ERR                .         2                             : 
GS00               .M        2294.21                       : 
GS01               .M        1546.72                       : 
MM00               .M        2240.00                       : 
NOKG               .         0                             : 
NPR                .         980119                        : 
PART               .         Палагутин                     : 
PROJECT_UPGRADE_TIME .         2021-03-18T21_24_49           : 
PRZK               .         Якименко                      : 
TLFamily_AZIMUTH   .         True Dip Azimuth              : 
TLFamily_DEPTH     .         Measured Depth                : 
TLFamily_METKA     .                                       : 
TLFamily_ROLL      .                                       : 
TLFamily_SPEED     .         Spontaneous Potential         : 
TLFamily_ZENIT     .                                       : 
VPRG               .         310                           : 
WAY                .         UP                            : 
group              .         prim                          : 
~Curve Information
#_______________________________________________________________________________
#
#LOGNAME           .UNIT     LOG_ID                        : DESCRIPTION
#_______________________________________________________________________________
DEPTH              .M                                      :  
AZIMUTH            .DEG                                    :  
METKA              .                                       :  
ROLL               .DEG                                    :  
SPEED              .M/H                                    :  
ZENIT              .DEG                                    :  
~Ascii
# ...
2134.8     16.21      0          148.16     576        14.65     
2135       325.81     0          145.53     720        14.6      
2135.2     229.56     0          143.19     648        14.92     
2135.4     275.89     0          141.17     720        14.59     
2135.6     310.35     0          139.83     648        14.61     
2135.8     354.14     0          138.73     648        14.45     
2136       329.51     0          139.76     648        14.35     
2136.2     315.42     0          140.72     684        14.35     
2136.4     348.11     0          142.39     720        14.32     
2136.6     328.35     0          145.48     648        14.22     
2136.8     337.88     0          146.79     612        14.17     
2137       329.84     0          145.88     648        14.28     
2137.2     327.07     0          144.86     684        14.22     
2137.4     340.6      0          143.72     684        14.46     
2137.6     4.48       0          144.57     612        14.58     
2137.8     17.18      0          149.04     684        14.43     
2138       2.1        0          150.83     648        14.37     
2138.2     332.38     0          150.73     684        14.33     
2138.4     321.33     0          150.55     684        14.34     
2138.6     335.81     0          150.2      684        14.33     
2138.8     310.71     0          149.93     612        14.33     
2139       301.22     0          150.24     684        14.31     
2139.2     346.24     0          150.46     648        14.35     
2139.4     299.39     0          150.61     684        14.36     
2139.6     24.92      0          151.17     684        14.42     
2139.8     309.81     0          152.11     684        14.35     
2140       296.36     0          153.6      720        14.39     
2140.2     332.11     0          155.22     648        14.45     
2140.4     1.11       0          156.44     684        14.46     
2140.6     324.01     0          157.65     612        14.49     
2140.8     331.53     0          158.86     648        14.46     
2141       331.96     0          158.83     720        14.43     
2141.2     339.91     0          157.72     684        14.35     
2141.4     335.75     0          156.17     648        14.32     
2141.6     350.75     0          154.85     612        14.39     
2141.8     324.32     0          153.71     648        14.38     
2142       349.75     0          152.93     684        14.37     
2142.2     345.83     1          152.23     684        14.41     
2142.4     36.05      0          151.4      648        14.49     
2142.6     295.08     0          150.7      612        14.46     
2142.8     193.1      0          151.32     648        14.44     
2143       231.13     0          152.56     684        14.47     
2143.2     50.17      0          153.55     684        14.43     
2143.4     45.71      0          154.5      684        14.44     
2143.6     33.73      0          154.83     612        14.54     
2143.8     16.75      0          154.36     684        14.55     
2144       355.56     0          153.98     684        14.34     
2144.2     347.34     0          154.23     684        14.43     
2144.4     0.46       0          153.52     684        14.4      
2144.6     333.72     0          153.45     576        14.04     
2144.8     6.06       0          154.29     720        14.12     
2145       3.19       0          155.11     648        14.39     
2145.2     355.64     0          155.87     720        14.38     
2145.4     339.03     0          156.04     756        14.35     
2145.6     21.53      0          156.05     648        14.32     
2145.8     62.52      0          156.58     648        14.33     
2146       55.73      0          157.48     684        14.2      
2146.2     55.5       0          158.37     684        14.23     
2146.4     38.5       0          158.68     684        14.51     
2146.6     0.74       0          158.46     612        14.62     
2146.8     357.81     0          159.1      648        14.5      
2147       349.13     0          158.86     648        14.54     
2147.2     96.67      0          158.89     684        14.64     
2147.4     343.22     0          159.32     648        14.81     
2147.6     351.18     0          159.28     648        14.85     
2147.8     2.09       0          159.28     684        14.97     
2148       46.24      0          159.53     648        14.61     
2148.2     94.63      0          161.6      684        14.5      
2148.4     357.07     0          164.68     684        14.43     
2148.6     307.91     0          170.99     648        14.15     
2148.8     17.7       0          180.96     684        13.79     
2149       316.88     0          190.19     684        13.62     
2149.2     146.74     0          198.52     648        13.6      
2149.4     261.37     0          205.23     684        13.41     
2149.6     258.42     0          210.49     684        13.74     
2149.8     314.26     0          218.63     684        13.85     
2150       354.72     0          224.23     684        14.09     
2150.2     19.9       0          224.96     648        14.08     
2150.4     311.25     0          224.82     648        14.04     
2150.6     320.58     0          225.18     612        14.05     
2150.8     345.01     0          224.71     684        14        
2151       327.64     0          224.54     684        14.04     
2151.2     315.32     0          224.64     684        14.07     
2151.4     322.31     0          224.66     648        14.05     
2151.6     311.37     0          224.94     648        14.05     
2151.8     311.7      0          224.98     648        14.07     
2152       313.85     1          224.79     684        14.03     
2152.2     326.32     0          225.54     612        14.06     
2152.4     318.94     0          226.29     648        14.03     
2152.6     307.99     0          226.52     612        14.04     
2152.8     314.6      0          226.35     684        14.01     
2153       319.82     0          225.71     684        14.04     
2153.2     312.47     0          223.92     684        14.09     
2153.4     312.24     0          221.13     684        14        
2153.6     340.35     0          219.51     612        13.99     
2153.8     308.2      0          220.25     648        14.01     
2154       333.45     0          221.03     720        13.98     
2154.2     316.38     0          222.13     684        13.98     
2154.4     318        0          223.37     612        13.93     
2154.6     319.41     0          224.03     648        13.97     
2154.8     320.38     0          224.04     684        14.04     
2155       321.43     0          224.03     684        14.03     
2155.2     325.04     0          223.88     684        14.02     
2155.4     320.55     0          224.43     612        14        
2155.6     330.6      0          226.1      648        14.04     
2155.8     332.19     0          227.21     648        14.07     
2156       355.08     0          227.72     684        14.03     
2156.2     340.54     0          228.04     684        14.03     
2156.4     349.23     0          228.34     684        14.03     
2156.6     356.66     0          228.3      684        13.99     
2156.8     353.84     0          227.64     684        14        
2157       350.5      0          227.05     684        13.98     
2157.2     357.13     0          226.82     684        13.95     
2157.4     3.51       0          226.92     612        13.98     
2157.6     351        0          226.83     684        14.01     
2157.8     4.36       0          225.29     684        14        
2158       12.14      0          223.83     648        14.02     
2158.2     347.79     0          223.51     684        14.39     
2158.4     349.63     0          223.54     648        14.44     
2158.6     356.66     0          223.3      612        14.33     
2158.8     347.33     0          223.19     684        14.37     
2159       342.47     0          224.71     648        14.39     
