~Version
 VERS              .         2.0                           : CWLS LOG ASCII STANDARD - VERSION 2.0
 WRAP              .         NO                            : ONE LINE PER DEPTH STEP
 DLM               .         SPACE                         : DELIMITING CHARACTER(SPACE TAB OR COMMA)
~Well Information
#_______________________________________________________________________________
#
#PARAMETER_NAME    .UNIT     VALUE                         : DESCRIPTION
#_______________________________________________________________________________
STRT               .M        549.2                         : First reference value
STOP               .M        805.2                         : Last reference value
STEP               .M        0.2                           : Step increment
NULL               .         -9999                         : Missing value
COMP               .                                       : Company
WELL               .         616                           : Well name
FLD                .                                       : Field
LOC                .                                       : Location
CNTY               .                                       : County
STAT               .                                       : State
CTRY               .                                       : Country
SRVC               .                                       : Service Company
DATE               .                                       : Date
API                .                                       : API number
PROJECT_UPGRADE_TIME .         2021-03-18T21_24_50           : 
group              .         Good                          : 
~Parameter Information Block
#_______________________________________________________________________________
#
#PARAMETER_NAME    .UNIT     VALUE                         : DESCRIPTION
#_______________________________________________________________________________
SET                .         616_4                         : 
CONF               .         00                            : 
END                .         0                             : 
ERR                .         0                             : 
GS00               .M        0803.23                       : 
GS01               .M        0546.74                       : 
MM00               .M        0120.00                       : 
NOKG               .         0                             : 
NPR                .         980402                        : 
PART               .         Палагутин                     : 
PROJECT_UPGRADE_TIME .         2021-03-18T21_24_49           : 
PRZK               .         Шакиров                       : 
TLFamily_AZIMUTH   .         True Dip Azimuth              : 
TLFamily_DEPTH     .         Measured Depth                : 
TLFamily_METKA     .                                       : 
TLFamily_ROLL      .                                       : 
TLFamily_SPEED     .         Spontaneous Potential         : 
TLFamily_ZENIT     .                                       : 
VPRG               .         310                           : 
WAY                .         UP                            : 
group              .         prim                          : 
~Curve Information
#_______________________________________________________________________________
#
#LOGNAME           .UNIT     LOG_ID                        : DESCRIPTION
#_______________________________________________________________________________
DEPTH              .M                                      :  
AZIMUTH            .DEG                                    :  
METKA              .                                       :  
ROLL               .DEG                                    :  
SPEED              .M/H                                    :  
ZENIT              .DEG                                    :  
~Ascii
# ...
573.6      266.24     0          29.81      684        26.97     
573.8      262.48     0          34.04      684        26.93     
574        260.89     0          38.76      648        26.78     
574.2      260.69     0          42.6       648        26.79     
574.4      259.68     0          44.14      612        26.73     
574.6      259.61     0          44.32      684        26.84     
574.8      259.31     0          43.92      648        26.81     
575        258.49     0          43.62      612        26.66     
575.2      259.21     0          43.75      648        26.86     
575.4      258.87     0          44.07      648        26.81     
575.6      259.35     0          43.89      684        26.95     
575.8      259.21     0          43.33      648        26.93     
576        258.14     0          42.78      684        26.77     
576.2      259.49     0          42.58      648        27.06     
576.4      261.39     0          42.52      612        27.49     
576.6      258.58     0          41.25      684        26.66     
576.8      259.64     0          40.68      648        27.22     
577        258.76     0          40.36      648        27.13     
577.2      258.94     0          39.95      612        27.18     
577.4      259.21     0          39.77      612        27.24     
577.6      259.63     0          39.62      684        27.3      
577.8      259.38     0          39.4       648        27.25     
578        258.22     0          39.19      684        27.05     
578.2      259.19     0          39.44      648        27.23     
578.4      258.98     0          39.93      648        27.16     
578.6      258.37     0          39.8       648        27.09     
578.8      259.44     0          39.44      684        27.26     
579        258.43     0          39.09      648        27.08     
579.2      258.43     0          39.19      648        27.13     
579.4      258.68     0          39.63      648        27.14     
579.6      258.24     0          39.92      648        27.05     
579.8      259.18     0          39.96      684        27.2      
580        259.06     0          39.88      684        27.22     
580.2      259.11     0          40.19      612        27.2      
580.4      258.75     0          40.65      648        27.09     
580.6      258.86     0          40.86      612        27.18     
580.8      259.15     0          41.13      684        27.21     
581        258.41     0          41.25      648        27.06     
581.2      258.65     0          41.56      648        27.09     
581.4      258.63     0          41.96      684        27.11     
581.6      258.26     0          41.92      648        27.05     
581.8      259.26     0          41.61      648        27.18     
582        258.67     0          41.63      648        27.04     
582.2      259.25     1          41.86      684        27.03     
582.4      259.4      0          42.56      648        27.18     
582.6      259.1      0          43.08      648        27.1      
582.8      259.52     0          43.13      648        27.09     
583        259.12     0          43.32      648        27.02     
583.2      259.35     0          43.27      612        27.07     
583.4      259.62     0          42.96      648        27.14     
583.6      259.89     0          42.9       684        27.11     
583.8      261.3      0          43.06      684        27.27     
584        261.78     0          43.48      648        27.1      
584.2      266.61     0          44.24      684        27.23     
584.4      282.23     0          44.67      648        27.48     
584.6      320.85     0          44.24      648        27.35     
584.8      301.57     0          43.47      684        27.58     
585        354.58     0          41.83      612        27.71     
585.2      354.19     0          39.51      612        27.58     
585.4      295.1      0          38.27      648        27.65     
585.6      268.71     0          38.54      648        27.74     
585.8      261.74     0          38.91      684        27.56     
586        260.58     0          40.53      648        27.55     
586.2      258.83     0          42.4       612        27.36     
586.4      259.62     0          42.99      684        27.58     
586.6      258.52     0          42.46      648        27.43     
586.8      258.24     0          40.87      684        27.41     
587        258.8      0          39.21      612        27.57     
587.2      258.06     0          37.81      648        27.26     
587.4      257.96     0          38.44      648        27.22     
587.6      257.83     0          42.09      648        27.1      
587.8      258.03     0          44.89      684        27.11     
588        258.45     0          45.97      648        27.22     
588.2      258.02     0          46.52      648        27.14     
588.4      260.18     0          46.86      612        27.66     
588.6      259.68     0          46.56      684        27.49     
588.8      258.07     0          44.85      720        27.04     
589        258.28     0          43.65      648        27.4      
589.2      257.99     0          43.85      612        27.28     
589.4      258.08     0          44.56      684        27.33     
589.6      257.77     0          44.98      612        27.26     
589.8      257.54     0          45.22      684        27.23     
590        258.01     0          45.19      648        27.39     
590.2      256.98     0          45.39      648        27.22     
590.4      258.48     0          45.75      648        27.46     
590.6      258.09     0          45.78      648        27.39     
590.8      258.13     0          45.61      648        27.41     
591        258.08     0          45.39      648        27.42     
591.2      257.76     0          45.19      612        27.35     
591.4      257.73     0          45.01      684        27.33     
591.6      257.81     0          45.06      684        27.34     
591.8      257.19     0          45.01      612        27.35     
592        258.06     1          45.3       648        27.47     
592.2      257.49     0          45.11      648        27.29     
592.4      257.35     0          44.68      648        27.33     
592.6      257.73     0          44.56      684        27.38     
592.8      257.28     0          44.54      612        27.31     
593        258.05     0          44.52      612        27.48     
593.2      257.45     0          44.39      648        27.37     
593.4      256.74     0          44.68      648        27.22     
593.6      256.81     0          45.04      684        27.21     
593.8      257.53     0          44.79      684        27.39     
594        258.37     0          44.44      612        27.51     
594.2      257.64     0          44.46      648        27.48     
594.4      258.11     0          44.86      648        27.5      
594.6      257.73     0          44.76      684        27.43     
594.8      257.5      0          44.17      648        27.37     
595        258.1      0          43.41      612        27.53     
595.2      257.93     0          42.64      612        27.43     
595.4      258.13     0          41.33      684        27.46     
595.6      258.7      0          40.08      648        27.43     
595.8      258.81     0          39.85      648        27.38     
596        259.76     0          39.5       648        27.29     
596.2      260.78     0          38.91      648        27.33     
596.4      264.89     0          39.66      648        27.35     
596.6      279.55     0          41.13      684        27.38     
596.8      317.2      0          42.61      648        27.36     
597        255.53     0          43.64      612        27.53     
597.2      180.11     0          44.01      648        27.48     
597.4      17.81      0          44.16      612        27.48     
597.6      279.89     0          44.37      648        27.68     
597.8      265.54     0          43.53      684        27.63     
