~Version
 VERS              .         2.0                           : CWLS LOG ASCII STANDARD - VERSION 2.0
 WRAP              .         NO                            : ONE LINE PER DEPTH STEP
 DLM               .         SPACE                         : DELIMITING CHARACTER(SPACE TAB OR COMMA)
~Well Information
#_______________________________________________________________________________
#
#PARAMETER_NAME    .UNIT     VALUE                         : DESCRIPTION
#_______________________________________________________________________________
STRT               .M        749.69                        : First reference value
STOP               .M        1410.72                       : Last reference value
STEP               .M        0                             : Step increment
NULL               .         -9999                         : Missing value
COMP               .                                       : Company
WELL               .         616                           : Well name
FLD                .                                       : Field
LOC                .                                       : Location
CNTY               .                                       : County
STAT               .                                       : State
CTRY               .                                       : Country
SRVC               .                                       : Service Company
DATE               .                                       : Date
API                .                                       : API number
PROJECT_UPGRADE_TIME .         2021-03-18T21_24_50           : 
group              .         Good                          : 
~Parameter Information Block
#_______________________________________________________________________________
#
#PARAMETER_NAME    .UNIT     VALUE                         : DESCRIPTION
#_______________________________________________________________________________
SET                .         D0928                         : 
NPR                .         210404                        : ЗАВ НОМЕР ПРИБОРА
NPRT               .         Каштанов                      : НАЧ ПАРТИИ
PROJECT_UPGRADE_TIME .         2021-03-18T21_24_49           : 
TLFamily_AZIMUTH   .         True Dip Azimuth              : 
TLFamily_DEPTH     .         Measured Depth                : 
TLFamily_DRILL     .                                       : 
TLFamily_METKA     .                                       : 
TLFamily_ZENIT     .                                       : 
group              .         prim                          : 
~Curve Information
#_______________________________________________________________________________
#
#LOGNAME           .UNIT     LOG_ID                        : DESCRIPTION
#_______________________________________________________________________________
DEPTH              .M                                      : 1 ГЛУБИНА 
AZIMUTH            .ГРАД                                   : 4 АЗИМУТ 
DRILL              .ГРАД                                   : 2 ПОВОРОТ 
METKA              .                                       : 5 МАГН МЕТКА 
ZENIT              .ГРАД                                   : 3 ЗЕНИТ 
~Ascii
# ...
1002.5     6.23       134.18     0          31.88     
1002.64    6.4        135.03     0          31.83     
1002.79    7.24       135.91     0          31.8      
1002.94    8.44       136.72     0          31.76     
1003.1     8.91       137.45     0          31.67     
1003.27    9.64       138.15     0          31.58     
1003.44    9.84       138.89     0          31.64     
1003.61    10.36      139.55     0          31.74     
1003.79    10.95      139.72     0          31.78     
1003.96    11.29      139.65     0          31.82     
1004.14    11.95      139.64     0          31.77     
1004.32    12.74      139.69     0          31.74     
1004.51    12.99      139.76     0          31.68     
1004.7     14.07      139.86     0          31.7      
1004.89    13.32      139.98     0          31.69     
1005.08    13.69      140.1      0          31.71     
1005.27    13.38      140.17     0          31.69     
1005.47    13.73      140.24     0          31.73     
1005.66    13.57      140.35     0          31.73     
1005.85    13.68      140.49     0          31.76     
1006.05    13.63      140.76     0          31.75     
1006.24    14.31      141.22     0          31.76     
1006.44    14.85      141.82     0          31.76     
1006.63    14.75      142.4      0          31.81     
1006.82    14.36      142.67     0          31.79     
1007.01    13.33      142.82     0          31.81     
1007.21    12.52      143.01     0          31.8      
1007.4     11.94      143.14     0          31.82     
1007.59    12.32      143.18     0          31.8      
1007.79    11.8       143.14     0          31.8      
1007.98    11.44      143.09     0          31.81     
1008.17    11.74      143.04     0          31.81     
1008.37    11.27      142.96     0          31.82     
1008.56    10.23      142.89     0          31.81     
1008.75    10.77      142.84     0          31.83     
1008.94    11.17      142.76     0          31.82     
1009.14    11.62      142.73     0          31.86     
1009.33    11.84      142.77     0          31.85     
1009.52    10.89      142.86     0          31.87     
1009.71    10.55      142.96     0          31.86     
1009.9     10.27      143.07     0          31.9      
1010.09    9.4        143.2      0          31.9      
1010.27    8.89       143.34     0          31.94     
1010.46    8.87       143.49     0          31.92     
1010.65    7.32       143.64     0          31.95     
1010.83    7.81       143.75     0          31.96     
1011.02    7.47       143.81     0          32.01     
1011.21    6.77       143.71     0          31.98     
1011.39    6.41       143.67     0          31.98     
1011.58    6.83       143.73     0          31.95     
1011.77    7.15       143.77     0          31.96     
1011.95    8.21       143.79     0          31.95     
1012.14    7.65       143.8      0          31.94     
1012.33    8.95       143.75     0          31.92     
1012.51    9.83       143.65     0          31.91     
1012.7     10.3       143.41     0          31.92     
1012.89    11.04      143.03     0          31.91     
1013.07    11.53      142.77     0          31.91     
1013.26    11.59      142.64     0          31.9      
1013.45    12.71      142.63     0          31.92     
1013.63    13.49      142.68     0          31.91     
1013.82    12.99      142.79     0          31.92     
1014.01    12.63      142.92     0          31.91     
1014.19    11.54      142.99     0          31.91     
1014.38    10.22      143.06     0          31.89     
1014.57    8.94       143.21     0          31.89     
1014.75    7.69       143.39     0          31.87     
1014.94    5.15       143.58     0          31.88     
1015.13    5.63       143.77     0          31.85     
1015.32    5.06       143.93     0          31.86     
1015.51    4.11       144.02     0          31.83     
1015.71    4.58       144.06     0          31.82     
1015.9     4.92       144.1      0          31.78     
1016.09    3.89       144.13     0          31.82     
1016.28    4.91       144.08     0          31.78     
1016.48    3.19       144.04     0          31.79     
1016.67    2.23       144.09     0          31.72     
1016.86    0.78       144.39     0          31.76     
1017.06    359.86     144.76     0          31.74     
1017.25    359.81     145.21     0          31.81     
1017.44    359.61     145.9      0          31.78     
1017.64    357.53     146.87     0          31.82     
1017.83    355.9      148.03     0          31.79     
1018.02    353.49     149.32     0          31.85     
1018.22    351.79     150.74     0          31.83     
1018.41    350.89     152.33     0          31.85     
1018.6     350.63     154.1      0          31.86     
1018.8     351.08     155.9      0          31.86     
1018.99    352.19     157.78     0          31.88     
1019.18    352.05     159.79     0          31.87     
1019.38    351.2      161.97     0          31.92     
1019.57    351.67     164.39     0          31.91     
1019.76    352.97     167.07     0          31.93     
1019.95    352.9      170.01     0          31.93     
1020.15    352.37     173.21     0          31.93     
1020.34    352.81     176.62     0          31.95     
1020.53    351.44     180.15     0          31.92     
1020.73    353.17     183.66     0          31.88     
1020.92    351.68     187.1      0          31.93     
1021.11    349.46     190.34     0          31.86     
1021.31    348.53     193.32     0          31.93     
1021.5     345.24     195.92     0          31.91     
1021.69    344.92     198.2      0          31.95     
1021.89    344.97     200.31     0          31.97     
1022.08    345.79     201.92     0          31.98     
1022.27    347.1      202.96     0          32.02     
1022.47    347.22     203.58     0          31.99     
1022.66    346.64     203.67     0          32.04     
1022.85    347.16     202.99     0          32.07     
1023.05    347.72     200.95     0          32.06     
1023.24    348.71     196.19     0          32.09     
1023.43    348.98     184.67     0          32.07     
1023.62    351.51     158.5      0          32.11     
1023.82    352.93     121.99     0          32.04     
1024.01    351.01     97.95      0          32.06     
1024.2     348.83     86.16      0          32        
1024.4     345.77     80.15      0          31.99     
1024.59    341.86     77.34      0          31.99     
1024.78    337.64     76         0          31.96     
1024.98    335.28     75.82      0          31.94     
1025.17    333.3      76.67      0          31.88     
1025.36    333.78     78.26      0          31.89     
1025.56    331.29     80.25      0          31.85     
1025.75    332.39     82.39      0          31.85     
1025.94    331.55     84.71      0          31.85     
1026.14    330.86     87.45      0          31.83     
1026.33    331.06     90.78      0          31.85     
1026.52    330.71     94.41      0          31.88     
1026.71    331.52     98.17      0          31.83     
1026.91    334.51     102        0          31.88     
1027.1     334.28     105.76     0          31.81     
1027.29    336.66     109.32     0          31.82     
1027.49    336.23     112.62     0          31.79     
1027.68    335.82     115.63     0          31.75     
1027.87    334.98     118.19     0          31.73     
1028.06    333.81     120.56     0          31.66     
1028.26    334.46     122.81     0          31.71     
1028.45    335.91     124.84     0          31.63     
1028.64    336.43     126.7      0          31.64     
1028.84    334.27     128.4      0          31.6      
1029.03    332.89     130.04     0          31.6      
1029.22    332.12     131.62     0          31.57     
1029.42    331.36     133.05     0          31.58     
1029.61    330.23     134.32     0          31.59     
1029.8     332.45     135.47     0          31.59     
1030       334.34     136.51     0          31.61     
