~Version
 VERS              .         2.0                           : CWLS LOG ASCII STANDARD - VERSION 2.0
 WRAP              .         NO                            : ONE LINE PER DEPTH STEP
 DLM               .         SPACE                         : DELIMITING CHARACTER(SPACE TAB OR COMMA)
~Well Information
#_______________________________________________________________________________
#
#PARAMETER_NAME    .UNIT     VALUE                         : DESCRIPTION
#_______________________________________________________________________________
STRT               .M        2650.6                        : First reference value
STOP               .M        2759.999891                   : Last reference value
STEP               .M        0.1999998                     : Step increment
NULL               .         -9999                         : Missing value
COMP               .                                       : Company
WELL               .         616                           : Well name
FLD                .                                       : Field
LOC                .                                       : Location
CNTY               .                                       : County
STAT               .                                       : State
CTRY               .                                       : Country
SRVC               .                                       : Service Company
DATE               .                                       : Date
API                .                                       : API number
PROJECT_UPGRADE_TIME .         2021-03-18T21_24_50           : 
group              .         Good                          : 
~Parameter Information Block
#_______________________________________________________________________________
#
#PARAMETER_NAME    .UNIT     VALUE                         : DESCRIPTION
#_______________________________________________________________________________
SET                .         D4417_D                       : 
OTHER              .         Запись производится в присутствии: 
OTHER_10           .         Максимальная температура      : 
OTHER_11           .         Тип промывочной жидкости      : 
OTHER_12           .         Сопротивление ПЖ (Ом*м) при 20°C: 
OTHER_13           .         Плотность ПЖ(г/см3)           : 
OTHER_14           .         Вязкость ПЖ(с)                : 
OTHER_15           .         Водоотдача ПЖ(см3/30мин)      : 
OTHER_16           .         Уровень ПЖ                    : 
OTHER_17           .         Нефть ПЖ (%)                  : 
OTHER_18           .         Барит ПЖ (%)                  : 
OTHER_19           .         Гематит ПЖ (%)                : 
OTHER_2            .         Заказчик ННСН  ЦДНГ-1         : 
OTHER_20           .         КМЦ ПЖ (%)                    : 
OTHER_21           .         Разгазирование ПЖ (да,нет)    : 
OTHER_22           .         Подъемник                     : 
OTHER_23           .         Лаборатория                   : 
OTHER_24           .         Тип кабеля                    : 
OTHER_25           .         Длина кабеля (м)              : 
OTHER_26           .         Цена последней метки          : 
OTHER_27           .         Цена контрольной метки        : 
OTHER_28           .         Диаметр долота (мм)           : 
OTHER_29           .         Глубина бурения (м)           : 
OTHER_3            .         Площадь                       : 
OTHER_30           .         Искусственный забой (м)       : 
OTHER_31           .         Диаметр колонны (мм)          : 
OTHER_32           .         Толщина колонны (мм)          : 
OTHER_33           .         Башмак колонны (м)            : 
OTHER_34           .         Диаметр НКТ (мм)              : 
OTHER_35           .         Толщина НКТ (мм)              : 
OTHER_36           .         Воронка НКТ (м)               : 
OTHER_37           .         Дата цементожа                : 
OTHER_38           .         Тип, количество(т) и плотность цемента: 
OTHER_39           .         Интервалы перфорации (м)      : 
OTHER_4            .         Категория                     : 
OTHER_40           .         Направление, диаметр (мм)     : 
OTHER_41           .         Направление, глубина (м)      : 
OTHER_42           .         Кондуктор, диаметр (мм)       : 
OTHER_43           .         Кондуктор, глубина (м)        : 
OTHER_44           .         Техническая колонна, диаметр (мм): 
OTHER_45           .         Техническая колонна, глубина (м): 
OTHER_46           .         Эксплуатационная колонна, диаметр (мм): 
OTHER_47           .         Эксплуатационная колонна, глубина (м): 
OTHER_48           .         Программа Кедр-02 версия 3.4  : 
OTHER_49           .         Операционная система Windows NT 5.1 build 2600 Service Pack 2: 
OTHER_5            .         Назначение исследований       : 
OTHER_50           .         Программное обеспечение станции MONITOR-386EX 25/12/99 15_08_10   BGF V54 20/09/05 15_32_17   3.3__BGF_9030071: 
OTHER_51           .         Kedr.exe версия 3.4.2.74      : 
OTHER_52           .         KedrData.dll версия 3.4.2.29  : 
OTHER_53           .         Мнемоники версия 3.18 S       : 
OTHER_54           .         Драйвер версия 2.1.1.4        : 
OTHER_55           .         LasInf.dll 4.3.0.35           : 
OTHER_56           .         Прибор_ КСА-Т4                : 
OTHER_57           .         Номер прибора_ 160            : 
OTHER_58           .         Режим_ КСА-Т4                 : 
OTHER_59           .         Форма_ С.А.Б.                 : 
OTHER_6            .         Альтитуда стола ротора        : 
OTHER_60           .         Тарировки_                    : 
OTHER_61           .         <_techsia_sc_> Дата тарировки температуры 25.05.2010: 
OTHER_62           .         Ручной ввод коэффициентов     : 
OTHER_63           .         TM.DEGC = 0.00402*RTM.E.ACP + -0.994: 
OTHER_64           .         <_techsia_sc_> Дата тарировки давления 25.05.2010: 
OTHER_65           .         Ручной ввод коэффициентов     : 
OTHER_66           .         MN.ATM = (2.27521e-006*TM.DEGC + 0.02078)*(RMN.E.ACP + 6.2*TM.DEGC + -1688): 
OTHER_67           .         <_techsia_sc_> Дата тарировки ГК 25.05.2010: 
OTHER_68           .         Ручной ввод коэффициентов     : 
OTHER_69           .         GR.UR/H = RGR.IMP/MIN / 45.5144: 
OTHER_7            .         Вид исследований 3  6         : 
OTHER_70           .         GK.FLT = 0.1*GR.UR/H[-1] + (1-0.1)*GR.UR/H[0]: 
OTHER_8            .         Начало бурения интервала каротажа: 
OTHER_9            .         Окончание бурения интервала каротажа: 
PROJECT_UPGRADE_TIME .         2021-03-18T21_24_50           : 
TLFamily_CCLC      .                                       : 
TLFamily_DEPT      .         Measured Depth                : 
TLFamily_GK        .         Gamma Ray                     : 
TLFamily_GR        .         Gamma Ray                     : 
TLFamily_METKA     .                                       : 
TLFamily_MN        .                                       : 
TLFamily_RCOR      .                                       : 
TLFamily_RGR       .                                       : 
TLFamily_RMN       .                                       : 
TLFamily_RTEN      .                                       : 
TLFamily_RTM       .                                       : 
TLFamily_SPEE      .         Cable Speed                   : 
TLFamily_TIME      .         Time                          : 
TLFamily_TM        .         Temperature                   : 
group              .         prim                          : 
~Curve Information
#_______________________________________________________________________________
#
#LOGNAME           .UNIT     LOG_ID                        : DESCRIPTION
#_______________________________________________________________________________
DEPT               .M                                      : 1 Глубина, м -    0.0 см 
CCLC               .E.ACP                                  : 9 Локатор муфт,  -   20.0 см 
GK                 .FLT                                    : 14 Гамма-активность фильтрованная, мкр./ч -  110.0 см 
GR                 .UR/H                                   : 13 Гамма-активность, мкр./ч -  110.0 см 
METKA              .CU                                     : 3 Метки,  -    0.0 см 
MN                 .ATM                                    : 12 Давление, атм. -  160.0 см 
RCOR               .CM/KM                                  : 5 Коррекция по ролику, см/км -    0.0 см 
RGR                .IMP/MIN                                : 10 Гамма-активность, усл.ед. -  110.0 см 
RMN                .E.ACP                                  : 8 Давление, усл.ед. -  160.0 см 
RTEN               .T                                      : 6 Натяжение кабеля, т -    0.0 см 
RTM                .E.ACP                                  : 7 Температура, усл.ед. -  170.0 см 
SPEE               .M/H                                    : 2 Скорость, м/час -    0.0 см 
TIME               .S                                      : 4 Время, сек -    0.0 см 
TM                 .DEGC                                   : 11 Температура, °C -  170.0 см 
~Ascii
# ...
2681.799969 165        5.89       5.89       0          241.512    -1093      268        12826      0.25       16389      502        212.31     64.89     
2681.999969 146        6.14       6.14       0          241.528    -1093      279        12827      0.25       16388      501        213.78     64.886    
2682.199968 158        6.88       6.88       0          241.539    -1093      313        12827      0.25       16387      500        215.22     64.883    
2682.399968 122        7.05       7.05       0          241.572    -1093      321        12829      0.25       16386      500        216.66     64.878    
2682.599968 106        7.05       7.05       0          241.593    -1093      321        12830      0.25       16385      500        218.1      64.874    
2682.799968 144        6.64       6.64       0          241.612    -1093      302        12831      0.25       16384      501        219.61     64.87     
2682.999968 73         6.64       6.64       0          241.617    -1093      302        12831      0.25       16383      501        221.04     64.866    
2683.199967 106        7.03       7.03       0          241.645    -1093      320        12833      0.25       16382      500        222.48     64.862    
2683.399967 95         7.54       7.54       0          241.652    -1093      343        12833      0.25       16380      500        223.84     64.856    
2683.599967 68         7.54       7.54       0          241.672    -1093      343        12834      0.25       16379      500        225.28     64.85     
2683.799967 106        7.67       7.67       0          241.692    -1093      349        12835      0.25       16378      502        226.78     64.844    
2683.999967 264        7.67       7.67       0          241.713    -1093      349        12836      0.25       16376      503        228.22     64.838    
2684.199966 208        7.01       7.01       0          241.732    -1093      319        12837      0.25       16375      504        229.59     64.834    
2684.399966 224        6.93       6.93       1          241.753    -1093      316        12838      0.25       16373      505        231.02     64.825    
2684.599966 249        6.64       6.64       0          241.765    -1093      302        12839      0.25       16373      507        232.53     64.825    
2684.799966 221        7.18       7.18       0          241.793    -1093      327        12840      0.25       16372      507        233.9      64.82     
2684.999966 206        7.18       7.18       0          241.792    -1093      327        12840      0.25       16370      508        235.33     64.813    
2685.199965 217        7.47       7.47       1          241.812    -1093      340        12841      0.25       16368      507        236.75     64.805    
2685.399965 370        7.47       7.47       0          241.849    -1093      340        12843      0.25       16368      507        238.13     64.805    
2685.599965 249        7.25       7.25       0          241.853    -1093      330        12843      0.25       16366      506        239.64     64.799    
2685.799965 154        7.62       7.62       0          241.878    -1093      347        12844      0.25       16367      508        241.03     64.8      
2685.999965 176        7.71       7.71       2          241.895    -1093      351        12845      0.25       16366      507        242.45     64.797    
2686.199964 239        7.67       7.67       0          241.915    -1094      349        12846      0.25       16365      507        243.95     64.793    
2686.399964 538        7.67       7.67       0          241.935    -1094      349        12847      0.25       16365      506        245.39     64.793    
2686.599964 3294       7.8        7.8        0          241.957    -1094      355        12848      0.25       16365      506        246.84     64.792    
2686.799964 911        7.8        7.8        0          241.975    -1094      355        12849      0.25       16364      505        248.27     64.788    
2686.999964 263        8.74       8.74       0          241.993    -1094      398        12850      0.25       16358      506        249.7      64.765    
2687.199963 120        8.93       8.93       0          242.009    -1094      406        12851      0.25       16355      506        251.06     64.753    
2687.399963 105        9.29       9.29       0          242.022    -1094      423        12852      0.25       16353      508        252.58     64.747    
2687.599963 81         9.18       9.18       0          242.031    -1094      418        12852      0.25       16351      506        254.02     64.736    
2687.799963 89         9.18       9.18       0          242.05     -1094      418        12853      0.25       16348      507        255.37     64.724    
2687.999963 85         9.07       9.07       0          242.069    -1094      413        12854      0.25       16345      507        256.81     64.713    
2688.199962 96         9.07       9.07       0          242.089    -1094      413        12855      0.25       16342      508        258.31     64.701    
2688.399962 126        9.43       9.43       0          242.108    -1094      429        12856      0.25       16340      508        259.69     64.694    
2688.599962 191        9.81       9.81       0          242.126    -1094      447        12857      0.25       16337      507        261.12     64.679    
2688.799962 101        9.89       9.89       0          242.144    -1094      450        12858      0.25       16333      507        262.56     64.664    
2688.999962 117        9.76       9.76       0          242.165    -1094      444        12859      0.25       16329      506        263.92     64.649    
2689.199961 65         9.76       9.76       0          242.185    -1094      444        12860      0.25       16329      506        265.42     64.648    
2689.399961 68         9.58       9.58       0          242.203    -1094      436        12861      0.25       16326      508        266.86     64.636    
2689.599961 77         9.58       9.58       0          242.199    -1094      436        12861      0.25       16320      508        268.23     64.613    
2689.799961 98         10.22      10.22      0          242.221    -1094      465        12862      0.25       16315      508        269.67     64.592    
2689.999961 129        10.33      10.33      0          242.235    -1094      470        12863      0.25       16311      506        271.16     64.576    
2690.19996 87         10.79      10.79      0          242.275    -1094      491        12865      0.25       16306      507        272.55     64.557    
2690.39996 175        11.05      11.05      0          242.283    -1094      503        12865      0.25       16305      506        273.98     64.552    
2690.59996 179        11.05      11.05      0          242.314    -1094      503        12867      0.25       16302      506        275.38     64.539    
2690.79996 161        11.42      11.42      0          242.31     -1094      520        12867      0.25       16298      507        276.83     64.526    
2690.99996 111        11.42      11.42      1          242.328    -1094      520        12868      0.25       16292      507        278.28     64.501    
2691.199959 90         10.66      10.66      0          242.346    -1094      485        12869      0.25       16285      507        279.67     64.473    
2691.399959 90         10.43      10.43      0          242.364    -1094      475        12870      0.25       16283      507        281.12     64.462    
2691.599959 85         10.37      10.37      0          242.382    -1094      472        12871      0.25       16277      508        282.51     64.44     
2691.799959 94         10.3       10.3       0          242.399    -1094      469        12872      0.25       16273      508        284.02     64.423    
2691.999959 142        10.3       10.3       0          242.417    -1094      469        12873      0.25       16266      508        285.39     64.396    
