~Version
 VERS              .         2.0                           : CWLS LOG ASCII STANDARD - VERSION 2.0
 WRAP              .         NO                            : ONE LINE PER DEPTH STEP
 DLM               .         SPACE                         : DELIMITING CHARACTER(SPACE TAB OR COMMA)
~Well Information
#_______________________________________________________________________________
#
#PARAMETER_NAME    .UNIT     VALUE                         : DESCRIPTION
#_______________________________________________________________________________
STRT               .M        2298.8                        : First reference value
STOP               .M        2799.8                        : Last reference value
STEP               .M        0.2                           : Step increment
NULL               .         -9999                         : Missing value
COMP               .                                       : Company
WELL               .         616                           : Well name
FLD                .                                       : Field
LOC                .                                       : Location
CNTY               .                                       : County
STAT               .                                       : State
CTRY               .                                       : Country
SRVC               .                                       : Service Company
DATE               .                                       : Date
API                .                                       : API number
PROJECT_UPGRADE_TIME .         2021-03-18T21_24_50           : 
group              .         Good                          : 
~Parameter Information Block
#_______________________________________________________________________________
#
#PARAMETER_NAME    .UNIT     VALUE                         : DESCRIPTION
#_______________________________________________________________________________
SET                .         D2659_D                       : 
OTHER              .         Программное обеспечение станции MONITOR-386EX 25/12/99 15_08_10   BGF V50 26/12/00 07_26_01   3.1_SNGF___BGF_N_092085: 
OTHER_10           .         Тарировки_                    : 
OTHER_11           .         <_techsia_sc_> Постоянная времени фильтра ПС  0.5 сек, kf=0.139292: 
OTHER_2            .         Kedr.exe версия 3.3.2.32      : 
OTHER_3            .         KedrData.dll версия 3.3.2.17  : 
OTHER_4            .         Драйвер версия 2.1.0.7        : 
OTHER_5            .         Мнемоники версия 3.3 S        : 
OTHER_6            .         Прибор_ К1a-723м              : 
OTHER_7            .         Номер прибора_ 348/72         : 
OTHER_8            .         Режим_ K1A-723M               : 
OTHER_9            .         Форма_ БКЗ                    : 
PROJECT_UPGRADE_TIME .         2021-03-18T21_24_49           : 
TLFamily_BK        .         Lateral Log Resistivity       : 
TLFamily_DEPT      .         Measured Depth                : 
TLFamily_GZ1       .         Extra Shallow Resistivity     : 
TLFamily_GZ2       .         Shallow Resistivity           : 
TLFamily_GZ3       .         Medium Resistivity            : 
TLFamily_GZ4       .         Deep Resistivity              : 
TLFamily_GZ5       .         Extra Deep Resistivity        : 
TLFamily_GZ6       .         Medium Resistivity Inverted   : 
TLFamily_IBK       .                                       : 
TLFamily_IK        .         Conductivity                  : 
TLFamily_IPR       .                                       : 
TLFamily_METKA     .                                       : 
TLFamily_PS        .         Spontaneous Potential         : 
TLFamily_PZ        .         Potential Resistivity         : 
TLFamily_RCOR      .                                       : 
TLFamily_RES       .         Mud Resistivity               : 
TLFamily_SPID      .         Spontaneous Potential         : 
TLFamily_TENS      .         Cable Tension                 : 
TLFamily_TIME      .         Time                          : 
TLFamily_UBK       .         Uranium Concentration         : 
group              .         prim                          : 
~Curve Information
#_______________________________________________________________________________
#
#LOGNAME           .UNIT     LOG_ID                        : DESCRIPTION
#_______________________________________________________________________________
DEPT               .M                                      : 1 Глубина, м -    0.0 см 
BK                 .OHMM                                   : 20 БК, Ом*м - 1768.0 см 
GZ1                .OHMM                                   : 12 A0.4M0.1N, Ом*м - 1295.0 см 
GZ2                .OHMM                                   : 11 A1.0M0.1N, Ом*м - 1355.0 см 
GZ3                .OHMM                                   : 9 A2.0M0.5N, Ом*м - 1475.0 см 
GZ4                .OHMM                                   : 8 A4.0M0.5N, Ом*м - 1025.0 см 
GZ5                .OHMM                                   : 7 A8.0M1.0N, Ом*м - 1450.0 см 
GZ6                .OHMM                                   : 10 N0.5M2.0A, Ом*м - 1025.0 см 
IBK                .A                                      : 18 Ток БК, А - 1768.0 см 
IK                 .MSM/M                                  : 14 ИК, мСм/м - 1961.0 см 
IPR                .MA                                     : 17 Ток прибора, мA -    0.0 см 
METKA              .                                       : 3 Метки,  -    0.0 см 
PS                 .mV                                     : 16 ПС, мВ - 1210.0 см 
PZ                 .OHMM                                   : 13 N11M0.5A, Ом*м - 1225.0 см 
RCOR               .CM/KM                                  : 5 Коррекция по ролику, см/км -    0.0 см 
RES                .OHMM                                   : 15 Резистивиметр, Ом*м -  600.0 см 
SPID               .M/H                                    : 2 Скорость, м/час -    0.0 см 
TENS               .T                                      : 6 Натяжение кабеля, т -    0.0 см 
TIME               .S                                      : 4 Время, сек -    0.0 см 
UBK                .V                                      : 19 Напр. БК, В - 1768.0 см 
~Ascii
# ...
2409.8     5.87       7.6        7.1        6.9        6.4        6.6        6.2        0.026      149.6      430        1          544.01     7.4        -362       2.759      -1810      0          29206.18   0.639     
2410       5.87       7.6        7.1        7          6.3        6.5        6.5        0.026      151.3      430        0          543.82     7.3        -362       2.754      -1827      0          29205.82   0.636     
2410.2     5.85       7.6        7          6.9        6.3        6.4        6.7        0.026      151.4      429.5      0          544.74     7.3        -361       2.754      -1857      0          29205.36   0.637     
2410.4     5.76       7.6        6.9        6.8        6.2        6.3        7.1        0.026      151.8      432        0          546.41     7.3        -361       2.754      -1858      0          29204.97   0.637     
2410.6     5.57       7.4        6.8        6.6        6          6.2        7.3        0.027      151.4      431.512    0          545.37     7.3        -361       2.755      -1857      0          29204.57   0.637     
2410.8     5.61       7.2        6.6        6.4        6.1        6.3        7.7        0.027      151.1      429.665    0          546.65     7.4        -361       2.753      -1854      0          29204.24   0.643     
2411       5.57       7.3        6.7        6.3        6          6.2        8.2        0.028      149.4      430        0          545.55     7.7        -361       2.754      -1850      0          29203.82   0.652     
2411.2     5.55       7.1        6.5        6.4        6.1        6.2        8.7        0.028      145.4      430        0          546.66     8          -361       2.754      -1842      0          29203.44   0.661     
2411.4     5.54       7.1        6.4        6.3        6.3        6.3        9.3        0.028      144.1      432        0          542.27     8.8        -361       2.756      -1835      0          29203.12   0.666     
2411.6     5.97       7.2        6.6        6.4        6.6        6.2        9.7        0.027      141.6      430.683    0          540.87     9.4        -361       2.757      -1872      0          29202.66   0.676     
2411.8     7.37       7.8        6.7        6.2        6.4        6          9          0.022      136.3      430        0          538.35     9.3        -361       2.757      -1871      0          29202.27   0.683     
2412       7.16       8          6.1        5.7        5.8        5.8        7.9        0.023      132.1      428        0          537.98     9.2        -361       2.757      -1849      0          29201.87   0.69      
2412.2     6.98       9          6.2        5.5        5.5        5.3        7.3        0.024      131.1      429.333    0          537.87     9          -361       2.755      -1841      0          29201.54   0.699     
2412.4     6.75       9          6.8        5.4        5.4        4.9        7.1        0.025      129.7      428.5      0          538.68     8.9        -361       2.757      -1826      0          29201.12   0.709     
2412.6     6.76       8.8        7.5        5.5        5.5        4.9        7.1        0.025      129.7      429.488    0          539.72     8.8        -361       2.757      -1819      0          29200.72   0.723     
2412.8     6.67       8.7        8.5        5.7        5.6        4.8        7.1        0.026      130.1      429.333    0          539.79     8.9        -361       2.753      -1841      0          29200.38   0.728     
2413       6.44       8.6        8.6        5.9        5.7        4.9        7.2        0.027      130        428.4      0          542.02     9          -361       2.755      -1832      0          29199.96   0.728     
2413.2     6.37       8.3        8.3        6.3        5.8        5          7.3        0.027      129.2      430.667    0          540.91     9.1        -361       2.76       -1839      0          29199.57   0.724     
2413.4     6.59       8.3        8.3        6.5        5.9        5.2        7.3        0.026      128.5      429.333    0          541.79     9          -361       2.753      -1871      0          29199.2    0.721     
2413.6     6.76       8.4        8.1        6.8        6.1        5.3        7.1        0.025      129.7      432        0          539.62     8.9        -361       2.758      -1880      0          29198.81   0.715     
2413.8     6.83       8.6        8          7.3        6.1        5.4        6.9        0.025      128.8      429.333    0          539.88     8.8        -361       2.756      -1867      0          29198.39   0.713     
2414       6.78       8.9        8.4        7.9        6.4        5.5        7          0.025      128.2      430        0          540.1      8.7        -361       2.754      -1841      0          29198.01   0.714     
2414.2     6.65       8.8        8.4        8.1        6.5        5.6        6.8        0.025      128.7      429.5      0          541.35     8.7        -361       2.752      -1827      0          29197.69   0.711     
2414.4     6.6        8.7        8.3        7.9        6.6        5.6        6.7        0.025      130.5      431        0          541.4      8.7        -361       2.753      -1834      0          29197.25   0.708     
2414.6     6.43       8.7        8.4        7.9        6.6        5.7        6.5        0.026      133.3      430.016    0          541.78     8.6        -361       2.756      -1852      0          29196.85   0.704     
2414.8     6.62       8.4        8.1        7.6        6.7        5.7        6.2        0.025      133.5      430        0          542.51     8.4        -361       2.756      -1845      0          29196.53   0.702     
2415       6.61       8.4        7.9        7.5        6.9        5.8        6.1        0.025      135.4      431.333    0          542.49     8.2        -361       2.754      -1834      0          29196.09   0.696     
2415.2     6.44       8.6        8.1        7.5        7          5.7        6          0.025      136.2      430        0          543.97     8.1        -361       2.758      -1831      0          29195.7    0.686     
2415.4     6.37       8.5        8.2        7.5        7.2        5.8        6          0.025      139.3      430        0          543.49     7.9        -361       2.757      -1860      0          29195.33   0.679     
2415.6     6.24       8.2        8          7.4        7.4        6          6          0.025      142        430        0          544.33     7.6        -361       2.756      -1860      0          29194.95   0.668     
2415.8     6.2        8.1        7.9        7.5        7.4        6          6.1        0.025      144.9      428.672    0          543.05     7.4        -361       2.758      -1859      0          29194.53   0.661     
2416       6.05       8          7.8        7.5        7.7        6.2        6.2        0.026      147.1      429.5      0          543.47     7.2        -361       2.752      -1859      0          29194.14   0.653     
2416.2     5.85       8          7.7        7.4        7.8        6.3        6.4        0.026      148.8      430.5      0          543.8      7.1        -361       2.754      -1858      0          29193.8    0.644     
2416.4     5.74       7.7        7.4        7.4        7.6        6.4        6.7        0.026      151.5      429.5      0          544.21     7          -361       2.755      -1857      0          29193.36   0.639     
2416.6     5.52       7.4        7.3        7.2        7.3        6.5        6.9        0.027      153.5      430        0          544.49     7          -361       2.758      -1855      0          29192.96   0.633     
2416.8     5.43       7.1        6.9        6.9        7.1        6.6        7.1        0.028      155.5      430        0          544.77     7.2        -361       2.756      -1851      0          29192.6    0.63      
2417       5.47       6.9        6.6        6.8        7.2        6.5        7.3        0.027      154.4      430        0          545.57     7.3        -361       2.756      -1845      0          29192.22   0.631     
