~Version
 VERS              .         2.0                           : CWLS LOG ASCII STANDARD - VERSION 2.0
 WRAP              .         NO                            : ONE LINE PER DEPTH STEP
 DLM               .         SPACE                         : DELIMITING CHARACTER(SPACE TAB OR COMMA)
~Well Information
#_______________________________________________________________________________
#
#PARAMETER_NAME    .UNIT     VALUE                         : DESCRIPTION
#_______________________________________________________________________________
STRT               .M        2649.6                        : First reference value
STOP               .M        2756.799946                   : Last reference value
STEP               .M        0.1999999                     : Step increment
NULL               .         -9999                         : Missing value
COMP               .                                       : Company
WELL               .         616                           : Well name
FLD                .                                       : Field
LOC                .                                       : Location
CNTY               .                                       : County
STAT               .                                       : State
CTRY               .                                       : Country
SRVC               .                                       : Service Company
DATE               .                                       : Date
API                .                                       : API number
PROJECT_UPGRADE_TIME .         2021-03-18T21_24_50           : 
group              .         Good                          : 
~Parameter Information Block
#_______________________________________________________________________________
#
#PARAMETER_NAME    .UNIT     VALUE                         : DESCRIPTION
#_______________________________________________________________________________
SET                .         D4412_D_2                     : 
COMM               .                                       : 
OTHER              .         Запись производится в присутствии: 
OTHER_10           .         Максимальная температура      : 
OTHER_11           .         Тип промывочной жидкости      : 
OTHER_12           .         Сопротивление ПЖ (Ом*м) при 20°C: 
OTHER_13           .         Плотность ПЖ(г/см3)           : 
OTHER_14           .         Вязкость ПЖ(с)                : 
OTHER_15           .         Водоотдача ПЖ(см3/30мин)      : 
OTHER_16           .         Уровень ПЖ                    : 
OTHER_17           .         Нефть ПЖ (%)                  : 
OTHER_18           .         Барит ПЖ (%)                  : 
OTHER_19           .         Гематит ПЖ (%)                : 
OTHER_2            .         Заказчик ННСН  ЦДНГ-1         : 
OTHER_20           .         КМЦ ПЖ (%)                    : 
OTHER_21           .         Разгазирование ПЖ (да,нет)    : 
OTHER_22           .         Подъемник                     : 
OTHER_23           .         Лаборатория                   : 
OTHER_24           .         Тип кабеля                    : 
OTHER_25           .         Длина кабеля (м)              : 
OTHER_26           .         Цена последней метки          : 
OTHER_27           .         Цена контрольной метки        : 
OTHER_28           .         Диаметр долота (мм)           : 
OTHER_29           .         Глубина бурения (м)           : 
OTHER_3            .         Площадь                       : 
OTHER_30           .         Искусственный забой (м)       : 
OTHER_31           .         Диаметр колонны (мм)          : 
OTHER_32           .         Толщина колонны (мм)          : 
OTHER_33           .         Башмак колонны (м)            : 
OTHER_34           .         Диаметр НКТ (мм)              : 
OTHER_35           .         Толщина НКТ (мм)              : 
OTHER_36           .         Воронка НКТ (м)               : 
OTHER_37           .         Дата цементожа                : 
OTHER_38           .         Тип, количество(т) и плотность цемента: 
OTHER_39           .         Интервалы перфорации (м)      : 
OTHER_4            .         Категория                     : 
OTHER_40           .         Направление, диаметр (мм)     : 
OTHER_41           .         Направление, глубина (м)      : 
OTHER_42           .         Кондуктор, диаметр (мм)       : 
OTHER_43           .         Кондуктор, глубина (м)        : 
OTHER_44           .         Техническая колонна, диаметр (мм): 
OTHER_45           .         Техническая колонна, глубина (м): 
OTHER_46           .         Эксплуатационная колонна, диаметр (мм): 
OTHER_47           .         Эксплуатационная колонна, глубина (м): 
OTHER_48           .         Программа Кедр-02 версия 3.4  : 
OTHER_49           .         Операционная система Windows NT 5.1 build 2600 Service Pack 2: 
OTHER_5            .         Назначение исследований       : 
OTHER_50           .         Программное обеспечение станции MONITOR-386EX 25/12/99 15_08_10   BGF V54 20/09/05 15_32_17   3.3__BGF_9030071: 
OTHER_51           .         Kedr.exe версия 3.4.2.74      : 
OTHER_52           .         KedrData.dll версия 3.4.2.29  : 
OTHER_53           .         Мнемоники версия 3.18 S       : 
OTHER_54           .         Драйвер версия 2.1.1.4        : 
OTHER_55           .         LasInf.dll 4.3.0.35           : 
OTHER_56           .         Прибор_ КСА-Т4                : 
OTHER_57           .         Номер прибора_ 160            : 
OTHER_58           .         Режим_ КСА-Т4                 : 
OTHER_59           .         Форма_ С.А.Б.                 : 
OTHER_6            .         Альтитуда стола ротора        : 
OTHER_60           .         Тарировки_                    : 
OTHER_61           .         <_techsia_sc_> Дата тарировки температуры 25.05.2010: 
OTHER_62           .         Ручной ввод коэффициентов     : 
OTHER_63           .         TM.DEGC = 0.00402*RTM.E.ACP + -0.994: 
OTHER_64           .         <_techsia_sc_> Дата тарировки давления 25.05.2010: 
OTHER_65           .         Ручной ввод коэффициентов     : 
OTHER_66           .         MN.ATM = (2.27521e-006*TM.DEGC + 0.02078)*(RMN.E.ACP + 6.2*TM.DEGC + -1688): 
OTHER_67           .         <_techsia_sc_> Дата тарировки ГК 25.05.2010: 
OTHER_68           .         Ручной ввод коэффициентов     : 
OTHER_69           .         GR.UR/H = RGR.IMP/MIN / 45.5144: 
OTHER_7            .         Вид исследований 3  6         : 
OTHER_70           .         GK.FLT = 0.1*GR.UR/H[-1] + (1-0.1)*GR.UR/H[0]: 
OTHER_8            .         Начало бурения интервала каротажа: 
OTHER_9            .         Окончание бурения интервала каротажа: 
PROJECT_UPGRADE_TIME .         2021-03-18T21_24_50           : 
PRTY               .         ПП-601-1                      : N партии
SRVC               .         Барковский                    : Начальник партии
TLFamily_DEPT      .         Measured Depth                : 
TLFamily_LM        .         Casing Collar locator         : 
TLFamily_MN        .                                       : 
TLFamily_TM        .         Temperature                   : 
group              .         second                        : 
~Curve Information
#_______________________________________________________________________________
#
#LOGNAME           .UNIT     LOG_ID                        : DESCRIPTION
#_______________________________________________________________________________
DEPT               .M                                      : Depth curve 
LM                 .е.ацп                                  : Локатор муфт,е.ацп 
MN                 .атм                                    : 12 Давление, атм. -  160.0 см 
TM                 .град.C                                 : Термограмма по стволу скважины,град.C 
~Ascii
# ...
2685.399982 3559.739   370.131    64.88     
2685.599982 3027.979   370.152    64.878    
2685.799982 948.673    370.174    64.881    
2685.999982 281.928    370.133    64.886    
2686.199982 134.995    370.15     64.89     
2686.399982 123.981    370.158    64.891    
2686.599982 85         370.196    64.89     
2686.799981 85.999     370.217    64.894    
2686.999981 84.014     370.238    64.894    
2687.199981 113.02     370.239    64.894    
2687.399981 152.991    370.302    64.897    
2687.599981 133.995    370.333    64.898    
2687.799981 123.995    370.365    64.898    
2687.999981 112.988    370.38     64.902    
2688.199981 87.991     370.431    64.902    
2688.399981 69.023     370.479    64.906    
2688.599981 115.996    370.513    64.906    
2688.79998 107.025    370.555    64.91     
2688.99998 157.992    370.576    64.914    
2689.19998 142.02     370.597    64.914    
2689.39998 183.012    370.629    64.918    
2689.59998 206.969    370.688    64.918    
2689.79998 144        370.703    64.918    
2689.99998 144        370.757    64.922    
2690.19998 144.973    370.829    64.922    
2690.39998 90.988     370.851    64.922    
2690.599979 67.01      370.889    64.926    
2690.799979 87.008     370.956    64.926    
2690.999979 104.009    371.028    64.93     
2691.199979 122.851    371.072    64.93     
2691.399979 1853.345   371.102    64.93     
2691.599979 521.816    371.144    64.93     
2691.799979 147.954    371.193    64.932    
2691.999979 54.99      371.229    64.934    
2692.199979 34         371.291    64.934    
2692.399979 35.007     371.351    64.934    
2692.599978 48.997     371.418    64.937    
2692.799978 43.004     371.445    64.934    
2692.999978 50.999     371.48     64.938    
2693.199978 48.997     371.494    64.937    
2693.399978 41.999     371.522    64.938    
2693.599978 39.998     371.564    64.938    
2693.799978 35.003     371.564    64.938    
2693.999978 42.002     371.597    64.938    
2694.199978 46.993     371.543    64.938    
2694.399978 31.998     371.543    64.938    
2694.599978 27         371.55     64.938    
2694.799977 28.001     371.543    64.938    
2694.999977 30.015     371.522    64.938    
2695.199977 59.995     371.547    64.938    
2695.399977 49.992     371.589    64.938    
2695.599977 34         371.578    64.938    
2695.799977 34.001     371.575    64.938    
2695.999977 36.03      371.57     64.938    
2696.199977 95.988     371.603    64.938    
2696.399977 71.006     371.627    64.938    
2696.599976 84.001     371.8      64.938    
2696.799976 86.045     371.694    64.938    
2696.999976 176.971    371.752    64.938    
2697.199976 118.976    371.846    64.938    
2697.399976 71.011     371.836    64.938    
2697.599976 94.009     371.731    64.936    
2697.799976 112.99     371.683    64.934    
2697.999976 91.997     371.719    64.934    
2698.199976 85.999     371.773    64.934    
2698.399976 84.001     371.794    64.934    
2698.599975 85.982     372.057    64.934    
2698.799975 49.996     372.31     64.934    
2698.999975 41.992     372.181    64.934    
2699.199975 26.005     372.121    64.934    
2699.399975 36.024     372.003    64.934    
2699.599975 84.003     372.163    64.934    
2699.799975 89.999     372.086    64.934    
2699.999975 87.014     372.103    64.933    
2700.199975 114.999    372.044    64.93     
2700.399975 113.03     372.128    64.93     
2700.599974 172.955    372.135    64.93     
2700.799974 80.993     372.14     64.926    
2700.999974 67.001     372.079    64.926    
2701.199974 70.01      372.109    64.926    
2701.399974 90.01      372.151    64.924    
2701.599974 109.981    372.202    64.922    
2701.799974 71.02      372.219    64.918    
2701.999974 112.899    372.205    64.913    
2702.199974 3967.605   372.312    64.91     
2702.399974 1134.603   372.277    64.906    
2702.599974 327.919    372.305    64.906    
2702.799973 162.976    372.242    64.902    
2702.999973 113.984    372.311    64.901    
2703.199973 81.004     372.31     64.898    
2703.399973 90.004     372.325    64.894    
2703.599973 98.002     372.288    64.89     
2703.799973 101.984    372.288    64.886    
2703.999973 70.044     372.286    64.882    
2704.199973 158.991    372.265    64.878    
2704.399973 141.013    372.264    64.874    
2704.599972 168.019    372.482    64.862    
2704.799972 205.977    372.38     64.857    
2704.999972 159.98     372.282    64.854    
2705.199972 120.023    372.274    64.85     
2705.399972 165.962    372.336    64.846    
2705.599972 87.989     372.341    64.833    
2705.799972 66.017     372.337    64.827    
2705.999972 100.979    372.339    64.821    
2706.199972 59.014     372.464    64.817    
2706.399972 87.002     372.4      64.809    
2706.599971 91.995     372.473    64.809    
2706.799971 82.008     372.399    64.804    
2706.999971 97.995     372.448    64.801    
2707.199971 88.006     372.461    64.797    
2707.399971 101.006    372.662    64.797    
2707.599971 113.005    372.626    64.789    
2707.799971 123.971    372.618    64.781    
2707.999971 66.007     372.621    64.777    
2708.199971 79.99      372.693    64.771    
2708.399971 60.003     372.695    64.762    
2708.59997 66.004     372.703    64.749    
2708.79997 75.003     372.953    64.741    
2708.99997 81.022     372.833    64.734    
2709.19997 125.99     372.807    64.72     
2709.39997 104.994    372.718    64.713    
2709.59997 91.997     372.835    64.705    
2709.79997 84.988     372.811    64.697    
2709.99997 60.009     372.818    64.688    
2710.19997 77.998     372.98     64.677    
2710.39997 72.983     372.936    64.669    
2710.59997 39.019     372.898    64.664    
2710.799969 77.004     372.876    64.657    
2710.999969 84.98      372.979    64.649    
2711.199969 45.004     372.957    64.644    
2711.399969 54.03      372.955    64.635    
2711.599969 114.981    372.959    64.615    
2711.799969 75.992     372.993    64.604    
2711.999969 60.008     372.991    64.595    
2712.199969 76.021     373.009    64.588    
2712.399969 117.992    372.985    64.561    
2712.599968 102        373        64.548    
2712.799968 101.976    373.004    64.534    
2712.999968 54.886     373.071    64.524    
2713.199968 1852.177   373.118    64.516    
2713.399968 2210.215   373.12     64.511    
2713.599968 618.797    373.141    64.495    
2713.799968 207.964    373.139    64.48     
2713.999968 135.981    373.158    64.472    
2714.199968 96.972     373.139    64.465    
2714.399968 39.995     373.226    64.445    
2714.599967 29.018     373.174    64.436    
2714.799967 66.015     373.17     64.429    
2714.999967 96.012     373.16     64.405    
2715.199967 120.981    373.172    64.387    
2715.399967 82.002     373.183    64.387    
2715.599967 86.01      373.159    64.387    
2715.799967 106.978    373.124    64.391    
2715.999967 61.999     373.145    64.387    
2716.199967 60.007     373.167    64.385    
2716.399967 74.996     373.171    64.369    
2716.599966 65.989     373.157    64.354    
2716.799966 44.002     373.135    64.333    
2716.999966 49.01      373.154    64.323    
2717.199966 70.013     373.129    64.312    
2717.399966 97.011     373.12     64.292    
2717.599966 119.987    373.087    64.291    
2717.799966 92.998     373.088    64.299    
2717.999966 88.021     373.087    64.299    
2718.199966 130.01     373.063    64.291    
2718.399966 149.964    373.098    64.262    
2718.599966 77.036     373.119    64.247    
2718.799965 148.973    373.124    64.231    
2718.999965 94.981     373.155    64.214    
2719.199965 56.011     373.197    64.202    
2719.399965 79.031     373.26     64.202    
2719.599965 140.981    373.3      64.202    
2719.799965 101.982    373.314    64.182    
2719.999965 66.025     373.341    64.172    
2720.199965 116.982    373.388    64.166    
2720.399965 80.004     373.417    64.149    
2720.599964 88.02      373.459    64.146    
2720.799964 128.999    373.529    64.146    
2720.999964 125.993    373.595    64.138    
