~Version
 VERS              .         2.0                           : CWLS LOG ASCII STANDARD - VERSION 2.0
 WRAP              .         NO                            : ONE LINE PER DEPTH STEP
 DLM               .         SPACE                         : DELIMITING CHARACTER(SPACE TAB OR COMMA)
~Well Information
#_______________________________________________________________________________
#
#PARAMETER_NAME    .UNIT     VALUE                         : DESCRIPTION
#_______________________________________________________________________________
STRT               .M        1740.47                       : First reference value
STOP               .M        2787.78                       : Last reference value
STEP               .M        0                             : Step increment
NULL               .         -9999                         : Missing value
COMP               .                                       : Company
WELL               .         616                           : Well name
FLD                .                                       : Field
LOC                .                                       : Location
CNTY               .                                       : County
STAT               .                                       : State
CTRY               .                                       : Country
SRVC               .                                       : Service Company
DATE               .                                       : Date
API                .                                       : API number
PROJECT_UPGRADE_TIME .         2021-03-18T21_24_50           : 
group              .         Good                          : 
~Parameter Information Block
#_______________________________________________________________________________
#
#PARAMETER_NAME    .UNIT     VALUE                         : DESCRIPTION
#_______________________________________________________________________________
SET                .         D2664                         : 
NPR                .         980607                        : ЗАВ НОМЕР ПРИБОРА
NPRT               .         Мещеряков                     : НАЧ ПАРТИИ
PROJECT_UPGRADE_TIME .         2021-03-18T21_24_50           : 
TLFamily_AZIMUTH   .         True Dip Azimuth              : 
TLFamily_DEPTH     .         Measured Depth                : 
TLFamily_DRILL     .                                       : 
TLFamily_METKA     .                                       : 
TLFamily_ZENIT     .                                       : 
group              .         prim                          : 
~Curve Information
#_______________________________________________________________________________
#
#LOGNAME           .UNIT     LOG_ID                        : DESCRIPTION
#_______________________________________________________________________________
DEPTH              .M                                      : 1 ГЛУБИНА 
AZIMUTH            .ГРАД                                   : 4 АЗИМУТ 
DRILL              .ГРАД                                   : 2 ПОВОРОТ 
METKA              .                                       : 5 МАГН МЕТКА 
ZENIT              .ГРАД                                   : 3 ЗЕНИТ 
~Ascii
# ...
2285.19    275.08     109.32     0          3.2       
2285.58    275.12     109.7      0          3.16      
2285.97    275.17     110.1      0          3.13      
2286.36    275.23     110.51     0          3.1       
2286.74    275.3      110.93     0          3.06      
2287.13    275.4      111.3      0          3.03      
2287.52    275.46     111.59     0          2.99      
2287.91    275.5      111.84     0          2.96      
2288.3     275.55     112.1      0          2.92      
2288.69    275.58     112.41     0          2.89      
2289.08    275.62     112.79     0          2.85      
2289.47    275.65     113.34     0          2.83      
2289.86    275.64     113.89     0          2.8       
2290.25    275.55     114.55     0          2.77      
2290.64    275.56     115.23     0          2.74      
2291.03    275.6      115.88     0          2.71      
2291.42    275.64     116.55     0          2.68      
2291.81    275.67     117.19     0          2.65      
2292.2     275.68     117.73     0          2.62      
2292.59    275.65     118.25     0          2.6       
2292.98    275.61     118.74     0          2.57      
2293.37    275.61     119.22     0          2.54      
2293.76    275.62     119.65     0          2.51      
2294.15    275.56     120.04     0          2.48      
2294.54    275.51     120.43     0          2.45      
2294.93    275.46     120.83     0          2.42      
2295.32    275.49     121.17     0          2.39      
2295.71    275.48     121.5      0          2.37      
2296.1     275.51     121.77     0          2.34      
2296.49    275.55     122.05     0          2.31      
2296.88    275.58     122.31     0          2.28      
2297.27    275.59     122.57     0          2.25      
2297.66    275.57     122.82     0          2.22      
2298.05    275.51     123.18     0          2.2       
2298.44    275.46     123.63     0          2.17      
2298.83    275.49     124.06     0          2.14      
2299.22    275.51     124.48     0          2.12      
2299.6     275.55     124.82     0          2.09      
2299.99    275.57     125.02     0          2.07      
2300.38    275.56     125.11     0          2.04      
2300.77    275.5      125.21     0          2.02      
2300.96    275.51     124.97     0          2.01      
2301.16    275.49     124.83     0          2         
2301.35    275.55     124.58     0          1.99      
2301.54    275.58     124.34     0          1.98      
2301.93    275.5      124.29     0          1.95      
2302.32    275.45     124.25     0          1.92      
2302.71    275.38     124.35     0          1.9       
2303.1     275.26     124.62     0          1.87      
2303.49    275.28     124.82     0          1.84      
2303.88    275.27     125.01     0          1.82      
2304.26    275.3      125.08     0          1.8       
2304.65    275.29     125.12     0          1.77      
2305.04    275.32     125.09     0          1.75      
2305.43    275.34     125.04     0          1.72      
2305.82    275.34     124.99     0          1.7       
2306.21    275.28     125.07     0          1.67      
2306.6     275.31     125.11     0          1.64      
2306.99    275.28     125.27     0          1.62      
2307.38    275.31     125.38     0          1.59      
2307.77    275.41     125.46     0          1.57      
2308.16    275.52     125.49     0          1.55      
2308.55    275.61     125.52     0          1.52      
2308.94    275.76     125.45     0          1.5       
2309.32    275.87     125.35     0          1.47      
2309.71    275.85     125.36     0          1.45      
2310.1     275.91     125.39     0          1.42      
2310.49    275.94     125.55     0          1.4       
2310.88    276.04     125.75     0          1.38      
2311.27    276.22     125.86     0          1.35      
2311.66    276.45     125.89     0          1.33      
2312.05    276.61     125.83     0          1.31      
2312.44    276.76     125.73     0          1.29      
2312.83    276.89     125.68     0          1.27      
2313.22    276.98     125.62     0          1.24      
2313.41    277.2      125.29     0          1.24      
2313.8     277.87     124.85     0          1.22      
2314.19    278.72     124.09     0          1.19      
2314.58    279.64     123.14     0          1.17      
2314.97    280.53     122.16     0          1.14      
2315.36    281.39     121.26     0          1.12      
2315.75    281.95     120.8      0          1.1       
2316.14    282.6      120.3      0          1.08      
2316.52    283.25     119.82     0          1.06      
2316.91    283.95     119.25     0          1.04      
2317.3     284.56     118.73     0          1.03      
2317.69    285.24     118.02     0          1.01      
2318.08    285.91     117.29     0          0.99      
2318.47    286.51     116.6      0          0.98      
2318.86    287.11     115.96     0          0.96      
2319.25    287.65     115.36     0          0.95      
2319.64    288.11     114.91     0          0.93      
2320.03    288.6      114.47     0          0.92      
2320.43    289.16     114.02     0          0.91      
2320.82    289.77     113.48     0          0.89      
2321.21    290.32     112.92     0          0.88      
2321.6     290.73     112.45     0          0.87      
2321.99    291.12     112        0          0.85      
2322.38    291.25     111.91     0          0.84      
2322.77    291.5      111.92     0          0.82      
2323.16    291.83     111.98     0          0.81      
2323.55    292.34     111.9      0          0.79      
2323.94    293        111.6      0          0.78      
2324.33    293.56     111.27     0          0.76      
2324.72    294.12     110.91     0          0.75      
2325.11    294.58     110.63     0          0.73      
2325.3     294.6      110.43     0          0.74      
2325.49    294.45     110.41     0          0.74      
2325.89    294.92     109.82     0          0.74      
2326.29    295.24     109.39     0          0.74      
2326.69    295.63     108.93     0          0.74      
2327.09    296.33     108.16     0          0.73      
2327.49    296.83     107.58     0          0.73      
2327.89    297.31     107.04     0          0.72      
2328.29    297.87     106.39     0          0.72      
2328.69    298.56     105.53     0          0.71      
2329.09    299.24     104.66     0          0.71      
2329.49    299.91     103.77     0          0.7       
2329.89    300.63     102.79     0          0.7       
2330.29    301.22     101.89     0          0.69      
2330.69    301.87     101        0          0.68      
2331.09    302.52     100.14     0          0.68      
2331.5     303.19     99.27      0          0.67      
2331.9     303.83     98.53      0          0.66      
2332.3     304.41     97.88      0          0.66      
2332.7     305.1      97.12      0          0.65      
2333.11    305.91     96.2       0          0.65      
2333.51    306.79     95.22      0          0.64      
2333.91    307.76     94.13      0          0.63      
2334.32    308.62     93.07      0          0.63      
2334.72    309.36     92.12      0          0.62      
2335.13    310.07     91.22      0          0.61      
2335.53    310.81     90.33      0          0.61      
2335.94    311.59     89.4       0          0.6       
2336.34    312.4      88.4       0          0.59      
2336.75    313.07     87.54      0          0.59      
2337.15    313.76     86.7       0          0.58      
2337.56    314.43     85.95      0          0.57      
2337.76    314.27     86.11      0          0.57      
2338.16    315.51     84.63      0          0.57      
2338.56    316.73     83.09      0          0.58      
2338.96    317.87     81.53      0          0.58      
2339.36    319.17     79.84      0          0.58      
2339.76    320.53     78.16      0          0.58      
2340.16    321.79     76.62      0          0.59      
2340.56    322.99     75.19      0          0.59      
