~Version
 VERS              .         2.0                           : CWLS LOG ASCII STANDARD - VERSION 2.0
 WRAP              .         NO                            : ONE LINE PER DEPTH STEP
 DLM               .         SPACE                         : DELIMITING CHARACTER(SPACE TAB OR COMMA)
~Well Information
#_______________________________________________________________________________
#
#PARAMETER_NAME    .UNIT     VALUE                         : DESCRIPTION
#_______________________________________________________________________________
STRT               .M        2668.2                        : First reference value
STOP               .M        2774.800107                   : Last reference value
STEP               .M        0.2000002                     : Step increment
NULL               .         -9999                         : Missing value
COMP               .                                       : Company
WELL               .         616                           : Well name
FLD                .                                       : Field
LOC                .                                       : Location
CNTY               .                                       : County
STAT               .                                       : State
CTRY               .                                       : Country
SRVC               .                                       : Service Company
DATE               .                                       : Date
API                .                                       : API number
PROJECT_UPGRADE_TIME .         2021-03-18T21_24_50           : 
group              .         Good                          : 
~Parameter Information Block
#_______________________________________________________________________________
#
#PARAMETER_NAME    .UNIT     VALUE                         : DESCRIPTION
#_______________________________________________________________________________
SET                .         D1805_D_2                     : 
NPR                .                                       : 
OTHER              .         Программное обеспечение станции MONITOR-386EX 25/12/99 15_08_10   BGF V52 22/08/01 16_56_30   3.1_SNGF___BGF_N_092049: 
OTHER_10           .         Тарировки_                    : 
OTHER_11           .         TM.GRD = 0.00403*TM$.UE + -1.07: 
OTHER_12           .         MN.ATM = (9.34907e-006*TM.GRD + 0.02171)*(MN$.UE + -7.93*TM.GRD + -1787): 
OTHER_13           .         GK.MKR/H = LM. / 42.4676      : 
OTHER_14           .         GK.FLT = 0.1*GK.MKR/H[-1] + (1-0.1)*GK.MKR/H[0]: 
OTHER_2            .         Kedr.exe версия 3.4.2.51      : 
OTHER_3            .         KedrData.dll версия 3.4.2.24  : 
OTHER_4            .         Драйвер версия 2.1.1.3        : 
OTHER_5            .         Мнемоники версия 3.3 S        : 
OTHER_6            .         Прибор_ КСА-Т4                : 
OTHER_7            .         Номер прибора_ 03             : 
OTHER_8            .         Режим_ КСА-Т4                 : 
OTHER_9            .         Форма_ КВА.                   : 
PR                 .                                       : 
PROJECT_UPGRADE_TIME .         2021-03-18T21_24_49           : 
PRTY               .         ПП-603-1                      : N партии
SRV                .                                       : 
SRVC               .         Карпов                        : Начальник партии
TLFamily_DEPT      .         Measured Depth                : 
TLFamily_LM        .         Casing Collar locator         : 
TLFamily_MN        .                                       : 
TLFamily_TM        .         Temperature                   : 
group              .         second                        : 
~Curve Information
#_______________________________________________________________________________
#
#LOGNAME           .UNIT     LOG_ID                        : DESCRIPTION
#_______________________________________________________________________________
DEPT               .M                                      : Depth curve 
LM                 .е.ацп                                  : Локатор муфт,е.ацп 
MN                 .атм                                    : Манометрия, атм 
TM                 .град.C                                 : Термограмма по стволу скважины,град.C 
~Ascii
# ...
2704.000036 191.989    327.273    55.842    
2704.200036 172.005    327.994    55.842    
2704.400036 165.002    328.113    55.838    
2704.600036 160.001    328.526    55.838    
2704.800037 162.999    328.633    55.834    
2705.000037 178.996    328.073    55.834    
2705.200037 148.007    328.275    55.834    
2705.400037 167.995    327.914    55.828    
2705.600037 141.007    328.604    55.83     
2705.800038 143.999    329.21     55.826    
2706.000038 109.008    328.741    55.826    
2706.200038 117.998    329.193    55.822    
2706.400038 172.987    327.489    55.822    
2706.600038 157.004    328.529    55.817    
2706.800039 162.999    329.121    55.817    
2707.000039 158.001    329.239    55.813    
2707.200039 139.005    328.927    55.809    
2707.400039 179.99     326.997    55.805    
2707.600039 144.009    329.096    55.805    
2707.80004 155.997    328.649    55.805    
2708.00004 169.997    329.025    55.8      
2708.20004 170        328.675    55.793    
2708.40004 166.001    327.406    55.793    
2708.60004 163.001    329.173    55.789    
2708.800041 151.003    328.367    55.787    
2709.000041 140.003    328.929    55.781    
2709.200041 200.985    329.02     55.774    
2709.400041 185.004    328.347    55.777    
2709.600041 130.013    329.137    55.77     
2709.800042 145.996    328.178    55.769    
2710.000042 134.003    329.062    55.765    
2710.200042 152.995    329.628    55.761    
2710.400042 142.003    329.098    55.757    
2710.600042 208.984    329.666    55.753    
2710.800043 173.009    328.713    55.749    
2711.000043 178.999    329.529    55.749    
2711.200043 183.999    328.178    55.749    
2711.400043 147.009    328.929    55.749    
2711.600043 131.004    329.33     55.749    
2711.800044 143.997    329.245    55.744    
2712.000044 126.004    329.581    55.741    
2712.200044 141.996    327.756    55.733    
2712.400044 103.009    329.163    55.725    
2712.600044 142.99     329.346    55.725    
2712.800045 124.005    329.515    55.722    
2713.000045 164.99     329.463    55.721    
2713.200045 261.977    327.994    55.721    
2713.400045 1733.646   329.218    55.721    
2713.600045 700.249    329.208    55.717    
2713.800046 246.109    329.721    55.713    
2714.000046 162.02     329.494    55.713    
2714.200046 166.999    328.512    55.709    
2714.400046 196.993    330.054    55.705    
2714.600046 160.009    328.851    55.699    
2714.800047 191.992    329.792    55.697    
2715.000047 198.998    329.769    55.693    
2715.200047 231.992    329.046    55.693    
2715.400047 219.003    329.651    55.689    
2715.600047 221.999    328.446    55.684    
2715.800048 171.012    329.765    55.681    
2716.000048 133.009    330.376    55.68     
2716.200048 154.995    329.7      55.683    
2716.400048 179.994    329.565    55.684    
2716.600048 210.993    329.024    55.677    
2716.800049 195.004    329.543    55.672    
2717.000049 164.007    329.718    55.668    
2717.200049 198.992    329.977    55.66     
2717.400049 187.003    329.847    55.656    
2717.600049 200.997    329.332    55.656    
2717.80005 188.003    329.995    55.656    
2718.00005 187        329.133    55.656    
2718.20005 153.008    329.971    55.652    
2718.40005 165.997    330.502    55.644    
2718.60005 169.999    329.863    55.64     
2718.800051 178.998    330.266    55.64     
2719.000051 186.998    329.041    55.634    
2719.200051 169.004    329.855    55.629    
2719.400051 165.001    330.534    55.632    
2719.600051 160.001    330.197    55.628    
2719.800052 157.001    330.429    55.624    
2720.000052 145.003    328.912    55.62     
2720.200052 157.997    329.975    55.612    
2720.400052 182.994    328.959    55.608    
2720.600052 162.005    330.103    55.608    
2720.800053 165.999    330.683    55.607    
2721.000053 139.006    330.083    55.6      
2721.200053 198.986    329.917    55.596    
2721.400053 179.005    329.254    55.592    
2721.600053 179        330.072    55.588    
2721.800054 212.992    330.374    55.584    
2722.000054 187.006    330.414    55.584    
2722.200054 221.992    330.529    55.582    
2722.400054 256.992    329.687    55.58     
2722.600054 195.015    330.281    55.58     
2722.800055 251.986    329.634    55.575    
2723.000055 213.009    330.706    55.572    
2723.200055 196.004    331.03     55.568    
2723.400055 249.987    329.992    55.564    
2723.600055 260.997    330.369    55.56     
2723.800056 452.954    329.585    55.547    
2724.000056 420.008    330.449    55.547    
2724.200056 1156.823   330.869    55.554    
2724.400056 732.102    330.629    55.56     
2724.600056 321.099    330.614    55.558    
2724.800057 281.01     329.785    55.551    
2725.000057 247.008    330.63     55.547    
2725.200057 267.995    330.408    55.543    
2725.400057 263.001    330.794    55.531    
2725.600057 222.01     330.972    55.523    
2725.800058 264.99     330.558    55.525    
2726.000058 346.98     331.166    55.523    
2726.200058 273.018    330.072    55.523    
2726.400058 212.015    330.672    55.523    
2726.600058 231.995    331.428    55.523    
2726.800059 203.007    330.937    55.519    
2727.000059 282.981    331.783    55.514    
2727.200059 255.007    329.728    55.5      
2727.400059 402.965    330.454    55.507    
2727.600059 398.001    331.268    55.503    
2727.80006 260.033    331.605    55.503    
2728.00006 279.995    331.307    55.503    
2728.20006 255.006    329.254    55.503    
2728.40006 193.015    331.554    55.499    
2728.60006 212.995    330.939    55.495    
2728.800061 263.988    331.416    55.495    
2729.000061 271.998    331.163    55.491    
2729.200061 280.998    329.758    55.491    
2729.400061 232.012    332.169    55.491    
2729.600061 284.987    330.503    55.489    
2729.800062 333.988    331.295    55.487    
2730.000062 352.995    331.464    55.483    
2730.200062 305.011    331.763    55.483    
2730.400062 1110.807   331.351    55.48     
2730.600062 831.067    330.717    55.478    
2730.800063 439.094    331.068    55.426    
2731.000063 340.024    330.935    55.362    
2731.200063 272.016    331.54     55.188    
2731.400063 238.008    332.126    54.557    
2731.600063 217.005    331.456    53.932    
2731.800064 191.006    331.634    53.319    
2732.000064 190        330.529    52.815    
2732.200064 240.988    332.147    52.367    
2732.400064 251.997    332.304    51.94     
2732.600064 223.007    331.813    51.614    
2732.800065 227.999    332.456    50.969    
2733.000065 198.007    330.888    50.667    
2733.200065 210.997    332.055    50.772    
2733.400065 272.985    331.869    51.183    
2733.600065 304.992    332.031    51.429    
2733.800066 300.001    332.111    51.465    
2734.000066 278.005    330.495    51.438    
2734.200066 217.015    332.809    51.38     
2734.400066 267.988    331.163    51.35     
2734.600066 233.008    331.774    51.329    
2734.800067 193.01     332.695    51.309    
2735.000067 199.998    332.617    51.231    
2735.200067 220.995    332.928    51.141    
2735.400067 4582.957   331.125    51.067    
2735.600067 2942.393   332.482    51.076    
2735.800068 521.579    332.785    51.09     
2736.000068 275.059    333.059    51.121    
2736.200068 248.006    332.905    51.173    
2736.400068 244.001    331.056    51.194    
2736.600068 214.007    333.43     51.207    
2736.800069 236.995    332.515    51.214    
2737.000069 230.002    333.371    51.247    
2737.200069 213.004    333.179    51.326    
2737.400069 256.989    332.092    51.426    
2737.600069 247.002    334.17     51.472    
2737.80007 253.998    332.334    51.54     
2738.00007 211.01     333.064    51.653    
2738.20007 259.988    333.643    51.794    
2738.40007 290.993    333.286    51.909    
2738.60007 246.011    334.222    52.007    
2738.800071 247        332.092    52.062    
2739.000071 233.003    333.184    51.998    
2739.200071 252.995    333.851    51.844    
2739.400071 248.001    334.009    51.636    
2739.600071 251.999    333.204    51.401    
