~Version
 VERS              .         2.0                           : CWLS LOG ASCII STANDARD - VERSION 2.0
 WRAP              .         NO                            : ONE LINE PER DEPTH STEP
 DLM               .         SPACE                         : DELIMITING CHARACTER(SPACE TAB OR COMMA)
~Well Information
#_______________________________________________________________________________
#
#PARAMETER_NAME    .UNIT     VALUE                         : DESCRIPTION
#_______________________________________________________________________________
STRT               .M        2650.4                        : First reference value
STOP               .M        2757.800161                   : Last reference value
STEP               .M        0.2000003                     : Step increment
NULL               .         -9999                         : Missing value
COMP               .                                       : Company
WELL               .         616                           : Well name
FLD                .                                       : Field
LOC                .                                       : Location
CNTY               .                                       : County
STAT               .                                       : State
CTRY               .                                       : Country
SRVC               .                                       : Service Company
DATE               .                                       : Date
API                .                                       : API number
PROJECT_UPGRADE_TIME .         2021-03-18T21_24_50           : 
group              .         Good                          : 
~Parameter Information Block
#_______________________________________________________________________________
#
#PARAMETER_NAME    .UNIT     VALUE                         : DESCRIPTION
#_______________________________________________________________________________
SET                .         D4412_D                       : 
OTHER              .         Запись производится в присутствии: 
OTHER_10           .         Максимальная температура      : 
OTHER_11           .         Тип промывочной жидкости      : 
OTHER_12           .         Сопротивление ПЖ (Ом*м) при 20°C: 
OTHER_13           .         Плотность ПЖ(г/см3)           : 
OTHER_14           .         Вязкость ПЖ(с)                : 
OTHER_15           .         Водоотдача ПЖ(см3/30мин)      : 
OTHER_16           .         Уровень ПЖ                    : 
OTHER_17           .         Нефть ПЖ (%)                  : 
OTHER_18           .         Барит ПЖ (%)                  : 
OTHER_19           .         Гематит ПЖ (%)                : 
OTHER_2            .         Заказчик ННСН  ЦДНГ-1         : 
OTHER_20           .         КМЦ ПЖ (%)                    : 
OTHER_21           .         Разгазирование ПЖ (да,нет)    : 
OTHER_22           .         Подъемник                     : 
OTHER_23           .         Лаборатория                   : 
OTHER_24           .         Тип кабеля                    : 
OTHER_25           .         Длина кабеля (м)              : 
OTHER_26           .         Цена последней метки          : 
OTHER_27           .         Цена контрольной метки        : 
OTHER_28           .         Диаметр долота (мм)           : 
OTHER_29           .         Глубина бурения (м)           : 
OTHER_3            .         Площадь                       : 
OTHER_30           .         Искусственный забой (м)       : 
OTHER_31           .         Диаметр колонны (мм)          : 
OTHER_32           .         Толщина колонны (мм)          : 
OTHER_33           .         Башмак колонны (м)            : 
OTHER_34           .         Диаметр НКТ (мм)              : 
OTHER_35           .         Толщина НКТ (мм)              : 
OTHER_36           .         Воронка НКТ (м)               : 
OTHER_37           .         Дата цементожа                : 
OTHER_38           .         Тип, количество(т) и плотность цемента: 
OTHER_39           .         Интервалы перфорации (м)      : 
OTHER_4            .         Категория                     : 
OTHER_40           .         Направление, диаметр (мм)     : 
OTHER_41           .         Направление, глубина (м)      : 
OTHER_42           .         Кондуктор, диаметр (мм)       : 
OTHER_43           .         Кондуктор, глубина (м)        : 
OTHER_44           .         Техническая колонна, диаметр (мм): 
OTHER_45           .         Техническая колонна, глубина (м): 
OTHER_46           .         Эксплуатационная колонна, диаметр (мм): 
OTHER_47           .         Эксплуатационная колонна, глубина (м): 
OTHER_48           .         Программа Кедр-02 версия 3.4  : 
OTHER_49           .         Операционная система Windows NT 5.1 build 2600 Service Pack 2: 
OTHER_5            .         Назначение исследований       : 
OTHER_50           .         Программное обеспечение станции MONITOR-386EX 25/12/99 15_08_10   BGF V54 20/09/05 15_32_17   3.3__BGF_9030071: 
OTHER_51           .         Kedr.exe версия 3.4.2.74      : 
OTHER_52           .         KedrData.dll версия 3.4.2.29  : 
OTHER_53           .         Мнемоники версия 3.18 S       : 
OTHER_54           .         Драйвер версия 2.1.1.4        : 
OTHER_55           .         LasInf.dll 4.3.0.35           : 
OTHER_56           .         Прибор_ КСА-Т4                : 
OTHER_57           .         Номер прибора_ 160            : 
OTHER_58           .         Режим_ КСА-Т4                 : 
OTHER_59           .         Форма_ С.А.Б.                 : 
OTHER_6            .         Альтитуда стола ротора        : 
OTHER_60           .         Тарировки_                    : 
OTHER_61           .         <_techsia_sc_> Дата тарировки температуры 25.05.2010: 
OTHER_62           .         Ручной ввод коэффициентов     : 
OTHER_63           .         TM.DEGC = 0.00402*RTM.E.ACP + -0.994: 
OTHER_64           .         <_techsia_sc_> Дата тарировки давления 25.05.2010: 
OTHER_65           .         Ручной ввод коэффициентов     : 
OTHER_66           .         MN.ATM = (2.27521e-006*TM.DEGC + 0.02078)*(RMN.E.ACP + 6.2*TM.DEGC + -1688): 
OTHER_67           .         <_techsia_sc_> Дата тарировки ГК 25.05.2010: 
OTHER_68           .         Ручной ввод коэффициентов     : 
OTHER_69           .         GR.UR/H = RGR.IMP/MIN / 45.5144: 
OTHER_7            .         Вид исследований 3  6         : 
OTHER_70           .         GK.FLT = 0.1*GR.UR/H[-1] + (1-0.1)*GR.UR/H[0]: 
OTHER_8            .         Начало бурения интервала каротажа: 
OTHER_9            .         Окончание бурения интервала каротажа: 
PROJECT_UPGRADE_TIME .         2021-03-18T21_24_50           : 
TLFamily_CCLC      .                                       : 
TLFamily_DEPT      .         Measured Depth                : 
TLFamily_GK        .         Gamma Ray                     : 
TLFamily_GR        .         Gamma Ray                     : 
TLFamily_METKA     .                                       : 
TLFamily_MN        .                                       : 
TLFamily_RCOR      .                                       : 
TLFamily_RGR       .                                       : 
TLFamily_RMN       .                                       : 
TLFamily_RTEN      .                                       : 
TLFamily_RTM       .                                       : 
TLFamily_SPEE      .         Cable Speed                   : 
TLFamily_TIME      .         Time                          : 
TLFamily_TM        .         Temperature                   : 
group              .         prim                          : 
~Curve Information
#_______________________________________________________________________________
#
#LOGNAME           .UNIT     LOG_ID                        : DESCRIPTION
#_______________________________________________________________________________
DEPT               .M                                      : 1 Глубина, м -    0.0 см 
CCLC               .E.ACP                                  : 9 Локатор муфт,  -   20.0 см 
GK                 .FLT                                    : 14 Гамма-активность фильтрованная, мкр./ч -  110.0 см 
GR                 .UR/H                                   : 13 Гамма-активность, мкр./ч -  110.0 см 
METKA              .CU                                     : 3 Метки,  -    0.0 см 
MN                 .ATM                                    : 12 Давление, атм. -  160.0 см 
RCOR               .CM/KM                                  : 5 Коррекция по ролику, см/км -    0.0 см 
RGR                .IMP/MIN                                : 10 Гамма-активность, усл.ед. -  110.0 см 
RMN                .E.ACP                                  : 8 Давление, усл.ед. -  160.0 см 
RTEN               .T                                      : 6 Натяжение кабеля, т -    0.0 см 
RTM                .E.ACP                                  : 7 Температура, усл.ед. -  170.0 см 
SPEE               .M/H                                    : 2 Скорость, м/час -    0.0 см 
TIME               .S                                      : 4 Время, сек -    0.0 см 
TM                 .DEGC                                   : 11 Температура, °C -  170.0 см 
~Ascii
2650.3999023 -9999      -9999      -9999      -9999      -9999      -9999      -9999      -9999      -9999      -9999      -9999      -9999      -9999     
2650.6     -9999      -9999      -9999      0          -9999      -1094      -9999      -9999      0.37       -9999      4          0.53       -9999     
2650.800001 28         -9999      -9999      0          -9999      -1094      -9999      -9999      0.26       -9999      137        2.53       -9999     
2651.000001 29         -9999      -9999      0          -9999      -1094      -9999      -9999      0.24       -9999      231        4.2        -9999     
2651.200001 28         -9999      -9999      0          -9999      -1094      -9999      -9999      0.2        -9999      315        5.7        -9999     
2651.400002 28         -9999      -9999      0          -9999      -1094      -9999      -9999      0.2        -9999      373        7.11       -9999     
2651.600002 490        -9999      -9999      0          -9999      -1094      -9999      -9999      0.19       -9999      423        8.38       -9999     
2651.800002 847        8.02       8.02       0          -9999      -1094      365        -9999      0.19       -9999      465        9.66       -9999     
2652.000002 874        7.76       7.76       0          -9999      -1094      353        -9999      0.19       -9999      498        10.94      -9999     
2652.200003 1186       7.6        7.6        0          365.375    -1094      346        18749      0.19       -9999      522        12.19      -9999     
2652.400003 886        7.49       7.49       0          365.422    -1094      341        18751      0.2        16256      539        13.4       64.355    
2652.600003 1332       6.94       6.94       0          365.584    -1094      316        18759      0.2        16256      553        14.66      64.353    
2652.800004 1215       6.94       6.94       0          365.636    -1094      316        18761      0.2        16255      564        15.87      64.351    
2653.000004 1263       7.23       7.23       0          365.797    -1094      329        18769      0.2        16255      571        17.1       64.351    
2653.200004 1083       7.23       7.23       0          365.836    -1094      329        18771      0.2        16257      576        18.32      64.358    
2653.400005 1084       8.04       8.04       0          365.896    -1094      366        18774      0.2        16257      580        19.56      64.359    
2653.600005 977        8.04       8.04       0          366.011    -1094      366        18779      0.2        16257      583        20.75      64.359    
2653.800005 908        7.78       7.78       0          366.097    -1094      354        18783      0.2        16258      587        22.03      64.362    
2654.000005 661        7.78       7.78       0          366.152    -1094      354        18786      0.2        16259      587        23.24      64.367    
2654.200006 642        7.27       7.27       0          366.188    -1094      331        18788      0.2        16260      590        24.45      64.372    
2654.400006 855        7.27       7.27       0          366.28     -1094      331        18792      0.2        16262      590        25.66      64.381    
2654.600006 901        7.87       7.87       0          366.313    -1094      358        18793      0.2        16265      590        26.9       64.39     
2654.800007 966        7.87       7.87       0          366.416    -1094      358        18798      0.2        16267      589        28.16      64.399    
2655.000007 745        8.52       8.52       0          366.389    -1094      388        18797      0.2        16268      587        29.38      64.403    
2655.200007 700        8.52       8.52       0          366.403    -1094      388        18798      0.2        16270      586        30.62      64.411    
2655.400007 731        8.58       8.58       0          366.453    -1094      391        18800      0.2        16270      585        31.87      64.413    
2655.600008 560        8.59       8.59       0          366.488    -1094      391        18802      0.2        16272      581        33.14      64.418    
2655.800008 635        8.72       8.72       0          366.405    -1094      397        18798      0.2        16273      577        34.45      64.422    
2656.000008 558        8.72       8.72       2          366.371    -1094      397        18796      0.2        16273      572        35.59      64.423    
2656.200009 581        8.91       8.91       0          366.407    -1094      405        18798      0.2        16274      570        36.72      64.427    
2656.400009 571        8.94       8.94       0          366.434    -1094      407        18799      0.2        16274      568        38.05      64.427    
2656.600009 581        8.94       8.94       0          366.414    -1094      407        18798      0.2        16274      568        39.34      64.429    
2656.80001 558        8.94       8.94       0          366.443    -1094      407        18799      0.2        16275      567        40.62      64.432    
2657.00001 752        8.17       8.17       0          366.471    -1094      372        18801      0.2        16276      566        41.86      64.436    
2657.20001 4151       8.17       8.17       0          366.541    -1094      372        18804      0.2        16277      567        43.13      64.44     
2657.400011 1322       6.92       6.92       0          366.571    -1094      315        18805      0.2        16278      567        44.47      64.444    
2657.600011 706        6.92       6.92       0          366.542    -1094      315        18804      0.2        16279      566        45.75      64.448    
2657.800011 645        7.01       7.01       0          366.599    -1094      319        18807      0.2        16280      567        47.01      64.452    
2658.000011 655        7.03       7.03       0          366.644    -1094      320        18809      0.2        16281      568        48.24      64.456    
2658.200012 697        7.34       7.34       0          366.628    -1094      334        18808      0.2        16282      568        49.56      64.46     
2658.400012 621        7.34       7.34       0          366.618    -1094      334        18808      0.2        16283      569        50.85      64.464    
2658.600012 718        6.55       6.55       0          366.645    -1094      298        18809      0.2        16284      569        52.07      64.468    
2658.800013 549        6.55       6.55       0          366.693    -1094      298        18811      0.2        16285      571        53.34      64.473    
2659.000013 665        6.64       6.64       0          366.663    -1094      302        18809      0.2        16287      572        54.57      64.479    
2659.200013 614        6.64       6.64       0          366.65     -1094      302        18809      0.2        16288      571        55.9       64.484    
2659.400014 595        6.68       6.68       0          366.678    -1094      304        18810      0.2        16289      570        57.18      64.489    
2659.600014 513        6.68       6.68       0          366.697    -1094      304        18811      0.2        16291      570        58.4       64.496    
2659.800014 461        7.27       7.27       0          366.681    -1094      331        18810      0.2        16291      570        59.67      64.496    
2660.000014 503        7.27       7.27       0          366.677    -1094      331        18810      0.2        16292      571        60.99      64.5      
2660.200015 548        8          8          0          366.705    -1094      364        18811      0.2        16293      571        62.23      64.504    
2660.400015 366        8          8          0          366.755    -1094      364        18814      0.2        16294      571        63.51      64.508    
2660.600015 521        7.49       7.49       0          366.801    -1094      341        18816      0.2        16294      553        64.97      64.508    
