~Version
 VERS              .         2.0                           : CWLS LOG ASCII STANDARD - VERSION 2.0
 WRAP              .         NO                            : ONE LINE PER DEPTH STEP
 DLM               .         SPACE                         : DELIMITING CHARACTER(SPACE TAB OR COMMA)
~Well Information
#_______________________________________________________________________________
#
#PARAMETER_NAME    .UNIT     VALUE                         : DESCRIPTION
#_______________________________________________________________________________
STRT               .M        1740.47                       : First reference value
STOP               .M        2787.78                       : Last reference value
STEP               .M        0                             : Step increment
NULL               .         -9999                         : Missing value
COMP               .                                       : Company
WELL               .         616                           : Well name
FLD                .                                       : Field
LOC                .                                       : Location
CNTY               .                                       : County
STAT               .                                       : State
CTRY               .                                       : Country
SRVC               .                                       : Service Company
DATE               .                                       : Date
API                .                                       : API number
PROJECT_UPGRADE_TIME .         2021-03-18T21_24_50           : 
group              .         Good                          : 
~Parameter Information Block
#_______________________________________________________________________________
#
#PARAMETER_NAME    .UNIT     VALUE                         : DESCRIPTION
#_______________________________________________________________________________
SET                .         D2664                         : 
NPR                .         980607                        : ЗАВ НОМЕР ПРИБОРА
NPRT               .         Мещеряков                     : НАЧ ПАРТИИ
PROJECT_UPGRADE_TIME .         2021-03-18T21_24_50           : 
TLFamily_AZIMUTH   .         True Dip Azimuth              : 
TLFamily_DEPTH     .         Measured Depth                : 
TLFamily_DRILL     .                                       : 
TLFamily_METKA     .                                       : 
TLFamily_ZENIT     .                                       : 
group              .         prim                          : 
~Curve Information
#_______________________________________________________________________________
#
#LOGNAME           .UNIT     LOG_ID                        : DESCRIPTION
#_______________________________________________________________________________
DEPTH              .M                                      : 1 ГЛУБИНА 
AZIMUTH            .ГРАД                                   : 4 АЗИМУТ 
DRILL              .ГРАД                                   : 2 ПОВОРОТ 
METKA              .                                       : 5 МАГН МЕТКА 
ZENIT              .ГРАД                                   : 3 ЗЕНИТ 
~Ascii
# ...
2725.06    44.5       39.03      0          1.06      
2725.25    44.83      37.4       0          1.05      
2725.44    45.14      35.66      0          1.04      
2725.63    45.52      33.71      0          1.02      
2725.82    45.95      31.62      0          1.01      
2726.01    46.29      29.43      0          0.99      
2726.2     46.71      27.04      0          0.97      
2726.39    46.95      24.65      0          0.95      
2726.58    47.03      22.24      0          0.94      
2726.77    47.08      19.71      0          0.92      
2726.96    47         17.17      0          0.9       
2727.16    46.75      14.65      0          0.89      
2727.35    46.56      11.94      0          0.87      
2727.54    46.4       9.09       0          0.85      
2727.73    46.21      6.15       0          0.84      
2727.92    46.19      2.99       0          0.83      
2728.11    46.18      359.72     0          0.82      
2728.3     46.3       356.27     0          0.8       
2728.49    46.57      352.67     0          0.79      
2728.68    46.92      348.94     0          0.78      
2728.87    47.35      345.05     0          0.77      
2729.06    47.78      341.08     0          0.76      
2729.25    48.31      337.03     0          0.76      
2729.44    48.79      332.97     0          0.75      
2729.64    49.18      328.94     0          0.74      
2729.82    49.55      324.91     0          0.73      
2730.01    49.84      320.92     0          0.72      
2730.2     49.98      317.01     0          0.71      
2730.39    50.1       313.11     0          0.7       
2730.58    50.17      309.21     0          0.69      
2730.77    50.15      305.32     0          0.69      
2730.96    49.75      301.43     0          0.69      
2731.15    49.53      297.52     0          0.69      
2731.34    49.31      293.55     0          0.69      
2731.53    49.1       289.49     0          0.69      
2731.72    49.06      285.25     0          0.69      
2731.91    48.9       281.03     0          0.7       
2732.1     48.98      276.56     0          0.7       
2732.29    49.22      271.93     0          0.7       
2732.48    49.4       267.19     0          0.71      
2732.67    49.83      262.3      0          0.71      
2732.86    50.39      257.25     0          0.72      
2733.04    50.84      252.13     0          0.72      
2733.23    51.38      246.92     0          0.72      
2733.42    51.93      241.63     0          0.73      
2733.61    52.3       236.28     0          0.73      
2733.8     52.73      230.84     0          0.73      
2733.98    53.04      225.26     0          0.73      
2734.17    53.31      219.59     0          0.73      
2734.36    53.5       213.78     0          0.74      
2734.55    53.7       207.7      0          0.74      
2734.73    54.04      201.4      0          0.74      
2734.92    54.42      194.93     0          0.74      
2735.11    54.87      188.25     0          0.75      
2735.29    55.47      181.41     0          0.75      
2735.48    56.18      174.37     0          0.76      
2735.67    56.83      167.06     0          0.77      
2735.86    57.61      159.55     0          0.78      
2736.04    58.51      152.06     0          0.79      
2736.23    59.52      144.57     0          0.79      
2736.42    60.51      136.92     0          0.8       
2736.6     61.7       128.92     0          0.81      
2736.79    62.59      120.54     0          0.82      
2736.98    63.47      112.05     0          0.83      
2737.16    64.26      103.07     0          0.84      
2737.35    64.86      93.35      0          0.85      
2737.54    65.49      83.3       0          0.86      
2737.72    65.99      72.65      0          0.87      
2737.91    66.39      61.44      0          0.88      
2738.09    66.82      50.32      0          0.89      
2738.28    67.06      38.98      0          0.9       
2738.46    67.27      27.98      0          0.91      
2738.65    67.52      17.7       0          0.92      
2738.84    67.67      7.93       0          0.93      
2739.02    67.78      358.74     0          0.95      
2739.21    67.94      350.21     0          0.95      
2739.4     68.03      342        0          0.96      
2739.58    68.14      334.31     0          0.97      
2739.77    68.13      326.87     0          0.98      
2739.95    68.09      319.73     0          0.99      
2740.14    68.21      313.07     0          1         
2740.32    68.19      306.46     0          1.01      
2740.51    68.14      299.97     0          1.01      
2740.69    68.12      293.7      0          1.02      
2740.88    67.97      287.39     0          1.03      
2741.06    67.81      281.32     0          1.04      
2741.25    67.6       275.46     0          1.04      
2741.43    67.44      269.97     0          1.05      
2741.62    67.16      264.6      0          1.06      
2741.8     66.92      259.72     0          1.06      
2741.99    66.69      255.27     0          1.07      
2742.17    66.55      251.49     0          1.07      
2742.36    66.59      248.85     0          1.08      
2742.54    66.54      247.44     0          1.08      
2742.73    66.45      247.15     0          1.08      
2742.91    66.35      247.81     0          1.08      
2743.1     66.15      249.44     0          1.08      
2743.28    65.85      251.73     0          1.09      
2743.47    65.54      254.04     0          1.09      
2743.65    65.24      255.61     0          1.09      
2743.84    64.92      256.13     0          1.1       
2744.02    64.61      254.78     0          1.1       
2744.21    64.32      251.45     0          1.1       
2744.39    64.12      245.64     0          1.11      
2744.58    63.98      237.73     0          1.11      
2744.76    63.86      228.11     0          1.12      
2744.94    63.76      216.43     0          1.12      
2745.13    63.66      202.53     0          1.12      
2745.32    63.65      185.51     0          1.13      
2745.5     63.61      165.97     0          1.14      
2745.69    63.5       144.73     0          1.14      
2745.87    63.41      122.55     0          1.15      
2746.06    63.35      100.64     0          1.15      
2746.24    63.32      79.66      0          1.16      
2746.43    63.5       59.45      0          1.16      
2746.62    63.71      40.6       0          1.17      
2746.8     63.95      23.16      0          1.18      
2746.99    64.08      7.04       0          1.19      
2747.17    64.21      351.91     0          1.2       
2747.36    64.18      337.55     0          1.21      
2747.54    64.13      323.65     0          1.23      
2747.73    64.06      310.06     0          1.24      
2747.92    63.95      296.62     0          1.25      
2748.1     63.9       283.13     0          1.26      
2748.29    63.98      269.43     0          1.27      
2748.47    64.14      255.41     0          1.28      
2748.66    64.38      240.98     0          1.29      
2748.84    64.68      225.92     0          1.3       
2749.03    65.12      210.41     0          1.3       
2749.22    65.74      194.6      0          1.31      
2749.4     66.61      179.07     0          1.31      
2749.59    67.59      163.76     0          1.32      
2749.77    68.5       147.66     0          1.33      
2749.96    69.3       129.92     0          1.34      
2750.14    69.93      107.8      0          1.35      
2750.33    70.52      76.96      0          1.36      
2750.51    71.14      26.77      0          1.37      
2750.7     71.92      338.14     0          1.38      
2750.88    72.71      306.77     0          1.39      
2751.06    73.5       288.72     0          1.4       
2751.25    74.15      276.08     0          1.41      
2751.43    74.86      274.13     0          1.42      
2751.62    75.63      281.17     0          1.43      
2751.8     76.52      288.18     0          1.43      
2751.99    77.36      285.77     0          1.44      
2752.17    78.04      278.1      0          1.46      
