~Version
 VERS              .         2.0                           : CWLS LOG ASCII STANDARD - VERSION 2.0
 WRAP              .         NO                            : ONE LINE PER DEPTH STEP
 DLM               .         SPACE                         : DELIMITING CHARACTER(SPACE TAB OR COMMA)
~Well Information
#_______________________________________________________________________________
#
#PARAMETER_NAME    .UNIT     VALUE                         : DESCRIPTION
#_______________________________________________________________________________
STRT               .M        2650.4                        : First reference value
STOP               .M        2757.800161                   : Last reference value
STEP               .M        0.2000003                     : Step increment
NULL               .         -9999                         : Missing value
COMP               .                                       : Company
WELL               .         616                           : Well name
FLD                .                                       : Field
LOC                .                                       : Location
CNTY               .                                       : County
STAT               .                                       : State
CTRY               .                                       : Country
SRVC               .                                       : Service Company
DATE               .                                       : Date
API                .                                       : API number
PROJECT_UPGRADE_TIME .         2021-03-18T21_24_50           : 
group              .         Good                          : 
~Parameter Information Block
#_______________________________________________________________________________
#
#PARAMETER_NAME    .UNIT     VALUE                         : DESCRIPTION
#_______________________________________________________________________________
SET                .         D4412_D                       : 
OTHER              .         Запись производится в присутствии: 
OTHER_10           .         Максимальная температура      : 
OTHER_11           .         Тип промывочной жидкости      : 
OTHER_12           .         Сопротивление ПЖ (Ом*м) при 20°C: 
OTHER_13           .         Плотность ПЖ(г/см3)           : 
OTHER_14           .         Вязкость ПЖ(с)                : 
OTHER_15           .         Водоотдача ПЖ(см3/30мин)      : 
OTHER_16           .         Уровень ПЖ                    : 
OTHER_17           .         Нефть ПЖ (%)                  : 
OTHER_18           .         Барит ПЖ (%)                  : 
OTHER_19           .         Гематит ПЖ (%)                : 
OTHER_2            .         Заказчик ННСН  ЦДНГ-1         : 
OTHER_20           .         КМЦ ПЖ (%)                    : 
OTHER_21           .         Разгазирование ПЖ (да,нет)    : 
OTHER_22           .         Подъемник                     : 
OTHER_23           .         Лаборатория                   : 
OTHER_24           .         Тип кабеля                    : 
OTHER_25           .         Длина кабеля (м)              : 
OTHER_26           .         Цена последней метки          : 
OTHER_27           .         Цена контрольной метки        : 
OTHER_28           .         Диаметр долота (мм)           : 
OTHER_29           .         Глубина бурения (м)           : 
OTHER_3            .         Площадь                       : 
OTHER_30           .         Искусственный забой (м)       : 
OTHER_31           .         Диаметр колонны (мм)          : 
OTHER_32           .         Толщина колонны (мм)          : 
OTHER_33           .         Башмак колонны (м)            : 
OTHER_34           .         Диаметр НКТ (мм)              : 
OTHER_35           .         Толщина НКТ (мм)              : 
OTHER_36           .         Воронка НКТ (м)               : 
OTHER_37           .         Дата цементожа                : 
OTHER_38           .         Тип, количество(т) и плотность цемента: 
OTHER_39           .         Интервалы перфорации (м)      : 
OTHER_4            .         Категория                     : 
OTHER_40           .         Направление, диаметр (мм)     : 
OTHER_41           .         Направление, глубина (м)      : 
OTHER_42           .         Кондуктор, диаметр (мм)       : 
OTHER_43           .         Кондуктор, глубина (м)        : 
OTHER_44           .         Техническая колонна, диаметр (мм): 
OTHER_45           .         Техническая колонна, глубина (м): 
OTHER_46           .         Эксплуатационная колонна, диаметр (мм): 
OTHER_47           .         Эксплуатационная колонна, глубина (м): 
OTHER_48           .         Программа Кедр-02 версия 3.4  : 
OTHER_49           .         Операционная система Windows NT 5.1 build 2600 Service Pack 2: 
OTHER_5            .         Назначение исследований       : 
OTHER_50           .         Программное обеспечение станции MONITOR-386EX 25/12/99 15_08_10   BGF V54 20/09/05 15_32_17   3.3__BGF_9030071: 
OTHER_51           .         Kedr.exe версия 3.4.2.74      : 
OTHER_52           .         KedrData.dll версия 3.4.2.29  : 
OTHER_53           .         Мнемоники версия 3.18 S       : 
OTHER_54           .         Драйвер версия 2.1.1.4        : 
OTHER_55           .         LasInf.dll 4.3.0.35           : 
OTHER_56           .         Прибор_ КСА-Т4                : 
OTHER_57           .         Номер прибора_ 160            : 
OTHER_58           .         Режим_ КСА-Т4                 : 
OTHER_59           .         Форма_ С.А.Б.                 : 
OTHER_6            .         Альтитуда стола ротора        : 
OTHER_60           .         Тарировки_                    : 
OTHER_61           .         <_techsia_sc_> Дата тарировки температуры 25.05.2010: 
OTHER_62           .         Ручной ввод коэффициентов     : 
OTHER_63           .         TM.DEGC = 0.00402*RTM.E.ACP + -0.994: 
OTHER_64           .         <_techsia_sc_> Дата тарировки давления 25.05.2010: 
OTHER_65           .         Ручной ввод коэффициентов     : 
OTHER_66           .         MN.ATM = (2.27521e-006*TM.DEGC + 0.02078)*(RMN.E.ACP + 6.2*TM.DEGC + -1688): 
OTHER_67           .         <_techsia_sc_> Дата тарировки ГК 25.05.2010: 
OTHER_68           .         Ручной ввод коэффициентов     : 
OTHER_69           .         GR.UR/H = RGR.IMP/MIN / 45.5144: 
OTHER_7            .         Вид исследований 3  6         : 
OTHER_70           .         GK.FLT = 0.1*GR.UR/H[-1] + (1-0.1)*GR.UR/H[0]: 
OTHER_8            .         Начало бурения интервала каротажа: 
OTHER_9            .         Окончание бурения интервала каротажа: 
PROJECT_UPGRADE_TIME .         2021-03-18T21_24_50           : 
TLFamily_CCLC      .                                       : 
TLFamily_DEPT      .         Measured Depth                : 
TLFamily_GK        .         Gamma Ray                     : 
TLFamily_GR        .         Gamma Ray                     : 
TLFamily_METKA     .                                       : 
TLFamily_MN        .                                       : 
TLFamily_RCOR      .                                       : 
TLFamily_RGR       .                                       : 
TLFamily_RMN       .                                       : 
TLFamily_RTEN      .                                       : 
TLFamily_RTM       .                                       : 
TLFamily_SPEE      .         Cable Speed                   : 
TLFamily_TIME      .         Time                          : 
TLFamily_TM        .         Temperature                   : 
group              .         prim                          : 
~Curve Information
#_______________________________________________________________________________
#
#LOGNAME           .UNIT     LOG_ID                        : DESCRIPTION
#_______________________________________________________________________________
DEPT               .M                                      : 1 Глубина, м -    0.0 см 
CCLC               .E.ACP                                  : 9 Локатор муфт,  -   20.0 см 
GK                 .FLT                                    : 14 Гамма-активность фильтрованная, мкр./ч -  110.0 см 
GR                 .UR/H                                   : 13 Гамма-активность, мкр./ч -  110.0 см 
METKA              .CU                                     : 3 Метки,  -    0.0 см 
MN                 .ATM                                    : 12 Давление, атм. -  160.0 см 
RCOR               .CM/KM                                  : 5 Коррекция по ролику, см/км -    0.0 см 
RGR                .IMP/MIN                                : 10 Гамма-активность, усл.ед. -  110.0 см 
RMN                .E.ACP                                  : 8 Давление, усл.ед. -  160.0 см 
RTEN               .T                                      : 6 Натяжение кабеля, т -    0.0 см 
RTM                .E.ACP                                  : 7 Температура, усл.ед. -  170.0 см 
SPEE               .M/H                                    : 2 Скорость, м/час -    0.0 см 
TIME               .S                                      : 4 Время, сек -    0.0 см 
TM                 .DEGC                                   : 11 Температура, °C -  170.0 см 
~Ascii
# ...
2712.800094 60         13.4       13.4       0          372.991    -1087      610        19111      0.2        16316      572        388.57     64.595    
2713.000094 76         12.52      12.52      0          373.009    -1087      570        19112      0.2        16314      573        389.9      64.588    
2713.200094 118        12.52      12.52      0          372.985    -1087      570        19111      0.2        16307      572        391.17     64.561    
2713.400095 102        11.34      11.34      0          373        -1087      516        19112      0.2        16304      573        392.39     64.548    
2713.600095 102        11.34      11.34      0          373.004    -1087      516        19112      0.2        16301      573        393.67     64.534    
2713.800095 54         12.48      12.48      0          373.071    -1087      568        19115      0.2        16298      573        395.01     64.524    
2714.000095 1852       12.48      12.48      0          373.118    -1087      568        19118      0.2        16296      574        396.23     64.516    
2714.200096 2211       10.9       10.9       0          373.12     -1087      496        19118      0.2        16295      574        397.45     64.511    
2714.400096 619        10.9       10.9       0          373.141    -1087      496        19119      0.2        16291      575        398.73     64.495    
2714.600096 208        8.11       8.11       0          373.139    -1087      369        19119      0.2        16287      573        399.95     64.48     
2714.800097 136        8.02       8.02       0          373.158    -1087      365        19120      0.2        16285      574        401.28     64.472    
2715.000097 97         7.56       7.56       0          373.139    -1087      344        19119      0.2        16283      574        402.49     64.465    
2715.200097 40         7.56       7.56       0          373.226    -1087      344        19123      0.2        16278      574        403.77     64.445    
2715.400097 29         7.54       7.54       0          373.174    -1087      343        19121      0.2        16276      573        405.04     64.436    
2715.600098 66         7.86       7.86       0          373.17     -1087      358        19121      0.2        16275      573        406.33     64.429    
2715.800098 96         8.52       8.52       0          373.16     -1087      388        19121      0.2        16268      573        407.61     64.405    
2716.000098 121        8.53       8.53       2          373.172    -1084      388        19121      0.2        16264      573        408.68     64.387    
2716.200099 82         12.44      12.44      0          373.183    -1083      566        19122      0.2        16264      572        409.84     64.387    
2716.400099 86         12.44      12.44      0          373.159    -1083      566        19121      0.2        16264      573        411.13     64.387    
2716.600099 107        13.36      13.36      0          373.124    -1083      608        19119      0.2        16265      572        412.43     64.391    
2716.8001  62         12.94      12.94      0          373.145    -1083      589        19120      0.2        16264      572        413.67     64.387    
2717.0001  60         10.79      10.79      0          373.167    -1083      491        19121      0.2        16263      574        414.95     64.385    
2717.2001  75         10.79      10.79      0          373.171    -1083      491        19121      0.2        16259      573        416.16     64.369    
2717.400101 66         10         10         0          373.157    -1083      455        19121      0.2        16256      573        417.49     64.354    
2717.600101 44         10         10         0          373.135    -1083      455        19120      0.2        16251      573        418.73     64.333    
2717.800101 49         10.5       10.5       0          373.154    -1083      478        19121      0.2        16248      573        420        64.323    
2718.000101 70         10.5       10.5       0          373.129    -1083      478        19120      0.2        16245      573        421.21     64.312    
2718.200102 97         10.55      10.55      0          373.12     -1083      480        19120      0.2        16240      574        422.49     64.292    
2718.400102 120        10.55      10.55      0          373.087    -1083      480        19118      0.2        16240      574        423.77     64.291    
2718.600102 93         10.77      10.77      0          373.088    -1083      490        19118      0.2        16242      574        425.05     64.299    
2718.800103 88         10.77      10.77      0          373.087    -1083      490        19118      0.2        16242      574        426.29     64.299    
2719.000103 130        10.59      10.59      0          373.063    -1083      482        19117      0.2        16240      574        427.53     64.291    
2719.200103 150        10.59      10.59      0          373.098    -1083      482        19119      0.2        16233      575        428.81     64.262    
2719.400104 77         9.58       9.58       0          373.119    -1083      436        19120      0.2        16229      574        430.09     64.247    
2719.600104 149        9.58       9.58       0          373.124    -1083      436        19120      0.2        16225      574        431.37     64.231    
2719.800104 95         9.82       9.82       0          373.155    -1083      447        19122      0.2        16221      574        432.58     64.214    
2720.000104 56         9.96       9.96       0          373.197    -1083      453        19124      0.2        16218      574        433.86     64.202    
2720.200105 79         10.66      10.66      0          373.26     -1083      485        19127      0.2        16218      574        435.14     64.202    
2720.400105 141        10.66      10.66      0          373.3      -1083      485        19129      0.2        16218      573        436.41     64.202    
2720.600105 102        11.25      11.25      0          373.314    -1083      512        19130      0.2        16213      572        437.67     64.182    
2720.800106 66         11.02      11.02      0          373.341    -1083      502        19131      0.2        16211      573        438.91     64.172    
2721.000106 117        10.57      10.57      0          373.388    -1083      481        19134      0.2        16209      572        440.19     64.166    
2721.200106 80         10.57      10.57      0          373.417    -1083      481        19135      0.2        16205      572        441.5      64.149    
2721.400107 88         10.3       10.3       0          373.459    -1083      469        19137      0.2        16204      572        442.73     64.146    
2721.600107 129        9.94       9.94       0          373.529    -1083      452        19140      0.2        16204      574        443.97     64.146    
2721.800107 126        9.76       9.76       0          373.595    -1083      444        19144      0.2        16202      573        445.23     64.138    
2722.000107 111        9.76       9.76       0          373.618    -1083      444        19145      0.2        16195      573        446.51     64.11     
2722.200108 127        9.76       9.76       0          373.653    -1083      444        19147      0.2        16191      574        447.78     64.094    
2722.400108 78         10.36      10.36      0          373.647    -1083      471        19147      0.2        16189      573        449.06     64.086    
2722.600108 97         10.48      10.48      0          373.698    -1083      477        19149      0.2        16188      574        450.27     64.081    
2722.800109 69         10.43      10.43      0          373.76     -1083      475        19152      0.2        16185      573        451.55     64.07     
2723.000109 50         10.33      10.33      0          373.8      -1083      470        19154      0.2        16184      572        452.89     64.066    
