~Version
 VERS              .         2.0                           : CWLS LOG ASCII STANDARD - VERSION 2.0
 WRAP              .         NO                            : ONE LINE PER DEPTH STEP
 DLM               .         SPACE                         : DELIMITING CHARACTER(SPACE TAB OR COMMA)
~Well Information
#_______________________________________________________________________________
#
#PARAMETER_NAME    .UNIT     VALUE                         : DESCRIPTION
#_______________________________________________________________________________
STRT               .M        2649.8                        : First reference value
STOP               .M        2761.600056                   : Last reference value
STEP               .M        0.2000001                     : Step increment
NULL               .         -9999                         : Missing value
COMP               .                                       : Company
WELL               .         616                           : Well name
FLD                .                                       : Field
LOC                .                                       : Location
CNTY               .                                       : County
STAT               .                                       : State
CTRY               .                                       : Country
SRVC               .                                       : Service Company
DATE               .                                       : Date
API                .                                       : API number
PROJECT_UPGRADE_TIME .         2021-03-18T21_24_50           : 
group              .         Good                          : 
~Parameter Information Block
#_______________________________________________________________________________
#
#PARAMETER_NAME    .UNIT     VALUE                         : DESCRIPTION
#_______________________________________________________________________________
SET                .         D8106_D                       : 
OTHER              .         Программное обеспечение станции MONITOR-386EX 25/12/99 15_08_10   BGF V52 22/08/01 16_56_30   4_SNGF_BGF_N_011645: 
OTHER_10           .         Тарировки_                    : 
OTHER_11           .         TM.GRD = 0.00412*TM$.UE + -2.13: 
OTHER_12           .         MN.ATM = (5.87652e-006*TM.GRD + 0.01993)*(MN$.UE + -2.72*TM.GRD + -1925): 
OTHER_13           .         GK.MKR/H = GK$.UE / 57.4657   : 
OTHER_2            .         Kedr.exe версия 3.4.2.51      : 
OTHER_3            .         KedrData.dll версия 3.4.2.24  : 
OTHER_4            .         Драйвер версия 2.1.0.2        : 
OTHER_5            .         Мнемоники версия 3.3 S        : 
OTHER_6            .         Прибор_ АКП4-90               : 
OTHER_7            .         Номер прибора_ 53             : 
OTHER_8            .         Режим_ АКП4_90                : 
OTHER_9            .         Форма_ ПК-53ое                : 
PROJECT_UPGRADE_TIME .         2021-03-18T21_24_50           : 
TLFamily_DEPT      .         Measured Depth                : 
TLFamily_GK        .         Gamma Ray                     : 
TLFamily_GK$       .                                       : 
TLFamily_LM        .         Casing Collar locator         : 
TLFamily_METKA     .                                       : 
TLFamily_METKA_1   .                                       : 
TLFamily_MN        .                                       : 
TLFamily_MN$       .                                       : 
TLFamily_RCOR      .                                       : 
TLFamily_SPID      .         Spontaneous Potential         : 
TLFamily_TENS      .         Cable Tension                 : 
TLFamily_TIME      .         Time                          : 
TLFamily_TM        .         Temperature                   : 
TLFamily_TM$       .         Temperature                   : 
group              .         prim                          : 
~Curve Information
#_______________________________________________________________________________
#
#LOGNAME           .UNIT     LOG_ID                        : DESCRIPTION
#_______________________________________________________________________________
DEPT               .M                                      : 1 Глубина, м -    0.0 см 
GK                 .MKR/H                                  : 13 Гамма-активность, мкр./ч -   65.0 см 
GK$                .UE                                     : 10 Гамма-активность, усл.ед. -   65.0 см 
LM                 .                                       : 9 Локатор муфт,  -   30.0 см 
METKA              .                                       : 3 Метки,  -    0.0 см 
METKA_1            .                                       : 14 Маркеры - 65 см 
MN                 .ATM                                    : 12 Давление, атм. -  140.0 см 
MN$                .UE                                     : 8 Давление, усл.ед. -  140.0 см 
RCOR               .CM/KM                                  : 5 Коррекция по ролику, см/км -    0.0 см 
SPID               .M/H                                    : 2 Скорость, м/час -    0.0 см 
TENS               .T                                      : 6 Натяжение кабеля, т -    0.0 см 
TIME               .S                                      : 4 Время, сек -    0.0 см 
TM                 .GRD                                    : 11 Температура, °C -  145.0 см 
TM$                .UE                                     : 7 Температура, усл.ед. -  145.0 см 
~Ascii
# ...
2743.400047 7.02       403        413        0          0          251.596    14549      -16        470        0.55       15057.69   51.105     12921     
2743.600047 6.98       401        500        0          0          251.632    14551      -16        474        0.55       15059.27   51.254     12957     
2743.800047 6.47       372        832        0          0          251.636    14551      -16        472        0.55       15060.78   51.401     12993     
2744.000047 6.49       373        555        0          0          251.652    14552      -16        470        0.55       15062.29   51.534     13025     
2744.200047 6.52       375        313        0          0          251.656    14552      -16        468        0.55       15063.8    51.698     13065     
2744.400047 6.54       376        404        0          0          251.689    14554      -16        466        0.55       15065.31   51.908     13116     
2744.600047 6.54       376        211        0          0          251.679    14553      -16        475        0.55       15066.83   52.081     13158     
2744.800048 6.38       366        145        0          0          251.699    14554      -16        478        0.55       15068.34   52.304     13212     
2745.000048 6.58       378        219        0          0          251.756    14557      -16        479        0.55       15069.91   52.439     13245     
2745.200048 6.7        385        269        0          0          251.756    14557      -16        475        0.55       15071.36   52.621     13289     
2745.400048 6.68       384        385        0          0          251.796    14559      -16        472        0.55       15072.88   52.769     13325     
2745.600048 6.68       384        434        0          0          251.796    14559      -16        469        0.55       15074.39   52.885     13353     
2745.800048 7.1        408        508        0          0          251.835    14561      -16        473        0.55       15075.96   53.037     13390     
2746.000048 7.24       416        636        0          0          251.835    14561      -16        470        0.55       15077.47   53.197     13429     
2746.200048 7.31       420        366        0          0          251.816    14560      -16        474        0.55       15078.99   53.387     13475     
2746.400048 7.25       417        254        0          0          251.799    14559      -16        476        0.55       15080.51   53.552     13515     
2746.600048 7.24       416        221        0          0          251.816    14560      -16        472        0.55       15082.02   53.659     13541     
2746.800049 7.38       424        311        0          0          251.835    14561      -16        466        0.55       15083.54   53.77      13568     
2747.000049 6.87       395        151        0          0          251.835    14561      -16        475        0.55       15085.05   53.914     13603     
2747.200049 6.58       378        30         0          0          251.882    14563      -16        477        0.55       15086.56   54.079     13643     
2747.400049 6.49       373        358        0          0          251.899    14564      -16        473        0.55       15088.07   54.261     13687     
2747.600049 6.53       375        483        0          0          251.972    14568      -16        476        0.55       15089.61   54.434     13729     
2747.800049 6.9        397        653        0          0          251.955    14567      -16        473        0.53       15091.12   54.582     13765     
2748.000049 6.66       383        337        0          0          251.995    14569      -16        473        0.54       15092.68   54.754     13807     
2748.200049 6.55       376        342        0          0          251.999    14569      -16        470        0.55       15094.2    54.905     13843     
2748.400049 6.34       364        432        0          0          252.039    14571      -16        469        0.55       15095.75   55.043     13877     
2748.600049 6.41       368        303        0          0          252.075    14573      -16        469        0.55       15097.22   55.247     13926     
2748.80005 6.61       380        179        0          0          252.095    14574      -16        475        0.55       15098.73   55.516     13992     
2749.00005 6.43       370        230        0          0          252.114    14575      -16        480        0.55       15100.25   55.74      14046     
2749.20005 6.37       366        268        0          0          252.119    14575      -16        476        0.55       15101.77   55.98      14104     
2749.40005 5.98       344        343        0          0          252.154    14577      -16        472        0.55       15103.3    56.16      14148     
2749.60005 5.81       334        273        0          0          252.162    14577      -16        475        0.55       15104.82   56.311     14185     
2749.80005 5.35       307        250        2          0          252.164    14578      -17        472        0.53       15106.43   56.413     14210     
2750.00005 5.09       293        22831      0          0          252.214    14580      -17        470        0.55       15107.94   56.54      14240     
2750.20005 5.06       291        14889      0          0          252.202    14579      -17        469        0.55       15109.47   56.714     14283     
2750.40005 5.45       313        2501       0          0          252.234    14581      -17        475        0.55       15110.97   56.965     14343     
2750.60005 5.7        328        513        0          0          252.262    14582      -17        471        0.55       15112.44   57.207     14402     
2750.80005 5.79       333        172        0          0          252.262    14582      -17        473        0.55       15113.96   57.418     14453     
2751.000051 6.16       354        297        0          0          252.302    14584      -17        474        0.55       15115.48   57.543     14484     
2751.200051 6.22       358        214        0          0          252.294    14584      -17        471        0.55       15117      57.699     14522     
2751.400051 6.3        362        261        0          0          252.334    14586      -17        473        0.55       15118.53   57.907     14572     
2751.600051 6.32       363        259        0          0          252.31     14585      -17        472        0.55       15120.06   58.026     14601     
2751.800051 6.33       364        284        0          0          252.36     14587      -17        469        0.55       15121.58   58.196     14642     
2752.000051 6.47       372        171        0          0          252.374    14588      -17        467        0.55       15123.1    58.366     14684     
2752.200051 6.43       370        128        0          0          252.39     14589      -17        471        0.55       15124.62   58.57      14733     
2752.400051 6.05       347        67         0          0          252.398    14589      -17        479        0.55       15126.15   58.74      14774     
2752.600051 5.87       337        75         0          0          252.429    14591      -17        473        0.55       15127.67   58.863     14804     
2752.800052 5.8        333        197        0          0          252.433    14591      -17        475        0.55       15129.19   58.977     14832     
2753.000052 5.64       324        453        0          0          252.485    14594      -17        472        0.55       15130.71   59.098     14861     
2753.200052 5.61       322        261        0          0          252.497    14594      -17        475        0.55       15132.24   59.227     14893     
2753.400052 5.38       309        252        0          0          252.533    14596      -17        473        0.55       15133.76   59.341     14920     
2753.600052 5.35       307        252        0          0          252.537    14596      -17        470        0.55       15135.28   59.481     14954     
