~Version
 VERS              .         2.0                           : CWLS LOG ASCII STANDARD - VERSION 2.0
 WRAP              .         NO                            : ONE LINE PER DEPTH STEP
 DLM               .         SPACE                         : DELIMITING CHARACTER(SPACE TAB OR COMMA)
~Well Information
#_______________________________________________________________________________
#
#PARAMETER_NAME    .UNIT     VALUE                         : DESCRIPTION
#_______________________________________________________________________________
STRT               .M        2649.8                        : First reference value
STOP               .M        2761.600056                   : Last reference value
STEP               .M        0.2000001                     : Step increment
NULL               .         -9999                         : Missing value
COMP               .                                       : Company
WELL               .         616                           : Well name
FLD                .                                       : Field
LOC                .                                       : Location
CNTY               .                                       : County
STAT               .                                       : State
CTRY               .                                       : Country
SRVC               .                                       : Service Company
DATE               .                                       : Date
API                .                                       : API number
PROJECT_UPGRADE_TIME .         2021-03-18T21_24_50           : 
group              .         Good                          : 
~Parameter Information Block
#_______________________________________________________________________________
#
#PARAMETER_NAME    .UNIT     VALUE                         : DESCRIPTION
#_______________________________________________________________________________
SET                .         D8106_D                       : 
OTHER              .         Программное обеспечение станции MONITOR-386EX 25/12/99 15_08_10   BGF V52 22/08/01 16_56_30   4_SNGF_BGF_N_011645: 
OTHER_10           .         Тарировки_                    : 
OTHER_11           .         TM.GRD = 0.00412*TM$.UE + -2.13: 
OTHER_12           .         MN.ATM = (5.87652e-006*TM.GRD + 0.01993)*(MN$.UE + -2.72*TM.GRD + -1925): 
OTHER_13           .         GK.MKR/H = GK$.UE / 57.4657   : 
OTHER_2            .         Kedr.exe версия 3.4.2.51      : 
OTHER_3            .         KedrData.dll версия 3.4.2.24  : 
OTHER_4            .         Драйвер версия 2.1.0.2        : 
OTHER_5            .         Мнемоники версия 3.3 S        : 
OTHER_6            .         Прибор_ АКП4-90               : 
OTHER_7            .         Номер прибора_ 53             : 
OTHER_8            .         Режим_ АКП4_90                : 
OTHER_9            .         Форма_ ПК-53ое                : 
PROJECT_UPGRADE_TIME .         2021-03-18T21_24_50           : 
TLFamily_DEPT      .         Measured Depth                : 
TLFamily_GK        .         Gamma Ray                     : 
TLFamily_GK$       .                                       : 
TLFamily_LM        .         Casing Collar locator         : 
TLFamily_METKA     .                                       : 
TLFamily_METKA_1   .                                       : 
TLFamily_MN        .                                       : 
TLFamily_MN$       .                                       : 
TLFamily_RCOR      .                                       : 
TLFamily_SPID      .         Spontaneous Potential         : 
TLFamily_TENS      .         Cable Tension                 : 
TLFamily_TIME      .         Time                          : 
TLFamily_TM        .         Temperature                   : 
TLFamily_TM$       .         Temperature                   : 
group              .         prim                          : 
~Curve Information
#_______________________________________________________________________________
#
#LOGNAME           .UNIT     LOG_ID                        : DESCRIPTION
#_______________________________________________________________________________
DEPT               .M                                      : 1 Глубина, м -    0.0 см 
GK                 .MKR/H                                  : 13 Гамма-активность, мкр./ч -   65.0 см 
GK$                .UE                                     : 10 Гамма-активность, усл.ед. -   65.0 см 
LM                 .                                       : 9 Локатор муфт,  -   30.0 см 
METKA              .                                       : 3 Метки,  -    0.0 см 
METKA_1            .                                       : 14 Маркеры - 65 см 
MN                 .ATM                                    : 12 Давление, атм. -  140.0 см 
MN$                .UE                                     : 8 Давление, усл.ед. -  140.0 см 
RCOR               .CM/KM                                  : 5 Коррекция по ролику, см/км -    0.0 см 
SPID               .M/H                                    : 2 Скорость, м/час -    0.0 см 
TENS               .T                                      : 6 Натяжение кабеля, т -    0.0 см 
TIME               .S                                      : 4 Время, сек -    0.0 см 
TM                 .GRD                                    : 11 Температура, °C -  145.0 см 
TM$                .UE                                     : 7 Температура, усл.ед. -  145.0 см 
~Ascii
# ...
2701.800026 7.84       451        364        0          0          247.383    14338      -10        477        0.54       14747.99   50.053     12666     
2702.000026 7.85       451        282        0          0          247.467    14342      -10        480        0.53       14749.48   49.991     12651     
2702.200026 8.23       473        312        0          0          247.451    14341      -10        485        0.55       14750.99   49.953     12642     
2702.400026 8.17       470        344        0          0          247.535    14345      -10        487        0.55       14752.46   49.87      12621     
2702.600026 8.14       468        448        0          0          247.459    14341      -10        491        0.55       14753.9    49.801     12605     
2702.800027 7.52       432        385        0          0          247.58     14348      -10        483        0.55       14755.41   49.724     12586     
2703.000027 7.45       428        326        0          0          247.511    14344      -10        476        0.55       14756.92   49.672     12573     
2703.200027 6.88       396        503        0          0          247.622    14350      -10        478        0.55       14758.43   49.604     12557     
2703.400027 6.48       373        454        0          0          247.544    14346      -10        474        0.55       14759.95   49.555     12545     
2703.600027 6.27       360        629        0          0          247.663    14352      -10        476        0.55       14761.38   49.475     12525     
2703.800027 6.57       377        512        0          0          247.583    14348      -10        482        0.53       14762.89   49.419     12512     
2704.000027 6.62       380        326        0          0          247.69     14353      -10        477        0.53       14764.35   49.331     12491     
2704.200027 8.38       482        358        0          0          247.65     14351      -10        483        0.53       14765.84   49.288     12480     
2704.400027 8.61       495        399        0          0          247.71     14354      -10        477        0.55       14767.35   49.22      12464     
2704.600027 8.78       505        210        0          0          247.71     14354      -10        475        0.55       14768.79   49.16      12449     
2704.800028 7.58       435        513        0          0          247.73     14355      -10        475        0.55       14770.3    49.077     12429     
2705.000028 7.23       415        233        0          0          247.742    14356      -10        472        0.55       14771.79   48.981     12406     
2705.200028 7.56       434        492        0          0          247.774    14357      -10        480        0.55       14773.3    48.879     12381     
2705.400028 7.73       444        379        0          0          247.796    14358      -10        481        0.55       14774.71   48.795     12360     
2705.600028 8.2        471        12915      0          0          247.806    14359      -10        485        0.55       14776.25   48.736     12346     
2705.800028 6.49       373        8738       0          0          247.842    14361      -10        487        0.55       14777.69   48.666     12329     
2706.000028 6.27       360        5532       0          0          247.833    14360      -10        490        0.53       14779.21   48.571     12306     
2706.200028 5.19       298        1480       0          0          247.893    14363      -10        492        0.55       14780.65   48.464     12280     
2706.400028 5.12       294        664        0          0          247.863    14362      -10        483        0.55       14782.16   48.39      12262     
2706.600028 5.27       303        337        0          0          247.943    14366      -10        483        0.55       14783.67   48.323     12246     
2706.800029 5.3        305        546        0          0          247.889    14363      -10        480        0.55       14785.15   48.279     12235     
2707.000029 5.31       305        431        0          0          248.029    14370      -10        483        0.55       14786.62   48.165     12208     
2707.200029 5.51       317        431        0          0          247.913    14364      -10        484        0.55       14788.13   48.089     12189     
2707.400029 6.28       361        503        0          0          248.049    14371      -10        485        0.55       14789.57   47.977     12162     
2707.600029 7.47       429        358        0          0          247.957    14366      -10        478        0.55       14791.08   47.922     12149     
2707.800029 9.34       537        456        0          0          248.089    14373      -10        484        0.55       14792.59   47.841     12129     
2708.000029 10.03      576        366        0          0          248.021    14370      -10        480        0.55       14794.11   47.788     12116     
2708.200029 9.35       537        422        0          0          248.109    14374      -10        478        0.55       14795.54   47.723     12100     
2708.400029 9          517        161        0          0          248.065    14372      -10        479        0.55       14797.06   47.663     12086     
2708.600029 7.24       416        289        1          0          248.14     14376      -10        479        0.55       14798.5    47.559     12060     
2708.80003 6.61       380        83         0          0          248.113    14374      -10        484        0.55       14800.01   47.503     12047     
2709.00003 6.27       360        222        0          0          248.168    14377      -10        478        0.55       14801.52   47.427     12028     
2709.20003 6.49       373        118        0          0          248.176    14377      -10        473        0.55       14803.03   47.339     12007     
2709.40003 6.51       374        216        0          0          248.24     14381      -10        480        0.55       14804.49   47.262     11988     
2709.60003 6.98       401        134        0          0          248.228    14380      -10        479        0.55       14805.98   47.174     11967     
2709.80003 6.8        391        417        2          0          248.248    14381      -10        479        0.55       14807.49   47.071     11942     
2710.00003 6.62       380        271        0          0          248.264    14382      -12        490        0.55       14809.08   47.001     11925     
2710.20003 6.98       401        276        0          0          248.296    14383      -12        482        0.55       14810.59   46.936     11909     
2710.40003 7.01       403        148        0          0          248.32     14385      -12        487        0.55       14812.03   46.925     11907     
2710.60003 6.66       383        614        0          0          248.312    14384      -12        487        0.55       14813.56   46.886     11897     
2710.800031 6.42       369        441        0          0          248.388    14388      -12        490        0.55       14815.05   46.754     11865     
2711.000031 6.37       366        291        0          0          248.336    14385      -12        482        0.55       14816.56   46.645     11839     
2711.200031 7.16       412        773        0          0          248.431    14390      -12        487        0.54       14818.04   46.559     11818     
2711.400031 7.22       415        581        0          0          248.368    14387      -12        482        0.55       14819.51   46.508     11805     
2711.600031 6.93       399        353        0          0          248.451    14391      -12        484        0.55       14821.03   46.44      11789     
2711.800031 6.89       396        693        0          0          248.396    14388      -12        487        0.55       14822.46   46.396     11778     
2712.000031 6.87       395        449        0          0          248.507    14394      -12        484        0.55       14823.97   46.338     11764     
