~Version
 VERS              .         2.0                           : CWLS LOG ASCII STANDARD - VERSION 2.0
 WRAP              .         NO                            : ONE LINE PER DEPTH STEP
 DLM               .         SPACE                         : DELIMITING CHARACTER(SPACE TAB OR COMMA)
~Well Information
#_______________________________________________________________________________
#
#PARAMETER_NAME    .UNIT     VALUE                         : DESCRIPTION
#_______________________________________________________________________________
STRT               .M        2648.8                        : First reference value
STOP               .M        2755.39984                    : Last reference value
STEP               .M        0.1999997                     : Step increment
NULL               .         -9999                         : Missing value
COMP               .                                       : Company
WELL               .         616                           : Well name
FLD                .                                       : Field
LOC                .                                       : Location
CNTY               .                                       : County
STAT               .                                       : State
CTRY               .                                       : Country
SRVC               .                                       : Service Company
DATE               .                                       : Date
API                .                                       : API number
PROJECT_UPGRADE_TIME .         2021-03-18T21_24_50           : 
group              .         Good                          : 
~Parameter Information Block
#_______________________________________________________________________________
#
#PARAMETER_NAME    .UNIT     VALUE                         : DESCRIPTION
#_______________________________________________________________________________
SET                .         D7023_D                       : 
OTHER              .         Kedr.exe версия 2.1.2.32      : 
OTHER_10           .         TM.GRD = 0.00404*TM$.UE + 0.07: 
OTHER_11           .         MN.ATM = (6.33279e-006*TM.GRD + 0.02401)*(MN$.UE + 2.72*TM.GRD + -2018): 
OTHER_12           .         GK.MKR/H = GK$.UE / 43.5489 + 0: 
OTHER_13           .         RES.SM = 0.00476*CRES.UE - 1.51709: 
OTHER_14           .         PL.GSM3 = 0 + 0 * (PL.UE / 1) +  0 * (PL.UE / 1)^2: 
OTHER_15           .         Постоянная времени ГГП = 6 сек: 
OTHER_16           .         Постоянная времени ГК = 6 сек : 
OTHER_2            .         KedrData.dll версия 3.2.2.14  : 
OTHER_3            .         LasInf.dll версия 3.2.0.13    : 
OTHER_4            .         Драйвер версия 1.2.0.5        : 
OTHER_5            .         Прибор_ КСА-M1                : 
OTHER_6            .         Номер прибора_ 155+р204       : 
OTHER_7            .         Режим_ КСА-М1 + ГГП + Резистивиметр: 
OTHER_8            .         Форма_ 223\2                  : 
OTHER_9            .         Тарировки_                    : 
PROJECT_UPGRADE_TIME .         2021-03-18T21_24_50           : 
TLFamily_CRES      .                                       : 
TLFamily_DEPT      .         Measured Depth                : 
TLFamily_GK        .         Gamma Ray                     : 
TLFamily_GK$       .                                       : 
TLFamily_LM        .         Casing Collar locator         : 
TLFamily_METKA     .                                       : 
TLFamily_MN        .                                       : 
TLFamily_MN$       .                                       : 
TLFamily_PL        .                                       : 
TLFamily_PL_2      .                                       : 
TLFamily_RCOR      .                                       : 
TLFamily_RES       .         Mud Resistivity               : 
TLFamily_SPID      .         Spontaneous Potential         : 
TLFamily_STD       .                                       : 
TLFamily_TIME      .         Time                          : 
TLFamily_TM        .         Temperature                   : 
TLFamily_TM$       .         Temperature                   : 
TLFamily_VGD       .         Gas Volume                    : 
group              .         prim                          : 
~Curve Information
#_______________________________________________________________________________
#
#LOGNAME           .UNIT     LOG_ID                        : DESCRIPTION
#_______________________________________________________________________________
DEPT               .M                                      : 1 Глубина, м -    0.0 см 
CRES               .UE                                     : 9 Проводимость, усл.ед. -  222.0 см 
GK                 .MKR/H                                  : 16 Гамма-активность, мкр./ч -  106.0 см 
GK$                .UE                                     : 13 Гамма-активность, усл.ед. -  106.0 см 
LM                 .                                       : 11 Локатор муфт,  -   16.0 см 
METKA              .                                       : 3 Метки,  -    0.0 см 
MN                 .ATM                                    : 15 Давление, атм. -  160.0 см 
MN$                .UE                                     : 7 Давление, усл.ед. -  160.0 см 
PL                 .UE                                     : 10 Плотность, усл.ед. -  270.0 см 
PL_2               .GSM3                                   : 18 Плотность, г./см3 -  270.0 см 
RCOR               .CM/KM                                  : 5 Коррекция по ролику, см/км -    0.0 см 
RES                .SM                                     : 17 Проводимость,  -  222.0 см 
SPID               .M/H                                    : 2 Скорость, м/час -    0.0 см 
STD                .                                       : 12 Приток,  -  170.0 см 
TIME               .S                                      : 4 Время, сек -    0.0 см 
TM                 .GRD                                    : 14 Температура, °C -  180.0 см 
TM$                .UE                                     : 6 Температура, усл.ед. -  180.0 см 
VGD                .                                       : 8 Влагомер,  -  170.0 см 
~Ascii
# ...
2747.199852 1327       8.46       344        110        0          370.911    17084      14         0          0          4.7994     580        11086      15344.31   56.566     13984      6673      
2747.399852 1328       8.13       334        123        0          370.885    17083      14         0          0          4.8042     568        11116      15345.65   56.703     14018      6674      
2747.599852 1330       7.9        334        461        0          370.309    17058      14         0          0          4.8132     510        11142      15346.94   56.805     14043      6675      
2747.799852 1334       7.91       350        4624       0          371.712    17115      14         0          0          4.8312     568        11168      15348.23   56.921     14072      6673      
2747.999851 1336       7.97       350        1755       0          372.046    17127      14         0          0          4.8423     580        11197      15349.54   57.099     14116      6679      
2748.199851 1335       8.15       366        439        0          372.149    17130      14         0          0          4.8389     557        11230      15350.85   57.256     14155      6676      
2748.399851 1339       8.28       366        142        0          373.594    17189      14         0          0          4.8565     522        11259      15352.14   57.423     14196      6678      
2748.59985 1343       8.71       401        98         0          373.506    17184      14         0          0          4.8733     520        11287      15353.47   57.551     14228      6679      
2748.79985 1345       8.95       401        111        0          373.67     17190      14         0          0          4.8872     580        11316      15354.76   57.7       14265      6676      
2748.99985 1345       9.26       420        74         0          374.411    17219      13         0          0          4.8867     545        11344      15356.04   57.891     14312      6677      
2749.199849 1348       9.44       420        87         0          374.714    17230      14         0          0          4.8978     580        11372      15357.39   58.1       14364      6663      
2749.399849 1349       9.26       393        48         0          374.664    17227      14         0          0          4.9034     510        11400      15358.67   58.27      14406      6661      
2749.599849 1351       9.12       388        42         0          373.737    17188      14         0          0          4.9113     510        11430      15359.95   58.432     14446      6664      
2749.799849 1351       8.78       366        42         0          373.341    17172      14         0          0          4.9137     580        11451      15361.26   58.495     14462      6666      
2749.999848 1355       8.62       371        40         0          372.622    17141      14         0          0          4.9319     580        11473      15362.57   58.572     14481      6665      
2750.199848 1355       8.61       375        35         1          372.246    17125      14         0          0          4.9334     545        11495      15364.5    58.656     14502      6658      
2750.399848 1358       8.51       353        39         0          371.582    17097      14         0          0          4.9454     580        11514      15365.77   58.772     14530      6661      
2750.599847 1357       8.31       353        32         0          371.065    17075      14         0          0          4.9423     580        11535      15367.07   58.874     14555      6663      
2750.799847 1358       8.23       355        31         0          371.332    17086      14         0          0          4.9478     580        11555      15368.39   58.977     14581      6667      
2750.999847 1358       8.19       355        34         0          370.757    17061      13         0          0          4.947      580        11578      15369.66   59.072     14604      6665      
2751.199846 1357       8.41       381        33         0          372.089    17115      14         0          0          4.9439     545        11600      15370.95   59.212     14639      6665      
2751.399846 1153       8.57       381        35         0          372.35     17126      14         0          0          3.9689     580        11618      15372.22   59.305     14662      6664      
2751.599846 1073       8.72       387        33         0          373.958    17192      14         0          0          3.5915     580        11632      15373.56   59.356     14675      6664      
2751.799846 1004       8.8        386        34         0          372.198    17119      14         0          0          3.2609     522        11651      15374.83   59.354     14674      6664      
2751.999845 941        8.8        383        32         0          371.772    17102      13         0          0          2.9621     550        11658      15376.13   59.359     14676      6663      
2752.199845 893        8.78       378        32         0          371.707    17099      14         0          0          2.7352     580        11664      15377.44   59.368     14678      6662      
2752.399845 879        8.69       374        32         0          371.628    17096      14         0          0          2.6662     510        11666      15378.78   59.388     14683      6662      
2752.599844 873        8.64       374        32         0          372.671    17138      14         0          0          2.6384     522        11671      15380.05   59.427     14692      6659      
2752.799844 870        8.59       372        31         0          372.588    17135      14         0          0          2.6234     580        11671      15381.32   59.439     14695      6658      
2752.999844 867        8.55       368        33         -9999      373.443    17170      14         0          -9999      2.6098     -9999      11669      -9999      59.466     14702      6659      
2753.199843 865        8.46       364        -9999      -9999      374.351    17207      14         0          -9999      2.6003     -9999      11662      -9999      59.49      14708      6658      
2753.399843 862        8.52       390        -9999      -9999      373.859    17187      14         0          -9999      2.5837     -9999      11660      -9999      59.458     14700      6653      
2753.599843 859        8.78       394        -9999      -9999      374.273    17204      14         0          -9999      2.5717     -9999      11661      -9999      59.422     14691      6654      
2753.799843 857        8.87       386        -9999      -9999      374.789    17225      14         0          -9999      2.5622     -9999      11665      -9999      59.443     14696      6647      
2753.999842 855        -9999      -9999      -9999      -9999      374.795    17225      13         0          -9999      2.5511     -9999      11669      -9999      59.486     14707      6645      
2754.199842 853        -9999      -9999      -9999      -9999      374.984    17233      14         0          -9999      2.5432     -9999      11669      -9999      59.515     14714      6646      
2754.399842 851        -9999      -9999      -9999      -9999      374.473    17212      13         0          -9999      2.5337     -9999      11669      -9999      59.509     14713      6645      
2754.599841 851        -9999      -9999      -9999      -9999      -9999      -9999      14         0          -9999      2.5318     -9999      -9999      -9999      59.489     14708      -9999     
2754.799841 849        -9999      -9999      -9999      -9999      -9999      -9999      14         0          -9999      2.5241     -9999      -9999      -9999      -9999      -9999      -9999     
2754.999841 848        -9999      -9999      -9999      -9999      -9999      -9999      13         0          -9999      2.5194     -9999      -9999      -9999      -9999      -9999      -9999     
2755.19984 -9999      -9999      -9999      -9999      -9999      -9999      -9999      14         0          -9999      -9999      -9999      -9999      -9999      -9999      -9999      -9999     
