~Version
 VERS              .         2.0                           : CWLS LOG ASCII STANDARD - VERSION 2.0
 WRAP              .         NO                            : ONE LINE PER DEPTH STEP
 DLM               .         SPACE                         : DELIMITING CHARACTER(SPACE TAB OR COMMA)
~Well Information
#_______________________________________________________________________________
#
#PARAMETER_NAME    .UNIT     VALUE                         : DESCRIPTION
#_______________________________________________________________________________
STRT               .M        2670                          : First reference value
STOP               .M        2776                          : Last reference value
STEP               .M        0.2                           : Step increment
NULL               .         -9999                         : Missing value
COMP               .                                       : Company
WELL               .         616                           : Well name
FLD                .                                       : Field
LOC                .                                       : Location
CNTY               .                                       : County
STAT               .                                       : State
CTRY               .                                       : Country
SRVC               .                                       : Service Company
DATE               .                                       : Date
API                .                                       : API number
PROJECT_UPGRADE_TIME .         2021-03-18T21_24_50           : 
group              .         Good                          : 
~Parameter Information Block
#_______________________________________________________________________________
#
#PARAMETER_NAME    .UNIT     VALUE                         : DESCRIPTION
#_______________________________________________________________________________
SET                .         D1803_D                       : 
OTHER              .         Программное обеспечение станции MONITOR-386EX 25/12/99 15_08_10   BGF V52 22/08/01 16_56_30   3.1_SNGF___BGF_N_092049: 
OTHER_10           .         Тарировки_                    : 
OTHER_11           .         TM.GRD = 0.00403*TM$.UE + -1.07: 
OTHER_12           .         MN.ATM = (9.34907e-006*TM.GRD + 0.02171)*(MN$.UE + -7.93*TM.GRD + -1787): 
OTHER_13           .         GK.MKR/H = LM. / 42.4676      : 
OTHER_14           .         GK.FLT = 0.1*GK.MKR/H[-1] + (1-0.1)*GK.MKR/H[0]: 
OTHER_2            .         Kedr.exe версия 3.4.2.51      : 
OTHER_3            .         KedrData.dll версия 3.4.2.24  : 
OTHER_4            .         Драйвер версия 2.1.1.3        : 
OTHER_5            .         Мнемоники версия 3.3 S        : 
OTHER_6            .         Прибор_ КСА-Т4                : 
OTHER_7            .         Номер прибора_ 03             : 
OTHER_8            .         Режим_ КСА-Т4                 : 
OTHER_9            .         Форма_ КВА.                   : 
PROJECT_UPGRADE_TIME .         2021-03-18T21_24_49           : 
TLFamily_DEPT      .         Measured Depth                : 
TLFamily_GK        .         Gamma Ray                     : 
TLFamily_GK$       .                                       : 
TLFamily_GK_2      .         Gamma Ray                     : 
TLFamily_LM        .         Casing Collar locator         : 
TLFamily_METKA     .                                       : 
TLFamily_MN        .                                       : 
TLFamily_MN$       .                                       : 
TLFamily_RCOR      .                                       : 
TLFamily_SPID      .         Spontaneous Potential         : 
TLFamily_TENS      .         Cable Tension                 : 
TLFamily_TIME      .         Time                          : 
TLFamily_TM        .         Temperature                   : 
TLFamily_TM$       .         Temperature                   : 
group              .         prim                          : 
~Curve Information
#_______________________________________________________________________________
#
#LOGNAME           .UNIT     LOG_ID                        : DESCRIPTION
#_______________________________________________________________________________
DEPT               .M                                      : 1 Глубина, м -    0.0 см 
GK                 .MKR/H                                  : 13 Гамма-активность, мкр./ч -  110.0 см 
GK$                .UE                                     : 10 Гамма-активность, усл.ед. -  110.0 см 
GK_2               .FLT                                    : 14 Гамма-активность фильтрованная, мкр./ч -  110.0 см 
LM                 .                                       : 9 Локатор муфт,  -   20.0 см 
METKA              .                                       : 3 Метки,  -    0.0 см 
MN                 .ATM                                    : 12 Давление, атм. -  160.0 см 
MN$                .UE                                     : 8 Давление, усл.ед. -  160.0 см 
RCOR               .CM/KM                                  : 5 Коррекция по ролику, см/км -    0.0 см 
SPID               .M/H                                    : 2 Скорость, м/час -    0.0 см 
TENS               .T                                      : 6 Натяжение кабеля, т -    0.0 см 
TIME               .S                                      : 4 Время, сек -    0.0 см 
TM                 .GRD                                    : 11 Температура, °C -  170.0 см 
TM$                .UE                                     : 7 Температура, усл.ед. -  170.0 см 
~Ascii
# ...
2763.6     8.6        365        8.6        217        0          337.852    17434      -679       579        0.03       2112.79    60.711     15330     
2763.8     9.35       397        9.31       233        0          337.51     17419      -679       586        0.01       2114.06    60.816     15356     
2764       9.38       398        9.37       191        0          336.766    17386      -679       583        0.03       2115.28    60.962     15393     
2764.2     9.44       401        9.44       304        0          337.041    17398      -679       582        0.01       2116.55    61.093     15425     
2764.4     9.44       401        9.44       263        0          336.273    17364      -679       581        0.03       2117.74    61.266     15468     
2764.6     8.41       357        8.46       241        0          335.535    17331      -679       584        0.03       2118.98    61.361     15492     
2764.8     8.41       357        8.41       218        0          335.99     17352      -679       589        0.03       2120.27    61.427     15508     
2765       8.67       368        8.65       213        0          335.307    17321      -679       591        0.03       2121.45    61.484     15522     
2765.2     8.67       368        8.66       223        0          336.111    17357      -679       588        0.03       2122.69    61.58      15546     
2765.4     8.67       368        8.67       258        0          333.942    17260      -679       572        0.05       2124.03    61.7       15576     
2765.6     8.67       368        8.67       249        0          335.248    17319      -679       567        0.03       2125.24    61.795     15599     
2765.8     7.77       330        7.85       230        0          334.871    17302      -679       576        0.03       2126.46    61.871     15618     
2766       7.77       330        7.77       262        0          334.146    17270      -679       581        0.03       2127.67    61.935     15634     
2766.2     8.97       381        8.91       245        0          335.341    17323      -679       580        0.03       2128.9     61.993     15648     
2766.4     8.97       381        8.97       244        0          333.857    17257      -679       572        0.03       2130.16    62.056     15664     
2766.6     9.56       406        9.51       220        0          334.593    17290      -679       576        0.04       2131.43    62.115     15679     
2766.8     9.56       406        9.56       245        0          334.498    17286      -679       568        0.03       2132.66    62.177     15694     
2767       9.65       410        9.65       226        0          334.63     17292      -679       571        0.05       2133.93    62.24      15710     
2767.2     9.65       410        9.65       235        0          333.549    17244      -679       574        0.05       2135.14    62.318     15729     
2767.4     9.56       406        9.57       278        0          334.1      17268      -679       577        0.03       2136.36    62.394     15748     
2767.6     9.56       406        9.56       316        0          333.566    17245      -679       572        0.03       2137.64    62.459     15764     
2767.8     8.69       369        8.75       296        0          334.376    17281      -679       568        0.03       2138.85    62.471     15767     
2768       8.69       369        8.69       267        0          332.373    17191      -679       566        0.03       2140.06    62.491     15772     
2768.2     7.68       326        7.78       249        0          333.814    17256      -679       570        0.03       2141.36    62.533     15782     
2768.4     7.68       326        7.68       285        0          333.504    17242      -679       568        0.03       2142.62    62.594     15798     
2768.6     6.81       289        6.86       278        0          333.156    17226      -679       576        0.03       2143.84    62.637     15808     
2768.8     6.81       289        6.81       241        0          334.483    17286      -679       571        0.03       2145.06    62.652     15812     
2769       6.5        276        6.53       235        0          333.239    17230      -679       575        0.03       2146.27    62.687     15821     
2769.2     6.5        276        6.5        271        0          333.457    17240      -679       576        0.03       2147.54    62.715     15828     
2769.4     7.46       317        7.4        259        0          332.992    17219      -679       577        0.03       2148.75    62.769     15841     
2769.6     7.46       317        7.46       284        0          332.687    17206      -679       578        0.04       2149.98    62.833     15857     
2769.8     9.18       390        9          228        0          332.651    17204      -679       572        0.03       2151.31    62.868     15866     
2770       9.18       390        9.18       292        2          333.123    17225      -679       569        0.03       2152.52    62.924     15879     
2770.2     9.56       406        9.53       2903       0          332.961    17218      -686       573        0.02       2154.19    62.991     15896     
2770.4     9.56       406        9.56       1193       0          333.859    17259      -686       575        0.05       2155.41    63.093     15921     
2770.6     8.69       369        8.79       410        0          331.903    17171      -686       576        0.05       2156.63    63.166     15940     
2770.8     8.69       369        8.69       318        0          333.374    17237      -686       574        0.03       2157.9     63.242     15958     
2771       8.83       375        8.82       298        0          332.934    17218      -686       577        0.05       2159.11    63.333     15981     
2771.2     8.83       375        8.83       260        0          332.664    17206      -686       565        0.03       2160.4     63.407     15999     
2771.4     9.4        399        9.37       247        0          333.445    17241      -686       569        0.03       2161.67    63.492     16020     
2771.6     9.08       385        9.19       290        0          332.491    17198      -686       568        0.03       2162.88    63.579     16042     
2771.8     8.76       372        8.78       274        0          332.567    17202      -686       573        0.04       2164.09    63.716     16076     
2772       8.76       372        8.76       287        0          333.407    17240      -686       575        0.05       2165.33    63.818     16101     
2772.2     8.29       352        8.31       327        0          331.896    17172      -686       576        0.03       2166.58    63.91      16124     
2772.4     8.37       355        8.34       276        0          333.178    17230      -686       577        0.03       2167.8     64.01      16149     
2772.6     8.45       359        8.45       258        0          331.728    17165      -686       568        0.03       2169.08    64.119     16176     
2772.8     8.45       359        8.45       261        0          333.151    17229      -686       562        0.04       2170.29    64.202     16197     
2773       8.69       369        8.68       319        0          333.224    17232      -686       571        0.03       2171.56    64.325     16227     
2773.2     8.8        374        8.76       359        0          332.637    17206      -686       573        0.05       2172.72    64.416     16250     
2773.4     9.09       386        9.08       382        0          333.299    17236      -686       584        0.03       2173.99    64.491     16268     
2773.6     9.09       386        9.09       331        0          332.442    17198      -686       585        0.01       2175.28    64.608     16297     
2773.8     9.77       415        9.74       165        0          333.491    17245      -686       574        0.03       2176.48    64.709     16322     
