~Version
 VERS              .         2.0                           : CWLS LOG ASCII STANDARD - VERSION 2.0
 WRAP              .         NO                            : ONE LINE PER DEPTH STEP
 DLM               .         SPACE                         : DELIMITING CHARACTER(SPACE TAB OR COMMA)
~Well Information
#_______________________________________________________________________________
#
#PARAMETER_NAME    .UNIT     VALUE                         : DESCRIPTION
#_______________________________________________________________________________
STRT               .M        2670                          : First reference value
STOP               .M        2776                          : Last reference value
STEP               .M        0.2                           : Step increment
NULL               .         -9999                         : Missing value
COMP               .                                       : Company
WELL               .         616                           : Well name
FLD                .                                       : Field
LOC                .                                       : Location
CNTY               .                                       : County
STAT               .                                       : State
CTRY               .                                       : Country
SRVC               .                                       : Service Company
DATE               .                                       : Date
API                .                                       : API number
PROJECT_UPGRADE_TIME .         2021-03-18T21_24_50           : 
group              .         Good                          : 
~Parameter Information Block
#_______________________________________________________________________________
#
#PARAMETER_NAME    .UNIT     VALUE                         : DESCRIPTION
#_______________________________________________________________________________
SET                .         D1803_D                       : 
OTHER              .         Программное обеспечение станции MONITOR-386EX 25/12/99 15_08_10   BGF V52 22/08/01 16_56_30   3.1_SNGF___BGF_N_092049: 
OTHER_10           .         Тарировки_                    : 
OTHER_11           .         TM.GRD = 0.00403*TM$.UE + -1.07: 
OTHER_12           .         MN.ATM = (9.34907e-006*TM.GRD + 0.02171)*(MN$.UE + -7.93*TM.GRD + -1787): 
OTHER_13           .         GK.MKR/H = LM. / 42.4676      : 
OTHER_14           .         GK.FLT = 0.1*GK.MKR/H[-1] + (1-0.1)*GK.MKR/H[0]: 
OTHER_2            .         Kedr.exe версия 3.4.2.51      : 
OTHER_3            .         KedrData.dll версия 3.4.2.24  : 
OTHER_4            .         Драйвер версия 2.1.1.3        : 
OTHER_5            .         Мнемоники версия 3.3 S        : 
OTHER_6            .         Прибор_ КСА-Т4                : 
OTHER_7            .         Номер прибора_ 03             : 
OTHER_8            .         Режим_ КСА-Т4                 : 
OTHER_9            .         Форма_ КВА.                   : 
PROJECT_UPGRADE_TIME .         2021-03-18T21_24_49           : 
TLFamily_DEPT      .         Measured Depth                : 
TLFamily_GK        .         Gamma Ray                     : 
TLFamily_GK$       .                                       : 
TLFamily_GK_2      .         Gamma Ray                     : 
TLFamily_LM        .         Casing Collar locator         : 
TLFamily_METKA     .                                       : 
TLFamily_MN        .                                       : 
TLFamily_MN$       .                                       : 
TLFamily_RCOR      .                                       : 
TLFamily_SPID      .         Spontaneous Potential         : 
TLFamily_TENS      .         Cable Tension                 : 
TLFamily_TIME      .         Time                          : 
TLFamily_TM        .         Temperature                   : 
TLFamily_TM$       .         Temperature                   : 
group              .         prim                          : 
~Curve Information
#_______________________________________________________________________________
#
#LOGNAME           .UNIT     LOG_ID                        : DESCRIPTION
#_______________________________________________________________________________
DEPT               .M                                      : 1 Глубина, м -    0.0 см 
GK                 .MKR/H                                  : 13 Гамма-активность, мкр./ч -  110.0 см 
GK$                .UE                                     : 10 Гамма-активность, усл.ед. -  110.0 см 
GK_2               .FLT                                    : 14 Гамма-активность фильтрованная, мкр./ч -  110.0 см 
LM                 .                                       : 9 Локатор муфт,  -   20.0 см 
METKA              .                                       : 3 Метки,  -    0.0 см 
MN                 .ATM                                    : 12 Давление, атм. -  160.0 см 
MN$                .UE                                     : 8 Давление, усл.ед. -  160.0 см 
RCOR               .CM/KM                                  : 5 Коррекция по ролику, см/км -    0.0 см 
SPID               .M/H                                    : 2 Скорость, м/час -    0.0 см 
TENS               .T                                      : 6 Натяжение кабеля, т -    0.0 см 
TIME               .S                                      : 4 Время, сек -    0.0 см 
TM                 .GRD                                    : 11 Температура, °C -  170.0 см 
TM$                .UE                                     : 7 Температура, усл.ед. -  170.0 см 
~Ascii
# ...
2680.4     6.73       286        6.74       225        0          300.371    15725      -629       577        0.05       1591.42    48.918     12404     
2680.6     6.81       289        6.78       196        0          299.823    15700      -629       571        0.05       1592.69    48.918     12404     
2680.8     6.83       290        6.83       189        0          295.221    15493      -629       574        0.05       1593.94    48.922     12405     
2681       7.2        306        7.06       189        0          295.131    15489      -629       576        0.05       1595.2     48.92      12404     
2681.2     9.09       386        8.98       206        0          295.093    15487      -629       577        0.05       1596.45    48.918     12404     
2681.4     9.09       386        9.08       219        0          293.047    15395      -629       578        0.05       1597.72    48.914     12403     
2681.6     8.88       377        8.9        2149       0          292.571    15373      -629       579        0.05       1598.92    48.913     12403     
2681.8     8.88       377        8.88       903        0          300.057    15711      -629       574        0.05       1600.18    48.904     12400     
2682       7.77       330        7.86       261        0          300.085    15712      -629       582        0.05       1601.38    48.913     12403     
2682.2     7.77       330        7.77       208        0          302.852    15837      -629       576        0.05       1602.7     48.918     12404     
2682.4     7.82       332        7.81       156        0          303.763    15878      -629       580        0.05       1603.95    48.926     12406     
2682.6     7.82       332        7.82       212        0          304.201    15898      -629       582        0.05       1605.21    48.937     12409     
2682.8     8.78       373        8.62       204        0          305.8      15970      -629       584        0.05       1606.42    48.938     12409     
2683       8.78       373        8.78       361        0          306.156    15986      -629       592        0.05       1607.67    48.948     12411     
2683.2     8.78       373        8.78       217        0          306.853    16018      -629       589        0.05       1608.87    48.954     12413     
2683.4     8.78       373        8.78       192        0          309.644    16143      -629       586        0.05       1610.14    48.962     12415     
2683.6     9.09       386        9.05       193        0          309.915    16156      -629       584        0.05       1611.4     48.971     12417     
2683.8     9.09       386        9.09       228        0          310.196    16168      -629       577        0.05       1612.72    48.977     12419     
2684       9.18       390        9.18       205        0          309.598    16141      -629       578        0.05       1613.91    48.982     12420     
2684.2     9.18       390        9.18       240        0          311.923    16246      -629       579        0.05       1615.17    48.995     12423     
2684.4     9.54       405        9.49       290        0          314.061    16343      -629       579        0.05       1616.44    49.003     12425     
2684.6     9.54       405        9.54       278        0          312.691    16281      -629       579        0.05       1617.64    49.011     12427     
2684.8     9.89       420        9.84       291        0          312.922    16291      -629       579        0.05       1618.89    49.019     12429     
2685       9.89       420        9.89       249        0          313.461    16316      -629       580        0.05       1620.16    49.024     12430     
2685.2     9.63       409        9.65       231        0          314.476    16362      -629       580        0.05       1621.46    49.035     12433     
2685.4     9.63       409        9.63       290        0          316.435    16450      -629       568        0.05       1622.67    49.043     12435     
2685.6     9.65       410        9.65       239        0          316.88     16470      -629       577        0.05       1623.94    49.056     12438     
2685.8     9.65       410        9.65       236        0          317.531    16499      -629       583        0.05       1625.15    49.061     12440     
2686       9.68       411        9.68       252        0          317.316    16490      -629       587        0.05       1626.39    49.071     12442     
2686.2     9.68       411        9.68       213        0          316.154    16437      -629       592        0.05       1627.64    49.079     12444     
2686.4     9.94       422        9.91       250        0          317.946    16518      -629       595        0.05       1628.91    49.091     12447     
2686.6     9.94       422        9.94       295        0          319.544    16590      -629       597        0.05       1630.13    49.099     12449     
2686.8     10.53      447        10.45      289        0          320.335    16626      -629       585        0.05       1631.42    49.112     12452     
2687       10.53      447        10.52      247        0          323.565    16772      -629       579        0.05       1632.69    49.121     12454     
2687.2     10.01      425        10.06      260        0          323.142    16753      -629       579        0.05       1633.89    49.13      12457     
2687.4     10.01      425        10.01      301        0          323.192    16755      -629       579        0.05       1635.14    49.136     12458     
2687.6     9.23       392        9.32       280        0          323.377    16763      -629       580        0.05       1636.41    49.148     12461     
2687.8     9.23       392        9.23       249        0          322.479    16723      -629       580        0.05       1637.67    49.156     12463     
2688       9.65       410        9.63       236        0          322.061    16704      -629       580        0.05       1638.87    49.167     12466     
2688.2     9.65       410        9.65       220        0          322.119    16707      -629       580        0.05       1640.12    49.18      12469     
2688.4     9.91       421        9.89       205        0          324.368    16808      -629       576        0.05       1641.42    49.188     12471     
2688.6     9.91       421        9.91       287        0          324.763    16826      -629       569        0.05       1642.64    49.2       12474     
2688.8     9.77       415        9.79       279        0          325.674    16867      -629       572        0.05       1643.91    49.209     12476     
2689       9.77       415        9.77       265        0          325.343    16852      -629       575        0.05       1645.17    49.224     12480     
2689.2     9.94       422        9.92       289        0          326.284    16895      -629       576        0.05       1646.39    49.232     12482     
2689.4     9.94       422        9.94       252        0          326.049    16884      -629       577        0.05       1647.64    49.236     12483     
2689.6     10.24      435        10.21      269        0          327.981    16971      -629       578        0.05       1648.89    49.246     12485     
2689.8     10.24      435        10.24      282        0          324.613    16819      -629       579        0.05       1650.09    49.259     12489     
2690       10.24      435        10.24      270        2          326.869    16921      -629       579        0.05       1651.42    49.264     12490     
2690.2     10.24      435        10.24      276        0          325.408    16855      -633       562        0.03       1652.94    49.27      12491     
2690.4     10.27      436        10.26      261        0          328.725    17005      -633       568        0.04       1654.21    49.285     12495     
2690.6     10.27      436        10.27      275        0          327.654    16956      -633       571        0.05       1655.44    49.3       12499     
