~Version
 VERS              .         2.0                           : CWLS LOG ASCII STANDARD - VERSION 2.0
 WRAP              .         NO                            : ONE LINE PER DEPTH STEP
 DLM               .         SPACE                         : DELIMITING CHARACTER(SPACE TAB OR COMMA)
~Well Information
#_______________________________________________________________________________
#
#PARAMETER_NAME    .UNIT     VALUE                         : DESCRIPTION
#_______________________________________________________________________________
STRT               .M        2650.4                        : First reference value
STOP               .M        2757.800161                   : Last reference value
STEP               .M        0.2000003                     : Step increment
NULL               .         -9999                         : Missing value
COMP               .                                       : Company
WELL               .         616                           : Well name
FLD                .                                       : Field
LOC                .                                       : Location
CNTY               .                                       : County
STAT               .                                       : State
CTRY               .                                       : Country
SRVC               .                                       : Service Company
DATE               .                                       : Date
API                .                                       : API number
PROJECT_UPGRADE_TIME .         2021-03-18T21_24_50           : 
group              .         Good                          : 
~Parameter Information Block
#_______________________________________________________________________________
#
#PARAMETER_NAME    .UNIT     VALUE                         : DESCRIPTION
#_______________________________________________________________________________
SET                .         D4412_D                       : 
OTHER              .         Запись производится в присутствии: 
OTHER_10           .         Максимальная температура      : 
OTHER_11           .         Тип промывочной жидкости      : 
OTHER_12           .         Сопротивление ПЖ (Ом*м) при 20°C: 
OTHER_13           .         Плотность ПЖ(г/см3)           : 
OTHER_14           .         Вязкость ПЖ(с)                : 
OTHER_15           .         Водоотдача ПЖ(см3/30мин)      : 
OTHER_16           .         Уровень ПЖ                    : 
OTHER_17           .         Нефть ПЖ (%)                  : 
OTHER_18           .         Барит ПЖ (%)                  : 
OTHER_19           .         Гематит ПЖ (%)                : 
OTHER_2            .         Заказчик ННСН  ЦДНГ-1         : 
OTHER_20           .         КМЦ ПЖ (%)                    : 
OTHER_21           .         Разгазирование ПЖ (да,нет)    : 
OTHER_22           .         Подъемник                     : 
OTHER_23           .         Лаборатория                   : 
OTHER_24           .         Тип кабеля                    : 
OTHER_25           .         Длина кабеля (м)              : 
OTHER_26           .         Цена последней метки          : 
OTHER_27           .         Цена контрольной метки        : 
OTHER_28           .         Диаметр долота (мм)           : 
OTHER_29           .         Глубина бурения (м)           : 
OTHER_3            .         Площадь                       : 
OTHER_30           .         Искусственный забой (м)       : 
OTHER_31           .         Диаметр колонны (мм)          : 
OTHER_32           .         Толщина колонны (мм)          : 
OTHER_33           .         Башмак колонны (м)            : 
OTHER_34           .         Диаметр НКТ (мм)              : 
OTHER_35           .         Толщина НКТ (мм)              : 
OTHER_36           .         Воронка НКТ (м)               : 
OTHER_37           .         Дата цементожа                : 
OTHER_38           .         Тип, количество(т) и плотность цемента: 
OTHER_39           .         Интервалы перфорации (м)      : 
OTHER_4            .         Категория                     : 
OTHER_40           .         Направление, диаметр (мм)     : 
OTHER_41           .         Направление, глубина (м)      : 
OTHER_42           .         Кондуктор, диаметр (мм)       : 
OTHER_43           .         Кондуктор, глубина (м)        : 
OTHER_44           .         Техническая колонна, диаметр (мм): 
OTHER_45           .         Техническая колонна, глубина (м): 
OTHER_46           .         Эксплуатационная колонна, диаметр (мм): 
OTHER_47           .         Эксплуатационная колонна, глубина (м): 
OTHER_48           .         Программа Кедр-02 версия 3.4  : 
OTHER_49           .         Операционная система Windows NT 5.1 build 2600 Service Pack 2: 
OTHER_5            .         Назначение исследований       : 
OTHER_50           .         Программное обеспечение станции MONITOR-386EX 25/12/99 15_08_10   BGF V54 20/09/05 15_32_17   3.3__BGF_9030071: 
OTHER_51           .         Kedr.exe версия 3.4.2.74      : 
OTHER_52           .         KedrData.dll версия 3.4.2.29  : 
OTHER_53           .         Мнемоники версия 3.18 S       : 
OTHER_54           .         Драйвер версия 2.1.1.4        : 
OTHER_55           .         LasInf.dll 4.3.0.35           : 
OTHER_56           .         Прибор_ КСА-Т4                : 
OTHER_57           .         Номер прибора_ 160            : 
OTHER_58           .         Режим_ КСА-Т4                 : 
OTHER_59           .         Форма_ С.А.Б.                 : 
OTHER_6            .         Альтитуда стола ротора        : 
OTHER_60           .         Тарировки_                    : 
OTHER_61           .         <_techsia_sc_> Дата тарировки температуры 25.05.2010: 
OTHER_62           .         Ручной ввод коэффициентов     : 
OTHER_63           .         TM.DEGC = 0.00402*RTM.E.ACP + -0.994: 
OTHER_64           .         <_techsia_sc_> Дата тарировки давления 25.05.2010: 
OTHER_65           .         Ручной ввод коэффициентов     : 
OTHER_66           .         MN.ATM = (2.27521e-006*TM.DEGC + 0.02078)*(RMN.E.ACP + 6.2*TM.DEGC + -1688): 
OTHER_67           .         <_techsia_sc_> Дата тарировки ГК 25.05.2010: 
OTHER_68           .         Ручной ввод коэффициентов     : 
OTHER_69           .         GR.UR/H = RGR.IMP/MIN / 45.5144: 
OTHER_7            .         Вид исследований 3  6         : 
OTHER_70           .         GK.FLT = 0.1*GR.UR/H[-1] + (1-0.1)*GR.UR/H[0]: 
OTHER_8            .         Начало бурения интервала каротажа: 
OTHER_9            .         Окончание бурения интервала каротажа: 
PROJECT_UPGRADE_TIME .         2021-03-18T21_24_50           : 
TLFamily_CCLC      .                                       : 
TLFamily_DEPT      .         Measured Depth                : 
TLFamily_GK        .         Gamma Ray                     : 
TLFamily_GR        .         Gamma Ray                     : 
TLFamily_METKA     .                                       : 
TLFamily_MN        .                                       : 
TLFamily_RCOR      .                                       : 
TLFamily_RGR       .                                       : 
TLFamily_RMN       .                                       : 
TLFamily_RTEN      .                                       : 
TLFamily_RTM       .                                       : 
TLFamily_SPEE      .         Cable Speed                   : 
TLFamily_TIME      .         Time                          : 
TLFamily_TM        .         Temperature                   : 
group              .         prim                          : 
~Curve Information
#_______________________________________________________________________________
#
#LOGNAME           .UNIT     LOG_ID                        : DESCRIPTION
#_______________________________________________________________________________
DEPT               .M                                      : 1 Глубина, м -    0.0 см 
CCLC               .E.ACP                                  : 9 Локатор муфт,  -   20.0 см 
GK                 .FLT                                    : 14 Гамма-активность фильтрованная, мкр./ч -  110.0 см 
GR                 .UR/H                                   : 13 Гамма-активность, мкр./ч -  110.0 см 
METKA              .CU                                     : 3 Метки,  -    0.0 см 
MN                 .ATM                                    : 12 Давление, атм. -  160.0 см 
RCOR               .CM/KM                                  : 5 Коррекция по ролику, см/км -    0.0 см 
RGR                .IMP/MIN                                : 10 Гамма-активность, усл.ед. -  110.0 см 
RMN                .E.ACP                                  : 8 Давление, усл.ед. -  160.0 см 
RTEN               .T                                      : 6 Натяжение кабеля, т -    0.0 см 
RTM                .E.ACP                                  : 7 Температура, усл.ед. -  170.0 см 
SPEE               .M/H                                    : 2 Скорость, м/час -    0.0 см 
TIME               .S                                      : 4 Время, сек -    0.0 см 
TM                 .DEGC                                   : 11 Температура, °C -  170.0 см 
~Ascii
# ...
2733.600125 389        8.31       8.31       0          373.868    -1086      378        19239      0.2        13701      573        520.09     54.084    
2733.800125 114        8.31       8.31       0          373.794    -1086      378        19236      0.2        13676      573        521.39     53.984    
2734.000125 55         7.93       7.93       0          373.972    -1086      361        19245      0.2        13664      573        522.65     53.935    
2734.200126 60         7.69       7.69       0          374.086    -1086      350        19251      0.2        13643      573        523.92     53.852    
2734.400126 474        7.21       7.21       0          374.038    -1086      328        19249      0.2        13637      573        525.13     53.827    
2734.600126 307        7.21       7.21       0          373.827    -1086      328        19241      0.2        13606      573        526.39     53.702    
2734.800127 106        7.71       7.71       0          374.02     -1086      351        19255      0.2        13502      573        527.72     53.283    
2735.000127 295        8.43       8.43       0          374.076    -1086      384        19263      0.2        13326      573        528.94     52.576    
2735.200127 124        8.79       8.79       0          373.929    -1086      400        19261      0.2        13171      574        530.2      51.954    
2735.400128 77         8.79       8.79       0          373.98     -1086      400        19266      0.2        13068      574        531.47     51.538    
2735.600128 101        8.81       8.81       0          374.066    -1086      401        19272      0.2        13000      574        532.69     51.265    
2735.800128 60         8.48       8.48       0          374.149    -1086      386        19277      0.2        12961      574        534.01     51.109    
2736.000128 7991       8.41       8.41       2          373.979    -1082      383        19269      0.2        12931      574        535.03     50.99     
2736.200129 5175       8.06       8.06       0          374.068    -1081      367        19275      0.2        12907      573        536.2      50.89     
2736.400129 1449       7.71       7.71       0          374.245    -1081      351        19284      0.2        12869      572        537.46     50.74     
2736.600129 412        7.65       7.65       0          374.011    -1081      348        19274      0.2        12841      573        538.77     50.626    
2736.80013 122        7.32       7.32       0          373.974    -1081      333        19272      0.2        12830      573        540.06     50.583    
2737.00013 136        7.17       7.17       0          373.769    -1081      326        19263      0.2        12816      573        541.27     50.524    
2737.20013 73         7.14       7.14       0          373.681    -1081      325        19259      0.2        12800      573        542.53     50.462    
2737.400131 48         7.14       7.14       0          373.651    -1081      325        19258      0.2        12783      573        543.8      50.394    
2737.600131 45         7.18       7.18       0          373.774    -1081      327        19265      0.2        12772      573        545.12     50.347    
2737.800131 45         7.28       7.28       0          373.966    -1081      332        19274      0.2        12764      573        546.34     50.316    
2738.000131 43         7.54       7.54       0          373.65     -1081      343        19259      0.2        12757      574        547.61     50.291    
2738.200132 77         7.54       7.54       0          373.543    -1081      343        19254      0.2        12756      575        548.87     50.285    
2738.400132 56         8.2        8.2        0          373.502    -1081      373        19252      0.2        12753      574        550.11     50.274    
2738.600132 70         8.31       8.31       0          373.723    -1081      378        19262      0.2        12755      574        551.36     50.281    
2738.800133 40         8.39       8.39       0          373.686    -1081      382        19261      0.2        12754      575        552.62     50.278    
2739.000133 66         8.25       8.25       0          373.426    -1081      375        19249      0.2        12741      575        553.89     50.223    
2739.200133 65         7.54       7.54       0          373.436    -1081      343        19250      0.2        12731      575        555.16     50.185    
2739.400134 92         7.92       7.92       0          373.718    -1081      360        19264      0.2        12724      574        556.42     50.154    
2739.600134 83         8.11       8.11       0          373.56     -1081      369        19256      0.2        12714      575        557.69     50.116    
2739.800134 90         9.41       9.41       0          373.73     -1081      428        19264      0.2        12710      575        558.96     50.099    
2740.000134 60         11.16      11.16      0          373.797    -1081      508        19268      0.2        12707      574        560.18     50.088    
2740.200135 52         11.16      11.16      0          373.904    -1081      508        19273      0.2        12708      573        561.44     50.092    
2740.400135 56         13.03      13.03      0          373.951    -1081      593        19275      0.2        12709      573        562.77     50.094    
2740.600135 49         13.1       13.1       0          374.2      -1081      596        19287      0.2        12705      573        564.05     50.081    
2740.800136 47         13.14      13.14      0          374.318    -1081      598        19293      0.2        12705      574        565.24     50.08     
2741.000136 84         13.29      13.29      0          374.365    -1081      605        19295      0.2        12704      574        566.52     50.075    
2741.200136 88         13.86      13.86      0          374.334    -1081      631        19294      0.2        12699      574        567.84     50.057    
2741.400136 52         13.84      13.84      0          374.473    -1081      630        19300      0.2        12698      575        569.05     50.052    
2741.600137 56         13.84      13.84      0          374.635    -1081      630        19308      0.2        12697      574        570.31     50.05     
2741.800137 69         13.8       13.8       0          374.702    -1081      628        19311      0.2        12703      574        571.59     50.073    
2742.000137 42         13.75      13.75      0          374.732    -1081      626        19312      0.2        12708      574        572.8      50.092    
2742.200138 56         12.39      12.39      0          374.832    -1081      564        19317      0.2        12710      574        574.13     50.102    
2742.400138 61         12.39      12.39      0          374.655    -1081      564        19308      0.2        12714      574        575.39     50.118    
2742.600138 52         11.26      11.26      0          374.629    -1081      512        19307      0.2        12719      575        576.59     50.138    
2742.800139 52         11.03      11.03      0          374.718    -1081      502        19311      0.2        12724      575        577.86     50.158    
2743.000139 59         11.1       11.1       0          374.749    -1081      505        19312      0.2        12732      576        579.14     50.189    
2743.200139 53         11.23      11.23      0          375.038    -1081      511        19326      0.2        12737      575        580.41     50.207    
2743.40014 55         10.79      10.79      0          375.17     -1081      491        19332      0.2        12741      575        581.67     50.226    
2743.60014 61         10.79      10.79      0          375.233    -1081      491        19335      0.2        12746      575        582.91     50.246    
2743.80014 93         10.93      10.93      0          375.142    -1081      498        19331      0.2        12751      575        584.14     50.264    
