~Version
 VERS              .         2.0                           : CWLS LOG ASCII STANDARD - VERSION 2.0
 WRAP              .         NO                            : ONE LINE PER DEPTH STEP
 DLM               .         SPACE                         : DELIMITING CHARACTER(SPACE TAB OR COMMA)
~Well Information
#_______________________________________________________________________________
#
#PARAMETER_NAME    .UNIT     VALUE                         : DESCRIPTION
#_______________________________________________________________________________
STRT               .M        1740.47                       : First reference value
STOP               .M        2787.78                       : Last reference value
STEP               .M        0                             : Step increment
NULL               .         -9999                         : Missing value
COMP               .                                       : Company
WELL               .         616                           : Well name
FLD                .                                       : Field
LOC                .                                       : Location
CNTY               .                                       : County
STAT               .                                       : State
CTRY               .                                       : Country
SRVC               .                                       : Service Company
DATE               .                                       : Date
API                .                                       : API number
PROJECT_UPGRADE_TIME .         2021-03-18T21_24_50           : 
group              .         Good                          : 
~Parameter Information Block
#_______________________________________________________________________________
#
#PARAMETER_NAME    .UNIT     VALUE                         : DESCRIPTION
#_______________________________________________________________________________
SET                .         D2664                         : 
NPR                .         980607                        : ЗАВ НОМЕР ПРИБОРА
NPRT               .         Мещеряков                     : НАЧ ПАРТИИ
PROJECT_UPGRADE_TIME .         2021-03-18T21_24_50           : 
TLFamily_AZIMUTH   .         True Dip Azimuth              : 
TLFamily_DEPTH     .         Measured Depth                : 
TLFamily_DRILL     .                                       : 
TLFamily_METKA     .                                       : 
TLFamily_ZENIT     .                                       : 
group              .         prim                          : 
~Curve Information
#_______________________________________________________________________________
#
#LOGNAME           .UNIT     LOG_ID                        : DESCRIPTION
#_______________________________________________________________________________
DEPTH              .M                                      : 1 ГЛУБИНА 
AZIMUTH            .ГРАД                                   : 4 АЗИМУТ 
DRILL              .ГРАД                                   : 2 ПОВОРОТ 
METKA              .                                       : 5 МАГН МЕТКА 
ZENIT              .ГРАД                                   : 3 ЗЕНИТ 
~Ascii
# ...
1905.21    261.77     2.8        0          17.64     
1905.61    261.78     3.14       0          17.65     
1906       261.77     3.48       0          17.64     
1906.4     261.77     3.84       0          17.64     
1906.79    261.8      4.21       0          17.64     
1907.19    261.81     4.56       0          17.64     
1907.58    261.86     4.87       0          17.64     
1907.98    261.85     5.11       0          17.64     
1908.37    261.8      5.26       0          17.63     
1908.77    261.82     5.41       0          17.64     
1909.16    261.79     5.61       0          17.63     
1909.55    261.79     5.84       0          17.63     
1909.95    261.8      6.11       0          17.63     
1910.34    261.8      6.36       0          17.63     
1910.73    261.84     6.59       0          17.63     
1910.93    261.8      6.85       0          17.63     
1911.12    261.76     7.12       0          17.64     
1911.32    261.76     7.37       0          17.64     
1911.51    261.7      7.61       0          17.64     
1911.9     261.66     7.87       0          17.63     
1912.29    261.52     8.14       0          17.63     
1912.69    261.55     8.46       0          17.63     
1913.08    261.67     8.79       0          17.63     
1913.47    261.67     9.16       0          17.63     
1913.86    261.68     9.55       0          17.63     
1914.26    261.63     9.96       0          17.62     
1914.65    261.64     10.36      0          17.61     
1915.04    261.64     10.72      0          17.61     
1915.43    261.64     11.1       0          17.61     
1915.83    261.64     11.5       0          17.61     
1916.22    261.64     11.89      0          17.6      
1916.61    261.6      12.24      0          17.59     
1917       261.64     12.51      0          17.59     
1917.39    261.65     12.69      0          17.59     
1917.78    261.64     12.83      0          17.59     
1918.17    261.64     12.94      0          17.59     
1918.57    261.6      13.07      0          17.59     
1918.96    261.64     13.23      0          17.59     
1919.35    261.69     13.4       0          17.6      
1919.74    261.67     13.56      0          17.59     
1920.13    261.74     13.7       0          17.6      
1920.52    261.71     13.83      0          17.6      
1920.91    261.71     13.97      0          17.6      
1921.3     261.73     14.11      0          17.59     
1921.69    261.71     14.25      0          17.59     
1922.08    261.72     14.38      0          17.59     
1922.47    261.72     14.52      0          17.59     
1922.86    261.75     14.69      0          17.59     
1923.25    261.78     14.81      0          17.59     
1923.44    261.76     14.85      0          17.6      
1923.83    261.77     14.89      0          17.61     
1924.21    261.75     14.91      0          17.6      
1924.6     261.66     14.94      0          17.61     
1924.99    261.67     14.94      0          17.61     
1925.37    261.64     14.87      0          17.61     
1925.76    261.72     14.75      0          17.63     
1926.14    261.66     14.71      0          17.63     
1926.53    261.64     14.77      0          17.64     
1926.91    261.65     14.86      0          17.65     
1927.3     261.63     14.94      0          17.66     
1927.68    261.6      15.03      0          17.66     
1928.07    261.6      15.15      0          17.67     
1928.45    261.63     15.26      0          17.68     
1928.84    261.6      15.37      0          17.68     
1929.23    261.57     15.44      0          17.67     
1929.61    261.55     15.5       0          17.68     
1930       261.53     15.54      0          17.68     
1930.38    261.47     15.59      0          17.68     
1930.77    261.43     15.67      0          17.68     
1931.15    261.44     15.77      0          17.69     
1931.54    261.39     15.87      0          17.68     
1931.92    261.41     15.93      0          17.69     
1932.31    261.41     15.94      0          17.69     
1932.69    261.39     15.93      0          17.7      
1933.08    261.36     15.92      0          17.7      
1933.47    261.37     15.93      0          17.71     
1933.85    261.38     15.95      0          17.72     
1934.24    261.33     15.97      0          17.72     
1934.62    261.31     16.02      0          17.73     
1935.01    261.3      16.11      0          17.74     
1935.2     261.32     16.19      0          17.75     
1935.39    261.29     16.27      0          17.75     
1935.58    261.25     16.34      0          17.75     
1935.76    261.23     16.41      0          17.76     
1935.95    261.21     16.53      0          17.76     
1936.34    261.13     18.2       0          17.75     
1936.73    261.15     19.88      0          17.75     
1937.11    261.18     21.62      0          17.75     
1937.5     261.3      23.38      0          17.75     
1937.88    261.22     25.21      0          17.74     
1938.27    261.26     27.14      0          17.75     
1938.65    261.19     29.19      0          17.75     
1939.04    261.13     31.37      0          17.74     
1939.43    261.12     33.7       0          17.74     
1939.81    261.13     36.17      0          17.74     
1940.2     261.12     38.73      0          17.73     
1940.58    261.13     41.38      0          17.73     
1940.97    261.14     44.12      0          17.73     
1941.35    261.16     46.91      0          17.73     
1941.74    261.13     49.74      0          17.73     
1942.12    261.15     52.65      0          17.72     
1942.51    261.13     55.64      0          17.71     
1942.9     261.12     58.67      0          17.71     
1943.28    261.09     61.73      0          17.69     
1943.67    261.05     64.81      0          17.69     
1944.05    261.04     67.91      0          17.68     
1944.44    261.01     70.97      0          17.67     
1944.82    261.05     73.96      0          17.67     
1945.21    261.06     76.87      0          17.66     
1945.59    261.09     79.72      0          17.66     
1945.98    261.07     82.49      0          17.65     
1946.36    261.08     85.17      0          17.65     
1946.75    261.1      87.8       0          17.65     
1947.14    261.06     90.34      0          17.64     
1947.52    261.09     92.82      0          17.63     
1947.71    261.11     94.15      0          17.63     
1947.9     261.1      95.46      0          17.62     
1948.09    261.05     96.68      0          17.6      
1948.48    260.93     99.16      0          17.59     
1948.86    260.94     101.74     0          17.57     
1949.25    260.91     104.39     0          17.55     
1949.63    261.04     107.17     0          17.57     
1950.02    260.92     110.01     0          17.56     
1950.4     260.89     112.93     0          17.55     
1950.79    260.86     116.01     0          17.55     
1951.17    260.83     119.29     0          17.55     
1951.56    260.82     122.74     0          17.55     
1951.94    260.81     126.36     0          17.55     
1952.33    260.74     130.2      0          17.56     
1952.71    260.7      134.25     0          17.56     
1953.1     260.67     138.45     0          17.57     
1953.48    260.66     142.76     0          17.57     
1953.87    260.64     147.24     0          17.56     
1954.25    260.63     151.84     0          17.55     
1954.64    260.68     156.5      0          17.54     
1955.02    260.66     161.43     0          17.53     
1955.41    260.63     166.86     0          17.52     
1955.79    260.6      172.99     0          17.5      
1956.18    260.58     180.2      0          17.5      
1956.56    260.53     188.8      0          17.49     
1956.95    260.48     198.93     0          17.48     
1957.34    260.46     210.47     0          17.48     
1957.72    260.41     223.06     0          17.46     
1958.11    260.43     235.91     0          17.46     
1958.49    260.38     248.19     0          17.45     
1958.88    260.33     259.15     0          17.44     
