~Version
 VERS              .         2.0                           : CWLS LOG ASCII STANDARD - VERSION 2.0
 WRAP              .         NO                            : ONE LINE PER DEPTH STEP
 DLM               .         SPACE                         : DELIMITING CHARACTER(SPACE TAB OR COMMA)
~Well Information
#_______________________________________________________________________________
#
#PARAMETER_NAME    .UNIT     VALUE                         : DESCRIPTION
#_______________________________________________________________________________
STRT               .M        2657.95                       : First reference value
STOP               .M        2764.750053                   : Last reference value
STEP               .M        0.2000001                     : Step increment
NULL               .         -9999                         : Missing value
COMP               .                                       : Company
WELL               .         616                           : Well name
FLD                .                                       : Field
LOC                .                                       : Location
CNTY               .                                       : County
STAT               .                                       : State
CTRY               .                                       : Country
SRVC               .                                       : Service Company
DATE               .                                       : Date
API                .                                       : API number
PROJECT_UPGRADE_TIME .         2021-03-18T21_24_50           : 
group              .         Good                          : 
~Parameter Information Block
#_______________________________________________________________________________
#
#PARAMETER_NAME    .UNIT     VALUE                         : DESCRIPTION
#_______________________________________________________________________________
SET                .         D7022_D_2                     : 
NPR                .         155                           : Номер прибора
OTHER              .         Kedr.exe версия 2.1.2.32      : 
OTHER_10           .         TM.GRD = 0.00404*TM$.UE + 0.07: 
OTHER_11           .         MN.ATM = (6.33279e-006*TM.GRD + 0.02401)*(MN$.UE + 2.72*TM.GRD + -2018): 
OTHER_12           .         GK.MKR/H = GK$.UE / 43.5489 + 0: 
OTHER_13           .         RES.SM = 0.00476*CRES.UE - 1.51709: 
OTHER_14           .         PL.GSM3 = 0 + 0 * (PL.UE / 1) +  0 * (PL.UE / 1)^2: 
OTHER_15           .         Постоянная времени ГГП = 6 сек: 
OTHER_16           .         Постоянная времени ГК = 6 сек : 
OTHER_2            .         KedrData.dll версия 3.2.2.14  : 
OTHER_3            .         LasInf.dll версия 3.2.0.13    : 
OTHER_4            .         Драйвер версия 1.2.0.5        : 
OTHER_5            .         Прибор_ КСА-M1                : 
OTHER_6            .         Номер прибора_ 155+р204       : 
OTHER_7            .         Режим_ КСА-М1 + ГГП + Резистивиметр: 
OTHER_8            .         Форма_ 223\2                  : 
OTHER_9            .         Тарировки_                    : 
PR                 .         КСА-Т7 М1                     : Тип прибора
PROJECT_UPGRADE_TIME .         2021-03-18T21_24_50           : 
PRTY               .         ПП-223_2                      : Номер партии
SRV                .         ЦКРС                          : Заказчик
SRVC               .         Лузин  А.Б.                   : Начальник партии
TLFamily_DEPT      .         Measured Depth                : 
TLFamily_LM        .         Casing Collar locator         : 
TLFamily_MN        .                                       : 
TLFamily_SPID      .         Spontaneous Potential         : 
TLFamily_TM        .         Temperature                   : 
group              .         second                        : 
~Curve Information
#_______________________________________________________________________________
#
#LOGNAME           .UNIT     LOG_ID                        : DESCRIPTION
#_______________________________________________________________________________
DEPT               .M                                      : Depth curve 
LM                 .е.ацп                                  : Локация муфт 
MN                 .атм                                    : Манометрия, атм 
SPID               .м/ч                                    : Скорость записи,м/час 
TM                 .град.С                                 : Термометрия,град.С 
~Ascii
2657.9499512 -9999      -9999      -9999      -9999     
2658.15    -9999      -9999      -9999      -9999     
2658.35    -9999      -9999      367.942    -9999     
2658.55    150.992    -9999      509.965    -9999     
2658.75    162.997    -9999      639.968    -9999     
2658.95    203.99     -9999      550.022    -9999     
2659.150001 120.021    -9999      579.993    -9999     
2659.350001 125.999    -9999      531.012    -9999     
2659.550001 102.006    -9999      579.988    -9999     
2659.750001 124.994    -9999      580        -9999     
2659.950001 117.002    310.95     510.017    -9999     
2660.150001 102.004    310.2      556.989    52.87     
2660.350001 92.002     311.22     579.994    52.87     
2660.550001 132.99     310.74     568.003    52.87     
2660.750001 94.01      311.74     510.014    52.87     
2660.950001 108.996    311.23     556.989    52.86     
2661.150002 142.992    311.2      579.994    52.86     
2661.350002 125.004    311.89     570.002    52.85     
2661.550002 91.008     313.69     579.998    52.85     
2661.750002 93         313.7      545.009    52.84     
2661.950002 124.992    313.47     533.003    52.83     
2662.150002 173.988    313.49     579.989    52.82     
2662.350002 126.012    313.14     588.998    52.82     
2662.550002 104.005    313.95     506.02     52.81     
2662.750002 101.001    314.27     579.982    52.8      
2662.950002 114.997    314.74     510.017    52.79     
2663.150003 124.998    314.28     521.997    52.78     
2663.350003 139.996    315.36     579.986    52.78     
2663.550003 149.998    316.11     510.017    52.77     
2663.750003 97.013     317.45     579.983    52.76     
2663.950003 78.005     316.76     510.017    52.76     
2664.150003 151.982    317.75     579.983    52.75     
2664.350003 116.009    316.95     557.006    52.75     
2664.550003 111.001    316.94     520.009    52.74     
2664.750003 173.985    316.29     579.985    52.74     
2664.950003 152.005    316.31     557.006    52.72     
2665.150004 101.012    316.01     579.994    52.72     
2665.350004 103.999    315.12     569.003    52.7      
2665.550004 128.994    316.72     579.997    52.7      
2665.750004 158.993    316.99     530.012    52.69     
2665.950004 161        319.39     579.988    52.68     
2666.150004 139.005    318.65     560.005    52.68     
2666.350004 112.007    320.1      579.995    52.67     
2666.550004 105.002    319.42     533.011    52.67     
2666.750004 122.996    319.44     539.998    52.66     
2666.950004 101.005    319.99     579.99     52.65     
2667.150005 98.001     320.84     580        52.64     
2667.350005 103.999    320.11     510.017    52.64     
2667.550005 160.986    320.25     510        52.64     
2667.750005 168.998    319.42     510        52.63     
2667.950005 192.994    319.51     510        52.62     
2668.150005 116.019    318.87     579.983    52.61     
2668.350005 120.999    319.63     580        52.61     
2668.550005 127.998    318.8      570.002    52.6      
2668.750005 98.007     321.69     510.015    52.59     
2668.950005 71.007     321.22     579.983    52.58     
2669.150006 5533.671   321.75     580        52.57     
2669.350006 1333.023   323.95     570.002    52.57     
2669.550006 359.237    322.28     579.998    52.56     
2669.750006 154.05     322.43     545.009    52.56     
2669.950006 316.96     322.14     510.009    52.55     
2670.150006 212.026    322.19     556.989    52.54     
2670.350006 113.024    322.15     553.001    52.53     
2670.550006 99.003     321.87     579.993    52.51     
2670.750006 111.997    321.92     568.003    52.51     
2670.950006 109.001    321.52     550.004    52.51     
2671.150007 129.995    322.22     579.993    52.5      
2671.350007 135.999    322.7      580        52.49     
2671.550007 148.997    323.92     568.003    52.48     
2671.750007 105.011    323.78     579.997    52.47     
2671.950007 119.996    323.29     533.011    52.47     
2672.150007 147.993    323.17     579.989    52.45     
2672.350007 130.004    323.27     580        52.44     
2672.550007 106.006    323.15     552.007    52.44     
2672.750007 142.991    323.55     579.993    52.43     
2672.950007 175.992    322.5      510.017    52.43     
2673.150008 137.009    325.49     579.983    52.42     
2673.350008 132.001    324.34     510.017    52.42     
2673.550008 122.002    325.34     579.983    52.42     
2673.750008 98.006     327.48     580        52.41     
2673.950008 100        325.87     580        52.4      
2674.150008 103.999    326.22     545.009    52.39     
2674.350008 88.004     325.82     579.991    52.38     
2674.550008 90         326.07     580        52.37     
2674.750008 114.994    326.11     580        52.37     
2674.950008 102.003    325.9      533.011    52.36     
2675.150009 160.986    325.6      533        52.35     
2675.350009 157.001    325.09     579.989    52.35     
2675.550009 187.992    324.96     580        52.34     
2675.750009 181.002    326.53     580        52.34     
2675.950009 221.99     325.51     557.006    52.33     
2676.150009 207.004    327.19     579.994    52.32     
2676.350009 136.017    327.46     580        52.32     
2676.550009 167.992    326.85     566.003    52.31     
2676.750009 136.008    328.02     579.997    52.31     
2676.950009 135        329.05     580        52.3      
2677.15001 128.002    328.94     580        52.29     
2677.35001 101.007    328.15     510.017    52.28     
2677.55001 122.995    328.54     579.983    52.28     
2677.75001 86.009     327.72     580        52.27     
2677.95001 104.995    327.75     580        52.27     
2678.15001 83.005     327.57     510.017    52.26     
2678.35001 100.996    326.81     556.989    52.26     
2678.55001 84.004     326.74     510.011    52.26     
2678.75001 72.003     326.97     579.983    52.24     
2678.95001 115.989    328.24     580        52.24     
2679.150011 103.003    328.58     557.006    52.23     
2679.350011 103        330.42     520.009    52.22     
2679.550011 121.995    329.61     556.991    52.22     
2679.750011 175.987    329.7      579.994    52.2      
2679.950011 156.005    330.57     580        52.2      
2680.150011 3960.077   331        580        52.19     
2680.350011 2474.361   330.31     569.003    52.18     
2680.550011 386.506    330.65     510.014    52.17     
2680.750011 184.049    329.49     556.989    52.16     
2680.950011 120.016    328.77     579.994    52.15     
2681.150012 100.005    328.69     570.002    52.15     
2681.350012 128.993    330.21     579.998    52.13     
2681.550012 142.997    332.05     540.01     52.12     
2681.750012 115.007    330.7      579.99     52.11     
2681.950012 154.99     330.85     580        52.1      
2682.150012 161.998    330.36     568.003    52.09     
2682.350012 136.006    329.68     579.997    52.09     
2682.550012 123.003    329.96     540.01     52.08     
2682.750012 137.996    329.35     579.99     52.07     
2682.950012 122.004    330.27     580        52.06     
2683.150013 108.003    330.55     533.011    52.06     
2683.350013 137.993    331.92     579.989    52.06     
2683.550013 117.005    331.67     510.017    52.05     
2683.750013 118        331.28     510        52.05     
2683.950013 112.001    333.41     579.983    52.04     
2684.150013 135.994    332.46     580        52.03     
2684.350013 103.008    333.11     580        52        
2684.550013 83.005     333.54     510.017    52        
2684.750013 112.993    333.03     567.986    52        
2684.950013 116.999    332.36     579.997    52        
2685.150014 119        332.37     568.003    51.99     
2685.350014 119        332.29     510.014    51.98     
2685.550014 111.002    331.66     556.989    51.97     
2685.750014 113.999    331.4      579.994    51.95     
2685.950014 272.962    331.37     580        51.95     
2686.150014 230.01     330.73     580        51.94     
2686.350014 123.026    331.82     580        51.94     
2686.550014 105.004    332.88     550.007    51.93     
