~Version
 VERS              .         2.0                           : CWLS LOG ASCII STANDARD - VERSION 2.0
 WRAP              .         NO                            : ONE LINE PER DEPTH STEP
 DLM               .         SPACE                         : DELIMITING CHARACTER(SPACE TAB OR COMMA)
~Well Information
#_______________________________________________________________________________
#
#PARAMETER_NAME    .UNIT     VALUE                         : DESCRIPTION
#_______________________________________________________________________________
STRT               .M        10.2                          : First reference value
STOP               .M        2757.4                        : Last reference value
STEP               .M        0.2                           : Step increment
NULL               .         -9999                         : Missing value
COMP               .                                       : Company
WELL               .         616                           : Well name
FLD                .                                       : Field
LOC                .                                       : Location
CNTY               .                                       : County
STAT               .                                       : State
CTRY               .                                       : Country
SRVC               .                                       : Service Company
DATE               .                                       : Date
API                .                                       : API number
PROJECT_UPGRADE_TIME .         2021-03-18T21_24_50           : 
group              .         Good                          : 
~Parameter Information Block
#_______________________________________________________________________________
#
#PARAMETER_NAME    .UNIT     VALUE                         : DESCRIPTION
#_______________________________________________________________________________
SET                .         D7016_D                       : 
OTHER              .         Kedr.exe версия 2.1.2.32      : 
OTHER_10           .         TM.GRD = 0.00404*TM$.UE + 0.07: 
OTHER_11           .         MN.ATM = (6.33279e-006*TM.GRD + 0.02401)*(MN$.UE + 2.72*TM.GRD + -2018): 
OTHER_12           .         GK.MKR/H = GK$.UE / 43.5489 + 0: 
OTHER_13           .         RES.SM = 0.00476*CRES.UE - 1.51709: 
OTHER_14           .         PL.GSM3 = 0 + 0 * (PL.UE / 1) +  0 * (PL.UE / 1)^2: 
OTHER_15           .         Постоянная времени ГГП = 6 сек: 
OTHER_16           .         Постоянная времени ГК = 6 сек : 
OTHER_2            .         KedrData.dll версия 3.2.2.14  : 
OTHER_3            .         LasInf.dll версия 3.2.0.13    : 
OTHER_4            .         Драйвер версия 1.2.0.5        : 
OTHER_5            .         Прибор_ КСА-M1                : 
OTHER_6            .         Номер прибора_ 155+р204       : 
OTHER_7            .         Режим_ КСА-М1 + ГГП + Резистивиметр: 
OTHER_8            .         Форма_ 223\2                  : 
OTHER_9            .         Тарировки_                    : 
PROJECT_UPGRADE_TIME .         2021-03-18T21_24_50           : 
TLFamily_CRES      .                                       : 
TLFamily_DEPT      .         Measured Depth                : 
TLFamily_GK        .         Gamma Ray                     : 
TLFamily_GK$       .                                       : 
TLFamily_LM        .         Casing Collar locator         : 
TLFamily_METKA     .                                       : 
TLFamily_MN        .                                       : 
TLFamily_MN$       .                                       : 
TLFamily_PL        .                                       : 
TLFamily_PL_2      .                                       : 
TLFamily_RCOR      .                                       : 
TLFamily_RES       .         Mud Resistivity               : 
TLFamily_SPID      .         Spontaneous Potential         : 
TLFamily_STD       .                                       : 
TLFamily_TIME      .         Time                          : 
TLFamily_TM        .         Temperature                   : 
TLFamily_TM$       .         Temperature                   : 
TLFamily_VGD       .         Gas Volume                    : 
group              .         prim                          : 
~Curve Information
#_______________________________________________________________________________
#
#LOGNAME           .UNIT     LOG_ID                        : DESCRIPTION
#_______________________________________________________________________________
DEPT               .M                                      : 1 Глубина, м -    0.0 см 
CRES               .UE                                     : 9 Проводимость, усл.ед. -  270.0 см 
GK                 .MKR/H                                  : 16 Гамма-активность, мкр./ч -  106.0 см 
GK$                .UE                                     : 13 Гамма-активность, усл.ед. -  106.0 см 
LM                 .                                       : 11 Локатор муфт,  -   16.0 см 
METKA              .                                       : 3 Метки,  -    0.0 см 
MN                 .ATM                                    : 15 Давление, атм. -  160.0 см 
MN$                .UE                                     : 7 Давление, усл.ед. -  160.0 см 
PL                 .UE                                     : 10 Плотность, усл.ед. -  270.0 см 
PL_2               .GSM3                                   : 18 Плотность, г./см3 -  270.0 см 
RCOR               .CM/KM                                  : 5 Коррекция по ролику, см/км -    0.0 см 
RES                .SM                                     : 17 Проводимость,  -  270.0 см 
SPID               .M/H                                    : 2 Скорость, м/час -    0.0 см 
STD                .                                       : 12 Приток,  -  170.0 см 
TIME               .S                                      : 4 Время, сек -    0.0 см 
TM                 .GRD                                    : 14 Температура, °C -  180.0 см 
TM$                .UE                                     : 6 Температура, усл.ед. -  180.0 см 
VGD                .                                       : 8 Влагомер,  -  170.0 см 
~Ascii
# ...
740        1135       2.71       118        355        0          68.765     4773       14         0          0          3.8833     1660       6140       3215.16    31.404     7756       6534      
740.2      1135       2.66       107        342        1          68.793     4774       13         0          0          3.8855     1660       6140       3215.7     31.409     7757       6541      
740.4      1135       2.62       107        278        0          68.812     4775       14         0          0          3.8855     1660       6142       3216.13    31.413     7758       6536      
740.6      1138       2.58       107        240        0          68.825     4776       14         0          0          3.8981     1660       6144       3216.57    31.412     7758       6532      
740.8      1136       2.56       107        243        0          68.854     4777       14         0          0          3.8903     1660       6146       3216.99    31.413     7758       6533      
741        1136       2.53       107        298        0          68.863     4777       14         0          0          3.8925     1660       6147       3217.44    31.426     7761       6531      
741.2      1136       2.59       120        329        0          68.887     4778       14         0          0          3.8921     1660       6147       3217.88    31.432     7763       6530      
741.4      1137       2.63       120        332        0          68.912     4779       14         0          0          3.8939     1660       6147       3218.32    31.433     7763       6532      
741.6      1136       2.66       120        7316       0          68.924     4780       14         0          0          3.8905     1603       6145       3218.75    31.441     7765       6532      
741.8      1137       2.68       120        4609       0          68.959     4781       14         0          0          3.894      1614       6149       3219.19    31.445     7766       6539      
742        1135       2.69       120        2926       0          68.963     4781       13         0          0          3.8855     1701       6149       3219.61    31.449     7767       6544      
742.2      1136       2.7        119        1866       0          68.986     4782       14         0          0          3.8894     1600       6150       3220.04    31.453     7768       6540      
742.4      1138       2.69       116        1204       0          68.994     4782       14         0          0          3.9003     1665       6152       3220.48    31.458     7769       6537      
742.6      1137       2.69       116        817        0          69.011     4783       13         0          0          3.895      1685       6153       3220.92    31.462     7770       6537      
742.8      1137       2.68       116        656        0          69.027     4784       14         0          0          3.8967     1660       6153       3221.35    31.467     7772       6533      
743        1137       2.68       116        700        0          69.056     4785       14         0          0          3.895      1600       6154       3221.79    31.472     7773       6536      
743.2      1138       2.68       116        516        0          69.083     4786       14         0          0          3.8995     1660       6155       3222.24    31.476     7774       6534      
743.4      1139       2.65       112        545        0          69.085     4786       14         0          0          3.9045     1660       6156       3222.67    31.485     7776       6535      
743.6      1140       2.64       112        635        0          69.09      4786       14         0          0          3.9088     1660       6157       3223.1     31.489     7777       6541      
743.8      1139       2.62       112        666        0          69.118     4787       14         0          0          3.9051     1660       6157       3223.54    31.487     7776       6540      
744        1140       2.61       112        600        0          69.134     4788       14         0          0          3.9093     1660       6158       3223.97    31.495     7778       6536      
744.2      1139       2.6        112        599        0          69.15      4789       14         0          0          3.9038     1660       6158       3224.41    31.497     7779       6538      
744.4      1138       2.6        112        564        0          69.159     4789       14         0          0          3.8976     1660       6159       3224.82    31.502     7780       6535      
744.6      1139       2.65       125        471        0          69.184     4790       13         0          0          3.903      1660       6160       3225.26    31.508     7782       6531      
744.8      1139       2.7        125        409        0          69.213     4791       13         0          0          3.9045     1660       6162       3225.7     31.513     7783       6529      
745        1140       2.73       125        433        0          69.233     4792       14         0          0          3.909      1689       6163       3226.11    31.518     7784       6530      
745.2      1139       2.76       125        418        0          69.245     4792       14         0          0          3.9048     1691       6164       3226.55    31.523     7785       6535      
745.4      1140       2.79       125        397        0          69.258     4793       14         0          0          3.9093     1660       6164       3226.99    31.529     7787       6542      
745.6      1140       2.8        125        368        0          69.276     4794       14         0          0          3.9075     1660       6165       3227.4     31.534     7788       6536      
745.8      1139       2.81       124        445        0          69.305     4795       14         0          0          3.9045     1726       6166       3227.82    31.539     7789       6541      
746        1140       2.82       124        388        0          69.308     4795       15         0          0          3.908      1730       6166       3228.26    31.542     7790       6533      
746.2      1139       2.83       124        365        0          69.332     4796       13         0          0          3.9051     1718       6167       3228.67    31.546     7791       6535      
746.4      1141       2.83       124        326        0          69.356     4797       13         0          0          3.9141     1660       6168       3229.11    31.547     7791       6538      
746.6      1141       2.83       124        308        0          69.396     4799       14         0          0          3.9133     1660       6169       3229.54    31.555     7793       6533      
746.8      1140       2.82       121        320        0          69.382     4798       14         0          0          3.9093     1660       6170       3229.98    31.558     7794       6531      
747        1140       2.8        119        256        0          69.382     4798       13         0          0          3.9093     1660       6172       3230.4     31.56      7795       6532      
747.2      1141       2.79       119        298        0          69.403     4799       15         0          0          3.9121     1722       6173       3230.82    31.565     7796       6535      
747.4      1140       2.78       119        236        0          69.43      4800       14         0          0          3.9104     1660       6174       3231.25    31.573     7798       6545      
747.6      1139       2.77       119        302        0          69.458     4801       14         0          0          3.9053     1671       6173       3231.69    31.574     7798       6551      
747.8      1139       2.76       119        297        0          69.48      4802       13         0          0          3.9045     1714       6174       3232.1     31.578     7799       6555      
748        1139       2.77       122        373        0          69.481     4802       14         0          0          3.9057     1660       6174       3232.54    31.583     7800       6557      
