~Version
 VERS              .         2.0                           : CWLS LOG ASCII STANDARD - VERSION 2.0
 WRAP              .         NO                            : ONE LINE PER DEPTH STEP
 DLM               .         SPACE                         : DELIMITING CHARACTER(SPACE TAB OR COMMA)
~Well Information
#_______________________________________________________________________________
#
#PARAMETER_NAME    .UNIT     VALUE                         : DESCRIPTION
#_______________________________________________________________________________
STRT               .M        2645.6                        : First reference value
STOP               .M        2754.199837                   : Last reference value
STEP               .M        0.1999997                     : Step increment
NULL               .         -9999                         : Missing value
COMP               .                                       : Company
WELL               .         616                           : Well name
FLD                .                                       : Field
LOC                .                                       : Location
CNTY               .                                       : County
STAT               .                                       : State
CTRY               .                                       : Country
SRVC               .                                       : Service Company
DATE               .                                       : Date
API                .                                       : API number
PROJECT_UPGRADE_TIME .         2021-03-18T21_24_50           : 
group              .         Good                          : 
~Parameter Information Block
#_______________________________________________________________________________
#
#PARAMETER_NAME    .UNIT     VALUE                         : DESCRIPTION
#_______________________________________________________________________________
SET                .         D7026_D                       : 
OTHER              .         Kedr.exe версия 2.1.2.32      : 
OTHER_10           .         TM.GRD = 0.00404*TM$.UE + 0.07: 
OTHER_11           .         MN.ATM = (6.33279e-006*TM.GRD + 0.02401)*(MN$.UE + 2.72*TM.GRD + -2018): 
OTHER_12           .         GK.MKR/H = GK$.UE / 43.5489 + 0: 
OTHER_13           .         RES.SM = 0.00476*CRES.UE - 1.51709: 
OTHER_14           .         PL.GSM3 = 0 + 0 * (PL.UE / 1) +  0 * (PL.UE / 1)^2: 
OTHER_15           .         Постоянная времени ГГП = 6 сек: 
OTHER_16           .         Постоянная времени ГК = 6 сек : 
OTHER_2            .         KedrData.dll версия 3.2.2.14  : 
OTHER_3            .         LasInf.dll версия 3.2.0.13    : 
OTHER_4            .         Драйвер версия 1.2.0.5        : 
OTHER_5            .         Прибор_ КСА-M1                : 
OTHER_6            .         Номер прибора_ 155+р204       : 
OTHER_7            .         Режим_ КСА-М1 + ГГП + Резистивиметр: 
OTHER_8            .         Форма_ 223\2                  : 
OTHER_9            .         Тарировки_                    : 
PROJECT_UPGRADE_TIME .         2021-03-18T21_24_50           : 
TLFamily_CRES      .                                       : 
TLFamily_DEPT      .         Measured Depth                : 
TLFamily_GK        .         Gamma Ray                     : 
TLFamily_GK$       .                                       : 
TLFamily_LM        .         Casing Collar locator         : 
TLFamily_METKA     .                                       : 
TLFamily_MN        .                                       : 
TLFamily_MN$       .                                       : 
TLFamily_PL        .                                       : 
TLFamily_PL_2      .                                       : 
TLFamily_RCOR      .                                       : 
TLFamily_RES       .         Mud Resistivity               : 
TLFamily_SPID      .         Spontaneous Potential         : 
TLFamily_STD       .                                       : 
TLFamily_TIME      .         Time                          : 
TLFamily_TM        .         Temperature                   : 
TLFamily_TM$       .         Temperature                   : 
TLFamily_VGD       .         Gas Volume                    : 
group              .         prim                          : 
~Curve Information
#_______________________________________________________________________________
#
#LOGNAME           .UNIT     LOG_ID                        : DESCRIPTION
#_______________________________________________________________________________
DEPT               .M                                      : 1 Глубина, м -    0.0 см 
CRES               .UE                                     : 9 Проводимость, усл.ед. -  222.0 см 
GK                 .MKR/H                                  : 16 Гамма-активность, мкр./ч -  106.0 см 
GK$                .UE                                     : 13 Гамма-активность, усл.ед. -  106.0 см 
LM                 .                                       : 11 Локатор муфт,  -   16.0 см 
METKA              .                                       : 3 Метки,  -    0.0 см 
MN                 .ATM                                    : 15 Давление, атм. -  160.0 см 
MN$                .UE                                     : 7 Давление, усл.ед. -  160.0 см 
PL                 .UE                                     : 10 Плотность, усл.ед. -  270.0 см 
PL_2               .GSM3                                   : 18 Плотность, г./см3 -  270.0 см 
RCOR               .CM/KM                                  : 5 Коррекция по ролику, см/км -    0.0 см 
RES                .SM                                     : 17 Проводимость,  -  222.0 см 
SPID               .M/H                                    : 2 Скорость, м/час -    0.0 см 
STD                .                                       : 12 Приток,  -  170.0 см 
TIME               .S                                      : 4 Время, сек -    0.0 см 
TM                 .GRD                                    : 14 Температура, °C -  180.0 см 
TM$                .UE                                     : 6 Температура, усл.ед. -  180.0 см 
VGD                .                                       : 8 Влагомер,  -  170.0 см 
~Ascii
# ...
2727.599877 1157       8.79       387        50         0          251.018    12195      14         0          0          3.9902     569        10032      17686.12   51.125     12637      6676      
2727.799877 1156       8.63       365        56         0          251.02     12196      14         0          0          3.9855     580        10012      17687.36   51.043     12617      6677      
2727.999876 1155       8.51       365        47         0          251.032    12197      14         0          0          3.9815     580        9989       17688.7    50.876     12576      6677      
2728.199876 1154       8.9        420        48         0          251.045    12198      14         0          0          3.976      557        9964       17690.01   50.78      12552      6677      
2728.399876 1153       9.28       420        65         0          251.061    12199      14         0          0          3.9696     510        9944       17691.33   50.698     12532      6677      
2728.599876 1152       9.59       433        82         0          251.072    12200      14         0          0          3.9664     566        9925       17692.61   50.633     12515      6678      
2728.799875 1150       9.74       428        77         0          251.052    12200      14         0          0          3.9569     580        9905       17693.91   50.532     12491      6677      
2728.999875 1149       9.43       396        66         0          251.079    12201      14         0          0          3.9521     530        9885       17695.18   50.38      12453      6678      
2729.199875 1148       9.26       396        61         0          251.094    12203      14         0          0          3.945      580        9860       17696.48   50.303     12434      6677      
2729.399874 1147       9.81       455        51         0          251.085    12203      14         0          0          3.9426     580        9838       17697.81   50.176     12402      6679      
2729.599874 1146       10.17      468        67         0          251.093    12204      14         0          0          3.9379     550        9813       17699.09   50.073     12377      6679      
2729.799874 1145       11.2       533        54         0          251.104    12205      14         0          0          3.9331     510        9789       17700.44   49.949     12346      6679      
2729.999873 1144       11.81      554        49         0          251.116    12206      14         0          0          3.9297     568        9770       17701.71   49.852     12322      6680      
2730.199873 1144       12.3       558        32         1          251.127    12207      14         0          0          3.9283     510        9755       17703.68   49.754     12298      6680      
2730.399873 1143       12.65      580        62         0          251.142    12208      14         0          0          3.9236     580        9742       17704.94   49.656     12274      6680      
2730.599872 1143       13.5       625        58         0          251.157    12209      14         0          0          3.9236     557        9725       17706.26   49.584     12256      6678      
2730.799872 1142       13.93      629        61         0          251.171    12210      14         0          0          3.9196     580        9709       17707.53   49.509     12237      6680      
2730.999872 1142       14.2       630        57         0          251.187    12211      14         0          0          3.9188     568        9693       17708.84   49.431     12218      6679      
2731.199872 1142       14.21      615        55         0          251.195    12212      14         0          0          3.9188     580        9677       17710.16   49.373     12204      6681      
2731.399871 1141       14.18      618        63         0          251.197    12212      14         0          0          3.9141     557        9663       17711.41   49.325     12192      6680      
2731.599871 1141       14.24      623        62         0          251.238    12214      14         0          0          3.9141     580        9649       17712.74   49.257     12175      6681      
2731.799871 1141       14.27      623        52         0          251.256    12215      14         0          0          3.9141     580        9631       17713.99   49.206     12162      6681      
2731.99987 1140       13.65      565        60         0          251.275    12216      14         0          0          3.9093     580        9623       17715.31   49.158     12150      6682      
2732.19987 1140       13.17      532        68         0          251.294    12217      14         0          0          3.9093     560        9613       17716.59   49.112     12139      6682      
2732.39987 1140       12.35      500        46         0          251.316    12218      14         0          0          3.9101     510        9608       17717.89   49.077     12130      6681      
2732.599869 1140       11.79      472        52         0          251.313    12218      14         0          0          3.9093     580        9600       17719.15   49.053     12124      6679      
2732.799869 1141       11.33      472        52         0          251.354    12220      14         0          0          3.9125     545        9592       17720.47   49.001     12112      6681      
2732.999869 1141       11.06      465        63         0          251.376    12221      14         0          0          3.9141     580        9586       17721.74   48.976     12105      6680      
2733.199869 1141       10.8       459        54         0          251.376    12221      14         0          0          3.9141     580        9581       17723.05   48.959     12101      6681      
2733.399868 1141       10.65      454        47         0          251.423    12223      14         0          0          3.9149     533        9577       17724.37   48.954     12100      6682      
2733.599868 1141       10.54      454        52         0          251.435    12224      14         0          0          3.9141     580        9575       17725.65   48.946     12098      6682      
2733.799868 1141       10.58      470        56         0          251.466    12225      14         0          0          3.9141     580        9573       17726.94   48.946     12098      6682      
2733.999867 1140       10.69      470        49         0          251.5      12226      14         0          0          3.9093     520        9571       17728.26   48.957     12101      6681      
2734.199867 1139       10.73      469        62         0          251.506    12226      14         0          0          3.9045     557        9572       17729.52   48.974     12105      6682      
2734.399867 1138       10.75      469        53         0          251.543    12228      14         0          0          3.8978     580        9573       17730.83   48.992     12109      6682      
2734.599866 1139       10.84      481        53         0          251.577    12229      14         0          0          3.903      580        9575       17732.17   49.023     12117      6680      
2734.799866 1141       10.94      481        58         0          251.612    12230      14         0          0          3.9133     533        9581       17733.48   49.057     12125      6681      
2734.999866 1142       11.04      487        49         0          251.64     12231      14         0          0          3.9172     580        9587       17734.73   49.087     12133      6681      
2735.199866 1139       11.11      487        55         0          251.659    12232      14         0          0          3.9045     580        9593       17736.07   49.12      12141      6680      
2735.399865 1142       11.07      476        58         0          251.697    12233      14         0          0          3.9204     510        9599       17737.31   49.157     12150      6679      
2735.599865 1130       11         476        44         0          251.728    12234      14         0          0          3.8617     580        9608       17738.63   49.183     12157      6679      
