~Version
 VERS              .         2.0                           : CWLS LOG ASCII STANDARD - VERSION 2.0
 WRAP              .         NO                            : ONE LINE PER DEPTH STEP
 DLM               .         SPACE                         : DELIMITING CHARACTER(SPACE TAB OR COMMA)
~Well Information
#_______________________________________________________________________________
#
#PARAMETER_NAME    .UNIT     VALUE                         : DESCRIPTION
#_______________________________________________________________________________
STRT               .M        2657.4                        : First reference value
STOP               .M        2769.200056                   : Last reference value
STEP               .M        0.2000001                     : Step increment
NULL               .         -9999                         : Missing value
COMP               .                                       : Company
WELL               .         616                           : Well name
FLD                .                                       : Field
LOC                .                                       : Location
CNTY               .                                       : County
STAT               .                                       : State
CTRY               .                                       : Country
SRVC               .                                       : Service Company
DATE               .                                       : Date
API                .                                       : API number
PROJECT_UPGRADE_TIME .         2021-03-18T21_24_50           : 
group              .         Good                          : 
~Parameter Information Block
#_______________________________________________________________________________
#
#PARAMETER_NAME    .UNIT     VALUE                         : DESCRIPTION
#_______________________________________________________________________________
SET                .         D8106_D_2                     : 
COMM               .                                       : 
OTHER              .         Программное обеспечение станции MONITOR-386EX 25/12/99 15_08_10   BGF V52 22/08/01 16_56_30   4_SNGF_BGF_N_011645: 
OTHER_10           .         Тарировки_                    : 
OTHER_11           .         TM.GRD = 0.00412*TM$.UE + -2.13: 
OTHER_12           .         MN.ATM = (5.87652e-006*TM.GRD + 0.01993)*(MN$.UE + -2.72*TM.GRD + -1925): 
OTHER_13           .         GK.MKR/H = GK$.UE / 57.4657   : 
OTHER_2            .         Kedr.exe версия 3.4.2.51      : 
OTHER_3            .         KedrData.dll версия 3.4.2.24  : 
OTHER_4            .         Драйвер версия 2.1.0.2        : 
OTHER_5            .         Мнемоники версия 3.3 S        : 
OTHER_6            .         Прибор_ АКП4-90               : 
OTHER_7            .         Номер прибора_ 53             : 
OTHER_8            .         Режим_ АКП4_90                : 
OTHER_9            .         Форма_ ПК-53ое                : 
PROJECT_UPGRADE_TIME .         2021-03-18T21_24_50           : 
PRTY               .         ПРП-614                       : N партии
SRVC               .         Глухов М.В.                   : Начальник партии
TLFamily_DEPT      .         Measured Depth                : 
TLFamily_GK        .         Russian Gamma Ray             : 
TLFamily_LM        .         Casing Collar locator         : 
TLFamily_TM        .         Temperature                   : 
group              .         second                        : 
~Curve Information
#_______________________________________________________________________________
#
#LOGNAME           .UNIT     LOG_ID                        : DESCRIPTION
#_______________________________________________________________________________
DEPT               .M                                      : Depth curve 
GK                 .мкР/ч                                  : Естественная гамма-активность,мкР/ч 
LM                 .е.ацп                                  : Локатор муфт,е.ацп 
TM                 .град.C                                 : Термограмма по стволу скважины,град.C 
~Ascii
# ...
2693.200018 7.01       1057.144   58.27     
2693.400018 6.96       1504.782   58.161    
2693.600018 6.77       809.338    57.991    
2693.800018 6.7        1311.756   57.877    
2694.000018 6.87       719.288    57.726    
2694.200018 6.89       484.114    57.639    
2694.400018 7.37       636.926    57.528    
2694.600019 7.59       795.923    57.437    
2694.800019 7.77       1280.765   57.263    
2695.000019 7.98       1692.8     57.161    
2695.200019 8.02       738.464    56.996    
2695.400019 8.01       336.195    56.877    
2695.600019 7.98       1215.573   56.722    
2695.800019 7.95       549.324    56.606    
2696.000019 8.23       773.891    56.433    
2696.200019 8.32       486.14     56.319    
2696.400019 8.33       751.871    56.241    
2696.60002 8.35       550.098    56.143    
2696.80002 8.37       556.997    55.993    
2697.00002 8.45       409.072    55.869    
2697.20002 8.47       1061.683   55.767    
2697.40002 6.721      779.137    55.605    
2697.60002 6.39       721.028    55.45     
2697.80002 5.43       698.011    55.287    
2698.00002 5.22       589.053    55.22     
2698.20002 5.13       1062.77    55.077    
2698.400021 5.13       860.099    55.005    
2698.600021 5.43       641.106    54.878    
2698.800021 5.84       278.176    54.855    
2699.000021 5.43       536.874    54.656    
2699.200021 5.4        777.883    54.541    
2699.400021 4.97       672.051    54.435    
2699.600021 5.03       443.111    54.33     
2699.800021 5.18       611.918    54.203    
2700.000021 5.55       271.165    54.139    
2700.200021 5.59       664.809    54.073    
2700.400022 6.12       501.08     54.003    
2700.600022 6.15       515.993    53.944    
2700.800022 6.16       327.092    53.847    
2701.000022 6.39       400.964    53.781    
2701.200022 6.42       779.816    53.67     
2701.400022 6.54       873.954    53.567    
2701.600022 6.53       773.049    53.412    
2701.800022 6.47       643.063    53.286    
2702.000022 6.9        866.891    53.155    
2702.200022 6.96       23559.99   53.089    
2702.400022 6.78       9361.894   52.934    
2702.600023 6.77       1827.652   52.82     
2702.800023 6.26       838.478    52.712    
2703.000023 6.85       446.19     52.629    
2703.200023 6.98       242.099    52.505    
2703.400023 7.09       160.04     52.452    
2703.600023 6.85       744.716    52.369    
2703.800023 6.62       504.117    52.268    
2704.000023 6.61       544.98     52.121    
2704.200023 6.61       214.16     51.998    
2704.400024 6.58       398.91     51.91     
2704.600024 6.71       327.035    51.82     
2704.800024 6.92       437.946    51.731    
2705.000024 7.34       307.064    51.641    
2705.200024 7.48       476.918    51.577    
2705.400024 6.91       407.034    51.464    
2705.600024 6.9        664.875    51.392    
2705.800024 7.03       475.092    51.3      
2706.000024 7.47       301.084    51.231    
2706.200024 7.67       566.871    51.129    
2706.400025 7.57       457.053    51.074    
2706.600025 7.55       545.957    50.946    
2706.800025 7.47       377.082    50.877    
2707.000025 7.08       421.978    50.801    
2707.200025 6.86       307.056    50.762    
2707.400025 6.74       613.851    50.672    
2707.600025 6.73       401.103    50.618    
2707.800025 7.36       461.97     50.536    
2708.000025 7.56       390.035    50.486    
2708.200025 8.1        566.914    50.414    
2708.400026 8.13       337.111    50.369    
2708.600026 8.13       372.983    50.322    
2708.800026 7.87       143.111    50.268    
2709.000026 7.82       248.949    50.198    
2709.200026 7.78       227.011    50.108    
2709.400026 7.84       363.934    50.053    
2709.600026 7.85       282.04     49.991    
2709.800026 8.23       311.985    49.953    
2710.000026 8.17       343.985    49.87     
2710.200026 8.14       447.95     49.801    
2710.400026 7.52       385.031    49.724    
2710.600027 7.45       326.029    49.672    
2710.800027 6.88       502.914    49.604    
2711.000027 6.48       454.024    49.555    
2711.200027 6.27       628.915    49.475    
2711.400027 6.57       512.057    49.419    
2711.600027 6.62       326.09     49.331    
2711.800027 8.379      357.985    49.288    
2712.000027 8.61       398.98     49.22     
2712.200027 8.78       210.092    49.16     
2712.400028 7.581      512.853    49.077    
2712.600028 7.23       233.136    48.981    
2712.800028 7.56       491.875    48.879    
2713.000028 7.73       379.055    48.795    
2713.200028 8.2        12908.93   48.736    
2713.400028 6.491      8740.022   48.666    
2713.600028 6.27       5533.552   48.571    
2713.800028 5.191      1481.961   48.464    
2714.000028 5.12       664.395    48.39     
2714.200028 5.27       337.158    48.323    
2714.400029 5.3        545.899    48.279    
2714.600029 5.31       431.056    48.165    
2714.800029 5.51       431        48.089    
2715.000029 6.28       502.965    47.977    
2715.200029 7.469      358.07     47.922    
2715.400029 9.339      455.953    47.841    
2715.600029 10.03      366.044    47.788    
2715.800029 9.35       421.973    47.723    
2716.000029 9          161.126    47.663    
2716.200029 7.241      288.938    47.559    
2716.40003 6.61       83.1       47.503    
2716.60003 6.27       221.933    47.427    
2716.80003 6.49       118.05     47.339    
2717.00003 6.51       215.953    47.262    
2717.20003 6.98       134.04     47.174    
2717.40003 6.8        416.863    47.071    
2717.60003 6.62       271.071    47.001    
2717.80003 6.98       275.998    46.936    
2718.00003 7.01       148.062    46.925    
2718.20003 6.66       613.775    46.886    
2718.40003 6.42       441.084    46.754    
2718.600031 6.37       291.073    46.645    
2718.800031 7.16       772.767    46.559    
2719.000031 7.22       581.093    46.508    
2719.200031 6.93       353.11     46.44     
2719.400031 6.89       692.836    46.396    
2719.600031 6.87       449.118    46.338    
2719.800031 6.67       390.029    46.304    
2720.000031 6.65       363.013    46.271    
2720.200031 6.71       217.071    46.22     
2720.400032 6.82       521.853    46.142    
2720.600032 6.87       301.107    46.09     
2720.800032 6.08       704.805    46.028    
2721.000032 5.95       211.239    46.001    
2721.200032 5.68       372.922    45.963    
2721.400032 5.96       156.105    45.937    
2721.600032 6.24       374.894    45.913    
2721.800032 6.62       222.074    45.876    
2722.000032 6.73       547.842    45.832    
2722.200032 7.22       204.166    45.781    
2722.400033 7.44       1516.365   45.722    
2722.600033 7.86       677.406    45.627    
2722.800033 7.59       749.965    45.557    
2723.000033 7.47       263.235    45.477    
2723.200033 6.251      640.817    45.429    
2723.400033 6.06       1772.453   45.346    
2723.600033 5.12       2086.848   45.31     
2723.800033 4.94       1131.462   45.258    
2724.000033 4.86       9805.805   45.209    
2724.200033 4.58       8454.655   45.11     
2724.400034 4.56       5775.295   45.045    
2724.600034 4.39       1003.307   44.941    
2724.800034 4.88       1871.579   44.859    
2725.000034 5.04       1420.218   44.795    
2725.200034 5.08       1030.188   44.746    
2725.400034 5.08       466.273    44.682    
2725.600034 5.13       792.842    44.64     
2725.800034 5.04       1232.787   44.605    
2726.000034 5          808.205    44.578    
2726.200034 4.81       239.275    44.531    
2726.400034 4.79       198.02     44.503    
2726.600035 5.05       336.933    44.462    
2726.800035 4.95       578.883    44.418    
2727.000035 4.89       462.057    44.372    
2727.200035 5.13       316.071    44.326    
2727.400035 5.18       220.046    44.274    
2727.600035 6.399      85.065     44.241    
2727.800035 6.75       428.834    44.22     
2728.000035 7.11       134.142    44.197    
2728.200035 6.79       176.979    44.167    
2728.400036 6.67       123.026    44.143    
2728.600036 6.47       312.908    44.127    
2728.800036 6.33       636.844    44.104    
