~Version
 VERS              .         2.0                           : CWLS LOG ASCII STANDARD - VERSION 2.0
 WRAP              .         NO                            : ONE LINE PER DEPTH STEP
 DLM               .         SPACE                         : DELIMITING CHARACTER(SPACE TAB OR COMMA)
~Well Information
#_______________________________________________________________________________
#
#PARAMETER_NAME    .UNIT     VALUE                         : DESCRIPTION
#_______________________________________________________________________________
STRT               .M        2668.2                        : First reference value
STOP               .M        2774.000053                   : Last reference value
STEP               .M        0.2000001                     : Step increment
NULL               .         -9999                         : Missing value
COMP               .                                       : Company
WELL               .         616                           : Well name
FLD                .                                       : Field
LOC                .                                       : Location
CNTY               .                                       : County
STAT               .                                       : State
CTRY               .                                       : Country
SRVC               .                                       : Service Company
DATE               .                                       : Date
API                .                                       : API number
PROJECT_UPGRADE_TIME .         2021-03-18T21_24_50           : 
group              .         Good                          : 
~Parameter Information Block
#_______________________________________________________________________________
#
#PARAMETER_NAME    .UNIT     VALUE                         : DESCRIPTION
#_______________________________________________________________________________
SET                .         D1812_D_2                     : 
NPR                .                                       : 
OTHER              .         Программное обеспечение станции MONITOR-386EX 25/12/99 15_08_10   BGF V52 22/08/01 16_56_30   3.1_SNGF___BGF_N_092049: 
OTHER_10           .         Тарировки_                    : 
OTHER_11           .         TM.GRD = 0.00403*TM$.UE + -1.07: 
OTHER_12           .         MN.ATM = (9.34907e-006*TM.GRD + 0.02171)*(MN$.UE + -7.93*TM.GRD + -1787): 
OTHER_13           .         GK.MKR/H = LM. / 42.4676      : 
OTHER_14           .         GK.FLT = 0.1*GK.MKR/H[-1] + (1-0.1)*GK.MKR/H[0]: 
OTHER_2            .         Kedr.exe версия 3.4.2.51      : 
OTHER_3            .         KedrData.dll версия 3.4.2.24  : 
OTHER_4            .         Драйвер версия 2.1.1.3        : 
OTHER_5            .         Мнемоники версия 3.3 S        : 
OTHER_6            .         Прибор_ КСА-Т4                : 
OTHER_7            .         Номер прибора_ 03             : 
OTHER_8            .         Режим_ КСА-Т4                 : 
OTHER_9            .         Форма_ КВА.                   : 
PR                 .                                       : 
PROJECT_UPGRADE_TIME .         2021-03-18T21_24_49           : 
PRTY               .         ПП-603-1                      : N партии
SRV                .                                       : 
SRVC               .         Карпов                        : Начальник партии
TLFamily_DEPT      .         Measured Depth                : 
TLFamily_LM        .         Casing Collar locator         : 
TLFamily_MN        .                                       : 
TLFamily_TM        .         Temperature                   : 
group              .         second                        : 
~Curve Information
#_______________________________________________________________________________
#
#LOGNAME           .UNIT     LOG_ID                        : DESCRIPTION
#_______________________________________________________________________________
DEPT               .M                                      : Depth curve 
LM                 .е.ацп                                  : Локатор муфт,е.ацп 
MN                 .атм                                    : Манометрия, атм 
TM                 .град.C                                 : Термограмма по стволу скважины,град.C 
~Ascii
# ...
2704.000018 138.01     248.648    50.195    
2704.200018 142.999    248.663    50.185    
2704.400018 177.992    248.675    50.175    
2704.600018 154.006    248.698    50.163    
2704.800018 117.009    248.72     50.155    
2705.000018 75.01      248.721    50.151    
2705.200018 103.993    248.744    50.142    
2705.400019 117.997    248.766    50.131    
2705.600019 170.987    248.789    50.123    
2705.800019 135.009    248.812    50.115    
2706.000019 191.986    248.835    50.107    
2706.200019 185.002    248.839    50.099    
2706.400019 123.015    248.858    50.092    
2706.600019 105.004    248.884    50.089    
2706.800019 113.998    248.899    50.079    
2707.000019 122.998    248.926    50.071    
2707.200019 100.006    248.945    50.067    
2707.40002 131.992    248.949    50.056    
2707.60002 133        248.972    50.051    
2707.80002 142.998    248.995    50.042    
2708.00002 135.002    249.017    50.034    
2708.20002 146.997    249.033    50.026    
2708.40002 112.008    249.048    50.018    
2708.60002 135.994    249.086    50.01     
2708.80002 148.997    249.093    50.004    
2709.00002 121.007    249.109    50.002    
2709.20002 129.998    249.131    49.991    
2709.400021 132.999    249.158    49.982    
2709.600021 110.006    249.177    49.974    
2709.800021 134.994    249.222    49.97     
2710.000021 140.999    249.244    49.962    
2710.200021 149.998    249.267    49.954    
2710.400021 116.008    249.267    49.95     
2710.600021 201.979    249.283    49.942    
2710.800021 243.99     249.299    49.938    
2711.000021 206.009    249.313    49.93     
2711.200021 141.016    249.336    49.922    
2711.400022 99.01      249.358    49.918    
2711.600022 62.009     249.381    49.914    
2711.800022 121.986    249.404    49.905    
2712.000022 146.994    249.419    49.897    
2712.200022 155.998    249.43     49.889    
2712.400022 129.007    249.471    49.885    
2712.600022 158.993    249.481    49.879    
2712.800022 116.01     249.516    49.873    
2713.000022 175.986    249.517    49.869    
2713.200022 157.005    249.54     49.861    
2713.400023 2222.503   249.54     49.854    
2713.600023 780.347    249.567    49.849    
2713.800023 264.124    249.585    49.841    
2714.000023 131.032    249.608    49.829    
2714.200023 160.993    249.627    49.829    
2714.400023 157.001    249.653    49.825    
2714.600023 141.004    249.676    49.817    
2714.800023 195.987    249.69     49.813    
2715.000023 177.005    249.702    49.807    
2715.200023 203.994    249.721    49.801    
2715.400024 174.007    249.744    49.797    
2715.600024 146.007    249.766    49.789    
2715.800024 163.996    249.774    49.785    
2716.000024 89.018     249.812    49.777    
2716.200024 111.994    249.812    49.772    
2716.400024 145.992    249.835    49.768    
2716.600024 143.001    249.857    49.761    
2716.800024 155.997    249.879    49.756    
2717.000024 135.005    249.88     49.749    
2717.200024 172.991    249.911    49.744    
2717.400025 175.999    249.943    49.744    
2717.600025 150.006    249.947    49.738    
2717.800025 137.003    249.97     49.732    
2718.000025 134.001    249.992    49.728    
2718.200025 133        250.037    49.724    
2718.400025 136.999    250.038    49.72     
2718.600025 164.993    250.06     49.714    
2718.800025 188.994    250.082    49.712    
2719.000025 188        250.056    49.701    
2719.200025 153.008    250.105    49.7      
2719.400026 161.998    250.119    49.696    
2719.600026 136.006    250.15     49.692    
2719.800026 136        250.173    49.684    
2720.000026 146.997    250.195    49.68     
2720.200026 139.002    250.218    49.676    
2720.400026 152.997    250.241    49.668    
2720.600026 166.997    250.241    49.664    
2720.800026 164.001    250.264    49.659    
2721.000026 126.009    250.286    49.656    
2721.200026 104.005    250.308    49.648    
2721.400027 120.996    250.331    49.644    
2721.600027 132.997    250.354    49.639    
2721.800027 165.992    250.354    49.635    
2722.000027 183.996    250.376    49.63     
2722.200027 246.985    250.399    49.623    
2722.400027 225.005    250.421    49.621    
2722.600027 252.993    250.444    49.616    
2722.800027 241.003    250.466    49.615    
2723.000027 181.014    250.489    49.614    
2723.200028 145.009    250.489    49.607    
2723.400028 194.988    250.511    49.603    
2723.600028 234.99     250.534    49.599    
2723.800028 257.994    250.568    49.592    
2724.000028 275.996    250.579    49.583    
2724.200028 1078.807   250.602    49.577    
2724.400028 475.145    250.623    49.583    
2724.600028 266.05     250.623    49.583    
2724.800028 212.013    250.668    49.583    
2725.000028 190.005    250.686    49.579    
2725.200028 251.985    250.698    49.575    
2725.400029 211.01     250.712    49.584    
2725.600029 161.012    250.734    49.588    
2725.800029 168.998    250.755    49.596    
2726.000029 238.983    250.754    49.61     
2726.200029 125.027    250.799    49.615    
2726.400029 113.003    250.812    49.615    
2726.600029 194.98     250.821    49.615    
2726.800029 131.015    250.843    49.608    
2727.000029 176.989    250.865    49.617    
2727.200029 138.009    250.882    49.628    
2727.40003 306.959    250.896    49.646    
2727.60003 210.023    250.929    49.652    
2727.80003 217.998    250.951    49.656    
2728.00003 171.011    250.973    49.656    
2728.20003 226.987    250.995    49.656    
2728.40003 203.006    251.002    49.658    
2728.60003 195.002    251.015    49.669    
2728.80003 188.002    251.023    49.691    
2729.00003 165.006    251.035    49.709    
2729.20003 199.992    251.07     49.72     
2729.400031 211.997    251.101    49.725    
2729.600031 187.006    251.119    49.724    
2729.800031 86.024     251.146    49.72     
2730.000031 85         251.147    49.715    
2730.200031 70.004     251.169    49.709    
2730.400031 1403.68    251.192    49.704    
2730.600031 691.171    251.203    49.697    
2730.800031 226.111    251.233    49.717    
2731.000031 1022.809   251.228    49.769    
2731.200032 196.198    251.244    49.853    
2731.400032 123.017    251.257    49.964    
2731.600032 103.005    251.27     50.098    
2731.800032 88.004     251.283    50.24     
2732.000032 168.981    251.311    50.347    
2732.200032 184.996    251.311    50.454    
2732.400032 146.009    251.314    50.674    
2732.600032 156.997    251.299    50.928    
2732.800032 182.994    251.307    51.145    
2733.000032 139.011    251.319    51.3      
2733.200032 111.007    251.334    51.417    
2733.400033 215.975    251.348    51.527    
2733.600033 205.003    251.363    51.65     
2733.800033 249.989    251.373    51.712    
2734.000033 125.03     251.383    51.764    
2734.200033 128.999    251.402    51.779    
2734.400033 196.984    251.437    51.735    
2734.600033 107.022    251.478    51.671    
2734.800033 80.006     251.492    51.61     
2735.000033 92.997     251.506    51.559    
2735.200033 125.992    251.532    51.52     
2735.400034 3014.309   251.555    51.48     
2735.600034 1911.264   251.577    51.481    
2735.800034 344.375    251.599    51.489    
2736.000034 150.046    251.598    51.501    
2736.200034 110.01     251.62     51.505    
2736.400034 106.001    251.642    51.51     
2736.600034 114.998    251.656    51.51     
2736.800034 117.999    251.688    51.492    
2737.000034 128.997    251.704    51.47     
2737.200034 134.999    251.737    51.433    
2737.400035 144.998    251.741    51.389    
2737.600035 154.998    251.78     51.335    
2737.800035 143.003    251.793    51.28     
2738.000035 107.009    251.821    51.214    
2738.200035 109.999    251.852    51.106    
2738.400035 97.003     251.881    50.994    
2738.600035 94.001     251.907    50.924    
2738.800035 63.007     251.933    50.861    
2739.000035 92.993     251.958    50.813    
2739.200036 86.002     251.983    50.774    
2739.400036 90.999     252.005    50.756    
2739.600036 100.998    252.009    50.752    
