~Version
 VERS              .         2.0                           : CWLS LOG ASCII STANDARD - VERSION 2.0
 WRAP              .         NO                            : ONE LINE PER DEPTH STEP
 DLM               .         SPACE                         : DELIMITING CHARACTER(SPACE TAB OR COMMA)
~Well Information
#_______________________________________________________________________________
#
#PARAMETER_NAME    .UNIT     VALUE                         : DESCRIPTION
#_______________________________________________________________________________
STRT               .M        2645.6                        : First reference value
STOP               .M        2754.199837                   : Last reference value
STEP               .M        0.1999997                     : Step increment
NULL               .         -9999                         : Missing value
COMP               .                                       : Company
WELL               .         616                           : Well name
FLD                .                                       : Field
LOC                .                                       : Location
CNTY               .                                       : County
STAT               .                                       : State
CTRY               .                                       : Country
SRVC               .                                       : Service Company
DATE               .                                       : Date
API                .                                       : API number
PROJECT_UPGRADE_TIME .         2021-03-18T21_24_50           : 
group              .         Good                          : 
~Parameter Information Block
#_______________________________________________________________________________
#
#PARAMETER_NAME    .UNIT     VALUE                         : DESCRIPTION
#_______________________________________________________________________________
SET                .         D7026_D                       : 
OTHER              .         Kedr.exe версия 2.1.2.32      : 
OTHER_10           .         TM.GRD = 0.00404*TM$.UE + 0.07: 
OTHER_11           .         MN.ATM = (6.33279e-006*TM.GRD + 0.02401)*(MN$.UE + 2.72*TM.GRD + -2018): 
OTHER_12           .         GK.MKR/H = GK$.UE / 43.5489 + 0: 
OTHER_13           .         RES.SM = 0.00476*CRES.UE - 1.51709: 
OTHER_14           .         PL.GSM3 = 0 + 0 * (PL.UE / 1) +  0 * (PL.UE / 1)^2: 
OTHER_15           .         Постоянная времени ГГП = 6 сек: 
OTHER_16           .         Постоянная времени ГК = 6 сек : 
OTHER_2            .         KedrData.dll версия 3.2.2.14  : 
OTHER_3            .         LasInf.dll версия 3.2.0.13    : 
OTHER_4            .         Драйвер версия 1.2.0.5        : 
OTHER_5            .         Прибор_ КСА-M1                : 
OTHER_6            .         Номер прибора_ 155+р204       : 
OTHER_7            .         Режим_ КСА-М1 + ГГП + Резистивиметр: 
OTHER_8            .         Форма_ 223\2                  : 
OTHER_9            .         Тарировки_                    : 
PROJECT_UPGRADE_TIME .         2021-03-18T21_24_50           : 
TLFamily_CRES      .                                       : 
TLFamily_DEPT      .         Measured Depth                : 
TLFamily_GK        .         Gamma Ray                     : 
TLFamily_GK$       .                                       : 
TLFamily_LM        .         Casing Collar locator         : 
TLFamily_METKA     .                                       : 
TLFamily_MN        .                                       : 
TLFamily_MN$       .                                       : 
TLFamily_PL        .                                       : 
TLFamily_PL_2      .                                       : 
TLFamily_RCOR      .                                       : 
TLFamily_RES       .         Mud Resistivity               : 
TLFamily_SPID      .         Spontaneous Potential         : 
TLFamily_STD       .                                       : 
TLFamily_TIME      .         Time                          : 
TLFamily_TM        .         Temperature                   : 
TLFamily_TM$       .         Temperature                   : 
TLFamily_VGD       .         Gas Volume                    : 
group              .         prim                          : 
~Curve Information
#_______________________________________________________________________________
#
#LOGNAME           .UNIT     LOG_ID                        : DESCRIPTION
#_______________________________________________________________________________
DEPT               .M                                      : 1 Глубина, м -    0.0 см 
CRES               .UE                                     : 9 Проводимость, усл.ед. -  222.0 см 
GK                 .MKR/H                                  : 16 Гамма-активность, мкр./ч -  106.0 см 
GK$                .UE                                     : 13 Гамма-активность, усл.ед. -  106.0 см 
LM                 .                                       : 11 Локатор муфт,  -   16.0 см 
METKA              .                                       : 3 Метки,  -    0.0 см 
MN                 .ATM                                    : 15 Давление, атм. -  160.0 см 
MN$                .UE                                     : 7 Давление, усл.ед. -  160.0 см 
PL                 .UE                                     : 10 Плотность, усл.ед. -  270.0 см 
PL_2               .GSM3                                   : 18 Плотность, г./см3 -  270.0 см 
RCOR               .CM/KM                                  : 5 Коррекция по ролику, см/км -    0.0 см 
RES                .SM                                     : 17 Проводимость,  -  222.0 см 
SPID               .M/H                                    : 2 Скорость, м/час -    0.0 см 
STD                .                                       : 12 Приток,  -  170.0 см 
TIME               .S                                      : 4 Время, сек -    0.0 см 
TM                 .GRD                                    : 14 Температура, °C -  180.0 см 
TM$                .UE                                     : 6 Температура, усл.ед. -  180.0 см 
VGD                .                                       : 8 Влагомер,  -  170.0 см 
~Ascii
# ...
2653.799988 1241       9.73       419        174        0          243.972    11870      14         0          0          4.3901     580        11293      17202.49   57.738     14274      6671      
2653.999987 1240       9.67       419        88         0          244.074    11874      14         0          0          4.3853     533        11292      17203.8    57.734     14273      6663      
2654.199987 1241       9.7        425        87         0          244.097    11875      14         0          0          4.3901     540        11289      17205.08   57.732     14273      6672      
2654.399987 1241       9.73       425        99         0          244.096    11875      14         0          0          4.3877     580        11289      17206.37   57.725     14271      6668      
2654.599986 1240       9.81       431        101        0          244.047    11873      14         0          0          4.3853     580        11289      17207.69   57.718     14269      6663      
2654.799986 1238       9.85       431        87         0          244.054    11873      14         0          0          4.3758     580        11288      17208.95   57.713     14268      6665      
2654.999986 1240       9.89       433        102        0          244.094    11875      14         0          0          4.3837     557        11288      17210.26   57.705     14266      6664      
2655.199986 1240       9.92       433        139        0          244.162    11878      14         0          0          4.3853     580        11285      17211.6    57.699     14264      6671      
2655.399985 1240       10         440        103        0          244.189    11879      14         0          0          4.3853     566        11285      17212.86   57.693     14263      6668      
2655.599985 1241       10.05      439        91         0          244.213    11880      14         0          0          4.3893     545        11283      17214.16   57.684     14261      6671      
2655.799985 1240       10.03      436        55         0          244.188    11879      14         0          0          4.3829     522        11282      17215.5    57.679     14260      6667      
2655.999984 1240       9.87       401        71         0          244.187    11879      14         0          0          4.3853     557        11281      17216.88   57.672     14258      6674      
2656.199984 1238       9.34       384        138        0          244.211    11880      15         0          0          4.3758     580        11279      17218.2    57.665     14256      6672      
2656.399984 1238       8.99       363        111        0          244.259    11882      14         0          0          4.3771     580        11278      17219.45   57.661     14255      6666      
2656.599983 1239       8.08       310        90         0          244.282    11883      14         0          0          4.3782     580        11276      17220.71   57.656     14254      6673      
2656.799983 1239       7.65       323        103        0          244.306    11884      14         0          0          4.3798     533        11274      17222.03   57.645     14251      6674      
2656.999983 1238       7.57       326        72         0          244.324    11885      14         0          0          4.3758     533        11274      17223.35   57.64      14250      6674      
2657.199983 1237       7.65       345        81         0          244.329    11885      14         0          0          4.3694     580        11272      17224.68   57.636     14249      6677      
2657.399982 1238       7.78       345        51         0          244.328    11885      14         0          0          4.3742     580        11271      17225.93   57.632     14248      6672      
2657.599982 1237       7.81       337        74         0          244.375    11887      14         0          0          4.371      545        11269      17227.25   57.625     14246      6679      
2657.799982 1237       7.78       337        86         0          244.399    11888      14         0          0          4.3702     580        11268      17228.51   57.614     14244      6676      
2657.999981 1237       7.96       368        90         0          244.422    11889      14         0          0          4.371      510        11268      17229.83   57.609     14242      6678      
2658.199981 1237       8.21       368        53         0          244.445    11890      14         0          0          4.371      557        11265      17231.15   57.6       14240      6678      
2658.399981 1238       8.54       394        67         0          244.444    11890      14         0          0          4.3742     580        11263      17232.41   57.592     14238      6677      
2658.599981 1238       8.79       394        52         0          244.444    11890      14         0          0          4.3758     569        11262      17233.73   57.583     14236      6677      
2658.79998 1238       9.03       411        56         0          244.468    11891      14         0          0          4.3744     520        11261      17235.03   57.581     14235      6676      
2658.99998 1238       9.23       411        61         0          244.495    11892      14         0          0          4.3758     557        11261      17236.31   57.575     14234      6676      
2659.19998 1237       9.62       445        38         0          244.527    11894      14         0          0          4.3726     580        11259      17237.62   57.567     14232      6678      
2659.399979 1236       9.92       445        2620       0          244.538    11894      14         0          0          4.3647     580        11258      17238.96   57.559     14230      6678      
2659.599979 1238       9.38       378        4467       0          244.562    11895      14         0          0          4.375      522        11257      17240.21   57.556     14229      6671      
2659.799979 1239       9          371        1076       0          244.562    11895      14         0          0          4.3805     580        11257      17241.48   57.551     14228      6677      
2659.999978 1238       8.37       336        276        0          244.585    11896      14         0          0          4.3758     510        11256      17242.79   57.547     14227      6679      
2660.199978 1239       8.05       336        107        1          244.629    11898      14         0          0          4.3805     545        11254      17244.71   57.539     14225      6680      
2660.399978 1237       8.15       362        86         0          244.631    11898      14         0          0          4.371      520        11253      17246.03   57.531     14223      6678      
2660.599978 1239       8.22       359        66         0          244.654    11899      14         0          0          4.3805     568        11250      17247.36   57.519     14220      6680      
2660.799977 1238       8.1        347        72         0          244.678    11900      14         0          0          4.3782     580        11248      17248.61   57.511     14218      6678      
2660.999977 1239       8.12       366        69         0          244.677    11900      14         0          0          4.3805     530        11248      17249.94   57.504     14216      6675      
2661.199977 1239       8.45       376        71         0          244.705    11901      14         0          0          4.3805     510        11246      17251.24   57.495     14214      6679      
2661.399976 1237       8.93       425        78         0          244.732    11902      14         0          0          4.3726     557        11246      17252.57   57.491     14213      6679      
2661.599976 1237       9.33       425        93         0          244.748    11903      14         0          0          4.3691     580        11246      17253.89   57.485     14212      6677      
2661.799976 1239       9.57       428        97         0          244.771    11904      14         0          0          4.379      568        11243      17255.14   57.478     14210      6675      
