~Version
 VERS              .         2.0                           : CWLS LOG ASCII STANDARD - VERSION 2.0
 WRAP              .         NO                            : ONE LINE PER DEPTH STEP
 DLM               .         SPACE                         : DELIMITING CHARACTER(SPACE TAB OR COMMA)
~Well Information
#_______________________________________________________________________________
#
#PARAMETER_NAME    .UNIT     VALUE                         : DESCRIPTION
#_______________________________________________________________________________
STRT               .M        1.8                           : First reference value
STOP               .M        2776                          : Last reference value
STEP               .M        0.2                           : Step increment
NULL               .         -9999                         : Missing value
COMP               .                                       : Company
WELL               .         616                           : Well name
FLD                .                                       : Field
LOC                .                                       : Location
CNTY               .                                       : County
STAT               .                                       : State
CTRY               .                                       : Country
SRVC               .                                       : Service Company
DATE               .                                       : Date
API                .                                       : API number
PROJECT_UPGRADE_TIME .         2021-03-18T21_24_50           : 
group              .         Good                          : 
~Parameter Information Block
#_______________________________________________________________________________
#
#PARAMETER_NAME    .UNIT     VALUE                         : DESCRIPTION
#_______________________________________________________________________________
SET                .         D1799_D                       : 
OTHER              .         Программное обеспечение станции MONITOR-386EX 25/12/99 15_08_10   BGF V52 22/08/01 16_56_30   3.1_SNGF___BGF_N_092049: 
OTHER_10           .         Тарировки_                    : 
OTHER_11           .         TM.GRD = 0.00403*TM$.UE + -1.07: 
OTHER_12           .         MN.ATM = (9.34907e-006*TM.GRD + 0.02171)*(MN$.UE + -7.93*TM.GRD + -1787): 
OTHER_13           .         GK.MKR/H = LM. / 42.4676      : 
OTHER_14           .         GK.FLT = 0.1*GK.MKR/H[-1] + (1-0.1)*GK.MKR/H[0]: 
OTHER_2            .         Kedr.exe версия 3.4.2.51      : 
OTHER_3            .         KedrData.dll версия 3.4.2.24  : 
OTHER_4            .         Драйвер версия 2.1.1.3        : 
OTHER_5            .         Мнемоники версия 3.3 S        : 
OTHER_6            .         Прибор_ КСА-Т4                : 
OTHER_7            .         Номер прибора_ 03             : 
OTHER_8            .         Режим_ КСА-Т4                 : 
OTHER_9            .         Форма_ КВА.                   : 
PROJECT_UPGRADE_TIME .         2021-03-18T21_24_49           : 
TLFamily_DEPT      .         Measured Depth                : 
TLFamily_GK        .         Gamma Ray                     : 
TLFamily_GK$       .                                       : 
TLFamily_GK_2      .         Gamma Ray                     : 
TLFamily_LM        .         Casing Collar locator         : 
TLFamily_METKA     .                                       : 
TLFamily_MN        .                                       : 
TLFamily_MN$       .                                       : 
TLFamily_RCOR      .                                       : 
TLFamily_SPID      .         Spontaneous Potential         : 
TLFamily_TENS      .         Cable Tension                 : 
TLFamily_TIME      .         Time                          : 
TLFamily_TM        .         Temperature                   : 
TLFamily_TM$       .         Temperature                   : 
group              .         prim                          : 
~Curve Information
#_______________________________________________________________________________
#
#LOGNAME           .UNIT     LOG_ID                        : DESCRIPTION
#_______________________________________________________________________________
DEPT               .M                                      : 1 Глубина, м -    0.0 см 
GK                 .MKR/H                                  : 13 Гамма-активность, мкр./ч -  110.0 см 
GK$                .UE                                     : 10 Гамма-активность, усл.ед. -  110.0 см 
GK_2               .FLT                                    : 14 Гамма-активность фильтрованная, мкр./ч -  110.0 см 
LM                 .                                       : 9 Локатор муфт,  -   20.0 см 
METKA              .                                       : 3 Метки,  -    0.0 см 
MN                 .ATM                                    : 12 Давление, атм. -  160.0 см 
MN$                .UE                                     : 8 Давление, усл.ед. -  160.0 см 
RCOR               .CM/KM                                  : 5 Коррекция по ролику, см/км -    0.0 см 
SPID               .M/H                                    : 2 Скорость, м/час -    0.0 см 
TENS               .T                                      : 6 Натяжение кабеля, т -    0.0 см 
TIME               .S                                      : 4 Время, сек -    0.0 см 
TM                 .GRD                                    : 11 Температура, °C -  170.0 см 
TM$                .UE                                     : 7 Температура, усл.ед. -  170.0 см 
~Ascii
# ...
1665.8     9.94       422        9.91       821        0          147.096    8822       -1154      2026       -0.05      3363.28    51.224     12976     
1666       9.94       422        9.93       757        0          147.107    8823       -1154      2026       -0.05      3363.66    51.227     12977     
1666.2     9.94       422        9.93       2412       0          147.122    8824       -1154      2024       -0.05      3364.03    51.227     12977     
1666.4     9.94       422        9.94       2588       0          147.142    8825       -1154      2026       -0.05      3364.35    51.228     12977     
1666.6     9.89       420        9.91       1989       0          147.162    8826       -1154      2028       -0.05      3364.71    51.232     12978     
1666.8     9.89       420        9.9        1500       0          147.183    8826       -1154      2030       -0.05      3365.05    51.235     12979     
1667       9.89       420        9.89       1250       0          147.195    8827       -1154      2025       -0.05      3365.44    51.239     12980     
1667.2     9.89       420        9.89       1120       0          147.212    8828       -1154      2021       -0.05      3365.8     51.243     12981     
1667.4     9.89       420        9.89       1168       0          147.245    8829       -1154      2023       -0.05      3366.12    51.247     12982     
1667.6     9.89       420        9.89       1056       0          147.267    8830       -1154      2026       -0.05      3366.49    51.247     12982     
1667.8     9.89       420        9.89       964        0          147.282    8831       -1154      2028       -0.05      3366.87    51.254     12984     
1668       9.64       410        9.73       923        0          147.285    8831       -1154      2020       -0.05      3367.2     51.258     12985     
1668.2     9.47       402        9.57       1051       0          147.306    8832       -1154      2020       -0.05      3367.55    51.26      12985     
1668.4     9.47       402        9.51       936        0          147.325    8833       -1154      2023       -0.05      3367.9     51.264     12986     
1668.6     9.47       402        9.48       937        0          147.329    8833       -1154      2026       -0.05      3368.26    51.268     12987     
1668.8     9.47       402        9.47       828        0          147.369    8835       -1154      2023       -0.05      3368.63    51.27      12988     
1669       9.47       402        9.47       867        0          147.368    8835       -1154      2019       -0.05      3368.98    51.274     12988     
1669.2     9.47       402        9.47       739        0          147.388    8836       -1154      2019       -0.05      3369.33    51.277     12989     
1669.4     9.55       405        9.52       967        0          147.411    8837       -1154      2019       -0.05      3369.7     51.28      12990     
1669.6     9.82       417        9.7        857        0          147.43     8838       -1154      2015       -0.05      3370.06    51.281     12990     
1669.8     9.82       417        9.78       765        0          147.45     8839       -1154      2015       -0.06      3370.4     51.285     12991     
1670       9.82       417        9.8        701        0          147.47     8840       -1155      2018       -0.06      3370.76    51.289     12992     
1670.2     9.82       417        9.81       701        2          147.492    8841       -1157      2022       -0.05      3371.17    51.292     12993     
1670.4     9.82       417        9.82       865        0          147.499    8841       -1157      2021       -0.05      3371.52    51.296     12994     
1670.6     9.82       417        9.82       856        0          147.526    8842       -1157      2020       -0.05      3371.86    51.297     12994     
1670.8     9.82       417        9.82       856        0          147.542    8843       -1157      2023       -0.05      3372.22    51.304     12996     
1671       10.04      427        9.96       944        0          147.554    8844       -1157      2026       -0.05      3372.59    51.308     12997     
1671.2     10.08      428        10.04      1001       0          147.576    8845       -1157      2026       -0.05      3372.94    51.308     12997     
1671.4     10.08      428        10.07      873        0          147.595    8845       -1157      2022       -0.05      3373.28    51.312     12998     
1671.6     10.08      428        10.07      1045       0          147.607    8846       -1157      2019       -0.05      3373.62    51.315     12999     
1671.8     10.08      428        10.08      982        0          147.63     8847       -1157      2021       -0.05      3373.99    51.32      13000     
1672       10.08      428        10.08      878        0          147.651    8848       -1157      2017       -0.05      3374.36    51.324     13001     
1672.2     9.7        412        9.84       793        0          147.659    8848       -1157      2013       -0.05      3374.72    51.328     13002     
1672.4     9.61       408        9.7        642        0          147.68     8849       -1157      2010       -0.05      3375.05    51.332     13003     
1672.6     9.61       408        9.64       660        0          147.701    8850       -1157      2014       -0.05      3375.4     51.336     13004     
1672.8     9.61       408        9.62       750        0          147.722    8851       -1157      2018       -0.05      3375.78    51.339     13005     
1673       9.61       408        9.61       753        0          147.738    8852       -1157      2015       -0.05      3376.12    51.343     13006     
1673.2     9.61       408        9.61       667        0          147.74     8852       -1157      2017       -0.05      3376.47    51.344     13006     
1673.4     9.61       408        9.61       773        0          147.761    8853       -1157      2020       -0.05      3376.83    51.347     13007     
1673.6     9.37       398        9.46       775        0          147.783    8854       -1157      2023       -0.05      3377.18    51.353     13008     
1673.8     9.09       386        9.23       887        0          147.805    8855       -1157      2021       -0.05      3377.54    51.356     13009     
1674       9.09       386        9.14       1132       0          147.823    8856       -1157      2017       -0.05      3377.91    51.36      13010     
1674.2     9.09       386        9.11       1111       0          147.845    8857       -1157      2017       -0.05      3378.25    51.364     13011     
1674.4     9.09       386        9.1        1414       0          147.867    8858       -1157      2021       -0.05      3378.6     51.366     13011     
1674.6     9.09       386        9.09       6137       0          147.887    8859       -1157      2023       -0.05      3378.96    51.37      13012     
1674.8     9.09       386        9.09       8023       0          147.889    8859       -1157      2023       -0.05      3379.32    51.374     13013     
1675       9.05       384        9.07       8023       0          147.907    8860       -1157      2021       -0.05      3379.67    51.378     13014     
1675.2     8.9        378        8.96       5431       0          147.927    8861       -1157      2024       -0.05      3380.02    51.38      13015     
1675.4     8.9        378        8.93       3634       0          147.948    8862       -1157      2025       -0.05      3380.39    51.381     13015     
1675.6     8.9        378        8.91       2431       0          147.969    8863       -1157      2022       -0.05      3380.74    51.385     13016     
1675.8     8.9        378        8.9        1694       0          147.99     8864       -1157      2025       -0.05      3381.07    51.389     13017     
1676       8.9        378        8.9        1225       0          147.998    8864       -1157      2027       -0.05      3381.44    51.393     13018     
