~Version
 VERS              .         2.0                           : CWLS LOG ASCII STANDARD - VERSION 2.0
 WRAP              .         NO                            : ONE LINE PER DEPTH STEP
 DLM               .         SPACE                         : DELIMITING CHARACTER(SPACE TAB OR COMMA)
~Well Information
#_______________________________________________________________________________
#
#PARAMETER_NAME    .UNIT     VALUE                         : DESCRIPTION
#_______________________________________________________________________________
STRT               .M        2700.4                        : First reference value
STOP               .M        2756.2                        : Last reference value
STEP               .M        0.2000002                     : Step increment
NULL               .         -9999                         : Missing value
COMP               .                                       : Company
WELL               .         616                           : Well name
FLD                .                                       : Field
LOC                .                                       : Location
CNTY               .                                       : County
STAT               .                                       : State
CTRY               .                                       : Country
SRVC               .                                       : Service Company
DATE               .                                       : Date
API                .                                       : API number
PROJECT_UPGRADE_TIME .         2021-03-18T21_24_50           : 
group              .         Good                          : 
~Parameter Information Block
#_______________________________________________________________________________
#
#PARAMETER_NAME    .UNIT     VALUE                         : DESCRIPTION
#_______________________________________________________________________________
SET                .         D4405_D                       : 
OTHER              .         Запись производится в присутствии: 
OTHER_10           .         Максимальная температура      : 
OTHER_11           .         Тип промывочной жидкости      : 
OTHER_12           .         Сопротивление ПЖ (Ом*м) при 20°C: 
OTHER_13           .         Плотность ПЖ(г/см3)           : 
OTHER_14           .         Вязкость ПЖ(с)                : 
OTHER_15           .         Водоотдача ПЖ(см3/30мин)      : 
OTHER_16           .         Уровень ПЖ                    : 
OTHER_17           .         Нефть ПЖ (%)                  : 
OTHER_18           .         Барит ПЖ (%)                  : 
OTHER_19           .         Гематит ПЖ (%)                : 
OTHER_2            .         Заказчик ННСН  ЦДНГ-1         : 
OTHER_20           .         КМЦ ПЖ (%)                    : 
OTHER_21           .         Разгазирование ПЖ (да,нет)    : 
OTHER_22           .         Подъемник                     : 
OTHER_23           .         Лаборатория                   : 
OTHER_24           .         Тип кабеля                    : 
OTHER_25           .         Длина кабеля (м)              : 
OTHER_26           .         Цена последней метки          : 
OTHER_27           .         Цена контрольной метки        : 
OTHER_28           .         Диаметр долота (мм)           : 
OTHER_29           .         Глубина бурения (м)           : 
OTHER_3            .         Площадь                       : 
OTHER_30           .         Искусственный забой (м)       : 
OTHER_31           .         Диаметр колонны (мм)          : 
OTHER_32           .         Толщина колонны (мм)          : 
OTHER_33           .         Башмак колонны (м)            : 
OTHER_34           .         Диаметр НКТ (мм)              : 
OTHER_35           .         Толщина НКТ (мм)              : 
OTHER_36           .         Воронка НКТ (м)               : 
OTHER_37           .         Дата цементожа                : 
OTHER_38           .         Тип, количество(т) и плотность цемента: 
OTHER_39           .         Интервалы перфорации (м)      : 
OTHER_4            .         Категория                     : 
OTHER_40           .         Направление, диаметр (мм)     : 
OTHER_41           .         Направление, глубина (м)      : 
OTHER_42           .         Кондуктор, диаметр (мм)       : 
OTHER_43           .         Кондуктор, глубина (м)        : 
OTHER_44           .         Техническая колонна, диаметр (мм): 
OTHER_45           .         Техническая колонна, глубина (м): 
OTHER_46           .         Эксплуатационная колонна, диаметр (мм): 
OTHER_47           .         Эксплуатационная колонна, глубина (м): 
OTHER_48           .         Программа Кедр-02 версия 3.4  : 
OTHER_49           .         Операционная система Windows NT 5.1 build 2600 Service Pack 2: 
OTHER_5            .         Назначение исследований       : 
OTHER_50           .         Программное обеспечение станции MONITOR-386EX 25/12/99 15_08_10   BGF V54 20/09/05 15_32_17   3.3__BGF_9030071: 
OTHER_51           .         Kedr.exe версия 3.4.2.74      : 
OTHER_52           .         KedrData.dll версия 3.4.2.29  : 
OTHER_53           .         Мнемоники версия 3.18 S       : 
OTHER_54           .         Драйвер версия 2.1.1.4        : 
OTHER_55           .         LasInf.dll 4.3.0.35           : 
OTHER_56           .         Прибор_ КСА-Т4                : 
OTHER_57           .         Номер прибора_ 160            : 
OTHER_58           .         Режим_ КСА-Т4                 : 
OTHER_59           .         Форма_ С.А.Б.                 : 
OTHER_6            .         Альтитуда стола ротора        : 
OTHER_60           .         Тарировки_                    : 
OTHER_61           .         <_techsia_sc_> Дата тарировки температуры 25.05.2010: 
OTHER_62           .         Ручной ввод коэффициентов     : 
OTHER_63           .         TM.DEGC = 0.00402*RTM.E.ACP + -0.994: 
OTHER_64           .         <_techsia_sc_> Дата тарировки давления 25.05.2010: 
OTHER_65           .         Ручной ввод коэффициентов     : 
OTHER_66           .         MN.ATM = (2.27521e-006*TM.DEGC + 0.02078)*(RMN.E.ACP + 6.2*TM.DEGC + -1688): 
OTHER_67           .         <_techsia_sc_> Дата тарировки ГК 25.05.2010: 
OTHER_68           .         Ручной ввод коэффициентов     : 
OTHER_69           .         GR.UR/H = RGR.IMP/MIN / 45.5144: 
OTHER_7            .         Вид исследований 3  6         : 
OTHER_70           .         GK.FLT = 0.1*GR.UR/H[-1] + (1-0.1)*GR.UR/H[0]: 
OTHER_8            .         Начало бурения интервала каротажа: 
OTHER_9            .         Окончание бурения интервала каротажа: 
PROJECT_UPGRADE_TIME .         2021-03-18T21_24_50           : 
TLFamily_CCLC      .                                       : 
TLFamily_DEPT      .         Measured Depth                : 
TLFamily_GK        .         Gamma Ray                     : 
TLFamily_GR        .         Gamma Ray                     : 
TLFamily_METKA     .                                       : 
TLFamily_MN        .                                       : 
TLFamily_RCOR      .                                       : 
TLFamily_RGR       .                                       : 
TLFamily_RMN       .                                       : 
TLFamily_RTEN      .                                       : 
TLFamily_RTM       .                                       : 
TLFamily_SPEE      .         Cable Speed                   : 
TLFamily_TIME      .         Time                          : 
TLFamily_TM        .         Temperature                   : 
group              .         prim                          : 
~Curve Information
#_______________________________________________________________________________
#
#LOGNAME           .UNIT     LOG_ID                        : DESCRIPTION
#_______________________________________________________________________________
DEPT               .M                                      : 1 Глубина, м -    0.0 см 
CCLC               .E.ACP                                  : 9 Локатор муфт,  -   20.0 см 
GK                 .FLT                                    : 14 Гамма-активность фильтрованная, мкр./ч -  110.0 см 
GR                 .UR/H                                   : 13 Гамма-активность, мкр./ч -  110.0 см 
METKA              .CU                                     : 3 Метки,  -    0.0 см 
MN                 .ATM                                    : 12 Давление, атм. -  160.0 см 
RCOR               .CM/KM                                  : 5 Коррекция по ролику, см/км -    0.0 см 
RGR                .IMP/MIN                                : 10 Гамма-активность, усл.ед. -  110.0 см 
RMN                .E.ACP                                  : 8 Давление, усл.ед. -  160.0 см 
RTEN               .T                                      : 6 Натяжение кабеля, т -    0.0 см 
RTM                .E.ACP                                  : 7 Температура, усл.ед. -  170.0 см 
SPEE               .M/H                                    : 2 Скорость, м/час -    0.0 см 
TIME               .S                                      : 4 Время, сек -    0.0 см 
TM                 .DEGC                                   : 11 Температура, °C -  170.0 см 
~Ascii
# ...
2721.2     61         10.59      10.59      0          245.011    -1113      482        13107      0.44       12604      -201       603.11     49.674    
2721.4     59         11.16      11.16      0          245.043    -1113      508        13108      0.44       12603      -201       599.55     49.67     
2721.6     63         11.64      11.64      0          245.053    -1113      530        13109      0.44       12602      -201       595.8      49.666    
2721.8     59         11.29      11.29      0          245.073    -1113      514        13110      0.44       12602      -201       592.23     49.666    
2722       63         10.96      10.96      0          245.094    -1113      499        13111      0.44       12601      -200       588.67     49.662    
2722.2     59         10.9       10.9       0          245.114    -1113      496        13112      0.44       12601      -201       585.09     49.662    
2722.4     71         10.66      10.66      0          245.135    -1113      485        13113      0.44       12600      -201       581.53     49.658    
2722.6     59         9.05       9.05       0          245.156    -1113      412        13114      0.44       12601      -200       577.78     49.66     
2722.8     75         7.03       7.03       0          245.156    -1113      320        13114      0.44       12601      -201       574.21     49.662    
2723       97         7.1        7.1        0          245.177    -1113      323        13115      0.44       12601      -201       570.64     49.662    
2723.2     112        7.07       7.07       0          245.198    -1113      322        13116      0.44       12601      -201       567.08     49.662    
2723.4     177        6.42       6.42       0          245.219    -1113      292        13117      0.44       12601      -200       563.33     49.662    
2723.6     179        7.4        7.4        0          245.24     -1113      337        13118      0.44       12601      -201       559.77     49.662    
2723.8     166        7.25       7.25       0          245.261    -1113      330        13119      0.44       12602      -201       556.19     49.666    
2724       1971       6.94       6.94       0          245.282    -1113      316        13120      0.44       12601      -201       552.63     49.663    
2724.2     1228       7.67       7.67       0          245.303    -1113      349        13121      0.44       12602      -200       549.12     49.666    
2724.4     193        8.22       8.22       0          245.314    -1113      374        13121      0.44       12602      -201       545.3      49.666    
2724.6     175        9.16       9.16       0          245.345    -1113      417        13123      0.44       12602      -201       541.74     49.666    
2724.8     171        9.18       9.18       0          245.355    -1113      418        13123      0.44       12602      -201       538.36     49.666    
2725       172        8.41       8.41       0          245.366    -1113      383        13124      0.44       12602      -201       534.79     49.666    
2725.2     98         8.31       8.31       0          245.387    -1113      378        13125      0.44       12603      -201       531.03     49.67     
2725.4     109        8.31       8.31       0          245.408    -1113      378        13126      0.44       12603      -200       527.47     49.67     
2725.6     65         8.33       8.33       0          245.429    -1113      379        13127      0.44       12603      -201       523.91     49.67     
2725.8     84         7.94       7.94       0          245.45     -1113      362        13128      0.44       12603      -201       520.34     49.67     
2726       47         7.91       7.91       2          245.461    -1114      360        13129      0.44       12603      -201       516.89     49.67     
2726.2     44         7.8        7.8        0          245.472    -1117      355        13129      0.44       12604      -201       513.7      49.674    
2726.4     170        8.13       8.13       0          245.493    -1117      370        13130      0.44       12604      -201       510.2      49.674    
2726.6     139        8.41       8.41       0          245.514    -1117      383        13131      0.44       12605      -201       506.64     49.678    
2726.8     108        9.95       9.95       0          245.535    -1117      453        13132      0.44       12605      -201       503.06     49.678    
2727       76         10.81      10.81      0          245.556    -1117      492        13133      0.44       12606      -201       499.31     49.682    
2727.2     78         10.81      10.81      0          245.578    -1117      492        13134      0.44       12606      -201       495.75     49.682    
2727.4     84         10.83      10.83      0          245.599    -1117      493        13135      0.44       12607      -201       492.19     49.686    
2727.6     127        11.12      11.12      0          245.603    -1117      506        13135      0.44       12608      -201       488.62     49.69     
2727.8     98         10.66      10.66      0          245.621    -1117      485        13136      0.44       12609      -201       485.05     49.694    
2728       185        10.96      10.96      0          245.643    -1117      499        13137      0.44       12610      -201       481.3      49.698    
2728.2     86         9.01       9.01       0          245.665    -1117      410        13138      0.44       12611      -201       477.73     49.702    
2728.4     83         7.43       7.43       0          245.665    -1117      338        13138      0.44       12613      -201       474.17     49.71     
2728.6     70         7.12       7.12       0          245.687    -1117      324        13139      0.44       12614      -201       470.59     49.714    
2728.8     152        7.12       7.12       0          245.71     -1117      324        13140      0.44       12617      -201       466.84     49.726    
2729       160        7.12       7.12       0          245.733    -1117      324        13141      0.44       12619      -201       463.28     49.734    
2729.2     157        6.61       6.61       0          245.745    -1117      301        13142      0.44       12622      -200       459.72     49.746    
2729.4     84         6.96       6.96       0          245.758    -1117      317        13142      0.44       12625      -201       456.16     49.758    
2729.6     114        6.66       6.66       0          245.78     -1117      303        13143      0.44       12629      -201       452.58     49.775    
2729.8     81         6.55       6.55       0          245.804    -1117      298        13144      0.44       12632      -200       448.83     49.787    
2730       53         6.64       6.64       0          245.806    -1117      302        13144      0.44       12636      -200       445.27     49.803    
2730.2     87         7.45       7.45       0          245.83     -1117      339        13145      0.44       12640      -201       441.7      49.819    
2730.4     110        7.25       7.25       0          245.854    -1117      330        13146      0.44       12644      -201       438.13     49.835    
2730.6     52         7.25       7.25       0          245.858    -1117      330        13146      0.44       12650      -201       434.38     49.859    
2730.8     41         7.67       7.67       0          245.882    -1117      349        13147      0.44       12656      -200       430.81     49.881    
2731       114        7.34       7.34       0          245.906    -1117      334        13148      0.44       12661      -201       427.38     49.903    
2731.2     125        7.95       7.95       0          245.921    -1117      362        13149      0.44       12666      -201       423.88     49.925    
2731.4     93         7.65       7.65       0          245.935    -1117      348        13149      0.44       12673      -200       420.11     49.953    
