~Version
 VERS              .         2.0                           : CWLS LOG ASCII STANDARD - VERSION 2.0
 WRAP              .         NO                            : ONE LINE PER DEPTH STEP
 DLM               .         SPACE                         : DELIMITING CHARACTER(SPACE TAB OR COMMA)
~Well Information
#_______________________________________________________________________________
#
#PARAMETER_NAME    .UNIT     VALUE                         : DESCRIPTION
#_______________________________________________________________________________
STRT               .M        2659.6                        : First reference value
STOP               .M        2769.6                        : Last reference value
STEP               .M        0.2                           : Step increment
NULL               .         -9999                         : Missing value
COMP               .                                       : Company
WELL               .         616                           : Well name
FLD                .                                       : Field
LOC                .                                       : Location
CNTY               .                                       : County
STAT               .                                       : State
CTRY               .                                       : Country
SRVC               .                                       : Service Company
DATE               .                                       : Date
API                .                                       : API number
PROJECT_UPGRADE_TIME .         2021-03-18T21_24_50           : 
group              .         Good                          : 
~Parameter Information Block
#_______________________________________________________________________________
#
#PARAMETER_NAME    .UNIT     VALUE                         : DESCRIPTION
#_______________________________________________________________________________
SET                .         D1162_D                       : 
OTHER              .         Программное обеспечение станции MONITOR-386EX 25/12/99 15_08_10   BGF V52 22/08/01 16_56_30   3.2_BGF_N_3070031: 
OTHER_10           .         Тарировки_                    : 
OTHER_11           .         TM.GRD = 0.00403*TM$.UE + -1.19: 
OTHER_12           .         MN.ATM = (7.1e-006*TM.GRD + 0.02017)*(MN$.UE + -3.03*TM.GRD + -1833): 
OTHER_13           .         Id error                      : 
OTHER_2            .         Kedr.exe версия 3.4.2.51      : 
OTHER_3            .         KedrData.dll версия 3.4.2.24  : 
OTHER_4            .         Драйвер версия 2.1.1.8        : 
OTHER_5            .         Мнемоники версия 3.3 S        : 
OTHER_6            .         Прибор_ КСА-М1                : 
OTHER_7            .         Номер прибора_ 265            : 
OTHER_8            .         Режим_ КСА-М1                 : 
OTHER_9            .         Форма_ ТЕРМОМЕТР              : 
PROJECT_UPGRADE_TIME .         2021-03-18T21_24_49           : 
TLFamily_DEPT      .         Measured Depth                : 
TLFamily_GK        .         Gamma Ray                     : 
TLFamily_GK$       .                                       : 
TLFamily_LM        .         Casing Collar locator         : 
TLFamily_METKA     .                                       : 
TLFamily_MN        .                                       : 
TLFamily_MN$       .                                       : 
TLFamily_RCOR      .                                       : 
TLFamily_SPID      .         Spontaneous Potential         : 
TLFamily_STD       .                                       : 
TLFamily_TENS      .         Cable Tension                 : 
TLFamily_TIME      .         Time                          : 
TLFamily_TM        .         Temperature                   : 
TLFamily_TM$       .         Temperature                   : 
TLFamily_VGD       .         Gas Volume                    : 
group              .         prim                          : 
~Curve Information
#_______________________________________________________________________________
#
#LOGNAME           .UNIT     LOG_ID                        : DESCRIPTION
#_______________________________________________________________________________
DEPT               .M                                      : 1 Глубина, м -    0.0 см 
GK                 .MKR/H                                  : 15 Гамма-активность, мкр./ч -  110.0 см 
GK$                .UE                                     : 12 Гамма-активность, усл.ед. -  110.0 см 
LM                 .                                       : 10 Локатор муфт,  -   20.0 см 
METKA              .                                       : 3 Метки,  -    0.0 см 
MN                 .ATM                                    : 14 Давление, атм. -  160.0 см 
MN$                .UE                                     : 8 Давление, усл.ед. -  160.0 см 
RCOR               .CM/KM                                  : 5 Коррекция по ролику, см/км -    0.0 см 
SPID               .M/H                                    : 2 Скорость, м/час -    0.0 см 
STD                .                                       : 11 Приток,  -  170.0 см 
TENS               .T                                      : 6 Натяжение кабеля, т -    0.0 см 
TIME               .S                                      : 4 Время, сек -    0.0 см 
TM                 .GRD                                    : 13 Температура, °C -  180.0 см 
TM$                .UE                                     : 7 Температура, усл.ед. -  180.0 см 
VGD                .                                       : 9 Влагомер,  -  170.0 см 
~Ascii
# ...
2679.2     9.26       397        1          0          248.35     14043      -1400      604        32166      0          17526.41   87.555     22021      6504      
2679.4     9.1        379        1          0          248.34     14043      -1400      608        32168      0          17527.63   87.559     22022      6504      
2679.6     8.94       379        1          0          248.392    14045      -1400      603        32170      0          17528.81   87.563     22023      6503      
2679.8     8.91       382        1          0          248.371    14044      -1400      608        32178      0          17529.99   87.568     22024      6504      
2680       8.93       382        1          2          248.443    14047      -1400      611        32179      0          17531.26   87.575     22026      6505      
2680.2     8.98       388        1          0          248.426    14047      -1400      609        32183      0          17532.52   87.575     22026      6504      
2680.4     9.28       403        1          0          248.46     14048      -1400      608        32183      0          17533.7    87.583     22028      6504      
2680.6     9.46       412        1          0          248.478    14049      -1400      612        32185      0          17534.82   87.587     22029      6504      
2680.8     9.61       414        1          0          248.468    14049      -1400      609        32187      0          17536.04   87.59      22030      6502      
2681       9.63       410        1          0          248.529    14052      -1400      612        32188      0          17537.22   87.595     22031      6503      
2681.2     9.23       388        1          0          248.5      14050      -1400      610        32193      0          17538.4    87.601     22032      6503      
2681.4     9.12       388        1          0          248.575    14054      -1400      608        32193      0          17539.57   87.604     22033      6503      
2681.6     9.47       412        1          0          248.543    14052      -1400      605        32196      0          17540.81   87.611     22035      6503      
2681.8     9.58       412        1185       0          248.61     14055      -1400      605        32194      0          17541.96   87.618     22037      6503      
2682       9.69       417        637        0          248.604    14055      -1400      604        32196      0          17543.17   87.622     22038      6503      
2682.2     9.73       417        95         0          248.601    14055      -1400      597        32196      0          17544.34   87.625     22039      6503      
2682.4     9.3        377        1          0          248.646    14057      -1400      597        32196      0          17545.58   87.631     22040      6502      
2682.6     8.96       377        1          0          248.634    14057      -1400      596        32201      0          17546.7    87.635     22041      6502      
2682.8     9.12       395        1          0          248.706    14060      -1400      602        32201      0          17547.87   87.639     22042      6502      
2683       9.2        395        1          0          248.664    14058      -1400      600        32206      0          17549.11   87.647     22044      6502      
2683.2     9.39       409        1          0          248.724    14061      -1400      605        32205      0          17550.29   87.647     22044      6502      
2683.4     9.51       409        1          0          248.737    14061      -1400      605        32211      0          17551.49   87.655     22046      6502      
2683.6     9.76       433        1          0          248.739    14062      -1400      605        32212      0          17552.7    87.661     22048      6503      
2683.8     10.01      433        1          0          248.789    14064      -1400      610        32214      0          17553.87   87.661     22047      6504      
2684       10.03      426        1          0          248.766    14063      -1400      608        32219      0          17555.05   87.667     22049      6502      
2684.2     9.92       422        1          0          248.84     14066      -1400      614        32221      0          17556.2    87.675     22051      6501      
2684.4     9.83       415        1          0          248.81     14065      -1400      602        32226      0          17557.46   87.68      22052      6502      
2684.6     9.75       415        1          0          248.873    14068      -1400      608        32227      0          17558.58   87.684     22053      6502      
2684.8     9.75       419        1          0          248.858    14067      -1400      611        32230      0          17559.81   87.688     22054      6501      
2685       9.82       421        1          0          248.883    14069      -1400      610        32230      0          17560.99   87.692     22055      6501      
2685.2     9.83       421        1          0          248.929    14071      -1400      603        32231      0          17562.17   87.696     22056      6501      
2685.4     9.8        418        1          0          248.894    14069      -1400      608        32235      0          17563.34   87.701     22057      6501      
2685.6     9.78       418        1          0          248.992    14074      -1400      612        32233      0          17564.51   87.704     22058      6502      
2685.8     10.4       462        1          0          248.949    14072      -1400      594        32237      0          17565.78   87.712     22060      6501      
2686       10.68      462        1          0          249.025    14075      -1400      599        32237      0          17566.93   87.717     22061      6502      
2686.2     10.9       470        1          0          249.019    14075      -1400      599        32244      0          17568.12   87.724     22063      6502      
2686.4     10.96      470        1          0          249.034    14076      -1400      599        32245      0          17569.32   87.728     22064      6501      
2686.6     10.93      466        1          0          249.073    14078      -1400      597        32249      0          17570.52   87.735     22066      6502      
2686.8     10.91      466        1          0          249.064    14077      -1400      607        32251      0          17571.69   87.738     22066      6501      
2687       11.01      475        1          0          249.124    14080      -1400      605        32251      0          17572.88   87.744     22068      6501      
2687.2     11.08      475        1          0          249.103    14079      -1400      598        32255      0          17574.13   87.748     22069      6501      
2687.4     10.69      431        1          0          249.155    14082      -1400      604        32254      0          17575.35   87.754     22071      6500      
2687.6     10.27      431        1          0          249.142    14081      -1400      603        32258      0          17576.52   87.762     22073      6501      
2687.8     9.6        363        1          0          249.181    14083      -1400      603        32258      0          17577.75   87.768     22074      6497      
2688       8.69       352        1          0          249.194    14083      -1400      597        32261      0          17578.94   87.772     22075      6498      
2688.2     7.82       295        1          0          249.196    14083      -1400      598        32262      0          17580.11   87.776     22076      6498      
2688.4     7.18       295        1          0          249.249    14086      -1400      599        32263      0          17581.35   87.784     22078      6497      
2688.6     7.04       301        1          0          249.21     14084      -1400      594        32267      0          17582.57   87.792     22080      6498      
2688.8     7.06       302        1          0          249.302    14089      -1400      596        32266      0          17583.71   87.792     22080      6498      
