~Version
 VERS              .         2.0                           : CWLS LOG ASCII STANDARD - VERSION 2.0
 WRAP              .         NO                            : ONE LINE PER DEPTH STEP
 DLM               .         SPACE                         : DELIMITING CHARACTER(SPACE TAB OR COMMA)
~Well Information
#_______________________________________________________________________________
#
#PARAMETER_NAME    .UNIT     VALUE                         : DESCRIPTION
#_______________________________________________________________________________
STRT               .M        2667.4                        : First reference value
STOP               .M        2776.000109                   : Last reference value
STEP               .M        0.2000002                     : Step increment
NULL               .         -9999                         : Missing value
COMP               .                                       : Company
WELL               .         616                           : Well name
FLD                .                                       : Field
LOC                .                                       : Location
CNTY               .                                       : County
STAT               .                                       : State
CTRY               .                                       : Country
SRVC               .                                       : Service Company
DATE               .                                       : Date
API                .                                       : API number
PROJECT_UPGRADE_TIME .         2021-03-18T21_24_50           : 
group              .         Good                          : 
~Parameter Information Block
#_______________________________________________________________________________
#
#PARAMETER_NAME    .UNIT     VALUE                         : DESCRIPTION
#_______________________________________________________________________________
SET                .         D1801_D                       : 
OTHER              .         Программное обеспечение станции MONITOR-386EX 25/12/99 15_08_10   BGF V52 22/08/01 16_56_30   3.1_SNGF___BGF_N_092049: 
OTHER_10           .         Тарировки_                    : 
OTHER_11           .         TM.GRD = 0.00403*TM$.UE + -1.07: 
OTHER_12           .         MN.ATM = (9.34907e-006*TM.GRD + 0.02171)*(MN$.UE + -7.93*TM.GRD + -1787): 
OTHER_13           .         GK.MKR/H = LM. / 42.4676      : 
OTHER_14           .         GK.FLT = 0.1*GK.MKR/H[-1] + (1-0.1)*GK.MKR/H[0]: 
OTHER_2            .         Kedr.exe версия 3.4.2.51      : 
OTHER_3            .         KedrData.dll версия 3.4.2.24  : 
OTHER_4            .         Драйвер версия 2.1.1.3        : 
OTHER_5            .         Мнемоники версия 3.3 S        : 
OTHER_6            .         Прибор_ КСА-Т4                : 
OTHER_7            .         Номер прибора_ 03             : 
OTHER_8            .         Режим_ КСА-Т4                 : 
OTHER_9            .         Форма_ КВА.                   : 
PROJECT_UPGRADE_TIME .         2021-03-18T21_24_49           : 
TLFamily_DEPT      .         Measured Depth                : 
TLFamily_GK        .         Gamma Ray                     : 
TLFamily_GK$       .                                       : 
TLFamily_GK_2      .         Gamma Ray                     : 
TLFamily_LM        .         Casing Collar locator         : 
TLFamily_METKA     .                                       : 
TLFamily_MN        .                                       : 
TLFamily_MN$       .                                       : 
TLFamily_RCOR      .                                       : 
TLFamily_SPID      .         Spontaneous Potential         : 
TLFamily_TENS      .         Cable Tension                 : 
TLFamily_TIME      .         Time                          : 
TLFamily_TM        .         Temperature                   : 
TLFamily_TM$       .         Temperature                   : 
group              .         prim                          : 
~Curve Information
#_______________________________________________________________________________
#
#LOGNAME           .UNIT     LOG_ID                        : DESCRIPTION
#_______________________________________________________________________________
DEPT               .M                                      : 1 Глубина, м -    0.0 см 
GK                 .MKR/H                                  : 13 Гамма-активность, мкр./ч -  110.0 см 
GK$                .UE                                     : 10 Гамма-активность, усл.ед. -  110.0 см 
GK_2               .FLT                                    : 14 Гамма-активность фильтрованная, мкр./ч -  110.0 см 
LM                 .                                       : 9 Локатор муфт,  -   20.0 см 
METKA              .                                       : 3 Метки,  -    0.0 см 
MN                 .ATM                                    : 12 Давление, атм. -  160.0 см 
MN$                .UE                                     : 8 Давление, усл.ед. -  160.0 см 
RCOR               .CM/KM                                  : 5 Коррекция по ролику, см/км -    0.0 см 
SPID               .M/H                                    : 2 Скорость, м/час -    0.0 см 
TENS               .T                                      : 6 Натяжение кабеля, т -    0.0 см 
TIME               .S                                      : 4 Время, сек -    0.0 см 
TM                 .GRD                                    : 11 Температура, °C -  170.0 см 
TM$                .UE                                     : 7 Температура, усл.ед. -  170.0 см 
~Ascii
# ...
2761.000094 9.7        412        9.7        128        0          252.437    13593      -662       577        0.07       8319.8     58.47      14774     
2761.200094 9.58       407        9.6        143        0          252.445    13594      -662       580        0.07       8321.06    58.649     14818     
2761.400094 9.58       407        9.58       155        0          252.455    13595      -662       586        0.07       8322.32    58.824     14862     
2761.600094 9.23       392        9.28       105        0          252.462    13596      -662       584        0.07       8323.58    59.021     14911     
2761.800094 9.23       392        9.23       93         0          252.488    13598      -662       583        0.07       8324.83    59.31      14983     
2762.000095 9.04       384        9.06       119        0          252.5      13599      -662       585        0.07       8326.04    59.474     15023     
2762.200095 9.04       384        9.04       104        0          252.45     13597      -662       589        0.07       8327.3     59.634     15063     
2762.400095 8.43       358        8.51       120        0          252.521    13601      -662       592        0.07       8328.5     59.806     15106     
2762.600095 8.43       358        8.43       117        0          252.534    13602      -662       589        0.07       8329.74    59.941     15139     
2762.800095 8.19       348        8.22       129        0          252.553    13603      -662       586        0.07       8330.95    60.086     15175     
2763.000096 8.19       348        8.2        138        0          252.558    13604      -662       564        0.07       8332.28    60.226     15210     
2763.200096 8.78       373        8.71       131        0          252.571    13605      -662       574        0.07       8333.47    60.366     15245     
2763.400096 8.78       373        8.78       125        0          252.584    13606      -662       575        0.07       8334.71    60.49      15275     
2763.600096 8.9        378        8.87       126        0          252.599    13607      -662       577        0.07       8335.93    60.608     15305     
2763.800096 8.9        378        8.9        158        0          252.629    13609      -662       581        0.07       8337.19    60.742     15338     
2764.000097 9.07       385        9.05       137        0          252.649    13610      -662       591        0.07       8338.39    60.862     15368     
2764.200097 9.07       385        9.06       127        0          252.671    13611      -662       588        0.07       8339.62    60.948     15389     
2764.400097 8.57       364        8.66       143        0          252.682    13612      -662       585        0.07       8340.89    61.036     15411     
2764.600097 8.57       364        8.57       161        0          252.698    13613      -662       578        0.07       8342.17    61.108     15429     
2764.800097 7.84       333        7.92       166        0          252.714    13614      -662       583        0.07       8343.38    61.202     15452     
2765.000098 7.84       333        7.84       146        0          252.739    13615      -662       590        0.07       8344.63    61.298     15476     
2765.200098 8.48       360        8.37       136        0          252.768    13617      -662       587        0.07       8345.83    61.383     15497     
2765.400098 8.48       360        8.47       161        0          252.785    13618      -662       585        0.07       8347.1     61.476     15520     
2765.600098 8.69       369        8.64       149        0          252.807    13619      -662       579        0.07       8348.34    61.533     15534     
2765.800098 8.69       369        8.69       172        0          252.82     13620      -662       581        0.07       8349.57    61.593     15549     
2766.000099 8.88       377        8.85       175        0          252.837    13621      -662       568        0.07       8350.8     61.677     15570     
2766.200099 8.88       377        8.88       172        0          252.876    13623      -662       580        0.07       8352.06    61.756     15589     
2766.400099 9.23       392        9.14       232        0          252.893    13624      -662       583        0.07       8353.29    61.831     15608     
2766.600099 9.23       392        9.23       224        0          252.911    13625      -662       585        0.07       8354.52    61.907     15627     
2766.800099 9.14       388        9.17       197        0          252.928    13626      -662       583        0.07       8355.72    61.964     15641     
2767.0001  9.14       388        9.14       215        0          252.943    13627      -662       582        0.07       8356.97    62.054     15664     
2767.2001  8.78       373        8.86       187        0          252.972    13629      -662       588        0.07       8358.2     62.141     15685     
2767.4001  8.78       373        8.79       195        0          253.002    13630      -662       594        0.07       8359.43    62.201     15700     
2767.6001  8.17       347        8.37       217        0          253.022    13631      -662       578        0.07       8360.71    62.239     15709     
2767.8001  8.17       347        8.18       209        0          253.063    13633      -662       579        0.07       8361.95    62.274     15718     
2768.000101 7.96       338        8          210        0          253.073    13634      -662       580        0.07       8363.17    62.314     15728     
2768.200101 7.96       338        7.96       240        0          253.102    13635      -662       578        0.07       8364.41    62.352     15737     
2768.400101 7.58       322        7.7        298        0          253.122    13636      -662       578        0.07       8365.61    62.392     15747     
2768.600101 7.58       322        7.59       217        0          253.14     13637      -662       579        0.07       8366.86    62.443     15760     
2768.800101 7.25       308        7.37       225        0          253.16     13638      -662       579        0.07       8368.12    62.491     15772     
2769.000102 7.18       305        7.19       219        0          253.179    13639      -662       590        0.07       8369.39    62.535     15783     
2769.200102 7.02       298        7.06       205        0          253.222    13641      -662       582        0.07       8370.61    62.565     15790     
2769.400102 7.02       298        7.02       205        0          253.252    13643      -662       582        0.07       8371.84    62.594     15797     
2769.600102 7.6        323        7.39       204        0          253.276    13644      -662       581        0.07       8373.11    62.647     15811     
2769.800102 7.72       328        7.71       213        0          253.301    13645      -662       591        0.07       8374.3     62.7       15824     
2770.000103 7.91       336        7.86       182        2          253.319    13646      -662       594        0.07       8375.54    62.749     15836     
2770.200103 7.91       336        7.91       240        0          253.337    13647      -670       589        0.05       8377.27    62.814     15852     
2770.400103 8.05       342        8          3124       0          253.357    13648      -670       577        0.05       8378.56    62.863     15864     
2770.600103 8.05       342        8.05       1252       0          253.397    13650      -670       568        0.07       8379.8     62.892     15871     
2770.800103 8.23       349        8.16       402        0          253.4      13650      -670       575        0.07       8380.98    62.978     15893     
2771.000104 8.31       353        8.31       201        0          253.428    13652      -670       576        0.07       8382.25    63.084     15919     
2771.200104 8.71       370        8.67       188        0          253.466    13654      -670       577        0.07       8383.51    63.178     15942     
