~Version
 VERS              .         2.0                           : CWLS LOG ASCII STANDARD - VERSION 2.0
 WRAP              .         NO                            : ONE LINE PER DEPTH STEP
 DLM               .         SPACE                         : DELIMITING CHARACTER(SPACE TAB OR COMMA)
~Well Information
#_______________________________________________________________________________
#
#PARAMETER_NAME    .UNIT     VALUE                         : DESCRIPTION
#_______________________________________________________________________________
STRT               .M        2689.5                        : First reference value
STOP               .M        2741.9                        : Last reference value
STEP               .M        0.09999981                    : Step increment
NULL               .         -9999                         : Missing value
COMP               .                                       : Company
WELL               .         616                           : Well name
FLD                .                                       : Field
LOC                .                                       : Location
CNTY               .                                       : County
STAT               .                                       : State
CTRY               .                                       : Country
SRVC               .                                       : Service Company
DATE               .                                       : Date
API                .                                       : API number
PROJECT_UPGRADE_TIME .         2021-03-18T21_24_50           : 
group              .         Good                          : 
~Parameter Information Block
#_______________________________________________________________________________
#
#PARAMETER_NAME    .UNIT     VALUE                         : DESCRIPTION
#_______________________________________________________________________________
SET                .         D7030_D                       : 
OTHER              .         Kedr.exe версия 2.1.2.32      : 
OTHER_10           .         RGD. = 0.647457 * RGD. + 2.35279: 
OTHER_2            .         KedrData.dll версия 3.2.2.14  : 
OTHER_3            .         LasInf.dll версия 3.2.0.13    : 
OTHER_4            .         Драйвер версия 1.2.0.6        : 
OTHER_5            .         Прибор_ Расходомер            : 
OTHER_6            .         Номер прибора_ 963            : 
OTHER_7            .         Режим_ Расходомер             : 
OTHER_8            .         Форма_ Саня                   : 
OTHER_9            .         Тарировки_                    : 
PROJECT_UPGRADE_TIME .         2021-03-18T21_24_50           : 
TLFamily_DEPT      .         Measured Depth                : 
TLFamily_METKA     .                                       : 
TLFamily_RCOR      .                                       : 
TLFamily_RGD       .                                       : 
TLFamily_RGD_2     .                                       : 
TLFamily_SPID      .         Spontaneous Potential         : 
TLFamily_TIME      .         Time                          : 
group              .         prim                          : 
~Curve Information
#_______________________________________________________________________________
#
#LOGNAME           .UNIT     LOG_ID                        : DESCRIPTION
#_______________________________________________________________________________
DEPT               .M                                      : 1 Глубина, м -    0.0 см 
METKA              .                                       : 3 Метки,  -    0.0 см 
RCOR               .CM/KM                                  : 5 Коррекция по ролику, см/км -    0.0 см 
RGD                .                                       : 6 Расход, усл.ед. -   49.0 см 
RGD_2              .                                       : 7 Расход, м3/сут -   49.0 см 
SPID               .M/H                                    : 2 Скорость, м/час -    0.0 см 
TIME               .S                                      : 4 Время, сек -    0.0 см 
~Ascii
# ...
2710.3     0          0          102        68.67      -190       43631.3   
2710.4     0          0          93         62.74      -190       43629.3   
2710.5     0          0          98         65.81      -190       43627.31  
2710.6     0          0          91         60.95      -131       43625.3   
2710.7     0          0          99         66.67      -190       43623.31  
2710.8     0          0          102        68.25      -130       43621.3   
2710.9     0          0          95         63.96      -190       43619.3   
2711       0          0          101        67.97      -130       43617.3   
2711.1     0          0          91         61.54      -190       43615.29  
2711.2     1          0          83         55.83      -130       43613.29  
2711.3     0          0          100        66.81      -130       43611.31  
2711.4     0          0          91         61.58      -190       43609.31  
2711.5     0          0          100        67.39      -130       43607.3   
2711.6     0          0          88         59.6       -190       43605.3   
2711.7     0          0          82         55.36      -190       43603.42  
2711.8     0          0          90         60.47      -190       43601.3   
2711.9     0          0          85         57.09      -190       43599.29  
2712       0          0          78         53.11      -190       43597.29  
2712.1     0          0          93         62.83      -131       43595.28  
2712.2     0          0          94         63.5       -190       43593.3   
2712.3     1          0          85         57.21      -130       43591.3   
2712.4     0          0          103        68.96      -190       43589.3   
2712.5     0          0          80         54.45      -190       43587.3   
2712.6     0          0          78         52.76      -190       43585.29  
2712.7     0          0          85         57.31      -190       43583.42  
2712.8     0          0          76         51.6       -130       43581.42  
2712.9     0          0          77         51.9       -190       43579.41  
2713       0          0          84         56.82      -130       43577.54  
2713.1     0          0          75         50.59      -190       43575.3   
2713.2     0          0          95         63.55      -190       43573.54  
2713.3     0          0          90         60.4       -130       43571.54  
2713.4     0          0          79         53.52      -190       43569.42  
2713.5     0          0          87         58.48      -190       43567.42  
2713.6     0          0          84         56.44      -190       43565.28  
2713.7     0          0          77         52.09      -190       43563.54  
2713.8     0          0          96         64.5       -190       43561.41  
2713.9     0          0          79         53.54      -190       43559.54  
2714       0          0          88         59.02      -190       43557.54  
2714.1     0          0          91         61.33      -190       43555.53  
2714.2     0          0          77         52.52      -190       43553.53  
2714.3     0          0          88         59.13      -190       43551.41  
2714.4     0          0          83         55.84      -190       43549.54  
2714.5     0          0          78         52.63      -190       43547.54  
2714.6     0          0          81         55.02      -190       43545.53  
2714.7     0          0          71         48.3       -190       43543.54  
2714.8     0          0          77         52.4       -190       43541.53  
2714.9     0          0          81         54.56      -190       43539.53  
2715       0          0          73         49.55      -190       43537.52  
2715.1     0          0          84         56.59      -131       43535.54  
2715.2     0          0          88         59.32      -190       43533.54  
2715.3     0          0          82         55.65      -190       43531.54  
2715.4     0          0          77         52.14      -190       43529.54  
2715.5     0          0          83         55.99      -190       43527.53  
2715.6     0          0          82         55.69      -190       43525.52  
2715.7     0          0          95         63.83      -190       43523.52  
2715.8     0          0          80         54.21      -190       43521.52  
2715.9     0          0          73         49.57      -130       43519.52  
2716       0          0          70         47.99      -190       43517.54  
2716.1     0          0          77         51.91      -130       43515.53  
2716.2     0          0          56         38.8       -190       43513.4   
2716.3     0          0          50         34.7       -190       43511.27  
2716.4     0          0          45         31.51      -160       43509.41  
2716.5     0          0          70         47.58      -190       43507.4   
2716.6     0          0          66         44.99      -193       43505.39  
2716.7     0          0          55         37.96      -190       43503.52  
2716.8     0          0          64         43.64      -190       43501.4   
2716.9     0          0          65         44.65      -190       43499.4   
2717       0          0          55         38.01      -190       43497.53  
2717.1     0          0          65         44.54      -161       43495.39  
2717.2     0          0          62         42.58      -190       43493.52  
2717.3     0          0          63         42.89      -190       43491.52  
2717.4     0          0          59         40.8       -190       43489.52  
2717.5     0          0          62         42.19      -190       43487.51  
2717.6     0          0          64         43.7       -190       43485.5   
2717.7     0          0          61         41.82      -190       43483.53  
2717.8     0          0          46         32.05      -190       43481.52  
2717.9     0          0          53         36.88      -190       43479.52  
2718       0          0          46         32.39      -190       43477.52  
2718.1     0          0          41         28.97      -190       43475.51  
2718.2     0          0          57         39.03      -190       43473.51  
2718.3     0          0          49         34.2       -190       43471.51  
2718.4     0          0          41         28.73      -190       43469.51  
2718.5     0          0          54         37.15      -190       43467.52  
2718.6     0          0          40         28.27      -190       43465.52  
2718.7     0          0          51         35.5       -190       43463.52  
2718.8     0          0          47         32.6       -130       43461.52  
2718.9     0          0          49         33.88      -190       43459.64  
2719       0          0          53         36.59      -190       43457.64  
2719.1     0          0          46         32.01      -190       43455.5   
2719.2     0          0          40         28.08      -190       43453.63  
2719.3     0          0          42         29.36      -130       43451.5   
2719.4     0          0          34         24.4       -190       43449.52  
2719.5     0          0          23         17.29      -190       43447.52  
2719.6     0          0          17         13.43      -190       43445.51  
2719.7     0          0          23         17.11      -190       43443.63  
2719.8     0          0          29         21.4       -190       43441.51  
2719.9     1          0          23         16.93      -190       43439.5   
2720       0          0          17         13.6       -190       43435.13  
2720.1     0          0          26         19.4       -189       43433.25  
2720.2     0          0          18         13.98      -130       43431.01  
2720.3     0          0          25         18.38      -190       43429.13  
2720.4     0          0          38         27.06      -190       43427.13  
2720.5     0          0          47         32.74      -130       43425     
2720.6     0          0          36         25.69      -190       43423.13  
