~Version
 VERS              .         2.0                           : CWLS LOG ASCII STANDARD - VERSION 2.0
 WRAP              .         NO                            : ONE LINE PER DEPTH STEP
 DLM               .         SPACE                         : DELIMITING CHARACTER(SPACE TAB OR COMMA)
~Well Information
#_______________________________________________________________________________
#
#PARAMETER_NAME    .UNIT     VALUE                         : DESCRIPTION
#_______________________________________________________________________________
STRT               .M        2689.5                        : First reference value
STOP               .M        2741.9                        : Last reference value
STEP               .M        0.09999981                    : Step increment
NULL               .         -9999                         : Missing value
COMP               .                                       : Company
WELL               .         616                           : Well name
FLD                .                                       : Field
LOC                .                                       : Location
CNTY               .                                       : County
STAT               .                                       : State
CTRY               .                                       : Country
SRVC               .                                       : Service Company
DATE               .                                       : Date
API                .                                       : API number
PROJECT_UPGRADE_TIME .         2021-03-18T21_24_50           : 
group              .         Good                          : 
~Parameter Information Block
#_______________________________________________________________________________
#
#PARAMETER_NAME    .UNIT     VALUE                         : DESCRIPTION
#_______________________________________________________________________________
SET                .         D7030_D                       : 
OTHER              .         Kedr.exe версия 2.1.2.32      : 
OTHER_10           .         RGD. = 0.647457 * RGD. + 2.35279: 
OTHER_2            .         KedrData.dll версия 3.2.2.14  : 
OTHER_3            .         LasInf.dll версия 3.2.0.13    : 
OTHER_4            .         Драйвер версия 1.2.0.6        : 
OTHER_5            .         Прибор_ Расходомер            : 
OTHER_6            .         Номер прибора_ 963            : 
OTHER_7            .         Режим_ Расходомер             : 
OTHER_8            .         Форма_ Саня                   : 
OTHER_9            .         Тарировки_                    : 
PROJECT_UPGRADE_TIME .         2021-03-18T21_24_50           : 
TLFamily_DEPT      .         Measured Depth                : 
TLFamily_METKA     .                                       : 
TLFamily_RCOR      .                                       : 
TLFamily_RGD       .                                       : 
TLFamily_RGD_2     .                                       : 
TLFamily_SPID      .         Spontaneous Potential         : 
TLFamily_TIME      .         Time                          : 
group              .         prim                          : 
~Curve Information
#_______________________________________________________________________________
#
#LOGNAME           .UNIT     LOG_ID                        : DESCRIPTION
#_______________________________________________________________________________
DEPT               .M                                      : 1 Глубина, м -    0.0 см 
METKA              .                                       : 3 Метки,  -    0.0 см 
RCOR               .CM/KM                                  : 5 Коррекция по ролику, см/км -    0.0 см 
RGD                .                                       : 6 Расход, усл.ед. -   49.0 см 
RGD_2              .                                       : 7 Расход, м3/сут -   49.0 см 
SPID               .M/H                                    : 2 Скорость, м/час -    0.0 см 
TIME               .S                                      : 4 Время, сек -    0.0 см 
~Ascii
2689.50000000 -9999      -9999      -9999      -9999      -9999      -9999     
2689.6     -9999      -9999      -9999      -9999      -9999      -9999     
2689.7     0          0          -9999      -9999      -190       44049.66  
2689.8     0          0          -9999      -9999      -190       44047.66  
2689.9     0          0          -9999      -9999      -130       44045.92  
2690       1          0          -9999      -9999      -190       44043.91  
2690.1     0          0          -9999      -9999      -189       44039.4   
2690.2     0          0          81         54.48      -190       44037.4   
2690.3     0          0          85         57.6       -190       44035.4   
2690.4     0          0          85         57.49      -130       44033.42  
2690.5     0          0          87         58.59      -190       44031.41  
2690.6     0          0          86         57.99      -190       44029.4   
2690.7     0          0          77         52.38      -190       44027.41  
2690.8     0          0          87         58.83      -190       44025.41  
2690.9     0          0          88         59.14      -130       44023.4   
2691       0          0          79         53.39      -190       44021.4   
2691.1     0          0          85         57.42      -190       44019.39  
2691.2     0          0          80         54.42      -130       44017.41  
2691.3     0          0          76         51.68      -130       44015.41  
2691.4     0          0          98         65.82      -190       44013.41  
2691.5     0          0          87         58.99      -190       44011.41  
2691.6     0          0          92         61.77      -130       44009.39  
2691.7     0          0          88         59.65      -190       44007.4   
2691.8     0          0          82         55.52      -190       44005.4   
2691.9     0          0          84         56.44      -190       44003.39  
2692       0          0          92         61.85      -190       44001.39  
2692.1     0          0          81         54.71      -131       43999.4   
2692.2     0          0          95         64.07      -190       43997.41  
2692.3     0          0          81         54.56      -130       43995.4   
2692.4     0          0          82         55.12      -190       43993.14  
2692.5     0          0          107        71.56      -190       43991.28  
2692.6     0          0          83         55.96      -131       43989.15  
2692.7     0          0          85         57.3       -190       43987.27  
2692.8     0          0          112        74.98      -190       43985.27  
2692.9     0          0          99         66.24      -190       43983.27  
2693       0          0          107        71.37      -130       43981.4   
2693.1     0          0          118        78.48      -190       43979.27  
2693.2     0          0          92         61.81      -190       43977.4   
2693.3     0          0          104        69.85      -190       43975.39  
2693.4     0          0          97         65.47      -190       43973.39  
2693.5     0          0          90         60.81      -190       43971.39  
2693.6     0          0          93         62.4       -159       43969.26  
2693.7     0          0          93         62.43      -190       43967.38  
2693.8     0          0          96         64.76      -190       43965.4   
2693.9     0          0          94         63.22      -190       43963.4   
2694       0          0          95         63.63      -190       43961.39  
2694.1     0          0          97         65.16      -189       43959.38  
2694.2     0          0          96         64.69      -190       43957.39  
2694.3     0          0          91         61.36      -190       43955.27  
2694.4     0          0          96         64.73      -130       43953.27  
2694.5     0          0          81         55.11      -190       43951.38  
2694.6     0          0          84         56.54      -190       43949.27  
2694.7     0          0          96         64.3       -190       43947.39  
2694.8     0          0          80         54.11      -190       43945.39  
2694.9     0          0          82         55.68      -130       43943.39  
2695       0          0          109        72.85      -190       43941.39  
2695.1     0          0          93         62.32      -190       43939.38  
2695.2     0          0          104        69.72      -190       43937.38  
2695.3     0          0          93         62.39      -190       43935.38  
2695.4     0          0          82         55.26      -130       43933.38  
2695.5     0          0          111        74.14      -190       43931.39  
2695.6     0          0          88         59.15      -190       43929.26  
2695.7     0          0          76         51.49      -190       43927.39  
2695.8     0          0          97         65.35      -190       43925.38  
2695.9     0          0          82         55.52      -190       43923.38  
2696       0          0          95         63.61      -130       43921.38  
2696.1     0          0          90         60.7       -190       43919.37  
2696.2     0          0          78         52.81      -190       43917.37  
2696.3     0          0          91         61.28      -190       43915.39  
2696.4     0          0          87         58.95      -190       43913.39  
2696.5     0          0          90         60.64      -190       43911.38  
2696.6     0          0          106        71.02      -190       43909.38  
2696.7     0          0          81         54.5       -190       43907.38  
2696.8     0          0          81         54.98      -190       43905.38  
2696.9     0          0          104        69.61      -190       43903.37  
2697       0          0          85         57.11      -190       43901.37  
2697.1     0          0          84         57.02      -190       43899.36  
2697.2     0          0          90         60.88      -190       43897.38  
2697.3     0          0          79         53.47      -190       43895.38  
2697.4     0          0          92         61.97      -190       43893.38  
2697.5     0          0          90         60.81      -190       43891.38  
2697.6     0          0          88         59.56      -190       43889.37  
2697.7     0          0          98         65.8       -190       43887.37  
2697.8     0          0          83         55.99      -130       43885.36  
2697.9     0          0          87         58.46      -160       43883.49  
2698       0          0          98         66.07      -130       43881.38  
2698.1     0          0          85         57.34      -190       43879.38  
2698.2     0          0          88         59.43      -190       43877.38  
2698.3     0          0          94         63.53      -130       43875.37  
2698.4     0          0          72         49.15      -190       43873.5   
2698.5     0          0          96         64.21      -190       43871.36  
2698.6     0          0          90         60.92      -130       43869.36  
2698.7     0          0          84         57.02      -190       43867.36  
2698.8     0          0          98         65.71      -190       43865.38  
2698.9     0          0          91         61.58      -190       43863.38  
2699       0          0          85         57.53      -190       43861.37  
2699.1     0          0          100        67.13      -189       43859.36  
2699.2     0          0          88         59.31      -190       43857.36  
2699.3     0          0          89         60.19      -190       43855.36  
2699.4     0          0          94         63.27      -190       43853.49  
2699.5     0          0          88         59.22      -190       43851.48  
2699.6     0          0          95         63.75      -190       43849.48  
2699.7     0          0          93         62.36      -190       43847.49  
2699.8     0          0          88         59.6       -130       43845.61  
