~Version
 VERS              .         2.0                           : CWLS LOG ASCII STANDARD - VERSION 2.0
 WRAP              .         NO                            : ONE LINE PER DEPTH STEP
 DLM               .         SPACE                         : DELIMITING CHARACTER(SPACE TAB OR COMMA)
~Well Information
#_______________________________________________________________________________
#
#PARAMETER_NAME    .UNIT     VALUE                         : DESCRIPTION
#_______________________________________________________________________________
STRT               .M        2645.6                        : First reference value
STOP               .M        2754.199837                   : Last reference value
STEP               .M        0.1999997                     : Step increment
NULL               .         -9999                         : Missing value
COMP               .                                       : Company
WELL               .         616                           : Well name
FLD                .                                       : Field
LOC                .                                       : Location
CNTY               .                                       : County
STAT               .                                       : State
CTRY               .                                       : Country
SRVC               .                                       : Service Company
DATE               .                                       : Date
API                .                                       : API number
PROJECT_UPGRADE_TIME .         2021-03-18T21_24_50           : 
group              .         Good                          : 
~Parameter Information Block
#_______________________________________________________________________________
#
#PARAMETER_NAME    .UNIT     VALUE                         : DESCRIPTION
#_______________________________________________________________________________
SET                .         D7026_D                       : 
OTHER              .         Kedr.exe версия 2.1.2.32      : 
OTHER_10           .         TM.GRD = 0.00404*TM$.UE + 0.07: 
OTHER_11           .         MN.ATM = (6.33279e-006*TM.GRD + 0.02401)*(MN$.UE + 2.72*TM.GRD + -2018): 
OTHER_12           .         GK.MKR/H = GK$.UE / 43.5489 + 0: 
OTHER_13           .         RES.SM = 0.00476*CRES.UE - 1.51709: 
OTHER_14           .         PL.GSM3 = 0 + 0 * (PL.UE / 1) +  0 * (PL.UE / 1)^2: 
OTHER_15           .         Постоянная времени ГГП = 6 сек: 
OTHER_16           .         Постоянная времени ГК = 6 сек : 
OTHER_2            .         KedrData.dll версия 3.2.2.14  : 
OTHER_3            .         LasInf.dll версия 3.2.0.13    : 
OTHER_4            .         Драйвер версия 1.2.0.5        : 
OTHER_5            .         Прибор_ КСА-M1                : 
OTHER_6            .         Номер прибора_ 155+р204       : 
OTHER_7            .         Режим_ КСА-М1 + ГГП + Резистивиметр: 
OTHER_8            .         Форма_ 223\2                  : 
OTHER_9            .         Тарировки_                    : 
PROJECT_UPGRADE_TIME .         2021-03-18T21_24_50           : 
TLFamily_CRES      .                                       : 
TLFamily_DEPT      .         Measured Depth                : 
TLFamily_GK        .         Gamma Ray                     : 
TLFamily_GK$       .                                       : 
TLFamily_LM        .         Casing Collar locator         : 
TLFamily_METKA     .                                       : 
TLFamily_MN        .                                       : 
TLFamily_MN$       .                                       : 
TLFamily_PL        .                                       : 
TLFamily_PL_2      .                                       : 
TLFamily_RCOR      .                                       : 
TLFamily_RES       .         Mud Resistivity               : 
TLFamily_SPID      .         Spontaneous Potential         : 
TLFamily_STD       .                                       : 
TLFamily_TIME      .         Time                          : 
TLFamily_TM        .         Temperature                   : 
TLFamily_TM$       .         Temperature                   : 
TLFamily_VGD       .         Gas Volume                    : 
group              .         prim                          : 
~Curve Information
#_______________________________________________________________________________
#
#LOGNAME           .UNIT     LOG_ID                        : DESCRIPTION
#_______________________________________________________________________________
DEPT               .M                                      : 1 Глубина, м -    0.0 см 
CRES               .UE                                     : 9 Проводимость, усл.ед. -  222.0 см 
GK                 .MKR/H                                  : 16 Гамма-активность, мкр./ч -  106.0 см 
GK$                .UE                                     : 13 Гамма-активность, усл.ед. -  106.0 см 
LM                 .                                       : 11 Локатор муфт,  -   16.0 см 
METKA              .                                       : 3 Метки,  -    0.0 см 
MN                 .ATM                                    : 15 Давление, атм. -  160.0 см 
MN$                .UE                                     : 7 Давление, усл.ед. -  160.0 см 
PL                 .UE                                     : 10 Плотность, усл.ед. -  270.0 см 
PL_2               .GSM3                                   : 18 Плотность, г./см3 -  270.0 см 
RCOR               .CM/KM                                  : 5 Коррекция по ролику, см/км -    0.0 см 
RES                .SM                                     : 17 Проводимость,  -  222.0 см 
SPID               .M/H                                    : 2 Скорость, м/час -    0.0 см 
STD                .                                       : 12 Приток,  -  170.0 см 
TIME               .S                                      : 4 Время, сек -    0.0 см 
TM                 .GRD                                    : 14 Температура, °C -  180.0 см 
TM$                .UE                                     : 6 Температура, усл.ед. -  180.0 см 
VGD                .                                       : 8 Влагомер,  -  170.0 см 
~Ascii
# ...
2743.999852 1202       11.04      488        83         0          253.231    12271      14         0          0          4.206      580        10520      17793.89   53.71      13277      6662      
2744.199852 1215       11.05      482        80         0          253.272    12272      14         0          0          4.2647     580        10544      17795.22   53.796     13299      6661      
2744.399852 1222       11.06      482        72         0          253.318    12273      14         0          0          4.298      580        10566      17796.53   53.928     13331      6660      
2744.599852 1239       11.22      496        88         0          253.353    12273      14         0          0          4.3814     545        10588      17797.79   54.086     13370      6656      
2744.799851 1242       11.33      502        64         0          253.393    12274      14         0          0          4.3925     522        10616      17799.12   54.292     13421      6655      
2744.999851 1243       11.49      508        67         0          253.429    12275      14         0          0          4.4004     568        10645      17800.43   54.469     13465      6654      
2745.199851 1248       11.28      438        44         0          253.474    12276      14         0          0          4.4234     545        10672      17801.75   54.562     13488      6652      
2745.39985 1248       10.67      438        46         0          253.501    12276      14         0          0          4.4218     580        10705      17803.02   54.718     13527      6652      
2745.59985 1249       10.31      424        63         0          253.515    12276      14         0          0          4.4282     580        10737      17804.33   54.919     13577      6651      
2745.79985 1252       9.86       410        71         0          253.56     12277      14         0          0          4.4411     533        10765      17805.65   55.023     13602      6650      
2745.999849 1255       9.55       392        97         0          253.596    12278      14         0          0          4.4551     545        10791      17806.91   55.184     13642      6649      
2746.199849 1252       9.28       392        71         0          253.63     12279      14         0          0          4.4424     580        10815      17808.23   55.274     13664      6648      
2746.399849 1256       9.14       391        86         0          253.664    12280      14         0          0          4.463      510        10841      17809.48   55.345     13682      6646      
2746.599849 1256       9.06       391        55         0          253.695    12280      14         0          0          4.4615     556        10867      17810.79   55.448     13708      6646      
2746.799848 1258       9.17       418        196        0          253.736    12281      14         0          0          4.4726     580        10895      17812.13   55.617     13749      6639      
2746.999848 1242       9.37       418        83         0          253.756    12281      14         0          0          4.3948     580        10926      17813.45   55.78      13790      6633      
2747.199848 1239       9.37       402        102        0          253.795    12282      14         0          0          4.3821     530        10950      17814.74   55.93      13827      6642      
2747.399847 1247       9.3        402        107        0          253.836    12283      14         0          0          4.4194     580        10981      17816.03   56.04      13854      6630      
2747.599847 1260       8.72       340        91         0          253.854    12283      14         0          0          4.4822     580        11012      17817.35   56.166     13885      6623      
2747.799847 1275       8.26       340        64         0          253.893    12284      14         0          0          4.5535     580        11038      17818.61   56.301     13919      6640      
2747.999846 1280       7.84       315        5096       0          253.934    12285      14         0          0          4.5757     580        11062      17819.94   56.415     13947      6641      
2748.199846 1283       7.55       315        3153       0          253.962    12285      14         0          0          4.5908     510        11086      17821.26   56.537     13977      6639      
2748.399846 1284       7.58       336        785        0          254.004    12286      14         0          0          4.5947     520        11113      17822.52   56.75      14030      6639      
2748.599845 1283       7.65       336        159        0          254.041    12287      14         0          0          4.59       580        11140      17823.84   56.883     14063      6638      
2748.799845 1286       8.3        392        91         0          254.061    12287      14         0          0          4.6043     580        11163      17825.16   56.977     14086      6641      
2748.999845 1290       8.69       403        87         0          254.093    12288      14         0          0          4.6233     530        11186      17826.43   57.073     14110      6638      
2749.199845 1290       9.22       425        61         0          254.12     12288      14         0          0          4.6233     580        11212      17827.72   57.188     14138      6638      
2749.399844 1292       9.49       425        34         0          254.161    12289      14         0          0          4.6328     580        11237      17829.04   57.392     14189      6646      
2749.599844 1288       9.27       393        30         0          254.205    12290      14         0          0          4.6146     580        11264      17830.38   57.519     14220      6643      
2749.799844 1295       9.1        382        29         0          254.221    12290      14         0          0          4.6495     580        11285      17831.69   57.662     14255      6645      
2749.999843 1294       8.81       371        28         0          254.257    12291      14         0          0          4.6437     580        11305      17833.01   57.784     14286      6644      
2750.199843 1294       8.61       357        28         1          254.27     12291      14         0          0          4.6424     580        11325      17834.99   57.875     14308      6642      
2750.399843 1296       8.4        357        29         0          254.301    12292      14         0          0          4.6503     557        11342      17836.32   57.939     14324      6642      
2750.599842 1298       8.28       352        30         0          254.326    12293      14         0          0          4.6614     580        11363      17837.64   58.02      14344      6644      
2750.799842 1297       8.16       350        29         0          254.314    12292      13         0          0          4.6566     530        11381      17838.94   58.077     14358      6644      
2750.999842 1266       8.27       382        29         0          254.327    12292      14         0          0          4.5089     493        11398      17840.28   58.117     14368      6643      
2751.199842 928        8.57       376        30         0          254.336    12292      14         0          0          2.8988     580        11409      17841.61   58.22      14394      6643      
2751.399841 897        8.45       363        29         0          254.339    12292      14         0          0          2.7542     580        11419      17842.9    58.284     14409      6643      
2751.599841 871        8.39       363        29         -9999      254.344    12292      14         0          -9999      2.6288     -9999      11427      -9999      58.311     14416      6642      
2751.799841 866        8.14       343        -9999      -9999      254.293    12290      14         0          -9999      2.6035     -9999      11434      -9999      58.347     14425      6641      
2751.99984 864        8.06       356        -9999      -9999      254.297    12290      14         0          -9999      2.5956     -9999      11439      -9999      58.332     14421      6641      
