~Version
 VERS              .         2.0                           : CWLS LOG ASCII STANDARD - VERSION 2.0
 WRAP              .         NO                            : ONE LINE PER DEPTH STEP
 DLM               .         SPACE                         : DELIMITING CHARACTER(SPACE TAB OR COMMA)
~Well Information
#_______________________________________________________________________________
#
#PARAMETER_NAME    .UNIT     VALUE                         : DESCRIPTION
#_______________________________________________________________________________
STRT               .M        10.2                          : First reference value
STOP               .M        2774.8                        : Last reference value
STEP               .M        0.2                           : Step increment
NULL               .         -9999                         : Missing value
COMP               .                                       : Company
WELL               .         616                           : Well name
FLD                .                                       : Field
LOC                .                                       : Location
CNTY               .                                       : County
STAT               .                                       : State
CTRY               .                                       : Country
SRVC               .                                       : Service Company
DATE               .                                       : Date
API                .                                       : API number
PROJECT_UPGRADE_TIME .         2021-03-18T21_24_50           : 
group              .         Good                          : 
~Parameter Information Block
#_______________________________________________________________________________
#
#PARAMETER_NAME    .UNIT     VALUE                         : DESCRIPTION
#_______________________________________________________________________________
SET                .         D1813_D_2                     : 
NPR                .                                       : 
OTHER              .         Программное обеспечение станции MONITOR-386EX 25/12/99 15_08_10   BGF V52 22/08/01 16_56_30   3.1_SNGF___BGF_N_092049: 
OTHER_10           .         Тарировки_                    : 
OTHER_11           .         TM.GRD = 0.00403*TM$.UE + -1.07: 
OTHER_12           .         MN.ATM = (9.34907e-006*TM.GRD + 0.02171)*(MN$.UE + -7.93*TM.GRD + -1787): 
OTHER_13           .         GK.MKR/H = LM. / 42.4676      : 
OTHER_14           .         GK.FLT = 0.1*GK.MKR/H[-1] + (1-0.1)*GK.MKR/H[0]: 
OTHER_2            .         Kedr.exe версия 3.4.2.51      : 
OTHER_3            .         KedrData.dll версия 3.4.2.24  : 
OTHER_4            .         Драйвер версия 2.1.1.3        : 
OTHER_5            .         Мнемоники версия 3.3 S        : 
OTHER_6            .         Прибор_ КСА-Т4                : 
OTHER_7            .         Номер прибора_ 03             : 
OTHER_8            .         Режим_ КСА-Т4                 : 
OTHER_9            .         Форма_ КВА.                   : 
PR                 .                                       : 
PROJECT_UPGRADE_TIME .         2021-03-18T21_24_49           : 
PRTY               .         ПП-603-1                      : N партии
SRV                .                                       : 
SRVC               .         Карпов                        : Начальник партии
TLFamily_DEPT      .         Measured Depth                : 
TLFamily_LM        .         Casing Collar locator         : 
TLFamily_MN        .                                       : 
TLFamily_TM        .         Temperature                   : 
group              .         second                        : 
~Curve Information
#_______________________________________________________________________________
#
#LOGNAME           .UNIT     LOG_ID                        : DESCRIPTION
#_______________________________________________________________________________
DEPT               .M                                      : Depth curve 
LM                 .е.ацп                                  : Локатор муфт,е.ацп 
MN                 .атм                                    : Манометрия, атм 
TM                 .град.C                                 : Термограмма по стволу скважины,град.C 
~Ascii
# ...
1466.2     916.012    130.703    44.566    
1466.4     1032       130.719    44.569    
1466.6     1031.996   130.737    44.572    
1466.8     994.027    130.755    44.576    
1467       1243.024   130.771    44.579    
1467.2     1467.934   130.788    44.582    
1467.4     858        130.806    44.585    
1467.6     858.007    130.823    44.588    
1467.8     918.992    130.84     44.592    
1468       847.016    130.857    44.595    
1468.2     997.018    130.874    44.602    
1468.4     1161       130.891    44.605    
1468.6     1161.001   130.908    44.611    
1468.8     1167.006   130.924    44.615    
1469       1224.976   130.941    44.618    
1469.2     998.002    130.959    44.622    
1469.4     1020       130.977    44.625    
1469.6     1020.002   130.993    44.628    
1469.8     1040.997   131.011    44.631    
1470       1013.012   131.027    44.635    
1470.2     1126.016   131.044    44.641    
1470.4     1273       131.062    44.645    
1470.6     1272.996   131.078    44.648    
1470.8     1231.99    131.098    44.652    
1471       1138.002   131.115    44.655    
1471.2     1159.013   131.133    44.658    
1471.4     1282       131.15     44.665    
1471.6     1282.047   131.166    44.666    
1471.8     1719.083   131.184    44.669    
1472       2490.126   131.201    44.675    
1472.2     3658.809   131.218    44.678    
1472.4     1892       131.235    44.682    
1472.6     1891.979   131.251    44.685    
1472.8     1700.943   131.269    44.688    
1473       1169.016   131.286    44.692    
1473.2     1314.998   131.302    44.698    
1473.4     1292       131.319    44.699    
1473.6     1292.032   131.318    44.703    
1473.8     1590.992   131.333    44.704    
1474       1519.988   131.35     44.695    
1474.2     1409       131.366    44.711    
1474.4     1409.014   131.385    44.717    
1474.6     1534.035   131.421    44.721    
1474.8     1858.034   131.426    44.724    
1475       2169.06    131.435    44.727    
1475.2     2726       131.452    44.73     
1475.4     2726.087   131.47     44.736    
1475.6     3529.086   131.486    44.741    
1475.8     4319.146   131.503    44.744    
1476       5669.194   131.529    44.747    
1476.2     7460       131.556    44.75     
1476.4     7459.377   131.557    44.747    
1476.6     1704.955   131.555    44.749    
1476.8     1293.013   131.578    44.764    
1477       1409.029   131.605    44.767    
1477.2     1675       131.622    44.77     
1477.4     1674.954   131.639    44.773    
1477.6     1247.011   131.656    44.776    
1477.8     1353.006   131.673    44.78     
1478       1409       131.69     44.786    
1478.2     1409.01    131.707    44.79     
1478.4     1505.006   131.724    44.793    
1478.6     1556.018   131.741    44.796    
1478.8     1724.959   131.758    44.799    
1479       1344       131.775    44.803    
1479.2     1343.993   131.793    44.806    
1479.4     1284.005   131.809    44.811    
1479.6     1333.984   131.826    44.816    
1479.8     1186.998   131.844    44.816    
1480       1164.02    131.861    44.822    
1480.2     1349       131.879    44.826    
1480.4     1348.982   131.895    44.831    
1480.6     1187.011   131.911    44.836    
1480.8     1288.003   131.93     44.836    
1481       1314       131.948    44.842    
1481.2     1313.993   131.964    44.846    
1481.4     1247.014   131.981    44.849    
1481.6     1377       131.999    44.853    
1481.8     1379.972   132.016    44.86     
1482       1123       132.032    44.863    
1482.2     1123.01    132.05     44.866    
1482.4     1218.001   132.051    44.869    
1482.6     1225.997   132.062    44.872    
1482.8     1197.003   132.086    44.876    
1483       1225       132.116    44.879    
1483.2     1225.004   132.115    44.884    
1483.4     1258.995   132.129    44.889    
1483.6     1209.001   132.157    44.892    
1483.8     1221.998   132.186    44.896    
1484       1203       132.202    44.899    
1484.2     1203.012   132.202    44.902    
1484.4     1316.021   132.231    44.905    
1484.6     1512.023   132.245    44.908    
1484.8     1723       132.25     44.912    
1485       1723.004   132.27     44.915    
1485.2     1761.05    132.302    44.92     
1485.4     2223.081   132.31     44.924    
1485.6     2970.021   132.328    44.924    
1485.8     3166.936   132.353    44.931    
1486       2583       132.353    44.935    
1486.2     2583.001   132.369    44.938    
1486.4     2591.084   132.386    44.941    
1486.6     3362.087   132.404    44.944    
1486.8     4163       132.421    44.948    
1487       4163.208   132.437    44.953    
1487.2     6069.471   132.455    44.957    
1487.4     1216.983   132.473    44.958    
1487.6     1064.994   132.49     44.965    
1487.8     1007       132.505    44.968    
1488       1007.015   132.523    44.971    
1488.2     1141.017   132.541    44.975    
1488.4     1296.02    132.558    44.981    
1488.6     1478.017   132.574    44.984    
1488.8     1637       132.592    44.988    
1489       1637.028   132.61     44.991    
1489.2     1894.075   132.625    44.994    
1489.4     2580.836   132.642    44.997    
1489.6     1078.004   132.66     45        
1489.8     1113       132.678    45.004    
1490       1112.987   132.694    45.007    
1490.2     990.992    132.711    45.01     
1490.4     918        132.728    45.013    
1490.6     919.009    132.745    45.02     
1490.8     1001       132.764    45.021    
1491       1001.002   132.781    45.025    
1491.2     1021       132.798    45.031    
1491.4     1022.006   132.816    45.037    
1491.6     1076.004   132.834    45.037    
1491.8     1108       132.849    45.043    
1492       1108.012   132.867    45.047    
1492.2     1213.992   132.885    45.05     
1492.4     1145.008   132.901    45.054    
1492.6     1220       132.917    45.06     
1492.8     1219.976   132.935    45.064    
1493       1002.007   132.953    45.067    
1493.2     1069.016   132.971    45.07     
1493.4     1217.992   132.987    45.074    
1493.6     1146       133.003    45.08     
1493.8     1145.99    133.022    45.084    
1494       1057.995   133.039    45.086    
1494.2     1013.009   133.055    45.086    
1494.4     1090.992   133.073    45.089    
1494.6     1015       133.091    45.083    
1494.8     1014.995   133.107    45.093    
1495       971.993    133.123    45.103    
1495.2     911.014    133.14     45.107    
1495.4     1034.997   133.15     45.113    
1495.6     1011       133.156    45.117    
1495.8     1011.005   133.189    45.12     
1496       1057.991   133.208    45.123    
1496.2     974.007    133.226    45.126    
1496.4     1039.009   133.243    45.13     
1496.6     1125       133.259    45.135    
1496.8     1125.026   133.276    45.14     
1497       1360.041   133.279    45.143    
1497.2     1731.065   133.3      45.146    
1497.4     2322       133.323    45.15     
1497.6     2322.091   133.322    45.153    
1497.8     3147.176   133.359    45.156    
1498       4751.277   133.38     45.16     
1498.2     7267.547   133.397    45.166    
1498.4     3145       133.409    45.166    
1498.6     3144.927   133.409    45.171    
1498.8     2478.871   133.443    45.176    
1499       1301.995   133.452    45.179    
1499.2     1253.006   133.459    45.182    
1499.4     1304       133.476    45.185    
1499.6     1308       133.495    45.189    
1499.8     1308.017   133.527    45.192    
1500       1461.996   133.539    45.195    
1500.2     1430.015   133.545    45.198    
1500.4     1565       133.562    45.204    
1500.6     1565.026   133.578    45.208    
1500.8     1799.966   133.612    45.212    
1501       1492.989   133.637    45.215    
1501.2     1392.998   133.646    45.219    
1501.4     1377       133.648    45.224    
1501.6     1377.006   133.666    45.229    
1501.8     1427.982   133.684    45.232    
1502       1268.983   133.701    45.235    
1502.2     1117.99    133.718    45.239    
1502.4     1025       133.733    45.244    
