~Version
 VERS              .         2.0                           : CWLS LOG ASCII STANDARD - VERSION 2.0
 WRAP              .         NO                            : ONE LINE PER DEPTH STEP
 DLM               .         SPACE                         : DELIMITING CHARACTER(SPACE TAB OR COMMA)
~Well Information
#_______________________________________________________________________________
#
#PARAMETER_NAME    .UNIT     VALUE                         : DESCRIPTION
#_______________________________________________________________________________
STRT               .M        2658.4                        : First reference value
STOP               .M        2763.200052                   : Last reference value
STEP               .M        0.2000001                     : Step increment
NULL               .         -9999                         : Missing value
COMP               .                                       : Company
WELL               .         616                           : Well name
FLD                .                                       : Field
LOC                .                                       : Location
CNTY               .                                       : County
STAT               .                                       : State
CTRY               .                                       : Country
SRVC               .                                       : Service Company
DATE               .                                       : Date
API                .                                       : API number
PROJECT_UPGRADE_TIME .         2021-03-18T21_24_50           : 
group              .         Good                          : 
~Parameter Information Block
#_______________________________________________________________________________
#
#PARAMETER_NAME    .UNIT     VALUE                         : DESCRIPTION
#_______________________________________________________________________________
SET                .         D7027_D_2                     : 
NPR                .         155                           : Номер прибора
OTHER              .         Kedr.exe версия 2.1.2.32      : 
OTHER_10           .         TM.GRD = 0.00404*TM$.UE + 0.07: 
OTHER_11           .         MN.ATM = (6.33279e-006*TM.GRD + 0.02401)*(MN$.UE + 2.72*TM.GRD + -2018): 
OTHER_12           .         GK.MKR/H = GK$.UE / 43.5489 + 0: 
OTHER_13           .         RES.SM = 0.00476*CRES.UE - 1.51709: 
OTHER_14           .         PL.GSM3 = 0 + 0 * (PL.UE / 1) +  0 * (PL.UE / 1)^2: 
OTHER_15           .         Постоянная времени ГГП = 6 сек: 
OTHER_16           .         Постоянная времени ГК = 6 сек : 
OTHER_2            .         KedrData.dll версия 3.2.2.14  : 
OTHER_3            .         LasInf.dll версия 3.2.0.13    : 
OTHER_4            .         Драйвер версия 1.2.0.5        : 
OTHER_5            .         Прибор_ КСА-M1                : 
OTHER_6            .         Номер прибора_ 155+р204       : 
OTHER_7            .         Режим_ КСА-М1 + ГГП + Резистивиметр: 
OTHER_8            .         Форма_ 223\2                  : 
OTHER_9            .         Тарировки_                    : 
PR                 .         КСА-Т7 М1                     : Тип прибора
PROJECT_UPGRADE_TIME .         2021-03-18T21_24_50           : 
PRTY               .         ПП-223_2                      : Номер партии
SRV                .         ЦКРС                          : Заказчик
SRVC               .         Лузин  А.Б.                   : Начальник партии
TLFamily_DEPT      .         Measured Depth                : 
TLFamily_LM        .         Casing Collar locator         : 
TLFamily_MN        .                                       : 
TLFamily_SPID      .         Spontaneous Potential         : 
TLFamily_TM        .         Temperature                   : 
group              .         second                        : 
~Curve Information
#_______________________________________________________________________________
#
#LOGNAME           .UNIT     LOG_ID                        : DESCRIPTION
#_______________________________________________________________________________
DEPT               .M                                      : Depth curve 
LM                 .е.ацп                                  : Локация муфт 
MN                 .атм                                    : Манометрия, атм 
SPID               .м/ч                                    : Скорость записи,м/час 
TM                 .град.С                                 : Термометрия,град.С 
~Ascii
# ...
2687.200014 131.004    246.18     580        55.58     
2687.400014 131        246.2      533.023    55.56     
2687.600015 64.033     246.21     533        55.55     
2687.800015 104.98     246.22     579.977    55.53     
2688.000015 78.013     246.24     580        55.5      
2688.200015 62.008     246.26     545.017    55.49     
2688.400015 122.97     246.29     533.006    55.46     
2688.600015 95.014     246.3      579.977    55.44     
2688.800015 63.016     246.3      533.023    55.41     
2689.000015 68.997     246.32     579.977    55.39     
2689.200015 56.006     246.34     569.005    55.36     
2689.400015 115.971    246.37     522.023    55.33     
2689.600016 120.998    246.39     532.995    55.31     
2689.800016 67.026     246.4      579.977    55.3      
2690.000016 48.009     246.41     550.015    55.29     
2690.200016 46.001     246.43     579.985    55.28     
2690.400016 49.998     246.45     570.005    55.25     
2690.600016 59.995     246.47     530.019    55.23     
2690.800016 40.01      246.49     544.993    55.2      
2691.000016 55.992     246.51     579.983    55.18     
2691.200016 70.993     246.52     510.034    55.15     
2691.400017 1279.413   246.55     579.966    55.12     
2691.600017 791.238    246.57     545.017    55.06     
2691.800017 123.325    246.58     522.011    55.03     
2692.000017 42.039     246.61     569.977    55        
2692.200017 32.005     246.62     579.995    54.98     
2692.400017 32         246.63     533.023    54.96     
2692.600017 28.002     246.68     579.977    54.94     
2692.800017 32.998     246.68     522.028    54.91     
2693.000017 29.002     246.69     544.989    54.87     
2693.200017 30.999     246.71     579.983    54.84     
2693.400018 41.995     246.74     580        54.81     
2693.600018 22.01      246.74     522.028    54.79     
2693.800018 20.001     246.78     539.991    54.78     
2694.000018 23.998     246.79     579.981    54.76     
2694.200018 35.994     246.8      580        54.74     
2694.400018 29.003     246.82     510.034    54.72     
2694.600018 27.001     246.84     579.966    54.7      
2694.800018 23.002     246.87     510.034    54.68     
2695.000018 16.003     246.89     510        54.66     
2695.200018 17.999     246.91     579.966    54.65     
2695.400018 33.992     246.93     580        54.63     
2695.600019 36.999     246.95     580        54.6      
2695.800019 29.004     246.95     580        54.57     
2696.000019 15.007     246.97     580        54.56     
2696.200019 15         246.99     521.029    54.53     
2696.400019 32.991     247.01     579.971    54.51     
2696.600019 37.998     247.03     580        54.48     
2696.800019 18.01      247.05     557.011    54.45     
2697.000019 84.967     247.07     510.023    54.42     
2697.200019 163.962    247.1      579.966    54.4      
2697.400019 155.004    247.1      538.02     54.37     
2697.60002 81.036     247.13     579.98     54.34     
2697.80002 47.017     247.13     580        54.32     
2698.00002 48         247.15     540.019    54.29     
2698.20002 59.994     247.18     533.003    54.26     
2698.40002 45.007     247.19     579.977    54.24     
2698.60002 46.999     247.22     580        54.21     
2698.80002 74.986     247.24     545.017    54.19     
2699.00002 52.011     247.25     522.011    54.17     
2699.20002 53         247.26     567.978    54.14     
2699.400021 43.005     247.28     579.994    54.1      
2699.600021 28.007     247.3      557.011    54.07     
2699.800021 21.003     247.32     579.989    54.04     
2700.000021 136.944    247.34     568.006    54.02     
2700.200021 123.007    247.36     510.028    53.98     
2700.400021 112.005    247.37     579.966    53.93     
2700.600021 92.01      247.39     580        53.87     
2700.800021 94.999     247.39     510.034    53.83     
2701.000021 82.006     247.42     579.966    53.8      
2701.200021 78.002     247.45     580        53.78     
2701.400022 79.999     247.48     522.028    53.76     
2701.600022 68.006     247.5      567.978    53.75     
2701.800022 81.993     247.52     579.994    53.73     
2702.000022 94.994     247.54     540.019    53.71     
2702.200022 5232.507   247.56     579.981    53.68     
2702.400022 2033.553   247.58     580        53.65     
2702.600022 507.74     247.58     545.017    53.6      
2702.800022 163.167    247.6      533.006    53.57     
2703.000022 56.052     247.62     579.977    53.55     
2703.200022 52.002     247.64     580        53.53     
2703.400022 57.997     247.66     545.017    53.51     
2703.600023 59.999     247.68     579.983    53.48     
2703.800023 139.961    247.68     568.006    53.44     
2704.000023 113.013    247.72     579.994    53.42     
2704.200023 81.016     247.72     533.023    53.39     
2704.400023 46.017     247.76     579.977    53.36     
2704.600023 36.005     247.76     580        53.34     
2704.800023 32.002     247.78     580        53.31     
2705.000023 43.994     247.8      557.011    53.28     
2705.200023 45         247.82     579.989    53.26     
2705.400024 43.001     247.84     533.023    53.24     
2705.600024 107.968    247.86     510.011    53.21     
2705.800024 50.028     247.88     579.966    53.16     
2706.000024 26.012     247.91     580        53.13     
2706.200024 24.001     247.93     580        53.12     
2706.400024 17.003     247.95     580        53.09     
2706.600024 9.004      247.96     580        53.06     
2706.800024 80.965     247.99     580        53.01     
2707.000024 41.019     247.99     510.034    52.99     
2707.200024 47.997     248        579.966    52.96     
2707.400025 54.997     248.04     580        52.93     
2707.600025 58.998     248.04     580        52.89     
2707.800025 57.001     248.07     580        52.86     
2708.000025 84.986     248.09     522.028    52.84     
2708.200025 76.004     248.11     579.972    52.83     
2708.400025 75         248.13     533.023    52.82     
2708.600025 72.001     248.16     533        52.8      
2708.800025 63.004     248.18     510.011    52.79     
2709.000025 60.001     248.18     567.972    52.78     
2709.200025 46.007     248.2      579.994    52.75     
2709.400026 51.997     248.23     568.006    52.73     
2709.600026 55.998     248.26     579.994    52.72     
2709.800026 49.003     248.26     510.034    52.7      
2710.000026 36.006     248.28     579.966    52.68     
2710.200026 43.996     248.32     580        52.66     
2710.400026 63.99      248.33     510.034    52.64     
2710.600026 50.007     248.35     579.966    52.61     
2710.800026 50         248.37     580        52.59     
2711.000026 60.995     248.39     510.034    52.57     
2711.200026 45.008     248.41     510        52.54     
2711.400026 50.997     248.44     579.966    52.53     
2711.600027 61.995     248.46     580        52.51     
2711.800027 54.004     248.48     568.006    52.49     
2712.000027 50.002     248.5      510.028    52.47     
2712.200027 42.004     248.52     579.966    52.45     
2712.400027 45.998     248.54     533.023    52.42     
2712.600027 49.998     248.57     510.011    52.41     
2712.800027 38.006     248.59     556.977    52.39     
2713.000027 36.001     248.59     579.989    52.37     
2713.200027 1112.479   248.63     569.005    52.35     
2713.400028 3857.67    248.63     510.029    52.34     
2713.600028 1290.244   248.65     579.966    52.31     
2713.800028 323.468    248.7      557.011    52.29     
2714.000028 95.11      248.71     522.017    52.27     
2714.200028 52.021     248.74     567.978    52.26     
2714.400028 91.981     248.74     579.994    52.24     
2714.600028 73.009     248.76     560.01     52.23     
2714.800028 53.01      248.78     510.024    52.21     
2715.000028 57.998     248.81     579.966    52.2      
2715.200028 59.999     248.83     545.017    52.18     
2715.400029 46.007     248.85     579.983    52.16     
2715.600029 51.997     248.87     510.034    52.14     
2715.800029 41.005     248.89     532.989    52.12     
