~Version
 VERS              .         2.0                           : CWLS LOG ASCII STANDARD - VERSION 2.0
 WRAP              .         NO                            : ONE LINE PER DEPTH STEP
 DLM               .         SPACE                         : DELIMITING CHARACTER(SPACE TAB OR COMMA)
~Well Information
#_______________________________________________________________________________
#
#PARAMETER_NAME    .UNIT     VALUE                         : DESCRIPTION
#_______________________________________________________________________________
STRT               .M        2733.1                        : First reference value
STOP               .M        2798.6                        : Last reference value
STEP               .M        0.1                           : Step increment
NULL               .         -9999                         : Missing value
COMP               .                                       : Company
WELL               .         616                           : Well name
FLD                .                                       : Field
LOC                .                                       : Location
CNTY               .                                       : County
STAT               .                                       : State
CTRY               .                                       : Country
SRVC               .                                       : Service Company
DATE               .                                       : Date
API                .                                       : API number
PROJECT_UPGRADE_TIME .         2021-03-18T21_24_50           : 
group              .         Good                          : 
~Parameter Information Block
#_______________________________________________________________________________
#
#PARAMETER_NAME    .UNIT     VALUE                         : DESCRIPTION
#_______________________________________________________________________________
SET                .         D2661_D                       : 
OTHER              .         Программное обеспечение станции MONITOR-386EX 25/12/99 15_08_10   BGF V50 26/12/00 07_26_01   3.1_SNGF___BGF_N_092085: 
OTHER_10           .         Тарировки_                    : 
OTHER_11           .         IK1.GRD = IK1$.UE - -5.96     : 
OTHER_12           .         IK5.GRD = IK5$.UE - -0.74     : 
OTHER_13           .         IK4.GRD = IK4$.UE - -0.9      : 
OTHER_14           .         IK3.GRD = IK3$.UE - -1.28     : 
OTHER_15           .         IK2.GRD = IK2$.UE - -3.55     : 
OTHER_2            .         Kedr.exe версия 3.3.2.32      : 
OTHER_3            .         KedrData.dll версия 3.3.2.17  : 
OTHER_4            .         Драйвер версия 2.1.0.4        : 
OTHER_5            .         Мнемоники версия 3.3 S        : 
OTHER_6            .         Прибор_ Викиз                 : 
OTHER_7            .         Номер прибора_ 0006012        : 
OTHER_8            .         Режим_ Викиз                  : 
OTHER_9            .         Форма_ ВИКИЗ                  : 
PROJECT_UPGRADE_TIME .         2021-03-18T21_24_49           : 
TLFamily_DEPT      .         Measured Depth                : 
TLFamily_IK1       .         Extra Shallow Resistivity     : 
TLFamily_IK1$      .         Extra Shallow Resistivity     : 
TLFamily_IK2       .         Shallow Resistivity           : 
TLFamily_IK2$      .         Shallow Resistivity           : 
TLFamily_IK3       .         Medium Resistivity            : 
TLFamily_IK3$      .         Medium Resistivity            : 
TLFamily_IK4       .         Deep Resistivity              : 
TLFamily_IK4$      .         Deep Resistivity              : 
TLFamily_IK5       .         Resistivity 20                : 
TLFamily_IK5$      .         Resistivity 20                : 
TLFamily_METKA     .                                       : 
TLFamily_PS        .         Spontaneous Potential         : 
TLFamily_RCOR      .                                       : 
TLFamily_SPID      .         Spontaneous Potential         : 
TLFamily_TENS      .         Cable Tension                 : 
TLFamily_TIME      .         Time                          : 
group              .         prim                          : 
~Curve Information
#_______________________________________________________________________________
#
#LOGNAME           .UNIT     LOG_ID                        : DESCRIPTION
#_______________________________________________________________________________
DEPT               .M                                      : 1 Глубина, м -    0.0 см 
IK1                .GRD                                    : 13 3Ф0.5, град. -  226.0 см 
IK1$               .UE                                     : 7 3Ф0.5, усл.ед. -  226.0 см 
IK2                .GRD                                    : 17 3Ф0.7, град. -  240.0 см 
IK2$               .UE                                     : 11 3Ф0.7, усл.ед. -  240.0 см 
IK3                .GRD                                    : 16 3Ф1.0, град. -  260.0 см 
IK3$               .UE                                     : 10 3Ф1.0, усл.ед. -  260.0 см 
IK4                .GRD                                    : 15 3Ф1.4, град. -  288.0 см 
IK4$               .UE                                     : 9 3Ф1.4, усл.ед. -  288.0 см 
IK5                .GRD                                    : 14 3Ф2.0, град. -  328.0 см 
IK5$               .UE                                     : 8 3Ф2.0, усл.ед. -  328.0 см 
METKA              .                                       : 3 Метки,  -    0.0 см 
PS                 .mV                                     : 12 ПС, мВ -  372.0 см 
RCOR               .CM/KM                                  : 5 Коррекция по ролику, см/км -    0.0 см 
SPID               .M/H                                    : 2 Скорость, м/час -    0.0 см 
TENS               .T                                      : 6 Натяжение кабеля, т -    0.0 см 
TIME               .S                                      : 4 Время, сек -    0.0 см 
~Ascii
# ...
2780.4     15.45      9.49       14.61      11.06      14.34      13.06      13.82      12.92      13.73      12.99      0          330.91     -286       -1802      0          34389.17  
2780.5     15.51      9.55       14.63      11.08      14.33      13.05      13.8       12.9       13.71      12.97      0          329.7      -286       -1804      0          34388.98  
2780.6     15.51      9.55       14.64      11.09      14.34      13.06      13.78      12.88      13.7       12.96      0          329.71     -286       -1808      0          34388.77  
2780.7     15.45      9.49       14.59      11.04      14.3       13.02      13.77      12.87      13.7       12.96      0          330.22     -286       -1813      0          34388.57  
2780.8     15.44      9.48       14.54      10.99      14.26      12.98      13.73      12.83      13.7       12.96      0          329.93     -286       -1818      0          34388.38  
2780.9     15.43      9.47       14.5       10.95      14.22      12.94      13.71      12.81      13.68      12.94      0          329.41     -286       -1826      0          34388.18  
2781       15.4       9.44       14.46      10.91      14.2       12.92      13.69      12.79      13.67      12.93      0          329.37     -286       -1835      0          34387.97  
2781.1     15.45      9.49       14.51      10.96      14.2       12.92      13.69      12.79      13.67      12.93      0          330        -286       -1839      0          34387.77  
2781.2     15.55      9.59       14.58      11.03      14.22      12.94      13.72      12.82      13.7       12.96      0          330.08     -286       -1834      0          34387.59  
2781.3     15.62      9.66       14.61      11.06      14.25      12.97      13.74      12.84      13.72      12.98      0          329.77     -286       -1826      0          34387.38  
2781.4     15.64      9.68       14.63      11.08      14.27      12.99      13.75      12.85      13.73      12.99      0          329.47     -286       -1819      0          34387.18  
2781.5     15.73      9.77       14.7       11.15      14.3       13.02      13.77      12.87      13.75      13.01      0          329.52     -286       -1809      0          34387     
2781.6     15.8       9.84       14.73      11.18      14.32      13.04      13.79      12.89      13.76      13.02      0          329.85     -286       -1796      0          34386.8   
2781.7     15.67      9.71       14.65      11.1       14.29      13.01      13.78      12.88      13.76      13.02      0          329.59     -286       -1792      0          34386.59  
2781.8     15.51      9.55       14.56      11.01      14.25      12.97      13.77      12.87      13.75      13.01      0          328.91     -286       -1793      0          34386.41  
2781.9     15.39      9.43       14.52      10.97      14.25      12.97      13.77      12.87      13.73      12.99      0          328.81     -286       -1793      0          34386.22  
2782       15.35      9.39       14.54      10.99      14.3       13.02      13.81      12.91      13.74      13         0          329.37     -286       -1794      0          34386     
2782.1     15.44      9.48       14.7       11.15      14.42      13.14      13.88      12.98      13.76      13.02      0          329.69     -286       -1795      0          34385.83  
2782.2     15.69      9.73       14.94      11.39      14.6       13.32      13.96      13.06      13.77      13.03      0          329.12     -286       -1796      0          34385.63  
2782.3     15.81      9.85       15.05      11.5       14.67      13.39      13.98      13.08      13.74      13         0          329.09     -286       -1798      0          34385.43  
2782.4     15.66      9.7        14.94      11.39      14.58      13.3       13.9       13         13.67      12.93      0          329.72     -286       -1800      0          34385.21  
2782.5     15.5       9.54       14.6       11.05      14.43      13.15      13.75      12.85      13.56      12.82      0          329.45     -286       -1803      0          34385.03  
2782.6     15.19      9.23       14.37      10.82      14.08      12.8       13.52      12.62      13.4       12.66      0          328.99     -286       -1806      0          34384.84  
2782.7     14.93      8.97       14.08      10.53      13.82      12.54      13.33      12.43      13.21      12.47      0          328.87     -286       -1810      0          34384.61  
2782.8     14.72      8.76       13.9       10.35      13.64      12.36      13.16      12.26      13.06      12.32      0          329.06     -286       -1809      0          34384.43  
2782.9     14.45      8.49       13.69      10.14      13.39      12.11      12.87      11.97      12.92      12.18      0          328.47     -286       -1796      0          34384.24  
2783       14.02      8.06       13.29      9.74       13.12      11.84      12.68      11.78      12.77      12.03      0          327.97     -286       -1778      0          34384.01  
2783.1     13.53      7.57       12.85      9.3        12.85      11.57      12.53      11.63      12.7       11.96      0          328.08     -286       -1777      0          34383.83  
2783.2     12.97      7.01       12.53      8.98       12.67      11.39      12.47      11.57      12.66      11.92      0          328.92     -286       -1787      0          34383.65  
2783.3     12.92      6.96       12.54      8.99       12.77      11.49      12.6       11.7       12.8       12.06      0          329.74     -286       -1802      0          34383.45  
2783.4     13.46      7.5        13.02      9.47       13.16      11.88      12.89      11.99      13.04      12.3       0          329.41     -286       -1810      0          34383.25  
2783.5     14.15      8.19       13.62      10.07      13.63      12.35      13.32      12.42      13.28      12.54      0          328.32     -286       -1815      0          34383.05  
2783.6     14.6       8.64       13.93      10.38      13.94      12.66      13.58      12.68      13.54      12.8       0          327.32     -286       -1822      0          34382.84  
2783.7     14.67      8.71       13.99      10.44      14         12.72      13.68      12.78      13.67      12.93      0          326.17     -286       -1814      0          34382.63  
2783.8     14.74      8.78       14.03      10.48      14.02      12.74      13.7       12.8       13.72      12.98      0          324.34     -286       -1802      0          34382.43  
2783.9     14.93      8.97       14.11      10.56      14.03      12.75      13.66      12.76      13.71      12.97      0          323.63     -286       -1789      0          34382.24  
2784       14.92      8.96       14.09      10.54      13.96      12.68      13.58      12.68      13.65      12.91      0          322.42     -286       -1789      0          34382.02  
2784.1     14.6       8.64       13.9       10.35      13.8       12.52      13.47      12.57      13.58      12.84      0          320.73     -286       -1789      0          34381.84  
2784.2     14.17      8.21       13.69      10.14      13.63      12.35      13.32      12.42      13.49      12.75      0          319.88     -286       -1789      0          34381.66  
2784.3     13.63      7.67       13.46      9.91       13.52      12.24      13.24      12.34      13.41      12.67      0          319.52     -286       -1789      0          34381.45  
2784.4     13.17      7.21       13.21      9.66       13.53      12.25      13.25      12.35      13.41      12.67      0          320.46     -286       -1788      0          34381.26  
2784.5     13.02      7.06       13.28      9.73       13.71      12.43      13.41      12.51      13.49      12.75      0          322.34     -286       -1788      0          34381.07  
2784.6     13.44      7.48       13.67      10.12      14.16      12.88      13.69      12.79      13.65      12.91      0          324.6      -286       -1788      0          34380.86  
