~Version
 VERS              .         2.0                           : CWLS LOG ASCII STANDARD - VERSION 2.0
 WRAP              .         NO                            : ONE LINE PER DEPTH STEP
 DLM               .         SPACE                         : DELIMITING CHARACTER(SPACE TAB OR COMMA)
~Well Information
#_______________________________________________________________________________
#
#PARAMETER_NAME    .UNIT     VALUE                         : DESCRIPTION
#_______________________________________________________________________________
STRT               .M        3.8                           : First reference value
STOP               .M        216                           : Last reference value
STEP               .M        0.2                           : Step increment
NULL               .         -9999                         : Missing value
COMP               .                                       : Company
WELL               .         616                           : Well name
FLD                .                                       : Field
LOC                .                                       : Location
CNTY               .                                       : County
STAT               .                                       : State
CTRY               .                                       : Country
SRVC               .                                       : Service Company
DATE               .                                       : Date
API                .                                       : API number
PROJECT_UPGRADE_TIME .         2021-03-18T21_24_50           : 
group              .         Good                          : 
~Parameter Information Block
#_______________________________________________________________________________
#
#PARAMETER_NAME    .UNIT     VALUE                         : DESCRIPTION
#_______________________________________________________________________________
SET                .         D1350_D                       : 
OTHER              .         Программное обеспечение станции MONITOR-386EX 25/12/99 15_08_10   BGF V52 22/08/01 16_56_30   3.1_SNGF__BGF_								111238: 
OTHER_10           .         Тарировки_                    : 
OTHER_11           .         <_techsia_sc_> Постоянная времени фильтра  0.5 сек, kf=0.181269: 
OTHER_12           .         TM.GRD = 0.00428968*TM$.UE + -0.3284: 
OTHER_13           .         GK.MKR/H = GK$.UE / 40.16     : 
OTHER_14           .         NKT. = NKT$.UE / 1            : 
OTHER_2            .         Kedr.exe версия 3.3.2.43      : 
OTHER_3            .         KedrData.dll версия 3.3.2.22  : 
OTHER_4            .         Драйвер версия 2.1.1.3        : 
OTHER_5            .         Мнемоники версия 3.3 S        : 
OTHER_6            .         Прибор_ РК4-38                : 
OTHER_7            .         Номер прибора_ 35с            : 
OTHER_8            .         Режим_ РК4-38                 : 
OTHER_9            .         Форма_ 3                      : 
PROJECT_UPGRADE_TIME .         2021-03-18T21_24_49           : 
TLFamily_DEPT      .         Measured Depth                : 
TLFamily_GK        .         Gamma Ray                     : 
TLFamily_GK$       .                                       : 
TLFamily_LM        .         Casing Collar locator         : 
TLFamily_METKA     .                                       : 
TLFamily_NKT       .         Neutron Far                   : 
TLFamily_NKT$      .         Neutron Far                   : 
TLFamily_RCOR      .                                       : 
TLFamily_SPID      .         Spontaneous Potential         : 
TLFamily_TENS      .         Cable Tension                 : 
TLFamily_TIME      .         Time                          : 
TLFamily_TM        .         Temperature                   : 
TLFamily_TM$       .         Temperature                   : 
group              .         prim                          : 
~Curve Information
#_______________________________________________________________________________
#
#LOGNAME           .UNIT     LOG_ID                        : DESCRIPTION
#_______________________________________________________________________________
DEPT               .M                                      : 1 Глубина, м -    0.0 см 
GK                 .MKR/H                                  : 12 Гамма-активность, мкр./ч -   23.0 см 
GK$                .UE                                     : 10 Гамма-активность, усл.ед. -   23.0 см 
LM                 .                                       : 8 Локатор муфт,  -  180.0 см 
METKA              .                                       : 3 Метки,  -    0.0 см 
NKT                .                                       : 13 НКТ, прив. -  160.0 см 
NKT$               .UE                                     : 9 НКТ, усл.ед. -  160.0 см 
RCOR               .CM/KM                                  : 5 Коррекция по ролику, см/км -    0.0 см 
SPID               .M/H                                    : 2 Скорость, м/час -    0.0 см 
TENS               .T                                      : 6 Натяжение кабеля, т -    0.0 см 
TIME               .S                                      : 4 Время, сек -    0.0 см 
TM                 .GRD                                    : 11 Температура, °C -  193.0 см 
TM$                .UE                                     : 7 Температура, усл.ед. -  193.0 см 
~Ascii
# ...
183        2.73       106        182        0          0          0          7013       -315       0          2134.95    1.272      373       
183.2      2.82       111        178        0          0          0          7013       -314       0          2132.66    1.272      373       
183.4      2.9        116        188        0          0          0          7013       -312       0          2130.34    1.254      369       
183.6      2.79       121        183        0          0          0          7013       -317       0          2128.01    1.222      361       
183.8      2.51       101        119        0          0          0          7013       -295       0          2125.78    1.19       354       
184        2.52       98         153        0          0          0          7013       -299       0          2123.46    1.169      349       
184.2      2.69       110        187        0          0          0          7013       -309       0          2121.13    1.137      342       
184.4      2.56       106        189        0          0          0          7013       -315       0          2118.74    1.123      338       
184.6      2.3        88         223        0          0          0          7013       -312       0          2116.39    1.104      334       
184.8      2.7        102        200        0          0          0          7013       -307       0          2114.25    1.089      330       
185        3.24       102        154        0          0          0          7013       -316       0          2111.86    1.053      322       
185.2      3.4        141        213        0          0          0          7013       -311       0          2109.46    1.031      317       
185.4      3.22       137        160        0          0          0          7013       -307       0          2107.22    1.001      310       
185.6      3.17       125        148        0          0          0          7013       -312       0          2104.83    0.981      305       
185.8      3.21       129        255        0          0          0          7013       -318       0          2102.58    0.963      301       
186        3.39       123        223        0          0          0          7013       -304       0          2100.33    0.959      300       
186.2      3.71       151        186        0          0          0          7013       -308       0          2097.94    0.91       289       
186.4      3.54       152        130        0          0          0          7013       -307       0          2095.69    0.886      283       
186.6      3.04       125        137        0          0          0          7013       -306       0          2093.45    0.883      282       
186.8      2.88       117        139        0          0          0          7013       -320       0          2091.06    0.856      276       
187        2.78       108        264        0          0          0          7013       -324       0          2088.76    0.843      273       
187.2      3.09       120        183        0          0          0          7013       -317       0          2086.41    0.834      271       
187.4      3.45       140        193        0          0          0          7013       -313       0          2084.17    0.813      266       
187.6      3.33       140        142        0          0          0          7013       -311       0          2081.77    0.793      261       
187.8      3.19       134        147        0          0          0          7013       -313       0          2079.51    0.774      257       
188        3.02       128        120        0          0          0          7013       -312       0          2077.23    0.753      252       
188.2      3.03       118        104        0          0          0          7013       -310       0          2074.93    0.741      249       
188.4      3.17       123        91         0          0          0          7013       -304       0          2072.44    0.738      249       
188.6      3.16       135        95         0          0          0          7013       -310       0          2070.35    0.727      246       
188.8      2.95       119        88         0          0          0          7013       -316       0          2067.95    0.697      239       
189        2.9        118        156        0          0          0          7013       -318       0          2065.66    0.687      237       
189.2      2.88       111        509        0          0          0          7013       -302       0          2063.46    0.663      231       
189.4      3.1        125        6169       0          0          0          7013       -311       0          2061.06    0.654      229       
189.6      3.04       129        9822       0          0          0          7013       -318       0          2058.67    0.601      217       
189.8      2.51       100        119        0          0          0          7013       -312       0          2056.43    0.602      217       
190        2.58       101        112        2          0          0          7013       -305       0          2054.08    0.58       212       
190.2      2.81       101        117        0          0          0          7013       -311       0          2052.05    0.583      212       
190.4      2.82       116        168        0          0          0          7013       -308       0          2051.2     0.56       207       
190.6      2.78       116        152        0          0          0          7013       -311       0          2048.81    0.547      204       
190.8      2.49       97         123        0          0          0          7013       -315       0          2046.4     0.538      202       
191        2.77       105        126        0          0          0          7013       -310       0          2044.16    0.517      197       
191.2      3.08       118        288        0          0          0          7013       -313       0          2041.92    0.525      199       
191.4      3.04       126        493        0          0          0          7013       -315       0          2039.62    0.508      195       
191.6      3.12       118        65         0          0          0          7013       -294       0          2037.12    0.482      189       
191.8      3.39       126        70         0          0          0          7013       -314       0          2034.93    0.448      181       
192        3.52       144        51         0          0          0          7013       -318       0          2032.54    0.444      180       
192.2      3.45       137        56         0          0          0          7013       -307       0          2030.25    0.433      177       
192.4      3.54       139        124        0          0          0          7013       -303       0          2028.05    0.427      176       
192.6      3.64       147        79         0          0          0          7013       -310       0          2025.75    0.417      174       
192.8      3.57       146        63         0          0          0          7013       -313       0          2023.36    0.418      174       
193        3.39       142        59         0          0          0          7013       -315       0          2021.04    0.418      174       
193.2      3.04       120        65         0          0          0          7013       -319       0          2018.72    0.375      164       
193.4      3.21       124        69         0          0          0          7013       -321       0          2016.48    0.381      165       
193.6      3.68       144        77         0          0          0          7013       -306       0          2014.18    0.352      159       
193.8      4.02       155        82         0          0          0          7013       -304       0          2011.89    0.338      155       
194        4.16       161        88         0          0          0          7013       -305       0          2009.59    0.348      158       
