~Version
 VERS              .         2.0                           : CWLS LOG ASCII STANDARD - VERSION 2.0
 WRAP              .         NO                            : ONE LINE PER DEPTH STEP
 DLM               .         SPACE                         : DELIMITING CHARACTER(SPACE TAB OR COMMA)
~Well Information
#_______________________________________________________________________________
#
#PARAMETER_NAME    .UNIT     VALUE                         : DESCRIPTION
#_______________________________________________________________________________
STRT               .M        2699.4                        : First reference value
STOP               .M        2769                          : Last reference value
STEP               .M        0.2000003                     : Step increment
NULL               .         -9999                         : Missing value
COMP               .                                       : Company
WELL               .         616                           : Well name
FLD                .                                       : Field
LOC                .                                       : Location
CNTY               .                                       : County
STAT               .                                       : State
CTRY               .                                       : Country
SRVC               .                                       : Service Company
DATE               .                                       : Date
API                .                                       : API number
PROJECT_UPGRADE_TIME .         2021-03-18T21_24_50           : 
group              .         Good                          : 
~Parameter Information Block
#_______________________________________________________________________________
#
#PARAMETER_NAME    .UNIT     VALUE                         : DESCRIPTION
#_______________________________________________________________________________
SET                .         D1167_D                       : 
OTHER              .         Программное обеспечение станции MONITOR-386EX 25/12/99 15_08_10   BGF V52 22/08/01 16_56_30   3.2_BGF_N_3070031: 
OTHER_10           .         Тарировки_                    : 
OTHER_11           .         RGD.M3/SUT = 0.603482 * RGD.UE + 9.9644: 
OTHER_2            .         Kedr.exe версия 3.4.2.51      : 
OTHER_3            .         KedrData.dll версия 3.4.2.24  : 
OTHER_4            .         Драйвер версия 2.1.0.2        : 
OTHER_5            .         Мнемоники версия 3.3 S        : 
OTHER_6            .         Прибор_ Гранат                : 
OTHER_7            .         Номер прибора_ 257            : 
OTHER_8            .         Режим_ КСА_Гранат             : 
OTHER_9            .         Форма_ РАСХОД                 : 
PROJECT_UPGRADE_TIME .         2021-03-18T21_24_49           : 
TLFamily_DEPT      .         Measured Depth                : 
TLFamily_METKA     .                                       : 
TLFamily_RCOR      .                                       : 
TLFamily_RGD       .                                       : 
TLFamily_RGD_2     .                                       : 
TLFamily_SPID      .         Spontaneous Potential         : 
TLFamily_TENS      .         Cable Tension                 : 
TLFamily_TIME      .         Time                          : 
group              .         prim                          : 
~Curve Information
#_______________________________________________________________________________
#
#LOGNAME           .UNIT     LOG_ID                        : DESCRIPTION
#_______________________________________________________________________________
DEPT               .M                                      : 1 Глубина, м -    0.0 см 
METKA              .                                       : 3 Метки,  -    0.0 см 
RCOR               .CM/KM                                  : 5 Коррекция по ролику, см/км -    0.0 см 
RGD                .UE                                     : 7 Расход, имп/мин -  232.0 см 
RGD_2              .M3/SUT                                 : 8 Расход, м3/сут -  232.0 см 
SPID               .M/H                                    : 2 Скорость, м/час -    0.0 см 
TENS               .T                                      : 6 Натяжение кабеля, т -    0.0 см 
TIME               .S                                      : 4 Время, сек -    0.0 см 
~Ascii
# ...
2717.6     0          -1400      153        102.6      -145       0          23828.3   
2717.8     0          -1400      131        89.15      -142       0          23823.51  
2718       0          -1400      121        82.79      -145       0          23818.52  
2718.2     0          -1400      121        82.89      -155       0          23813.82  
2718.4     0          -1400      110        76.21      -160       0          23809.14  
2718.6     0          -1400      117        80.8       -142       0          23804.14  
2718.8     0          -1400      101        70.75      -142       0          23799.54  
2719       0          -1400      84         60.46      -148       0          23794.76  
2719.2     0          -1400      77         56.27      -136       0          23790.06  
2719.4     0          -1400      78         57.13      -165       0          23785.2   
2719.6     0          -1400      73         54.24      -153       0          23780.37  
2719.8     0          -1400      66         50.01      -145       0          23775.58  
2720       2          -1400      57         44.15      -148       0          23770.68  
2720.2     0          -1400      76         55.73      -142       0          23765.29  
2720.4     0          -1400      67         50.2       -155       0          23760.5   
2720.6     0          -1400      59         45.37      -161       0          23755.61  
2720.8     0          -1400      63         47.7       -164       0          23750.91  
2721       0          -1400      71         52.82      -164       0          23746.22  
2721.2     0          -1400      81         59.12      -134       0          23741.52  
2721.4     0          -1400      67         50.54      -157       0          23736.53  
2721.6     0          -1400      63         47.73      -150       0          23731.73  
2721.8     0          -1400      82         59.66      -146       0          23727.05  
2722       0          -1400      82         59.51      -167       0          23722.25  
2722.2     0          -1400      86         61.94      -147       0          23717.46  
2722.4     0          -1400      76         55.64      -153       0          23712.67  
2722.6     0          -1400      74         54.45      -141       0          23707.97  
2722.8     0          -1400      76         56         -150       0          23702.87  
2723       0          -1400      85         61.23      -147       0          23698.29  
2723.2     0          -1400      80         58.4       -143       0          23693.49  
2723.4     0          -1400      68         51.17      -144       0          23688.79  
2723.6     0          -1400      61         46.8       -147       0          23683.9   
2723.8     0          -1400      84         60.87      -158       0          23679.11  
2724       0          -1400      80         58.02      -155       0          23674.41  
2724.2     0          -1400      72         53.48      -149       0          23669.32  
2724.4     0          -1400      66         49.64      -139       0          23664.63  
2724.6     0          -1400      72         53.5       -144       0          23659.83  
2724.8     0          -1400      80         58.27      -129       0          23655.14  
2725       0          -1400      76         55.97      -149       0          23650.25  
2725.2     0          -1400      74         54.82      -164       0          23645.55  
2725.4     0          -1400      83         60.22      -152       0          23640.76  
2725.6     0          -1400      79         57.54      -139       0          23635.77  
2725.8     0          -1400      82         59.36      -151       0          23631.07  
2726       0          -1400      68         51.02      -154       0          23626.38  
2726.2     0          -1400      73         54.24      -136       0          23621.59  
2726.4     0          -1400      64         48.29      -160       0          23616.69  
2726.6     0          -1400      66         49.64      -147       0          23612     
2726.8     0          -1400      65         49.16      -150       0          23607.31  
2727       0          -1400      55         43.01      -151       0          23602.32  
2727.2     0          -1400      68         51.13      -150       0          23597.62  
2727.4     0          -1400      64         48.85      -167       0          23592.93  
2727.6     0          -1400      63         48.04      -115       0          23588.14  
2727.8     0          -1400      72         53.22      -149       0          23583.24  
2728       0          -1400      72         53.4       -157       0          23578.54  
2728.2     0          -1400      56         43.52      -156       0          23573.76  
2728.4     0          -1400      65         49.39      -160       0          23568.66  
2728.6     0          -1400      60         46.47      -158       0          23563.96  
2728.8     0          -1400      67         50.38      -165       0          23559.18  
2729       0          -1400      74         54.75      -133       0          23554.48  
2729.2     0          -1400      74         54.62      -150       0          23549.58  
2729.4     0          -1400      72         53.5       -141       0          23544.8   
2729.6     0          -1400      62         47.48      -146       0          23540.1   
2729.8     0          -1400      64         48.55      -155       0          23535     
2730       2          -1400      74         54.38      -167       0          23530.21  
2730.2     0          -1400      68         50.78      -140       0          23524.92  
2730.4     0          -1400      67         50.24      -120       0          23520.13  
2730.6     0          -1400      60         46.25      -148       0          23515.03  
2730.8     0          -1400      82         59.69      -156       0          23510.34  
2731       0          -1400      76         55.93      -143       0          23505.65  
2731.2     0          -1400      61         47         -157       0          23500.75  
2731.4     0          -1400      66         49.91      -136       0          23495.96  
2731.6     0          -1400      73         54.32      -157       0          23491.17  
2731.8     0          -1400      60         46.22      -121       0          23486.47  
2732       0          -1400      64         48.34      -155       0          23481.57  
2732.2     0          -1400      78         57.21      -150       0          23476.79  
2732.4     0          -1400      67         50.57      -154       0          23471.99  
2732.6     0          -1400      72         53.53      -162       0          23467     
2732.8     0          -1400      75         55.16      -141       0          23462.31  
2733       0          -1400      64         48.45      -160       0          23457.61  
2733.2     0          -1400      48         39.21      -126       0          23452.91  
2733.4     0          -1400      47         38.58      -154       0          23447.83  
2733.6     0          -1400      50         40.37      -144       0          23443.03  
2733.8     0          -1400      59         45.44      -157       0          23438.34  
2734       0          -1400      61         46.95      -155       0          23433.45  
2734.2     0          -1400      67         50.42      -160       0          23428.65  
2734.4     0          -1400      75         55.52      -161       0          23423.86  
2734.6     0          -1400      72         53.12      -149       0          23419.16  
2734.8     0          -1400      86         61.58      -148       0          23414.17  
2735       0          -1400      79         57.77      -143       0          23409.38  
2735.2     0          -1400      79         57.71      -149       0          23404.69  
2735.4     0          -1400      64         48.78      -146       0          23399.69  
2735.6     0          -1400      59         45.61      -149       0          23395     
