~Version
 VERS              .         2.0                           : CWLS LOG ASCII STANDARD - VERSION 2.0
 WRAP              .         NO                            : ONE LINE PER DEPTH STEP
 DLM               .         SPACE                         : DELIMITING CHARACTER(SPACE TAB OR COMMA)
~Well Information
#_______________________________________________________________________________
#
#PARAMETER_NAME    .UNIT     VALUE                         : DESCRIPTION
#_______________________________________________________________________________
STRT               .M        2659.6                        : First reference value
STOP               .M        2769.6                        : Last reference value
STEP               .M        0.2                           : Step increment
NULL               .         -9999                         : Missing value
COMP               .                                       : Company
WELL               .         616                           : Well name
FLD                .                                       : Field
LOC                .                                       : Location
CNTY               .                                       : County
STAT               .                                       : State
CTRY               .                                       : Country
SRVC               .                                       : Service Company
DATE               .                                       : Date
API                .                                       : API number
PROJECT_UPGRADE_TIME .         2021-03-18T21_24_50           : 
group              .         Good                          : 
~Parameter Information Block
#_______________________________________________________________________________
#
#PARAMETER_NAME    .UNIT     VALUE                         : DESCRIPTION
#_______________________________________________________________________________
SET                .         D1162_D                       : 
OTHER              .         Программное обеспечение станции MONITOR-386EX 25/12/99 15_08_10   BGF V52 22/08/01 16_56_30   3.2_BGF_N_3070031: 
OTHER_10           .         Тарировки_                    : 
OTHER_11           .         TM.GRD = 0.00403*TM$.UE + -1.19: 
OTHER_12           .         MN.ATM = (7.1e-006*TM.GRD + 0.02017)*(MN$.UE + -3.03*TM.GRD + -1833): 
OTHER_13           .         Id error                      : 
OTHER_2            .         Kedr.exe версия 3.4.2.51      : 
OTHER_3            .         KedrData.dll версия 3.4.2.24  : 
OTHER_4            .         Драйвер версия 2.1.1.8        : 
OTHER_5            .         Мнемоники версия 3.3 S        : 
OTHER_6            .         Прибор_ КСА-М1                : 
OTHER_7            .         Номер прибора_ 265            : 
OTHER_8            .         Режим_ КСА-М1                 : 
OTHER_9            .         Форма_ ТЕРМОМЕТР              : 
PROJECT_UPGRADE_TIME .         2021-03-18T21_24_49           : 
TLFamily_DEPT      .         Measured Depth                : 
TLFamily_GK        .         Gamma Ray                     : 
TLFamily_GK$       .                                       : 
TLFamily_LM        .         Casing Collar locator         : 
TLFamily_METKA     .                                       : 
TLFamily_MN        .                                       : 
TLFamily_MN$       .                                       : 
TLFamily_RCOR      .                                       : 
TLFamily_SPID      .         Spontaneous Potential         : 
TLFamily_STD       .                                       : 
TLFamily_TENS      .         Cable Tension                 : 
TLFamily_TIME      .         Time                          : 
TLFamily_TM        .         Temperature                   : 
TLFamily_TM$       .         Temperature                   : 
TLFamily_VGD       .         Gas Volume                    : 
group              .         prim                          : 
~Curve Information
#_______________________________________________________________________________
#
#LOGNAME           .UNIT     LOG_ID                        : DESCRIPTION
#_______________________________________________________________________________
DEPT               .M                                      : 1 Глубина, м -    0.0 см 
GK                 .MKR/H                                  : 15 Гамма-активность, мкр./ч -  110.0 см 
GK$                .UE                                     : 12 Гамма-активность, усл.ед. -  110.0 см 
LM                 .                                       : 10 Локатор муфт,  -   20.0 см 
METKA              .                                       : 3 Метки,  -    0.0 см 
MN                 .ATM                                    : 14 Давление, атм. -  160.0 см 
MN$                .UE                                     : 8 Давление, усл.ед. -  160.0 см 
RCOR               .CM/KM                                  : 5 Коррекция по ролику, см/км -    0.0 см 
SPID               .M/H                                    : 2 Скорость, м/час -    0.0 см 
STD                .                                       : 11 Приток,  -  170.0 см 
TENS               .T                                      : 6 Натяжение кабеля, т -    0.0 см 
TIME               .S                                      : 4 Время, сек -    0.0 см 
TM                 .GRD                                    : 13 Температура, °C -  180.0 см 
TM$                .UE                                     : 7 Температура, усл.ед. -  180.0 см 
VGD                .                                       : 9 Влагомер,  -  170.0 см 
~Ascii
# ...
2689       7.09       305        1          0          249.259    14086      -1400      596        32273      0          17584.93   87.8       22082      6498      
2689.2     7.17       308        1          0          249.318    14089      -1400      602        32272      0          17586.14   87.804     22083      6498      
2689.4     7.19       308        1          0          249.312    14089      -1400      599        32278      0          17587.39   87.81      22084      6497      
2689.6     7.01       296        1          0          249.349    14091      -1400      594        32278      0          17588.52   87.817     22086      6493      
2689.8     6.99       301        1          0          249.384    14092      -1400      595        32278      0          17589.76   87.821     22087      6493      
2690       7.09       305        1          2          249.363    14091      -1400      584        32279      0          17591.06   87.827     22089      6494      
2690.2     7.14       308        1          0          249.417    14094      -1400      576        32280      0          17592.28   87.834     22090      6492      
2690.4     7.5        327        1          0          249.396    14093      -1400      583        32286      0          17593.5    87.838     22091      6493      
2690.6     7.6        327        1          0          249.453    14096      -1400      582        32287      0          17594.74   87.844     22093      6493      
2690.8     7.85       342        1          0          249.438    14095      -1400      569        32291      0          17595.96   87.852     22095      6493      
2691       7.96       342        1          0          249.487    14097      -1400      576        32291      0          17597.18   87.857     22096      6490      
2691.2     8.05       347        1          0          249.5      14098      -1400      588        32295      0          17598.42   87.858     22096      6491      
2691.4     8.1        347        1          0          249.498    14098      -1400      574        32299      0          17599.68   87.861     22097      6490      
2691.6     8.14       349        1          0          249.542    14100      -1400      580        32300      0          17600.9    87.869     22099      6489      
2691.8     8.16       349        1          0          249.522    14099      -1400      580        32305      0          17602.1    87.876     22101      6491      
2692       8.15       348        1          0          249.595    14103      -1400      587        32303      0          17603.38   87.881     22102      6490      
2692.2     8.14       348        1          0          249.571    14101      -1400      583        32309      0          17604.62   87.889     22104      6491      
2692.4     8.43       368        1          0          249.629    14104      -1400      583        32307      0          17605.79   87.893     22105      6492      
2692.6     8.55       368        1829       0          249.626    14104      -1400      587        32312      0          17607      87.898     22106      6492      
2692.8     8.29       345        191        0          249.661    14106      -1400      587        32315      0          17608.28   87.901     22107      6491      
2693       8.14       345        1          0          249.673    14106      -1400      585        32317      0          17609.47   87.909     22109      6492      
2693.2     7.94       332        1          0          249.692    14107      -1400      588        32321      0          17610.69   87.916     22111      6492      
2693.4     7.82       332        1          0          249.744    14110      -1400      595        32315      0          17611.93   87.92      22112      6492      
2693.6     8.45       379        1          0          249.716    14108      -1400      596        32325      0          17613.16   87.927     22113      6492      
2693.8     8.73       379        1          0          249.79     14112      -1400      596        32324      0          17614.34   87.929     22114      6492      
2694       9.12       401        1          0          249.755    14110      -1400      594        32330      0          17615.55   87.934     22115      6492      
2694.2     9.3        401        1          0          249.799    14112      -1400      587        32329      0          17616.82   87.941     22117      6492      
2694.4     9.2        387        1          0          249.802    14112      -1400      587        32333      0          17618.05   87.944     22118      6493      
2694.6     9.1        387        1          0          249.828    14114      -1400      585        32331      0          17619.18   87.95      22119      6493      
2694.8     9.15       396        1          0          249.853    14115      -1400      589        32331      0          17620.45   87.958     22121      6493      
2695       9.23       396        1          0          249.856    14115      -1400      587        32337      0          17621.7    87.962     22122      6493      
2695.2     9.42       410        1          0          249.919    14118      -1400      585        32333      0          17622.91   87.97      22124      6493      
2695.4     9.54       410        1          0          249.877    14116      -1400      589        32337      0          17624.11   87.973     22125      6493      
2695.6     9.08       363        1          0          249.961    14120      -1400      585        32340      0          17625.36   87.976     22126      6493      
2695.8     8.68       363        1          0          249.919    14118      -1400      594        32346      0          17626.54   87.979     22126      6494      
2696       8.29       334        1          0          249.985    14121      -1400      595        32351      0          17627.73   87.99      22129      6494      
2696.2     7.97       334        1          0          249.966    14120      -1400      599        32354      0          17628.96   87.994     22130      6494      
2696.4     8.06       359        1          0          250.01     14122      -1400      594        32352      0          17630.18   88.001     22132      6494      
2696.6     8.45       369        1          0          250.012    14122      -1400      596        32354      0          17631.41   88.005     22133      6494      
2696.8     8.78       390        1          0          250.032    14123      -1400      592        32355      0          17632.61   88.01      22134      6494      
2697       9.02       390        1          0          250.065    14125      -1400      589        32358      0          17633.89   88.016     22135      6493      
2697.2     9.11       393        1          0          250.066    14125      -1400      585        32361      0          17635.06   88.019     22136      6495      
2697.4     9.17       393        1          0          250.107    14127      -1400      585        32361      0          17636.29   88.026     22138      6494      
2697.6     9.25       401        1          0          250.097    14126      -1400      587        32367      0          17637.48   88.03      22139      6493      
2697.8     9.44       407        1          0          250.156    14129      -1400      586        32361      0          17638.72   88.038     22141      6494      
2698       9.5        407        1          0          250.128    14128      -1400      584        32370      0          17639.95   88.046     22143      6494      
2698.2     9.55       409        1          0          250.17     14130      -1400      591        32370      0          17641.13   88.051     22144      6495      
2698.4     9.56       409        1          0          250.196    14131      -1400      594        32374      0          17642.41   88.054     22145      6494      
2698.6     9.85       428        1          0          250.185    14131      -1400      592        32378      0          17643.61   88.057     22146      6494      
