~Version
 VERS              .         2.0                           : CWLS LOG ASCII STANDARD - VERSION 2.0
 WRAP              .         NO                            : ONE LINE PER DEPTH STEP
 DLM               .         SPACE                         : DELIMITING CHARACTER(SPACE TAB OR COMMA)
~Well Information
#_______________________________________________________________________________
#
#PARAMETER_NAME    .UNIT     VALUE                         : DESCRIPTION
#_______________________________________________________________________________
STRT               .M        1.8                           : First reference value
STOP               .M        2776                          : Last reference value
STEP               .M        0.2                           : Step increment
NULL               .         -9999                         : Missing value
COMP               .                                       : Company
WELL               .         616                           : Well name
FLD                .                                       : Field
LOC                .                                       : Location
CNTY               .                                       : County
STAT               .                                       : State
CTRY               .                                       : Country
SRVC               .                                       : Service Company
DATE               .                                       : Date
API                .                                       : API number
PROJECT_UPGRADE_TIME .         2021-03-18T21_24_50           : 
group              .         Good                          : 
~Parameter Information Block
#_______________________________________________________________________________
#
#PARAMETER_NAME    .UNIT     VALUE                         : DESCRIPTION
#_______________________________________________________________________________
SET                .         D1799_D                       : 
OTHER              .         Программное обеспечение станции MONITOR-386EX 25/12/99 15_08_10   BGF V52 22/08/01 16_56_30   3.1_SNGF___BGF_N_092049: 
OTHER_10           .         Тарировки_                    : 
OTHER_11           .         TM.GRD = 0.00403*TM$.UE + -1.07: 
OTHER_12           .         MN.ATM = (9.34907e-006*TM.GRD + 0.02171)*(MN$.UE + -7.93*TM.GRD + -1787): 
OTHER_13           .         GK.MKR/H = LM. / 42.4676      : 
OTHER_14           .         GK.FLT = 0.1*GK.MKR/H[-1] + (1-0.1)*GK.MKR/H[0]: 
OTHER_2            .         Kedr.exe версия 3.4.2.51      : 
OTHER_3            .         KedrData.dll версия 3.4.2.24  : 
OTHER_4            .         Драйвер версия 2.1.1.3        : 
OTHER_5            .         Мнемоники версия 3.3 S        : 
OTHER_6            .         Прибор_ КСА-Т4                : 
OTHER_7            .         Номер прибора_ 03             : 
OTHER_8            .         Режим_ КСА-Т4                 : 
OTHER_9            .         Форма_ КВА.                   : 
PROJECT_UPGRADE_TIME .         2021-03-18T21_24_49           : 
TLFamily_DEPT      .         Measured Depth                : 
TLFamily_GK        .         Gamma Ray                     : 
TLFamily_GK$       .                                       : 
TLFamily_GK_2      .         Gamma Ray                     : 
TLFamily_LM        .         Casing Collar locator         : 
TLFamily_METKA     .                                       : 
TLFamily_MN        .                                       : 
TLFamily_MN$       .                                       : 
TLFamily_RCOR      .                                       : 
TLFamily_SPID      .         Spontaneous Potential         : 
TLFamily_TENS      .         Cable Tension                 : 
TLFamily_TIME      .         Time                          : 
TLFamily_TM        .         Temperature                   : 
TLFamily_TM$       .         Temperature                   : 
group              .         prim                          : 
~Curve Information
#_______________________________________________________________________________
#
#LOGNAME           .UNIT     LOG_ID                        : DESCRIPTION
#_______________________________________________________________________________
DEPT               .M                                      : 1 Глубина, м -    0.0 см 
GK                 .MKR/H                                  : 13 Гамма-активность, мкр./ч -  110.0 см 
GK$                .UE                                     : 10 Гамма-активность, усл.ед. -  110.0 см 
GK_2               .FLT                                    : 14 Гамма-активность фильтрованная, мкр./ч -  110.0 см 
LM                 .                                       : 9 Локатор муфт,  -   20.0 см 
METKA              .                                       : 3 Метки,  -    0.0 см 
MN                 .ATM                                    : 12 Давление, атм. -  160.0 см 
MN$                .UE                                     : 8 Давление, усл.ед. -  160.0 см 
RCOR               .CM/KM                                  : 5 Коррекция по ролику, см/км -    0.0 см 
SPID               .M/H                                    : 2 Скорость, м/час -    0.0 см 
TENS               .T                                      : 6 Натяжение кабеля, т -    0.0 см 
TIME               .S                                      : 4 Время, сек -    0.0 см 
TM                 .GRD                                    : 11 Температура, °C -  170.0 см 
TM$                .UE                                     : 7 Температура, усл.ед. -  170.0 см 
~Ascii
# ...
1478.6     8.91       379        9.01       1662       0          130.887    8074       -1098      1969       -0.07      3025.17    47.834     12135     
1478.8     8.9        378        8.94       1571       0          130.897    8074       -1098      1968       -0.07      3025.55    47.838     12136     
1479       8.9        378        8.92       1383       0          130.907    8074       -1098      1974       -0.07      3025.9     47.842     12137     
1479.2     8.9        378        8.91       1153       0          130.928    8075       -1098      1975       -0.07      3026.25    47.846     12138     
1479.4     8.9        378        8.9        1047       0          130.948    8076       -1098      1974       -0.07      3026.63    47.854     12140     
1479.6     8.9        378        8.9        1110       0          130.961    8077       -1098      1970       -0.07      3026.98    47.858     12141     
1479.8     9.05       384        9          1168       0          130.969    8077       -1098      1971       -0.07      3027.35    47.862     12142     
1480       9.09       386        9.06       1424       0          130.991    8078       -1099      1972       -0.07      3027.74    47.862     12142     
1480.2     9.09       386        9.08       1302       2          131.011    8079       -1102      1973       -0.07      3028.15    47.866     12143     
1480.4     9.09       386        9.08       1335       0          131.033    8080       -1102      1973       -0.07      3028.51    47.87      12144     
1480.6     9.09       386        9.09       1214       0          131.048    8081       -1102      1974       -0.07      3028.86    47.874     12145     
1480.8     9.09       386        9.09       1153       0          131.052    8081       -1102      1975       -0.05      3029.24    47.874     12145     
1481       9.09       386        9.09       1211       0          131.074    8082       -1102      1975       -0.05      3029.62    47.877     12146     
1481.2     9.11       387        9.1        1053       0          131.094    8083       -1102      1975       -0.07      3029.96    47.881     12147     
1481.4     9.11       387        9.11       937        0          131.117    8084       -1102      1970       -0.07      3030.33    47.882     12147     
1481.6     9.11       387        9.11       1122       0          131.135    8085       -1102      1971       -0.07      3030.69    47.885     12148     
1481.8     9.11       387        9.11       1132       0          131.141    8085       -1102      1972       -0.07      3031.03    47.89      12149     
1482       9.11       387        9.11       1012       0          131.168    8087       -1102      1979       -0.07      3031.41    47.894     12150     
1482.2     9.11       387        9.11       945        0          131.199    8088       -1102      1974       -0.07      3031.75    47.9       12151     
1482.4     9.11       387        9.11       1155       0          131.204    8088       -1102      1969       -0.07      3032.12    47.905     12153     
1482.6     9.24       393        9.2        990        0          131.221    8089       -1102      1969       -0.07      3032.5     47.907     12153     
1482.8     9.32       396        9.27       1211       0          131.224    8089       -1102      1977       -0.07      3032.87    47.909     12154     
1483       9.32       396        9.31       1472       0          131.245    8090       -1102      1984       -0.07      3033.25    47.916     12155     
1483.2     9.32       396        9.32       1279       0          131.266    8091       -1102      1975       -0.07      3033.56    47.921     12157     
1483.4     9.32       396        9.32       1145       0          131.286    8092       -1102      1979       -0.07      3033.93    47.925     12158     
1483.6     9.32       396        9.32       1239       0          131.307    8093       -1102      1986       -0.07      3034.3     47.927     12158     
1483.8     9.32       396        9.32       1023       0          131.307    8093       -1102      1982       -0.07      3034.66    47.929     12159     
1484       9.09       386        9.18       968        0          131.328    8094       -1102      1980       -0.07      3035.03    47.933     12159     
1484.2     8.81       374        8.95       1099       0          131.349    8095       -1102      1980       -0.07      3035.41    47.937     12160     
1484.4     8.81       374        8.86       1057       0          131.371    8096       -1102      1985       -0.07      3035.76    47.939     12161     
1484.6     8.81       374        8.83       1211       0          131.393    8097       -1102      1983       -0.07      3036.12    47.942     12162     
1484.8     8.81       374        8.81       1153       0          131.393    8097       -1102      1977       -0.07      3036.47    47.948     12163     
1485       8.81       374        8.81       987        0          131.411    8098       -1102      1975       -0.07      3036.83    47.951     12164     
1485.2     8.87       377        8.85       1020       0          131.432    8099       -1102      1975       -0.07      3037.21    47.953     12165     
1485.4     9.04       384        8.97       1045       0          131.453    8100       -1102      1976       -0.06      3037.57    47.96      12166     
1485.6     9.04       384        9.01       1001       0          131.475    8101       -1102      1973       -0.05      3037.94    47.963     12167     
1485.8     9.04       384        9.03       1150       0          131.48     8101       -1102      1974       -0.06      3038.3     47.965     12168     
1486       9.04       384        9.04       1272       0          131.494    8102       -1102      1982       -0.06      3038.65    47.972     12169     
1486.2     9.04       384        9.04       1272       0          131.516    8103       -1102      1985       -0.05      3039.01    47.976     12170     
1486.4     9.04       384        9.04       1195       0          131.536    8104       -1102      1982       -0.05      3039.38    47.98      12171     
1486.6     9.04       384        9.04       1127       0          131.544    8104       -1102      1976       -0.05      3039.74    47.984     12172     
1486.8     9          382        9.01       1129       0          131.557    8105       -1102      1973       -0.05      3040.12    47.988     12173     
1487       9          382        9          1833       0          131.578    8106       -1102      1974       -0.06      3040.48    47.992     12174     
1487.2     9          382        9          2200       0          131.599    8107       -1102      1974       -0.07      3040.84    47.995     12175     
1487.4     9          382        9          2214       0          131.62     8108       -1102      1975       -0.07      3041.21    47.999     12176     
1487.6     9          382        9          1851       0          131.64     8108       -1102      1975       -0.07      3041.55    48.003     12177     
1487.8     9          382        9          1699       0          131.662    8109       -1102      1976       -0.07      3041.92    48.011     12179     
1488       9          382        9          2297       0          131.683    8110       -1102      1976       -0.07      3042.29    48.011     12179     
1488.2     8.88       377        8.92       1770       0          131.704    8111       -1102      1975       -0.07      3042.65    48.019     12181     
1488.4     8.85       376        8.88       5153       0          131.717    8112       -1102      1970       -0.07      3043.02    48.019     12181     
1488.6     8.85       376        8.86       6067       0          131.725    8112       -1102      1966       -0.07      3043.37    48.023     12182     
1488.8     8.85       376        8.86       3859       0          131.745    8113       -1102      1968       -0.07      3043.74    48.027     12183     
