~Version
 VERS              .         2.0                           : CWLS LOG ASCII STANDARD - VERSION 2.0
 WRAP              .         NO                            : ONE LINE PER DEPTH STEP
 DLM               .         SPACE                         : DELIMITING CHARACTER(SPACE TAB OR COMMA)
~Well Information
#_______________________________________________________________________________
#
#PARAMETER_NAME    .UNIT     VALUE                         : DESCRIPTION
#_______________________________________________________________________________
STRT               .M        10.2                          : First reference value
STOP               .M        2774.8                        : Last reference value
STEP               .M        0.2                           : Step increment
NULL               .         -9999                         : Missing value
COMP               .                                       : Company
WELL               .         616                           : Well name
FLD                .                                       : Field
LOC                .                                       : Location
CNTY               .                                       : County
STAT               .                                       : State
CTRY               .                                       : Country
SRVC               .                                       : Service Company
DATE               .                                       : Date
API                .                                       : API number
PROJECT_UPGRADE_TIME .         2021-03-18T21_24_50           : 
group              .         Good                          : 
~Parameter Information Block
#_______________________________________________________________________________
#
#PARAMETER_NAME    .UNIT     VALUE                         : DESCRIPTION
#_______________________________________________________________________________
SET                .         D1813_D_2                     : 
NPR                .                                       : 
OTHER              .         Программное обеспечение станции MONITOR-386EX 25/12/99 15_08_10   BGF V52 22/08/01 16_56_30   3.1_SNGF___BGF_N_092049: 
OTHER_10           .         Тарировки_                    : 
OTHER_11           .         TM.GRD = 0.00403*TM$.UE + -1.07: 
OTHER_12           .         MN.ATM = (9.34907e-006*TM.GRD + 0.02171)*(MN$.UE + -7.93*TM.GRD + -1787): 
OTHER_13           .         GK.MKR/H = LM. / 42.4676      : 
OTHER_14           .         GK.FLT = 0.1*GK.MKR/H[-1] + (1-0.1)*GK.MKR/H[0]: 
OTHER_2            .         Kedr.exe версия 3.4.2.51      : 
OTHER_3            .         KedrData.dll версия 3.4.2.24  : 
OTHER_4            .         Драйвер версия 2.1.1.3        : 
OTHER_5            .         Мнемоники версия 3.3 S        : 
OTHER_6            .         Прибор_ КСА-Т4                : 
OTHER_7            .         Номер прибора_ 03             : 
OTHER_8            .         Режим_ КСА-Т4                 : 
OTHER_9            .         Форма_ КВА.                   : 
PR                 .                                       : 
PROJECT_UPGRADE_TIME .         2021-03-18T21_24_49           : 
PRTY               .         ПП-603-1                      : N партии
SRV                .                                       : 
SRVC               .         Карпов                        : Начальник партии
TLFamily_DEPT      .         Measured Depth                : 
TLFamily_LM        .         Casing Collar locator         : 
TLFamily_MN        .                                       : 
TLFamily_TM        .         Temperature                   : 
group              .         second                        : 
~Curve Information
#_______________________________________________________________________________
#
#LOGNAME           .UNIT     LOG_ID                        : DESCRIPTION
#_______________________________________________________________________________
DEPT               .M                                      : Depth curve 
LM                 .е.ацп                                  : Локатор муфт,е.ацп 
MN                 .атм                                    : Манометрия, атм 
TM                 .град.C                                 : Термограмма по стволу скважины,град.C 
~Ascii
# ...
2558.2     1069.942   233.764    54.584    
2558.4     765.018    233.784    54.576    
2558.6     858.024    233.803    54.569    
2558.8     984        233.791    54.562    
2559       983.998    233.835    54.555    
2559.2     970.997    233.875    54.548    
2559.4     955.04     233.882    54.541    
2559.6     1165.96    233.9      54.534    
2559.8     954.019    233.918    54.528    
2560       1054.031   233.939    54.521    
2560.2     1217.971   233.958    54.514    
2560.4     1066       233.978    54.507    
2560.6     1066.018   233.99     54.5      
2560.8     1159.014   233.996    54.491    
2561       1234.983   234.026    54.481    
2561.2     1143.018   234.059    54.471    
2561.4     1237.016   234.06     54.463    
2561.6     1324       234.079    54.456    
2561.8     1323.966   234.098    54.449    
2562       1145.997   234.118    54.442    
2562.2     1128.993   234.137    54.436    
2562.4     1094.041   234.162    54.429    
2562.6     1312.949   234.197    54.419    
2562.8     1041.068   234.217    54.411    
2563       1401       234.237    54.404    
2563.2     1400.969   234.256    54.397    
2563.4     1239.025   234.275    54.391    
2563.6     1372.065   234.295    54.384    
2563.8     1713.114   234.314    54.374    
2564       2316.167   234.335    54.366    
2564.2     3196.641   234.354    54.359    
2564.4     1300       234.373    54.352    
2564.6     1299.875   234.392    54.345    
2564.8     640.98     234.412    54.335    
2565       538.007    234.432    54.327    
2565.2     576.004    234.45     54.318    
2565.4     596.993    234.469    54.312    
2565.6     558.012    234.49     54.306    
2565.8     623        234.509    54.296    
2566       623.001    234.528    54.29     
2566.2     625.983    234.54     54.283    
2566.4     533.986    234.548    54.276    
2566.6     462.004    234.587    54.269    
2566.8     485.008    234.607    54.262    
2567       529.002    234.626    54.255    
2567.2     540        234.646    54.247    
2567.4     539.998    234.666    54.237    
2567.6     529.007    234.685    54.23     
2567.8     565.989    234.705    54.223    
2568       508.013    234.724    54.214    
2568.2     578.998    234.745    54.205    
2568.4     570.009    234.763    54.199    
2568.6     615        234.783    54.192    
2568.8     614.994    234.803    54.184    
2569       584.001    234.815    54.175    
2569.2     589.02     234.823    54.17     
2569.4     694.987    234.861    54.164    
2569.6     623.995    234.881    54.155    
2569.8     595.991    234.916    54.146    
2570       550.004    234.929    54.14     
2570.2     570.017    234.949    54.133    
2570.4     660.983    234.974    54.126    
2570.6     572        234.978    54.119    
2570.8     571.998    235        54.114    
2571       562.007    235.025    54.107    
2571.2     598.01     235.046    54.099    
2571.4     653.014    235.065    54.092    
2571.6     725.002    235.105    54.085    
2571.8     733.993    235.111    54.078    
2572       699.012    235.139    54.071    
2572.2     762        235.157    54.064    
2572.4     761.985    235.165    54.057    
2572.6     685.011    235.185    54.05     
2572.8     745.004    235.204    54.043    
2573       766.02     235.225    54.036    
2573.2     872.998    235.245    54.029    
2573.4     861.014    235.265    54.022    
2573.6     935        235.285    54.015    
2573.8     935.021    235.305    54.008    
2574       1047.054   235.324    54.001    
2574.2     1333.096   235.345    53.994    
2574.4     1838.165   235.364    53.987    
2574.6     2704.294   235.386    53.977    
2574.8     4247.296   235.405    53.968    
2575       543.998    235.425    53.961    
2575.2     536        235.445    53.954    
2575.4     535.983    235.465    53.948    
2575.6     446.011    235.492    53.94     
2575.8     505.004    235.527    53.93     
2576       526.003    235.548    53.922    
2576.2     543.995    235.566    53.915    
2576.4     518.979    235.569    53.909    
2576.6     410.008    235.583    53.902    
2576.8     454        235.603    53.894    
2577       453.998    235.622    53.888    
2577.2     442.007    235.643    53.881    
2577.4     479.995    235.664    53.873    
2577.6     453        235.683    53.866    
2577.8     455.014    235.704    53.857    
2578       528.998    235.723    53.848    
2578.2     517.002    235.743    53.841    
2578.4     526        235.752    53.834    
2578.6     525.997    235.77     53.827    
2578.8     509.002    235.804    53.82     
2579       517.007    235.823    53.813    
2579.2     555.017    235.844    53.806    
2579.4     643.995    235.862    53.799    
2579.6     616.99     235.883    53.792    
2579.8     564.99     235.902    53.785    
2580       511.011    235.922    53.778    
2580.2     569.99     235.943    53.774    
2580.4     515        235.968    53.764    
2580.6     514.99     236.002    53.759    
2580.8     464        236.003    53.754    
2581       463.002    236.048    53.746    
2581.2     474.005    236.048    53.738    
2581.4     499.005    236.068    53.73     
2581.6     523.998    236.089    53.723    
2581.8     513        236.122    53.716    
2582       513.017    236.151    53.709    
2582.2     601.984    236.17     53.698    
2582.4     517.01     236.189    53.692    
2582.6     567.993    236.211    53.684    
2582.8     532.001    236.23     53.677    
2583       535.009    236.25     53.672    
2583.2     584.007    236.269    53.667    
2583.4     622.997    236.288    53.661    
2583.6     609        236.309    53.653    
2583.8     609.009    236.337    53.646    
2584       656.025    236.367    53.639    
2584.2     784.997    236.37     53.632    
2584.4     769.045    236.389    53.625    
2584.6     1005.065   236.41     53.618    
2584.8     1344.124   236.429    53.61     
2585       1992       236.45     53.6      
2585.2     1992.198   236.469    53.593    
2585.4     3027.322   236.489    53.586    
2585.6     4713.205   236.509    53.582    
2585.8     552.993    236.527    53.576    
2586       515        236.528    53.567    
2586.2     516.014    236.562    53.558    
2586.4     590.975    236.573    53.551    
2586.6     458        236.586    53.544    
2586.8     457.997    236.606    53.537    
2587       440.991    236.626    53.53     
2587.2     392.006    236.645    53.523    
2587.4     422.003    236.666    53.516    
2587.6     437.981    236.685    53.51     
2587.8     340.002    236.705    53.506    
2588       348.009    236.725    53.498    
2588.2     394        236.745    53.491    
2588.4     393.996    236.765    53.484    
2588.6     371.004    236.784    53.478    
2588.8     393        236.805    53.468    
2589       391.002    236.824    53.46     
2589.2     398.999    236.843    53.454    
2589.4     393.996    236.863    53.45     
2589.6     375.004    236.884    53.443    
2589.8     396.008    236.916    53.435    
2590       439.996    236.938    53.428    
2590.2     419        236.949    53.421    
2590.4     419.012    236.984    53.411    
2590.6     483.002    236.985    53.403    
2590.8     494.993    237.013    53.394    
2591       457.999    237.032    53.386    
2591.2     454.003    237.052    53.377    
2591.4     472.006    237.089    53.368    
2591.6     501.999    237.099    53.361    
2591.8     498        237.111    53.354    
2592       497.987    237.139    53.348    
2592.2     429.019    237.167    53.34     
2592.4     526.012    237.171    53.333    
2592.6     586.996    237.192    53.326    
2592.8     565.986    237.23     53.319    
2593       492.995    237.236    53.312    
2593.2     468.022    237.267    53.305    
2593.4     584        237.294    53.298    
2593.6     584.001    237.314    53.295    
2593.8     588.99     237.334    53.287    
2594       537.008    237.354    53.278    
2594.2     580.994    237.372    53.269    
2594.4     552.01     237.373    53.263    
