~Version
 VERS              .         2.0                           : CWLS LOG ASCII STANDARD - VERSION 2.0
 WRAP              .         NO                            : ONE LINE PER DEPTH STEP
 DLM               .         SPACE                         : DELIMITING CHARACTER(SPACE TAB OR COMMA)
~Well Information
#_______________________________________________________________________________
#
#PARAMETER_NAME    .UNIT     VALUE                         : DESCRIPTION
#_______________________________________________________________________________
STRT               .M        2700.4                        : First reference value
STOP               .M        2756.2                        : Last reference value
STEP               .M        0.2000002                     : Step increment
NULL               .         -9999                         : Missing value
COMP               .                                       : Company
WELL               .         616                           : Well name
FLD                .                                       : Field
LOC                .                                       : Location
CNTY               .                                       : County
STAT               .                                       : State
CTRY               .                                       : Country
SRVC               .                                       : Service Company
DATE               .                                       : Date
API                .                                       : API number
PROJECT_UPGRADE_TIME .         2021-03-18T21_24_50           : 
group              .         Good                          : 
~Parameter Information Block
#_______________________________________________________________________________
#
#PARAMETER_NAME    .UNIT     VALUE                         : DESCRIPTION
#_______________________________________________________________________________
SET                .         D4405_D                       : 
OTHER              .         Запись производится в присутствии: 
OTHER_10           .         Максимальная температура      : 
OTHER_11           .         Тип промывочной жидкости      : 
OTHER_12           .         Сопротивление ПЖ (Ом*м) при 20°C: 
OTHER_13           .         Плотность ПЖ(г/см3)           : 
OTHER_14           .         Вязкость ПЖ(с)                : 
OTHER_15           .         Водоотдача ПЖ(см3/30мин)      : 
OTHER_16           .         Уровень ПЖ                    : 
OTHER_17           .         Нефть ПЖ (%)                  : 
OTHER_18           .         Барит ПЖ (%)                  : 
OTHER_19           .         Гематит ПЖ (%)                : 
OTHER_2            .         Заказчик ННСН  ЦДНГ-1         : 
OTHER_20           .         КМЦ ПЖ (%)                    : 
OTHER_21           .         Разгазирование ПЖ (да,нет)    : 
OTHER_22           .         Подъемник                     : 
OTHER_23           .         Лаборатория                   : 
OTHER_24           .         Тип кабеля                    : 
OTHER_25           .         Длина кабеля (м)              : 
OTHER_26           .         Цена последней метки          : 
OTHER_27           .         Цена контрольной метки        : 
OTHER_28           .         Диаметр долота (мм)           : 
OTHER_29           .         Глубина бурения (м)           : 
OTHER_3            .         Площадь                       : 
OTHER_30           .         Искусственный забой (м)       : 
OTHER_31           .         Диаметр колонны (мм)          : 
OTHER_32           .         Толщина колонны (мм)          : 
OTHER_33           .         Башмак колонны (м)            : 
OTHER_34           .         Диаметр НКТ (мм)              : 
OTHER_35           .         Толщина НКТ (мм)              : 
OTHER_36           .         Воронка НКТ (м)               : 
OTHER_37           .         Дата цементожа                : 
OTHER_38           .         Тип, количество(т) и плотность цемента: 
OTHER_39           .         Интервалы перфорации (м)      : 
OTHER_4            .         Категория                     : 
OTHER_40           .         Направление, диаметр (мм)     : 
OTHER_41           .         Направление, глубина (м)      : 
OTHER_42           .         Кондуктор, диаметр (мм)       : 
OTHER_43           .         Кондуктор, глубина (м)        : 
OTHER_44           .         Техническая колонна, диаметр (мм): 
OTHER_45           .         Техническая колонна, глубина (м): 
OTHER_46           .         Эксплуатационная колонна, диаметр (мм): 
OTHER_47           .         Эксплуатационная колонна, глубина (м): 
OTHER_48           .         Программа Кедр-02 версия 3.4  : 
OTHER_49           .         Операционная система Windows NT 5.1 build 2600 Service Pack 2: 
OTHER_5            .         Назначение исследований       : 
OTHER_50           .         Программное обеспечение станции MONITOR-386EX 25/12/99 15_08_10   BGF V54 20/09/05 15_32_17   3.3__BGF_9030071: 
OTHER_51           .         Kedr.exe версия 3.4.2.74      : 
OTHER_52           .         KedrData.dll версия 3.4.2.29  : 
OTHER_53           .         Мнемоники версия 3.18 S       : 
OTHER_54           .         Драйвер версия 2.1.1.4        : 
OTHER_55           .         LasInf.dll 4.3.0.35           : 
OTHER_56           .         Прибор_ КСА-Т4                : 
OTHER_57           .         Номер прибора_ 160            : 
OTHER_58           .         Режим_ КСА-Т4                 : 
OTHER_59           .         Форма_ С.А.Б.                 : 
OTHER_6            .         Альтитуда стола ротора        : 
OTHER_60           .         Тарировки_                    : 
OTHER_61           .         <_techsia_sc_> Дата тарировки температуры 25.05.2010: 
OTHER_62           .         Ручной ввод коэффициентов     : 
OTHER_63           .         TM.DEGC = 0.00402*RTM.E.ACP + -0.994: 
OTHER_64           .         <_techsia_sc_> Дата тарировки давления 25.05.2010: 
OTHER_65           .         Ручной ввод коэффициентов     : 
OTHER_66           .         MN.ATM = (2.27521e-006*TM.DEGC + 0.02078)*(RMN.E.ACP + 6.2*TM.DEGC + -1688): 
OTHER_67           .         <_techsia_sc_> Дата тарировки ГК 25.05.2010: 
OTHER_68           .         Ручной ввод коэффициентов     : 
OTHER_69           .         GR.UR/H = RGR.IMP/MIN / 45.5144: 
OTHER_7            .         Вид исследований 3  6         : 
OTHER_70           .         GK.FLT = 0.1*GR.UR/H[-1] + (1-0.1)*GR.UR/H[0]: 
OTHER_8            .         Начало бурения интервала каротажа: 
OTHER_9            .         Окончание бурения интервала каротажа: 
PROJECT_UPGRADE_TIME .         2021-03-18T21_24_50           : 
TLFamily_CCLC      .                                       : 
TLFamily_DEPT      .         Measured Depth                : 
TLFamily_GK        .         Gamma Ray                     : 
TLFamily_GR        .         Gamma Ray                     : 
TLFamily_METKA     .                                       : 
TLFamily_MN        .                                       : 
TLFamily_RCOR      .                                       : 
TLFamily_RGR       .                                       : 
TLFamily_RMN       .                                       : 
TLFamily_RTEN      .                                       : 
TLFamily_RTM       .                                       : 
TLFamily_SPEE      .         Cable Speed                   : 
TLFamily_TIME      .         Time                          : 
TLFamily_TM        .         Temperature                   : 
group              .         prim                          : 
~Curve Information
#_______________________________________________________________________________
#
#LOGNAME           .UNIT     LOG_ID                        : DESCRIPTION
#_______________________________________________________________________________
DEPT               .M                                      : 1 Глубина, м -    0.0 см 
CCLC               .E.ACP                                  : 9 Локатор муфт,  -   20.0 см 
GK                 .FLT                                    : 14 Гамма-активность фильтрованная, мкр./ч -  110.0 см 
GR                 .UR/H                                   : 13 Гамма-активность, мкр./ч -  110.0 см 
METKA              .CU                                     : 3 Метки,  -    0.0 см 
MN                 .ATM                                    : 12 Давление, атм. -  160.0 см 
RCOR               .CM/KM                                  : 5 Коррекция по ролику, см/км -    0.0 см 
RGR                .IMP/MIN                                : 10 Гамма-активность, усл.ед. -  110.0 см 
RMN                .E.ACP                                  : 8 Давление, усл.ед. -  160.0 см 
RTEN               .T                                      : 6 Натяжение кабеля, т -    0.0 см 
RTM                .E.ACP                                  : 7 Температура, усл.ед. -  170.0 см 
SPEE               .M/H                                    : 2 Скорость, м/час -    0.0 см 
TIME               .S                                      : 4 Время, сек -    0.0 см 
TM                 .DEGC                                   : 11 Температура, °C -  170.0 см 
~Ascii
# ...
2742       252        11.49      11.49      0          246.989    -1112      523        13174      0.45       13509      -201       227.91     53.312    
2742.2     329        9.56       9.56       0          247.003    -1112      435        13174      0.45       13532      -200       224.34     53.407    
2742.4     191        9.67       9.67       0          247.039    -1112      440        13175      0.45       13556      -200       220.77     53.501    
2742.6     323        10.13      10.13      0          247.054    -1112      461        13175      0.45       13579      -200       217.2      53.594    
2742.8     267        9.93       9.93       0          247.069    -1112      452        13175      0.45       13602      -200       213.64     53.686    
2743       339        9.05       9.05       0          247.084    -1112      412        13175      0.44       13627      -200       209.89     53.787    
2743.2     195        9.49       9.49       0          247.12     -1112      432        13176      0.44       13651      -201       206.32     53.883    
2743.4     365        9.42       9.42       0          247.135    -1112      429        13176      0.45       13674      -201       202.75     53.975    
2743.6     136        10.44      10.44      0          247.15     -1112      475        13176      0.45       13698      -200       199.19     54.072    
2743.8     328        11.29      11.29      0          247.175    -1112      514        13177      0.45       13723      -200       195.44     54.171    
2744       256        10.39      10.39      0          247.2      -1112      473        13177      0.45       13746      -200       191.86     54.265    
2744.2     398        11.01      11.01      0          247.215    -1112      501        13177      0.45       13769      -200       188.3      54.359    
2744.4     344        8.94       8.94       0          247.23     -1112      407        13177      0.45       13793      -200       184.74     54.454    
2744.6     134        8.85       8.85       0          247.266    -1112      403        13178      0.45       13817      -200       181.17     54.55     
2744.8     328        9.47       9.47       0          247.28     -1112      431        13178      0.45       13840      -201       177.41     54.641    
2745       398        10.15      10.15      0          247.294    -1112      462        13178      0.45       13862      -200       173.84     54.731    
2745.2     292        10.39      10.39      0          247.329    -1112      473        13179      0.45       13884      -200       170.28     54.82     
2745.4     315        10.57      10.57      0          247.343    -1112      481        13179      0.45       13906      -200       166.72     54.908    
2745.6     325        10.92      10.92      0          247.377    -1112      497        13180      0.45       13928      -200       162.97     54.997    
2745.8     348        10.46      10.46      0          247.39     -1112      476        13180      0.45       13949      -200       159.39     55.081    
2746       289        9.58       9.58       2          247.424    -1112      436        13181      0.45       13970      -200       155.83     55.165    
2746.2     490        8.57       8.57       0          247.445    -1112      390        13181      0.45       13989      -200       152.83     55.24     
2746.4     4398       10.39      10.39      0          247.468    -1112      473        13182      0.45       14008      -200       149.23     55.319    
2746.6     371        12.04      12.04      0          247.499    -1112      548        13183      0.44       14025      -199       145.48     55.386    
2746.8     348        10.48      10.48      0          247.529    -1112      477        13184      0.45       14041      -200       141.92     55.449    
2747       424        10.77      10.77      0          247.559    -1112      490        13185      0.44       14055      -200       138.34     55.508    
2747.2     527        10.99      10.99      0          247.587    -1112      500        13186      0.45       14068      -200       134.78     55.559    
2747.4     370        10.52      10.52      0          247.593    -1112      479        13186      0.45       14079      -200       131.03     55.604    
2747.6     399        10.46      10.46      0          247.617    -1112      476        13187      0.45       14086      -200       127.28     55.634    
2747.8     390        10.13      10.13      0          247.641    -1112      461        13188      0.45       14091      -201       123.78     55.652    
2748       504        10.92      10.92      0          247.652    -1112      497        13189      0.45       14094      -199       120.27     55.664    
2748.2     385        10.72      10.72      0          247.682    -1112      488        13190      0.45       14093      -199       116.58     55.66     
2748.4     405        11.73      11.73      0          247.701    -1112      534        13191      0.45       14090      -199       112.83     55.648    
2748.6     301        11.89      11.89      0          247.713    -1112      541        13192      0.45       14088      -199       109.25     55.64     
2748.8     289        11.91      11.91      0          247.759    -1112      542        13193      0.45       14099      -199       105.69     55.684    
2749       209        12.5       12.5       0          247.816    -1112      569        13194      0.45       14144      -200       102.13     55.865    
2749.2     293        11.89      11.89      0          247.858    -1112      541        13195      0.45       14189      -200       98.38      56.046    
2749.4     293        11.53      11.53      0          247.889    -1112      525        13196      0.45       14211      -199       94.81      56.134    
2749.6     399        12.28      12.28      0          247.933    -1112      559        13198      0.45       14228      -199       91.24      56.203    
2749.8     448        12.11      12.11      0          247.97     -1112      551        13199      0.45       14244      -199       87.67      56.267    
2750       507        10.96      10.96      0          248.005    -1112      499        13201      0.45       14253      -199       84.11      56.305    
2750.2     445        11.16      11.16      0          248.039    -1112      508        13202      0.45       14259      -199       80.24      56.327    
2750.4     485        10.83      10.83      0          248.062    -1112      493        13203      0.45       14262      -199       76.61      56.341    
2750.6     506        11.22      11.22      0          248.105    -1112      511        13205      0.45       14265      -200       73.03      56.351    
2750.8     518        10.59      10.59      0          248.125    -1112      482        13206      0.45       14265      -199       69.47      56.351    
2751       502        9.62       9.62       0          248.164    -1112      438        13208      0.45       14262      -199       65.72      56.341    
2751.2     480        10.06      10.06      0          248.182    -1112      458        13209      0.45       14258      -199       62.15      56.322    
2751.4     517        9.56       9.56       0          248.221    -1112      435        13211      0.45       14253      -199       58.58      56.303    
2751.6     507        10.44      10.44      0          248.258    -1112      475        13213      0.45       14247      -199       55.02      56.277    
2751.8     486        11.45      11.45      0          248.273    -1112      521        13214      0.45       14238      -199       51.45      56.243    
2752       599        11.72      11.72      0          248.285    -1112      533        13215      0.45       14227      -199       47.7       56.199    
2752.2     531        11.97      11.97      0          248.316    -1112      545        13217      0.45       14211      -199       43.94      56.134    
