~Version
 VERS              .         2.0                           : CWLS LOG ASCII STANDARD - VERSION 2.0
 WRAP              .         NO                            : ONE LINE PER DEPTH STEP
 DLM               .         SPACE                         : DELIMITING CHARACTER(SPACE TAB OR COMMA)
~Well Information
#_______________________________________________________________________________
#
#PARAMETER_NAME    .UNIT     VALUE                         : DESCRIPTION
#_______________________________________________________________________________
STRT               .M        2700.4                        : First reference value
STOP               .M        2756.2                        : Last reference value
STEP               .M        0.2000002                     : Step increment
NULL               .         -9999                         : Missing value
COMP               .                                       : Company
WELL               .         616                           : Well name
FLD                .                                       : Field
LOC                .                                       : Location
CNTY               .                                       : County
STAT               .                                       : State
CTRY               .                                       : Country
SRVC               .                                       : Service Company
DATE               .                                       : Date
API                .                                       : API number
PROJECT_UPGRADE_TIME .         2021-03-18T21_24_50           : 
group              .         Good                          : 
~Parameter Information Block
#_______________________________________________________________________________
#
#PARAMETER_NAME    .UNIT     VALUE                         : DESCRIPTION
#_______________________________________________________________________________
SET                .         D4405_D                       : 
OTHER              .         Запись производится в присутствии: 
OTHER_10           .         Максимальная температура      : 
OTHER_11           .         Тип промывочной жидкости      : 
OTHER_12           .         Сопротивление ПЖ (Ом*м) при 20°C: 
OTHER_13           .         Плотность ПЖ(г/см3)           : 
OTHER_14           .         Вязкость ПЖ(с)                : 
OTHER_15           .         Водоотдача ПЖ(см3/30мин)      : 
OTHER_16           .         Уровень ПЖ                    : 
OTHER_17           .         Нефть ПЖ (%)                  : 
OTHER_18           .         Барит ПЖ (%)                  : 
OTHER_19           .         Гематит ПЖ (%)                : 
OTHER_2            .         Заказчик ННСН  ЦДНГ-1         : 
OTHER_20           .         КМЦ ПЖ (%)                    : 
OTHER_21           .         Разгазирование ПЖ (да,нет)    : 
OTHER_22           .         Подъемник                     : 
OTHER_23           .         Лаборатория                   : 
OTHER_24           .         Тип кабеля                    : 
OTHER_25           .         Длина кабеля (м)              : 
OTHER_26           .         Цена последней метки          : 
OTHER_27           .         Цена контрольной метки        : 
OTHER_28           .         Диаметр долота (мм)           : 
OTHER_29           .         Глубина бурения (м)           : 
OTHER_3            .         Площадь                       : 
OTHER_30           .         Искусственный забой (м)       : 
OTHER_31           .         Диаметр колонны (мм)          : 
OTHER_32           .         Толщина колонны (мм)          : 
OTHER_33           .         Башмак колонны (м)            : 
OTHER_34           .         Диаметр НКТ (мм)              : 
OTHER_35           .         Толщина НКТ (мм)              : 
OTHER_36           .         Воронка НКТ (м)               : 
OTHER_37           .         Дата цементожа                : 
OTHER_38           .         Тип, количество(т) и плотность цемента: 
OTHER_39           .         Интервалы перфорации (м)      : 
OTHER_4            .         Категория                     : 
OTHER_40           .         Направление, диаметр (мм)     : 
OTHER_41           .         Направление, глубина (м)      : 
OTHER_42           .         Кондуктор, диаметр (мм)       : 
OTHER_43           .         Кондуктор, глубина (м)        : 
OTHER_44           .         Техническая колонна, диаметр (мм): 
OTHER_45           .         Техническая колонна, глубина (м): 
OTHER_46           .         Эксплуатационная колонна, диаметр (мм): 
OTHER_47           .         Эксплуатационная колонна, глубина (м): 
OTHER_48           .         Программа Кедр-02 версия 3.4  : 
OTHER_49           .         Операционная система Windows NT 5.1 build 2600 Service Pack 2: 
OTHER_5            .         Назначение исследований       : 
OTHER_50           .         Программное обеспечение станции MONITOR-386EX 25/12/99 15_08_10   BGF V54 20/09/05 15_32_17   3.3__BGF_9030071: 
OTHER_51           .         Kedr.exe версия 3.4.2.74      : 
OTHER_52           .         KedrData.dll версия 3.4.2.29  : 
OTHER_53           .         Мнемоники версия 3.18 S       : 
OTHER_54           .         Драйвер версия 2.1.1.4        : 
OTHER_55           .         LasInf.dll 4.3.0.35           : 
OTHER_56           .         Прибор_ КСА-Т4                : 
OTHER_57           .         Номер прибора_ 160            : 
OTHER_58           .         Режим_ КСА-Т4                 : 
OTHER_59           .         Форма_ С.А.Б.                 : 
OTHER_6            .         Альтитуда стола ротора        : 
OTHER_60           .         Тарировки_                    : 
OTHER_61           .         <_techsia_sc_> Дата тарировки температуры 25.05.2010: 
OTHER_62           .         Ручной ввод коэффициентов     : 
OTHER_63           .         TM.DEGC = 0.00402*RTM.E.ACP + -0.994: 
OTHER_64           .         <_techsia_sc_> Дата тарировки давления 25.05.2010: 
OTHER_65           .         Ручной ввод коэффициентов     : 
OTHER_66           .         MN.ATM = (2.27521e-006*TM.DEGC + 0.02078)*(RMN.E.ACP + 6.2*TM.DEGC + -1688): 
OTHER_67           .         <_techsia_sc_> Дата тарировки ГК 25.05.2010: 
OTHER_68           .         Ручной ввод коэффициентов     : 
OTHER_69           .         GR.UR/H = RGR.IMP/MIN / 45.5144: 
OTHER_7            .         Вид исследований 3  6         : 
OTHER_70           .         GK.FLT = 0.1*GR.UR/H[-1] + (1-0.1)*GR.UR/H[0]: 
OTHER_8            .         Начало бурения интервала каротажа: 
OTHER_9            .         Окончание бурения интервала каротажа: 
PROJECT_UPGRADE_TIME .         2021-03-18T21_24_50           : 
TLFamily_CCLC      .                                       : 
TLFamily_DEPT      .         Measured Depth                : 
TLFamily_GK        .         Gamma Ray                     : 
TLFamily_GR        .         Gamma Ray                     : 
TLFamily_METKA     .                                       : 
TLFamily_MN        .                                       : 
TLFamily_RCOR      .                                       : 
TLFamily_RGR       .                                       : 
TLFamily_RMN       .                                       : 
TLFamily_RTEN      .                                       : 
TLFamily_RTM       .                                       : 
TLFamily_SPEE      .         Cable Speed                   : 
TLFamily_TIME      .         Time                          : 
TLFamily_TM        .         Temperature                   : 
group              .         prim                          : 
~Curve Information
#_______________________________________________________________________________
#
#LOGNAME           .UNIT     LOG_ID                        : DESCRIPTION
#_______________________________________________________________________________
DEPT               .M                                      : 1 Глубина, м -    0.0 см 
CCLC               .E.ACP                                  : 9 Локатор муфт,  -   20.0 см 
GK                 .FLT                                    : 14 Гамма-активность фильтрованная, мкр./ч -  110.0 см 
GR                 .UR/H                                   : 13 Гамма-активность, мкр./ч -  110.0 см 
METKA              .CU                                     : 3 Метки,  -    0.0 см 
MN                 .ATM                                    : 12 Давление, атм. -  160.0 см 
RCOR               .CM/KM                                  : 5 Коррекция по ролику, см/км -    0.0 см 
RGR                .IMP/MIN                                : 10 Гамма-активность, усл.ед. -  110.0 см 
RMN                .E.ACP                                  : 8 Давление, усл.ед. -  160.0 см 
RTEN               .T                                      : 6 Натяжение кабеля, т -    0.0 см 
RTM                .E.ACP                                  : 7 Температура, усл.ед. -  170.0 см 
SPEE               .M/H                                    : 2 Скорость, м/час -    0.0 см 
TIME               .S                                      : 4 Время, сек -    0.0 см 
TM                 .DEGC                                   : 11 Температура, °C -  170.0 см 
~Ascii
2700.3999023 -9999      -9999      -9999      -9999      -9999      -1116      -9999      -9999      0.44       -9999      -201       976.27     -9999     
2700.6     -9999      -9999      -9999      0          -9999      -1116      -9999      -9999      0.44       -9999      -201       972.52     -9999     
2700.8     78         -9999      -9999      0          -9999      -1116      -9999      -9999      0.44       -9999      -203       968.94     -9999     
2701       78         -9999      -9999      0          -9999      -1116      -9999      -9999      0.44       -9999      -206       965.44     -9999     
2701.2     65         -9999      -9999      0          -9999      -1116      -9999      -9999      0.44       -9999      -201       962        -9999     
2701.4     85         -9999      -9999      0          -9999      -1116      -9999      -9999      0.44       -9999      -205       958.25     -9999     
2701.6     83         10.39      10.39      0          -9999      -1116      473        -9999      0.44       -9999      -204       954.67     -9999     
2701.8     79         9.97       9.97       0          -9999      -1116      454        -9999      0.44       -9999      -200       951.3      -9999     
2702       361        7.83       7.83       0          243.286    -1116      356        13012      0.44       -9999      -204       947.73     -9999     
2702.2     2819       9.47       9.47       0          243.298    -1116      431        13013      0.44       13010      -206       943.97     51.304    
2702.4     69         9.69       9.69       0          243.33     -1116      441        13015      0.44       12995      -210       940.39     51.246    
2702.6     85         9.78       9.78       0          243.343    -1116      445        13016      0.44       12981      -211       937.02     51.19     
2702.8     100        9.51       9.51       0          243.356    -1116      433        13017      0.44       12968      -201       933.77     51.137    
2703       77         9.93       9.93       0          243.369    -1116      452        13018      0.44       12957      -203       930.14     51.093    
2703.2     65         9.73       9.73       0          243.381    -1116      443        13019      0.44       12942      -203       926.52     51.032    
2703.4     76         8.33       8.33       0          243.394    -1116      379        13020      0.44       12929      -203       922.95     50.979    
2703.6     76         8.88       8.88       0          243.409    -1116      404        13021      0.44       12919      -204       919.38     50.938    
2703.8     80         9.91       9.91       0          243.423    -1116      451        13022      0.44       12907      -206       915.87     50.894    
2704       80         11.14      11.14      0          243.437    -1116      507        13023      0.44       12897      -208       912.25     50.852    
2704.2     67         10.26      10.26      0          243.452    -1116      467        13024      0.44       12887      -208       908.86     50.81     
2704.4     67         9.22       9.22       0          243.468    -1116      420        13025      0.44       12877      -193       905.49     50.772    
2704.6     88         10.15      10.15      0          243.484    -1116      462        13026      0.43       12869      -206       901.74     50.739    
2704.8     129        10.68      10.68      0          243.521    -1116      486        13028      0.44       12861      -206       898.23     50.709    
2705       91         11.01      11.01      0          243.537    -1116      501        13029      0.44       12854      -203       894.61     50.678    
2705.2     74         11.38      11.38      0          243.552    -1116      518        13030      0.44       12846      -205       891.03     50.647    
2705.4     89         11.62      11.62      0          243.567    -1116      529        13031      0.44       12837      -206       887.59     50.609    
2705.6     90         11.34      11.34      0          243.583    -1116      516        13032      0.43       12828      -205       884.09     50.575    
2705.8     54         10.8       10.8       0          243.6      -1116      492        13033      0.43       12820      -204       880.53     50.544    
2706       57         10.55      10.55      2          243.616    -1116      480        13034      0.43       12813      -205       877.25     50.516    
2706.2     52         10.44      10.44      0          243.633    -1123      475        13035      0.44       12807      -204       874.7      50.49     
2706.4     57         11.25      11.25      0          243.651    -1123      512        13036      0.44       12801      -201       871.2      50.467    
2706.6     57         11.14      11.14      0          243.668    -1123      507        13037      0.43       12796      -201       867.77     50.446    
2706.8     52         10.99      10.99      0          243.695    -1123      500        13038      0.43       12790      -202       863.95     50.424    
2707       50         10.92      10.92      0          243.702    -1123      497        13039      0.43       12784      -201       860.45     50.398    
2707.2     69         10.48      10.48      0          243.72     -1123      477        13040      0.43       12779      -200       856.88     50.376    
2707.4     57         11.25      11.25      0          243.738    -1123      512        13041      0.43       12774      -201       853.31     50.355    
2707.6     63         11.78      11.78      0          243.755    -1123      536        13042      0.43       12768      -201       849.56     50.333    
2707.8     69         11.51      11.51      0          243.773    -1123      524        13043      0.43       12764      -200       845.99     50.319    
2708       60         9.62       9.62       0          243.777    -1123      438        13043      0.43       12759      -200       842.42     50.295    
2708.2     60         10.9       10.9       0          243.799    -1123      496        13045      0.44       12753      -200       838.86     50.273    
2708.4     72         12.33      12.33      0          243.82     -1123      561        13046      0.43       12748      -200       835.3      50.253    
2708.6     92         11.27      11.27      0          243.845    -1123      513        13047      0.43       12744      -201       831.55     50.237    
2708.8     72         11.95      11.95      0          243.863    -1123      544        13048      0.43       12740      -201       827.97     50.221    
2709       60         11.4       11.4       0          243.881    -1123      519        13049      0.43       12735      -201       824.41     50.201    
2709.2     74         11.27      11.27      0          243.9      -1123      513        13050      0.44       12732      -201       820.84     50.189    
2709.4     58         11.73      11.73      0          243.918    -1123      534        13051      0.44       12727      -200       817.09     50.169    
2709.6     70         11.93      11.93      0          243.936    -1123      543        13052      0.44       12723      -200       813.52     50.151    
2709.8     68         10.96      10.96      0          243.953    -1123      499        13053      0.43       12718      -201       809.95     50.131    
2710       64         11.07      11.07      0          243.97     -1123      504        13054      0.43       12711      -201       806.39     50.104    
2710.2     88         10.13      10.13      0          243.988    -1123      461        13055      0.43       12706      -201       802.64     50.082    
2710.4     56         9.43       9.43       0          244.006    -1123      429        13056      0.44       12701      -201       799.07     50.064    
2710.6     70         8.85       8.85       0          244.025    -1123      403        13057      0.43       12698      -201       795.5      50.051    
