~Version
 VERS              .         2.0                           : CWLS LOG ASCII STANDARD - VERSION 2.0
 WRAP              .         NO                            : ONE LINE PER DEPTH STEP
 DLM               .         SPACE                         : DELIMITING CHARACTER(SPACE TAB OR COMMA)
~Well Information
#_______________________________________________________________________________
#
#PARAMETER_NAME    .UNIT     VALUE                         : DESCRIPTION
#_______________________________________________________________________________
STRT               .M        2645.6                        : First reference value
STOP               .M        2754.199837                   : Last reference value
STEP               .M        0.1999997                     : Step increment
NULL               .         -9999                         : Missing value
COMP               .                                       : Company
WELL               .         616                           : Well name
FLD                .                                       : Field
LOC                .                                       : Location
CNTY               .                                       : County
STAT               .                                       : State
CTRY               .                                       : Country
SRVC               .                                       : Service Company
DATE               .                                       : Date
API                .                                       : API number
PROJECT_UPGRADE_TIME .         2021-03-18T21_24_50           : 
group              .         Good                          : 
~Parameter Information Block
#_______________________________________________________________________________
#
#PARAMETER_NAME    .UNIT     VALUE                         : DESCRIPTION
#_______________________________________________________________________________
SET                .         D7026_D                       : 
OTHER              .         Kedr.exe версия 2.1.2.32      : 
OTHER_10           .         TM.GRD = 0.00404*TM$.UE + 0.07: 
OTHER_11           .         MN.ATM = (6.33279e-006*TM.GRD + 0.02401)*(MN$.UE + 2.72*TM.GRD + -2018): 
OTHER_12           .         GK.MKR/H = GK$.UE / 43.5489 + 0: 
OTHER_13           .         RES.SM = 0.00476*CRES.UE - 1.51709: 
OTHER_14           .         PL.GSM3 = 0 + 0 * (PL.UE / 1) +  0 * (PL.UE / 1)^2: 
OTHER_15           .         Постоянная времени ГГП = 6 сек: 
OTHER_16           .         Постоянная времени ГК = 6 сек : 
OTHER_2            .         KedrData.dll версия 3.2.2.14  : 
OTHER_3            .         LasInf.dll версия 3.2.0.13    : 
OTHER_4            .         Драйвер версия 1.2.0.5        : 
OTHER_5            .         Прибор_ КСА-M1                : 
OTHER_6            .         Номер прибора_ 155+р204       : 
OTHER_7            .         Режим_ КСА-М1 + ГГП + Резистивиметр: 
OTHER_8            .         Форма_ 223\2                  : 
OTHER_9            .         Тарировки_                    : 
PROJECT_UPGRADE_TIME .         2021-03-18T21_24_50           : 
TLFamily_CRES      .                                       : 
TLFamily_DEPT      .         Measured Depth                : 
TLFamily_GK        .         Gamma Ray                     : 
TLFamily_GK$       .                                       : 
TLFamily_LM        .         Casing Collar locator         : 
TLFamily_METKA     .                                       : 
TLFamily_MN        .                                       : 
TLFamily_MN$       .                                       : 
TLFamily_PL        .                                       : 
TLFamily_PL_2      .                                       : 
TLFamily_RCOR      .                                       : 
TLFamily_RES       .         Mud Resistivity               : 
TLFamily_SPID      .         Spontaneous Potential         : 
TLFamily_STD       .                                       : 
TLFamily_TIME      .         Time                          : 
TLFamily_TM        .         Temperature                   : 
TLFamily_TM$       .         Temperature                   : 
TLFamily_VGD       .         Gas Volume                    : 
group              .         prim                          : 
~Curve Information
#_______________________________________________________________________________
#
#LOGNAME           .UNIT     LOG_ID                        : DESCRIPTION
#_______________________________________________________________________________
DEPT               .M                                      : 1 Глубина, м -    0.0 см 
CRES               .UE                                     : 9 Проводимость, усл.ед. -  222.0 см 
GK                 .MKR/H                                  : 16 Гамма-активность, мкр./ч -  106.0 см 
GK$                .UE                                     : 13 Гамма-активность, усл.ед. -  106.0 см 
LM                 .                                       : 11 Локатор муфт,  -   16.0 см 
METKA              .                                       : 3 Метки,  -    0.0 см 
MN                 .ATM                                    : 15 Давление, атм. -  160.0 см 
MN$                .UE                                     : 7 Давление, усл.ед. -  160.0 см 
PL                 .UE                                     : 10 Плотность, усл.ед. -  270.0 см 
PL_2               .GSM3                                   : 18 Плотность, г./см3 -  270.0 см 
RCOR               .CM/KM                                  : 5 Коррекция по ролику, см/км -    0.0 см 
RES                .SM                                     : 17 Проводимость,  -  222.0 см 
SPID               .M/H                                    : 2 Скорость, м/час -    0.0 см 
STD                .                                       : 12 Приток,  -  170.0 см 
TIME               .S                                      : 4 Время, сек -    0.0 см 
TM                 .GRD                                    : 14 Температура, °C -  180.0 см 
TM$                .UE                                     : 6 Температура, усл.ед. -  180.0 см 
VGD                .                                       : 8 Влагомер,  -  170.0 см 
~Ascii
2645.6000977 -9999      -9999      -9999      -9999      -9999      -9999      -9999      -9999      -9999      -9999      -9999      -9999      -9999      -9999      -9999      -9999      -9999     
2645.8     -9999      -9999      -9999      -9999      0          -9999      -9999      -9999      -9999      0          -9999      130        -9999      17147.57   -9999      -9999      -9999     
2645.999999 -9999      -9999      -9999      19         0          -9999      -9999      -9999      -9999      0          -9999      190        -9999      17151.99   -9999      -9999      -9999     
2646.199999 -9999      -9999      -9999      18         0          -9999      -9999      -9999      -9999      0          -9999      434        -9999      17153.94   -9999      -9999      -9999     
2646.399999 -9999      -9999      -9999      426        0          -9999      -9999      -9999      -9999      0          -9999      561        -9999      17155.24   -9999      -9999      -9999     
2646.599998 -9999      -9999      -9999      569        0          -9999      -9999      -9999      -9999      0          -9999      640        -9999      17156.48   -9999      -9999      -9999     
2646.799998 -9999      10.05      431        329        0          -9999      -9999      -9999      -9999      0          -9999      580        -9999      17157.66   -9999      -9999      -9999     
2646.999998 -9999      9.92       416        244        0          -9999      -9999      -9999      -9999      0          -9999      580        -9999      17158.86   -9999      -9999      -9999     
2647.199998 -9999      9.89       435        241        0          -9999      -9999      -9999      -9999      0          -9999      580        -9999      17160.1    -9999      -9999      -9999     
2647.399997 -9999      9.94       435        231        0          243.663    11856      -9999      -9999      0          -9999      580        11355      17161.36   -9999      -9999      6648      
2647.599997 -9999      10.1       448        238        0          243.687    11857      -9999      -9999      0          -9999      580        11351      17162.63   57.949     14327      6646      
2647.799997 -9999      10.19      448        242        0          243.672    11856      -9999      -9999      0          -9999      530        11350      17163.9    57.943     14325      6647      
2647.999996 1243       9.95       422        3262       0          243.637    11855      -9999      -9999      0          4.3996     510        11348      17165.21   57.943     14325      6657      
2648.199996 1225       9.79       414        4499       0          243.637    11855      -9999      -9999      0          4.3139     580        11344      17166.53   57.936     14323      6659      
2648.399996 1238       9.2        373        1103       0          243.709    11858      14         0          0          4.3748     580        11341      17167.84   57.935     14323      6661      
2648.599995 1245       8.89       373        410        0          243.731    11859      14         0          0          4.4104     569        11334      17169.11   57.927     14321      6659      
2648.799995 1244       8.93       393        380        0          243.757    11860      14         0          0          4.4043     580        11330      17170.36   57.907     14316      6654      
2648.999995 1244       8.98       393        278        0          243.777    11861      14         0          0          4.4043     533        11326      17171.7    57.894     14313      6655      
2649.199995 1245       9.76       459        198        0          243.801    11862      14         0          0          4.4091     580        11323      17172.95   57.885     14311      6671      
2649.399994 1245       10.12      456        198        0          243.535    11851      14         0          0          4.4091     522        11321      17174.26   57.882     14310      6666      
2649.599994 1244       10.26      453        168        0          243.335    11843      14         0          0          4.4043     580        11318      17175.53   57.874     14308      6661      
2649.799994 1244       10.3       446        135        0          243.465    11848      14         0          0          4.402      580        11317      17176.84   57.866     14306      6671      
2649.999993 1244       9.82       405        156        0          243.68     11857      14         0          0          4.4043     516        11317      17177.87   57.861     14305      6671      
2650.199993 1242       9.52       394        171        1          243.866    11865      14         0          0          4.3948     570        11313      17179.15   57.854     14303      6677      
2650.399993 1242       9.19       386        193        0          243.869    11865      14         0          0          4.3948     580        11313      17180.41   57.851     14302      6672      
2650.599993 1240       9.13       408        155        0          243.706    11858      14         0          0          4.3873     510        11313      17181.73   57.846     14301      6668      
2650.799992 1241       9.25       408        121        0          243.599    11854      14         0          0          4.3901     580        11312      17182.99   57.841     14300      6677      
2650.999992 1242       9.38       422        107        0          243.598    11854      14         0          0          4.3935     522        11311      17184.31   57.832     14297      6675      
2651.199992 1241       9.52       422        98         0          243.719    11859      14         0          0          4.3901     510        11309      17185.62   57.827     14296      6679      
2651.399991 1240       9.62       425        117        0          243.873    11865      14         0          0          4.3845     580        11309      17186.89   57.818     14294      6677      
2651.599991 1241       9.77       432        125        0          243.935    11868      14         0          0          4.3877     580        11308      17188.21   57.812     14293      6679      
2651.799991 1241       9.92       449        274        0          243.884    11866      14         0          0          4.3901     580        11306      17189.52   57.805     14291      6679      
2651.99999 1241       10.15      452        238        0          243.805    11863      14         0          0          4.3901     510        11306      17190.86   57.801     14290      6673      
2652.19999 1241       10.2       442        152        0          243.747    11860      14         0          0          4.3901     580        11304      17192.11   57.792     14288      6675      
2652.39999 1240       10.18      442        131        0          243.803    11863      14         0          0          4.3853     580        11303      17193.42   57.783     14285      6672      
2652.599989 1238       10.06      419        116        0          243.896    11866      14         0          0          4.3758     580        11301      17194.68   57.777     14284      6675      
2652.799989 1238       9.84       419        136        0          243.981    11870      14         0          0          4.3758     510        11300      17196      57.773     14283      6679      
2652.999989 1240       9.73       419        140        0          243.988    11870      14         0          0          4.3853     510        11302      17197.32   57.769     14282      6680      
2653.199989 1241       9.68       419        101        0          243.955    11869      14         0          0          4.3893     580        11299      17198.65   57.763     14280      6677      
2653.399988 1240       9.72       427        130        0          243.905    11867      14         0          0          4.3845     580        11298      17199.9    57.757     14279      6676      
2653.599988 1240       9.76       427        177        0          243.92     11868      14         0          0          4.3853     521        11295      17201.22   57.748     14277      6670      
