~Version
 VERS              .         2.0                           : CWLS LOG ASCII STANDARD - VERSION 2.0
 WRAP              .         NO                            : ONE LINE PER DEPTH STEP
 DLM               .         SPACE                         : DELIMITING CHARACTER(SPACE TAB OR COMMA)
~Well Information
#_______________________________________________________________________________
#
#PARAMETER_NAME    .UNIT     VALUE                         : DESCRIPTION
#_______________________________________________________________________________
STRT               .M        1160                          : First reference value
STOP               .M        2120                          : Last reference value
STEP               .M        10                            : Step increment
NULL               .         -9999                         : Missing value
COMP               .                                       : Company
WELL               .         616                           : Well name
FLD                .                                       : Field
LOC                .                                       : Location
CNTY               .                                       : County
STAT               .                                       : State
CTRY               .                                       : Country
SRVC               .                                       : Service Company
DATE               .                                       : Date
API                .                                       : API number
PROJECT_UPGRADE_TIME .         2021-03-18T21_24_50           : 
group              .         Good                          : 
~Parameter Information Block
#_______________________________________________________________________________
#
#PARAMETER_NAME    .UNIT     VALUE                         : DESCRIPTION
#_______________________________________________________________________________
SET                .         9                             : 
ALT                .м        78.80                         : Альтитуда
COND               .м        0.00                          : Кондуктор
KWRK               .         Контpол                       : Вид работ
KX                 .м        0.00                          : Координата X устья скважины
KY                 .м        0.00                          : Координата Y устья скважины
NPR                .         990907                        : Номер прибора
Operator           .         Емельянова                    : 
PART               .         Ивашин                        : Начальник партии
PROJECT_UPGRADE_TIME .         2021-03-18T21_24_49           : 
PRZK               .         Шакиров                       : Представитель заказчика
SCLN               .         18.24                         : Поправка на магн.склон. и сближ.мерид.
TLFamily_AZIM      .         Hole Azimuth                  : 
TLFamily_DEPT      .         Measured Depth                : 
TLFamily_METKA     .                                       : 
TLFamily_ROLL      .                                       : 
TLFamily_SPEE      .         Cable Speed                   : 
TLFamily_ZENI      .                                       : 
TPR                .         ИОН-1                         : Тип скважинного прибора
group              .         second                        : 
~Curve Information
#_______________________________________________________________________________
#
#LOGNAME           .UNIT     LOG_ID                        : DESCRIPTION
#_______________________________________________________________________________
DEPT               .M                                      :  
AZIM               .DEG                                    :  
METKA              .                                       :  
ROLL               .DEG                                    :  
SPEE               .M/H                                    :  
ZENI               .DEG                                    :  
~Ascii
1160.0     255.61     0          317.84     684        32.61     
1170       256.76     0          321.17     648        32.93     
1180       256.53     0          321.45     684        33.25     
1190       256.62     0          319.06     648        33.39     
1200       256.26     0          321.12     648        33.45     
1210       257.13     0          322.78     684        33.7      
1220       257.75     0          322.36     648        33.77     
1230       257.7      0          322.06     684        33.77     
1240       257.33     0          323.91     648        33.97     
1250       256.81     0          322.93     648        33.88     
1260       257.29     0          326.78     648        33.92     
1270       258.33     0          324.57     648        33.96     
1280       258.38     0          325.57     684        33.72     
1290       258.14     0          328.38     648        33.64     
1300       258.16     0          327.42     648        33.43     
1310       257.88     0          328.25     648        33.32     
1320       259.5      0          322.16     648        33.48     
1330       259.31     0          324.4      648        33.44     
1340       258.34     0          25.15      648        33.29     
1350       258.87     0          322.31     648        33.38     
1360       259.04     0          321.21     648        33.27     
1370       258.99     0          324.21     648        33.21     
1380       259.49     0          322.36     684        33.31     
1390       260.63     0          327.96     684        33.45     
1400       260.26     0          325.12     648        33.48     
1410       259.26     0          326.74     648        33.51     
1420       259.48     0          325.4      648        33.57     
1430       259.97     0          325.58     648        33.77     
1440       260.55     0          328.66     648        33.87     
1450       259.94     0          328.49     648        33.77     
1460       258.02     0          38.61      648        33.38     
1470       259.85     0          318.13     648        33.32     
1480       260.24     0          318.4      648        33.23     
1490       260.68     0          323.15     648        33.01     
1500       259.66     0          202.54     648        32.86     
1510       260.88     0          321.54     648        32.46     
1520       260.95     0          323.7      648        32.1      
1530       260.52     0          324.03     648        31.83     
1540       260.86     0          323.46     648        31.77     
1550       261.03     0          326.48     648        31.11     
1560       260.72     0          324.68     612        30.64     
1570       260.43     0          325.14     648        30.07     
1580       260.48     0          326.72     684        29.85     
1590       261.53     0          328.5      684        29.48     
1600       262.48     0          329.65     648        29        
1610       -9999      0          328.87     684        28.44     
1620       -9999      0          327.71     648        27.88     
1630       -9999      0          45.65      648        27.2      
1640       -9999      0          328.87     684        26.85     
1650       -9999      0          195.43     648        26.19     
1660       -9999      0          325.28     684        26.21     
1670       -9999      0          323.08     684        25.95     
1680       -9999      0          325.07     648        25.13     
1690       -9999      0          319.34     684        24.71     
1700       -9999      0          327.34     648        23.94     
1710       -9999      0          325.42     648        23.46     
1720       -9999      0          328.69     684        22.9      
1730       -9999      0          325.14     684        22.27     
1740       -9999      0          319.1      684        21.29     
1750       -9999      0          65.66      648        20.93     
1760       -9999      0          323.68     648        20.64     
1770       -9999      0          319.1      684        20.41     
1780       -9999      0          329.67     648        20.19     
1790       -9999      0          310.9      684        19.81     
1800       -9999      0          325.45     648        19.83     
1810       -9999      0          322.06     648        19.5      
1820       -9999      0          322.79     648        19.56     
1830       -9999      0          325.34     684        19.52     
1840       -9999      0          324.08     648        19.31     
1850       -9999      0          324.66     648        18.96     
1860       -9999      0          327.44     648        18.73     
1870       -9999      0          327.09     648        18.5      
1880       -9999      0          326.35     648        18.24     
1890       -9999      0          327.5      648        17.97     
1900       -9999      0          319.13     648        17.82     
1910       -9999      0          8.21       648        17.84     
1920       -9999      0          12.99      648        17.61     
1930       -9999      0          15.49      648        17.81     
1940       -9999      0          25.02      648        17.91     
1950       -9999      0          28.68      648        17.79     
1960       -9999      0          37.3       648        17.46     
1970       -9999      0          32.88      648        17.13     
1980       -9999      0          32.73      648        16.72     
1990       -9999      0          34.52      648        16.72     
2000       -9999      0          47.31      612        16.72     
2010       -9999      0          46.64      612        16.69     
2020       -9999      0          44.39      648        16.65     
2030       -9999      0          53.69      612        16.53     
2040       -9999      0          48.09      648        16.32     
2050       -9999      0          56.15      648        16.35     
2060       -9999      0          46.83      648        16.19     
2070       -9999      0          53.21      576        15.77     
2080       -9999      0          68.88      576        15.24     
2090       -9999      0          31.92      612        14.91     
2100       -9999      0          50.31      612        14.55     
2110       -9999      0          141.41     396        14.29     
2120       -9999      0          259.11     396        14.27     
