~Version
 VERS              .         2.0                           : CWLS LOG ASCII STANDARD - VERSION 2.0
 WRAP              .         NO                            : ONE LINE PER DEPTH STEP
 DLM               .         SPACE                         : DELIMITING CHARACTER(SPACE TAB OR COMMA)
~Well Information
#_______________________________________________________________________________
#
#PARAMETER_NAME    .UNIT     VALUE                         : DESCRIPTION
#_______________________________________________________________________________
STRT               .M        10.2                          : First reference value
STOP               .M        2774.8                        : Last reference value
STEP               .M        0.2                           : Step increment
NULL               .         -9999                         : Missing value
COMP               .                                       : Company
WELL               .         616                           : Well name
FLD                .                                       : Field
LOC                .                                       : Location
CNTY               .                                       : County
STAT               .                                       : State
CTRY               .                                       : Country
SRVC               .                                       : Service Company
DATE               .                                       : Date
API                .                                       : API number
PROJECT_UPGRADE_TIME .         2021-03-18T21_24_50           : 
group              .         Good                          : 
~Parameter Information Block
#_______________________________________________________________________________
#
#PARAMETER_NAME    .UNIT     VALUE                         : DESCRIPTION
#_______________________________________________________________________________
SET                .         D1813_D_2                     : 
NPR                .                                       : 
OTHER              .         Программное обеспечение станции MONITOR-386EX 25/12/99 15_08_10   BGF V52 22/08/01 16_56_30   3.1_SNGF___BGF_N_092049: 
OTHER_10           .         Тарировки_                    : 
OTHER_11           .         TM.GRD = 0.00403*TM$.UE + -1.07: 
OTHER_12           .         MN.ATM = (9.34907e-006*TM.GRD + 0.02171)*(MN$.UE + -7.93*TM.GRD + -1787): 
OTHER_13           .         GK.MKR/H = LM. / 42.4676      : 
OTHER_14           .         GK.FLT = 0.1*GK.MKR/H[-1] + (1-0.1)*GK.MKR/H[0]: 
OTHER_2            .         Kedr.exe версия 3.4.2.51      : 
OTHER_3            .         KedrData.dll версия 3.4.2.24  : 
OTHER_4            .         Драйвер версия 2.1.1.3        : 
OTHER_5            .         Мнемоники версия 3.3 S        : 
OTHER_6            .         Прибор_ КСА-Т4                : 
OTHER_7            .         Номер прибора_ 03             : 
OTHER_8            .         Режим_ КСА-Т4                 : 
OTHER_9            .         Форма_ КВА.                   : 
PR                 .                                       : 
PROJECT_UPGRADE_TIME .         2021-03-18T21_24_49           : 
PRTY               .         ПП-603-1                      : N партии
SRV                .                                       : 
SRVC               .         Карпов                        : Начальник партии
TLFamily_DEPT      .         Measured Depth                : 
TLFamily_LM        .         Casing Collar locator         : 
TLFamily_MN        .                                       : 
TLFamily_TM        .         Temperature                   : 
group              .         second                        : 
~Curve Information
#_______________________________________________________________________________
#
#LOGNAME           .UNIT     LOG_ID                        : DESCRIPTION
#_______________________________________________________________________________
DEPT               .M                                      : Depth curve 
LM                 .е.ацп                                  : Локатор муфт,е.ацп 
MN                 .атм                                    : Манометрия, атм 
TM                 .град.C                                 : Термограмма по стволу скважины,град.C 
~Ascii
# ...
1648.2     1081       146.374    47.93     
1648.4     1080.989   146.374    47.935    
1648.6     990        146.404    47.939    
1648.8     987.007    146.429    47.939    
1649       1045.017   146.446    47.942    
1649.2     1189.025   146.463    47.946    
1649.4     1394       146.48     47.949    
1649.6     1394.023   146.497    47.952    
1649.8     1586.052   146.515    47.956    
1650       2015.075   146.532    47.962    
1650.2     2635.019   146.549    47.966    
1650.4     2790       146.567    47.969    
1650.6     2790.132   146.585    47.971    
1650.8     3881.238   146.603    47.972    
1651       5841.772   146.622    47.979    
1651.2     3964.786   146.64     47.983    
1651.4     2198       146.656    47.986    
1651.6     2198.002   146.673    47.989    
1651.8     2211.057   146.677    47.992    
1652       2683.874   146.697    47.995    
1652.2     1644.954   146.726    47.999    
1652.4     1267       146.743    48.004    
1652.6     1266.971   146.76     48.009    
1652.8     1031.998   146.778    48.012    
1653       1017.026   146.796    48.016    
1653.2     1226.987   146.813    48.019    
1653.4     1124       146.83     48.022    
1653.6     1124       146.848    48.025    
1653.8     1121.031   146.865    48.029    
1654       1373.04    146.882    48.032    
1654.2     1703.011   146.9      48.035    
1654.4     1796       146.917    48.041    
1654.6     1795.956   146.934    48.045    
1654.8     1433.016   146.967    48.049    
1655       1563.005   146.991    48.052    
1655.2     1603.014   147.003    48.055    
1655.4     1716       147.004    48.058    
1655.6     1716.021   147.022    48.062    
1655.8     1888.969   147.039    48.065    
1656       1633.999   147.056    48.068    
1656.2     1622.014   147.08     48.075    
1656.4     1736       147.114    48.076    
1656.6     1736       147.13     48.08     
1656.8     1739.054   147.147    48.085    
1657       2181.978   147.164    48.088    
1657.2     2004.002   147.181    48.091    
1657.4     2024       147.199    48.095    
1657.6     2024.106   147.218    48.098    
1657.8     2896.867   147.219    48.101    
1658       1803.997   147.23     48.105    
1658.2     1776.03    147.254    48.108    
1658.4     2023       147.284    48.111    
1658.6     2022.949   147.284    48.114    
1658.8     1605.004   147.317    48.117    
1659       1635.994   147.328    48.119    
1659.2     1583.004   147.341    48.113    
1659.4     1614.982   147.373    48.126    
1659.6     1466       147.392    48.134    
1659.8     1465.993   147.408    48.138    
1660       1406.981   147.426    48.141    
1660.2     1255.003   147.443    48.144    
1660.4     1278.986   147.459    48.147    
1660.6     1162       147.478    48.15     
1660.8     1162.015   147.498    48.156    
1661       1281.005   147.516    48.162    
1661.2     1326.054   147.533    48.165    
1661.4     1770.075   147.557    48.168    
1661.6     2381       147.588    48.171    
1661.8     2381.115   147.587    48.174    
1662       3321.218   147.603    48.178    
1662.2     5101.592   147.62     48.181    
1662.4     1760.966   147.637    48.184    
1662.6     1486       147.655    48.188    
1662.8     1485.983   147.673    48.191    
1663       1347.012   147.69     48.194    
1663.2     1447.008   147.707    48.198    
1663.4     1509.996   147.724    48.204    
1663.6     1478.026   147.741    48.208    
1663.8     1689       147.759    48.211    
1664       1689.014   147.776    48.214    
1664.2     1807.059   147.793    48.217    
1664.4     2290.136   147.804    48.221    
1664.6     3401       147.81     48.224    
1664.8     3401.036   147.844    48.229    
1665       3697.776   147.863    48.234    
1665.2     1863.914   147.881    48.238    
1665.4     1162.022   147.898    48.241    
1665.6     1340       147.915    48.244    
1665.8     1340.017   147.933    48.247    
1666       1477.997   147.949    48.25     
1666.2     1456.968   147.967    48.254    
1666.4     1198.001   147.985    48.257    
1666.6     1209       148.002    48.264    
1666.8     1209.003   148.019    48.268    
1667       1232.977   148.037    48.269    
1667.2     1049.007   148.042    48.271    
1667.4     1109.999   148.027    48.277    
1667.6     1104       148.015    48.277    
1667.8     1104.007   148.107    48.282    
1668       1165.008   148.107    48.287    
1668.2     1229.986   148.131    48.29     
1668.4     1111.995   148.158    48.293    
1668.6     1073       148.176    48.297    
1668.8     1073.018   148.194    48.3      
1669       1221.003   148.211    48.303    
1669.2     1244.01    148.228    48.306    
1669.4     1323.013   148.245    48.309    
1669.6     1432.014   148.263    48.316    
1669.8     1543       148.281    48.32     
1670       1542.971   148.297    48.323    
1670.2     1309.013   148.314    48.327    
1670.4     1413.976   148.339    48.333    
1670.6     1219.994   148.367    48.334    
1670.8     1172       148.369    48.336    
1671       1171.985   148.386    48.342    
1671.2     1052.026   148.403    48.347    
1671.4     1262.996   148.42     48.35     
1671.6     1230.019   148.438    48.353    
1671.8     1383       148.456    48.357    
1672       1383.03    148.473    48.36     
1672.2     1629.037   148.507    48.363    
1672.4     1930.071   148.529    48.367    
1672.6     2509.099   148.54     48.373    
1672.8     3315       148.544    48.374    
1673       3315.144   148.582    48.378    
1673.2     4487.208   148.583    48.383    
1673.4     6174.641   148.605    48.386    
1673.6     3256.786   148.634    48.39     
1673.8     1519.93    148.65     48.393    
1674       954        148.669    48.396    
1674.2     953.995    148.686    48.401    
1674.4     915.99     148.703    48.406    
1674.6     835.007    148.72     48.406    
1674.8     891        148.738    48.412    
1675       891.001    148.754    48.416    
1675.2     898        148.772    48.42     
1675.4     898.004    148.791    48.422    
1675.6     928.994    148.808    48.422    
1675.8     882.009    148.824    48.428    
1676       957        148.842    48.433    
1676.2     956.993    148.859    48.436    
1676.4     899.986    148.877    48.439    
1676.6     785.006    148.895    48.442    
1676.8     836.011    148.912    48.446    
1677       928        148.93     48.451    
1677.2     928.011    148.947    48.455    
1677.4     1018.986   148.965    48.455    
1677.6     901.985    148.982    48.459    
1677.8     783.018    148.999    48.462    
1678       930        149.017    48.465    
1678.2     930.009    149.052    48.468    
1678.4     1002.022   149.061    48.472    
1678.6     1183.006   149.079    48.479    
1678.8     1234.022   149.104    48.482    
1679       1412       149.107    48.486    
1679.2     1411.966   149.14     48.487    
1679.4     1140.008   149.161    48.488    
1679.6     1204.007   149.179    48.491    
1679.8     1262.051   149.197    48.498    
1680       1676       149.215    48.502    
1680.2     1676.028   149.231    48.505    
1680.4     1901.975   149.249    48.509    
1680.6     1701.993   149.266    48.516    
1680.8     1647.016   149.283    48.519    
1681       1780       149.303    48.522    
1681.2     1779.99    149.321    48.526    
1681.4     1697.012   149.337    48.529    
1681.6     1798.015   149.354    48.533    
1681.8     1919.013   149.364    48.539    
1682       2027.912   149.369    48.542    
1682.2     1320       149.407    48.546    
1682.4     1320.019   149.425    48.549    
1682.6     1474.996   149.442    48.552    
1682.8     1442.006   149.426    48.555    
1683       1493.001   149.407    48.555    
1683.2     1504       149.495    48.56     
1683.4     1503.996   149.511    48.565    
1683.6     1474.087   149.529    48.568    
1683.8     2180.117   149.546    48.572    
1684       3129.198   149.563    48.575    
1684.2     4729       149.581    48.578    
1684.4     4729.33    149.599    48.581    
