~Version
 VERS              .         2.0                           : CWLS LOG ASCII STANDARD - VERSION 2.0
 WRAP              .         NO                            : ONE LINE PER DEPTH STEP
 DLM               .         SPACE                         : DELIMITING CHARACTER(SPACE TAB OR COMMA)
~Well Information
#_______________________________________________________________________________
#
#PARAMETER_NAME    .UNIT     VALUE                         : DESCRIPTION
#_______________________________________________________________________________
STRT               .M        1149                          : First reference value
STOP               .M        2127.4                        : Last reference value
STEP               .M        0.2                           : Step increment
NULL               .         -9999                         : Missing value
COMP               .                                       : Company
WELL               .         616                           : Well name
FLD                .                                       : Field
LOC                .                                       : Location
CNTY               .                                       : County
STAT               .                                       : State
CTRY               .                                       : Country
SRVC               .                                       : Service Company
DATE               .                                       : Date
API                .                                       : API number
PROJECT_UPGRADE_TIME .         2021-03-18T21_24_50           : 
group              .         Good                          : 
~Parameter Information Block
#_______________________________________________________________________________
#
#PARAMETER_NAME    .UNIT     VALUE                         : DESCRIPTION
#_______________________________________________________________________________
SET                .         616_9                         : 
CONF               .         00                            : 
END                .         0                             : 
ERR                .         0                             : 
GS00               .M        2125.46                       : 
GS01               .M        1146.68                       : 
MM00               .M        2120.00                       : 
NOKG               .         0                             : 
NPR                .         990907                        : 
PART               .         Ивашин                        : 
PROJECT_UPGRADE_TIME .         2021-03-18T21_24_49           : 
PRZK               .         Шакиров                       : 
TLFamily_AZIMUTH   .         True Dip Azimuth              : 
TLFamily_DEPTH     .         Measured Depth                : 
TLFamily_METKA     .                                       : 
TLFamily_ROLL      .                                       : 
TLFamily_SPEED     .         Spontaneous Potential         : 
TLFamily_ZENIT     .                                       : 
VPRG               .         310                           : 
WAY                .         UP                            : 
group              .         prim                          : 
~Curve Information
#_______________________________________________________________________________
#
#LOGNAME           .UNIT     LOG_ID                        : DESCRIPTION
#_______________________________________________________________________________
DEPTH              .M                                      :  
AZIMUTH            .DEG                                    :  
METKA              .                                       :  
ROLL               .DEG                                    :  
SPEED              .M/H                                    :  
ZENIT              .DEG                                    :  
~Ascii
# ...
2027.4     263.52     0          42.98      648        16.52     
2027.6     263.8      0          41.8       612        16.47     
2027.8     262.62     0          41.15      612        16.46     
2028       261.83     0          41.6       648        16.49     
2028.2     262.18     0          42.59      648        16.54     
2028.4     262.54     0          43.91      612        16.57     
2028.6     260.74     0          44.43      648        16.63     
2028.8     260.3      0          44.88      612        16.62     
2029       258.71     0          45.53      648        16.41     
2029.2     260.28     0          49.81      612        16.55     
2029.4     259.59     0          54.23      648        16.54     
2029.6     259.33     0          54.86      612        16.64     
2029.8     258.88     0          54.32      648        16.57     
2030       258.75     0          53.69      612        16.58     
2030.2     259.02     0          53.42      648        16.63     
2030.4     258.9      0          53.42      648        16.56     
2030.6     258.53     0          52.97      648        16.53     
2030.8     258.4      0          52.5       612        16.56     
2031       257.71     0          52.68      612        16.45     
2031.2     258.79     0          52.98      648        16.58     
2031.4     257.49     0          52.97      612        16.42     
2031.6     258.23     0          53.36      648        16.51     
2031.8     258.36     0          52.59      612        16.51     
2032       258.13     0          51.03      648        16.46     
2032.2     258.82     1          49.89      612        16.52     
2032.4     257.29     0          48.85      648        16.51     
2032.6     257.98     0          49.35      612        16.56     
2032.8     257.16     0          49.72      648        16.43     
2033       257.86     0          50.2       648        16.51     
2033.2     257.57     0          50.85      612        16.55     
2033.4     257.77     0          51.78      648        16.53     
2033.6     258.39     0          51.49      648        16.57     
2033.8     258.66     0          50.85      612        16.55     
2034       258.06     0          50.82      648        16.48     
2034.2     257.78     0          50.81      612        16.51     
2034.4     258.94     0          50         648        16.67     
2034.6     258.54     0          47.31      648        16.62     
2034.8     256.91     0          45.57      612        16.46     
2035       257.86     0          45.58      648        16.42     
2035.2     258.59     0          46.73      612        16.43     
2035.4     257.65     0          47.61      648        16.35     
2035.6     257.62     0          50.91      612        16.23     
2035.8     260.44     0          56.59      648        16.34     
2036       262.24     0          60.57      612        16.35     
2036.2     278.41     0          65.47      648        16.44     
2036.4     216.79     0          70.63      612        16.38     
2036.6     142.64     0          73.81      648        16.54     
2036.8     221.06     0          75.42      612        16.58     
2037       323.85     0          75.76      648        16.47     
2037.2     278.98     0          74.55      648        16.51     
2037.4     262.95     0          73.71      648        16.39     
2037.6     259.97     0          75.14      612        16.44     
2037.8     258.68     0          76.51      648        16.41     
2038       257.43     0          76.78      612        16.34     
2038.2     259.88     0          75.88      648        16.42     
2038.4     259.16     0          70.09      648        16.34     
2038.6     255.8      0          60.81      612        16.23     
2038.8     257.99     0          56.31      648        16.33     
2039       257.86     0          54.32      612        16.27     
2039.2     257.4      0          53.02      648        16.28     
2039.4     257.24     0          52.54      612        16.21     
2039.6     257.59     0          51.33      648        16.17     
2039.8     257.26     0          49.54      612        16.18     
2040       257.77     0          48.09      648        16.2      
2040.2     256.65     0          47.02      612        16.23     
2040.4     256.5      0          47.14      648        16.09     
2040.6     255.97     0          47.37      612        16.17     
2040.8     256.4      0          48.02      648        16.37     
2041       255.68     0          49.49      612        16.24     
2041.2     256.19     0          51.86      648        16.39     
2041.4     255.9      0          53.56      648        16.33     
2041.6     256.75     0          55.02      648        16.37     
2041.8     256.22     0          55.97      612        16.41     
2042       255.99     1          56.68      648        16.33     
2042.2     256.72     0          57.57      612        16.45     
2042.4     256.44     0          57.37      648        16.37     
2042.6     256.33     0          57.12      612        16.42     
2042.8     256.43     0          57.56      648        16.36     
2043       256.92     0          58.34      648        16.43     
2043.2     256.02     0          58.16      648        16.4      
2043.4     256.6      0          56.79      612        16.36     
2043.6     257.12     0          57.27      612        16.46     
2043.8     256.67     0          56.71      648        16.38     
2044       256.72     0          55.41      648        16.42     
2044.2     256.94     0          54.05      612        16.47     
2044.4     256.43     0          53.26      648        16.39     
2044.6     256.65     0          53.73      612        16.38     
2044.8     255.86     0          54.2       648        16.28     
2045       256.42     0          54.89      648        16.32     
2045.2     256.88     0          55.14      648        16.32     
2045.4     256.9      0          55.07      612        16.37     
2045.6     256.73     0          55.12      648        16.37     
2045.8     256.9      0          54.75      648        16.39     
2046       256.65     0          54.03      612        16.37     
2046.2     257.01     0          53.24      648        16.44     
2046.4     257.09     0          52.18      612        16.41     
2046.6     256.08     0          50.43      612        16.38     
2046.8     257.17     0          49.43      648        16.51     
2047       256.7      0          48.12      612        16.48     
2047.2     256.63     0          46.46      648        16.43     
2047.4     256.9      0          47.04      648        16.38     
2047.6     258.72     0          48.1       648        16.39     
2047.8     258.94     0          46.88      612        16.47     
2048       259.98     0          45.61      612        16.36     
2048.2     268.71     0          46.21      648        16.37     
2048.4     299.39     0          48         648        16.37     
2048.6     270.92     0          50.48      612        16.35     
2048.8     180.51     0          53.26      648        16.45     
2049       295.04     0          55.62      612        16.46     
2049.2     279.38     0          56.79      648        16.48     
2049.4     261.47     0          57.04      648        16.48     
2049.6     258.95     0          56.62      648        16.58     
2049.8     257.43     0          56.15      612        16.52     
2050       257.21     0          56.15      648        16.47     
2050.2     257.24     0          56.03      648        16.45     
2050.4     256.68     0          55.01      612        16.41     
2050.6     256.13     0          53.46      648        16.36     
2050.8     256.24     0          51.52      612        16.36     
2051       255.87     0          49.93      648        16.29     
2051.2     256.43     0          49.75      648        16.31     
2051.4     256.33     0          50         612        16.23     
2051.6     256.55     0          50.18      648        16.18     
