~Version
 VERS              .         2.0                           : CWLS LOG ASCII STANDARD - VERSION 2.0
 WRAP              .         NO                            : ONE LINE PER DEPTH STEP
 DLM               .         SPACE                         : DELIMITING CHARACTER(SPACE TAB OR COMMA)
~Well Information
#_______________________________________________________________________________
#
#PARAMETER_NAME    .UNIT     VALUE                         : DESCRIPTION
#_______________________________________________________________________________
STRT               .M        2668.2                        : First reference value
STOP               .M        2774.800107                   : Last reference value
STEP               .M        0.2000002                     : Step increment
NULL               .         -9999                         : Missing value
COMP               .                                       : Company
WELL               .         616                           : Well name
FLD                .                                       : Field
LOC                .                                       : Location
CNTY               .                                       : County
STAT               .                                       : State
CTRY               .                                       : Country
SRVC               .                                       : Service Company
DATE               .                                       : Date
API                .                                       : API number
PROJECT_UPGRADE_TIME .         2021-03-18T21_24_50           : 
group              .         Good                          : 
~Parameter Information Block
#_______________________________________________________________________________
#
#PARAMETER_NAME    .UNIT     VALUE                         : DESCRIPTION
#_______________________________________________________________________________
SET                .         D1805_D_2                     : 
NPR                .                                       : 
OTHER              .         Программное обеспечение станции MONITOR-386EX 25/12/99 15_08_10   BGF V52 22/08/01 16_56_30   3.1_SNGF___BGF_N_092049: 
OTHER_10           .         Тарировки_                    : 
OTHER_11           .         TM.GRD = 0.00403*TM$.UE + -1.07: 
OTHER_12           .         MN.ATM = (9.34907e-006*TM.GRD + 0.02171)*(MN$.UE + -7.93*TM.GRD + -1787): 
OTHER_13           .         GK.MKR/H = LM. / 42.4676      : 
OTHER_14           .         GK.FLT = 0.1*GK.MKR/H[-1] + (1-0.1)*GK.MKR/H[0]: 
OTHER_2            .         Kedr.exe версия 3.4.2.51      : 
OTHER_3            .         KedrData.dll версия 3.4.2.24  : 
OTHER_4            .         Драйвер версия 2.1.1.3        : 
OTHER_5            .         Мнемоники версия 3.3 S        : 
OTHER_6            .         Прибор_ КСА-Т4                : 
OTHER_7            .         Номер прибора_ 03             : 
OTHER_8            .         Режим_ КСА-Т4                 : 
OTHER_9            .         Форма_ КВА.                   : 
PR                 .                                       : 
PROJECT_UPGRADE_TIME .         2021-03-18T21_24_49           : 
PRTY               .         ПП-603-1                      : N партии
SRV                .                                       : 
SRVC               .         Карпов                        : Начальник партии
TLFamily_DEPT      .         Measured Depth                : 
TLFamily_LM        .         Casing Collar locator         : 
TLFamily_MN        .                                       : 
TLFamily_TM        .         Temperature                   : 
group              .         second                        : 
~Curve Information
#_______________________________________________________________________________
#
#LOGNAME           .UNIT     LOG_ID                        : DESCRIPTION
#_______________________________________________________________________________
DEPT               .M                                      : Depth curve 
LM                 .е.ацп                                  : Локатор муфт,е.ацп 
MN                 .атм                                    : Манометрия, атм 
TM                 .град.C                                 : Термограмма по стволу скважины,град.C 
~Ascii
# ...
2739.800072 221.007    332.518    51.212    
2740.000072 257.991    334.658    51.022    
2740.200072 219.009    333.484    50.75     
2740.400072 242.994    333.893    50.248    
2740.600072 276.992    334.43     49.874    
2740.800073 246.007    333.979    49.699    
2741.000073 213.008    334.013    49.635    
2741.200073 285.983    333.94     49.619    
2741.400073 273.003    334.264    49.666    
2741.600073 274        333.367    49.728    
2741.800074 226.011    334.172    49.787    
2742.000074 240.996    334.782    49.793    
2742.200074 239        334.315    49.801    
2742.400074 241.999    334.573    49.805    
2742.600074 231.003    333.114    49.817    
2742.800075 218.003    334.313    49.829    
2743.000075 248.993    335.116    49.809    
2743.200075 264.996    334.884    49.756    
2743.400075 245.005    334.791    49.698    
2743.600075 225.005    332.69     49.652    
2743.800076 240.996    334.466    49.585    
2744.000076 250.998    334.437    49.486    
2744.200076 262.997    335.077    49.355    
2744.400076 223.01     334.655    49.189    
2744.600076 285.985    333.406    49.066    
2744.800077 241.011    335.554    48.983    
2745.000077 257.996    334.088    48.924    
2745.200077 234.006    334.677    48.878    
2745.400077 257.994    335.397    48.82     
2745.600077 242.004    334.285    48.771    
2745.800078 228.003    336.232    48.734    
2746.000078 245.996    333.855    48.717    
2746.200078 232.003    334.403    48.733    
2746.400078 243.997    335.249    48.782    
2746.600078 3447.236   335.354    48.848    
2746.800079 2175.303   334.862    48.915    
2747.000079 604.374    333.679    48.963    
2747.200079 262.081    335.26     49.001    
2747.400079 253.002    335.046    49.048    
2747.600079 256.999    335.444    49.116    
2747.80008 267.997    334.733    49.204    
2748.00008 222.011    334.111    49.289    
2748.20008 229.998    336.702    49.379    
2748.40008 202.007    334.565    49.455    
2748.60008 155.011    335.284    49.498    
2748.800081 178.994    335.742    49.564    
2749.000081 157.005    334.659    49.635    
2749.200081 221.985    335.684    49.705    
2749.400081 166.013    334.299    49.802    
2749.600081 181.996    335.081    49.897    
2749.800082 183        335.9      50        
2750.000082 172.003    335.262    50.115    
2750.200082 227.987    334.884    50.204    
2750.400082 210.004    335.796    50.309    
2750.600082 232.995    335.369    50.407    
2750.800083 211.005    333.593    50.522    
2751.000083 196.004    335.334    50.649    
2751.200083 210.996    335.486    50.806    
2751.400083 203.002    335.954    50.961    
2751.600083 204        335.537    51.112    
2751.800084 245.99     333.312    51.254    
2752.000084 206.01     336.43     51.368    
2752.200084 202.001    334.687    51.49     
2752.400084 198.001    335.243    51.639    
2752.600084 200.999    336.197    51.796    
2752.800085 214.997    335.64     51.967    
2753.000085 193.005    336.83     52.109    
2753.200085 219.994    334.392    52.268    
2753.400085 206.003    334.964    52.404    
2753.600085 214.998    335.995    52.601    
2753.800086 183.008    336.011    52.771    
2754.000086 178.001    335.846    52.955    
2754.200086 188.997    333.962    53.085    
2754.400086 183.001    336.398    53.195    
2754.600086 179.001    335.297    53.449    
2754.800087 165.003    336.032    53.697    
2755.000087 159.001    335.531    53.895    
2755.200087 149.002    334.843    54.077    
2755.400087 196.989    337.214    54.269    
2755.600087 175.005    334.955    54.5      
2755.800088 229.987    335.988    54.693    
2756.000088 203.006    336.251    54.896    
2756.200088 173.007    335.266    55.068    
2756.400088 151.005    336.023    55.257    
2756.600088 189.991    335.041    55.489    
2756.800089 201.997    335.633    55.657    
2757.000089 265.985    336.478    55.873    
2757.200089 265        335.628    56.098    
2757.400089 217.011    335.614    56.364    
2757.600089 224.998    334.538    56.544    
2757.80009 6122.599   335.918    56.735    
2758.00009 2872.772   335.538    56.953    
2758.20009 751.504    336.371    57.105    
2758.40009 282.111    335.894    57.29     
2758.60009 206.018    335.291    57.482    
2758.800091 192.003    335.842    57.756    
2759.000091 192        335.22     58.062    
2759.200091 180.003    336.035    58.228    
2759.400091 180        336.334    58.457    
2759.600091 191.997    335.857    58.677    
2759.800092 185.002    336.217    58.866    
2760.000092 176.002    334.923    59.081    
2760.200092 160.004    335.373    59.234    
2760.400092 181.995    335.104    59.563    
2760.600092 169.003    336.208    59.739    
2760.800093 199.993    337.134    59.879    
2761.000093 182.004    336.117    60.002    
2761.200093 185.999    335.976    60.155    
2761.400093 176.002    335.454    60.311    
2761.600093 173.001    336.418    60.4      
2761.800094 180.998    336.576    60.519    
2762.000094 170.003    336.22     60.662    
2762.200094 199.993    336.179    60.785    
2762.400094 219.995    335.48     60.891    
2762.600094 172.011    336.297    60.984    
2762.800095 229.986    335.796    61.056    
2763.000095 213.004    336.452    61.161    
2763.200095 196.004    336.942    61.277    
2763.400095 205.998    335.134    61.372    
2763.600095 170.009    336.152    61.468    
2763.800096 200.993    335.429    61.57     
2764.000096 210.998    336.625    61.622    
2764.200096 245.992    337.19     61.697    
2764.400096 241.001    336.217    61.778    
2764.600096 209.008    336.254    61.871    
2764.800097 212.999    335.52     61.945    
2765.000097 229.996    336.483    61.983    
2765.200097 234.999    336.589    62.087    
2765.400097 214.005    336.991    62.174    
2765.600097 223.998    336.495    62.259    
2765.800098 227.999    335.29     62.33     
2766.000098 212.004    336.146    62.352    
2766.200098 260.988    336.239    62.397    
2766.400098 217.01     336.988    62.412    
2766.600098 220.999    337.154    62.455    
2766.800099 217.001    335.855    62.513    
2767.000099 214.001    336.91     62.544    
2767.200099 234.995    335.534    62.573    
2767.400099 191.01     336.848    62.602    
2767.600099 207.996    337.669    62.656    
2767.8001  212.999    336.476    62.682    
2768.0001  227.996    336.514    62.711    
2768.2001  218.002    335.684    62.763    
2768.4001  200.004    336.884    62.826    
2768.6001  219.995    336.692    62.92     
2768.800101 2818.385   337.329    62.975    
2769.000101 1555.299   336.962    63.063    
2769.200101 440.264    335.543    63.168    
2769.400101 259.043    336.603    63.253    
2769.600101 247.003    336.266    63.333    
2769.800102 212.008    337.293    63.423    
2770.000102 241.993    337.51     63.499    
2770.200102 237.001    336.754    63.571    
2770.400102 209.007    337.471    63.724    
2770.600102 227.996    337.352    63.825    
2770.800103 244.996    337.392    63.905    
2771.000103 232.003    335.966    64.019    
2771.200103 218.003    337.084    64.11     
2771.400103 252.992    337.896    64.221    
2771.600103 253        336.959    64.309    
2771.800104 264.997    337.056    64.383    
2772.000104 309.989    335.998    64.494    
2772.200104 306.001    337.18     64.6      
2772.400104 153.036    337.528    64.718    
2772.600104 179.994    337.327    64.8      
2772.800105 179        337.317    64.892    
2773.000105 166.003    337.554    64.962    
2773.200105 -9999      337.765    65.047    
2773.400105 -9999      337.098    65.135    
2773.600105 -9999      337.66     65.178    
2773.800106 -9999      338.126    65.615    
2774.000106 -9999      336.705    65.965    
2774.200106 -9999      337.49     66.118    
2774.400106 -9999      336.347    66.175    
2774.600106 -9999      -9999      66.198    
2774.800107 -9999      -9999      -9999     
