~Version
 VERS              .         2.0                           : CWLS LOG ASCII STANDARD - VERSION 2.0
 WRAP              .         NO                            : ONE LINE PER DEPTH STEP
 DLM               .         SPACE                         : DELIMITING CHARACTER(SPACE TAB OR COMMA)
~Well Information
#_______________________________________________________________________________
#
#PARAMETER_NAME    .UNIT     VALUE                         : DESCRIPTION
#_______________________________________________________________________________
STRT               .M        2298.8                        : First reference value
STOP               .M        2799.8                        : Last reference value
STEP               .M        0.2                           : Step increment
NULL               .         -9999                         : Missing value
COMP               .                                       : Company
WELL               .         616                           : Well name
FLD                .                                       : Field
LOC                .                                       : Location
CNTY               .                                       : County
STAT               .                                       : State
CTRY               .                                       : Country
SRVC               .                                       : Service Company
DATE               .                                       : Date
API                .                                       : API number
PROJECT_UPGRADE_TIME .         2021-03-18T21_24_50           : 
group              .         Good                          : 
~Parameter Information Block
#_______________________________________________________________________________
#
#PARAMETER_NAME    .UNIT     VALUE                         : DESCRIPTION
#_______________________________________________________________________________
SET                .         D2659_D                       : 
OTHER              .         Программное обеспечение станции MONITOR-386EX 25/12/99 15_08_10   BGF V50 26/12/00 07_26_01   3.1_SNGF___BGF_N_092085: 
OTHER_10           .         Тарировки_                    : 
OTHER_11           .         <_techsia_sc_> Постоянная времени фильтра ПС  0.5 сек, kf=0.139292: 
OTHER_2            .         Kedr.exe версия 3.3.2.32      : 
OTHER_3            .         KedrData.dll версия 3.3.2.17  : 
OTHER_4            .         Драйвер версия 2.1.0.7        : 
OTHER_5            .         Мнемоники версия 3.3 S        : 
OTHER_6            .         Прибор_ К1a-723м              : 
OTHER_7            .         Номер прибора_ 348/72         : 
OTHER_8            .         Режим_ K1A-723M               : 
OTHER_9            .         Форма_ БКЗ                    : 
PROJECT_UPGRADE_TIME .         2021-03-18T21_24_49           : 
TLFamily_BK        .         Lateral Log Resistivity       : 
TLFamily_DEPT      .         Measured Depth                : 
TLFamily_GZ1       .         Extra Shallow Resistivity     : 
TLFamily_GZ2       .         Shallow Resistivity           : 
TLFamily_GZ3       .         Medium Resistivity            : 
TLFamily_GZ4       .         Deep Resistivity              : 
TLFamily_GZ5       .         Extra Deep Resistivity        : 
TLFamily_GZ6       .         Medium Resistivity Inverted   : 
TLFamily_IBK       .                                       : 
TLFamily_IK        .         Conductivity                  : 
TLFamily_IPR       .                                       : 
TLFamily_METKA     .                                       : 
TLFamily_PS        .         Spontaneous Potential         : 
TLFamily_PZ        .         Potential Resistivity         : 
TLFamily_RCOR      .                                       : 
TLFamily_RES       .         Mud Resistivity               : 
TLFamily_SPID      .         Spontaneous Potential         : 
TLFamily_TENS      .         Cable Tension                 : 
TLFamily_TIME      .         Time                          : 
TLFamily_UBK       .         Uranium Concentration         : 
group              .         prim                          : 
~Curve Information
#_______________________________________________________________________________
#
#LOGNAME           .UNIT     LOG_ID                        : DESCRIPTION
#_______________________________________________________________________________
DEPT               .M                                      : 1 Глубина, м -    0.0 см 
BK                 .OHMM                                   : 20 БК, Ом*м - 1768.0 см 
GZ1                .OHMM                                   : 12 A0.4M0.1N, Ом*м - 1295.0 см 
GZ2                .OHMM                                   : 11 A1.0M0.1N, Ом*м - 1355.0 см 
GZ3                .OHMM                                   : 9 A2.0M0.5N, Ом*м - 1475.0 см 
GZ4                .OHMM                                   : 8 A4.0M0.5N, Ом*м - 1025.0 см 
GZ5                .OHMM                                   : 7 A8.0M1.0N, Ом*м - 1450.0 см 
GZ6                .OHMM                                   : 10 N0.5M2.0A, Ом*м - 1025.0 см 
IBK                .A                                      : 18 Ток БК, А - 1768.0 см 
IK                 .MSM/M                                  : 14 ИК, мСм/м - 1961.0 см 
IPR                .MA                                     : 17 Ток прибора, мA -    0.0 см 
METKA              .                                       : 3 Метки,  -    0.0 см 
PS                 .mV                                     : 16 ПС, мВ - 1210.0 см 
PZ                 .OHMM                                   : 13 N11M0.5A, Ом*м - 1225.0 см 
RCOR               .CM/KM                                  : 5 Коррекция по ролику, см/км -    0.0 см 
RES                .OHMM                                   : 15 Резистивиметр, Ом*м -  600.0 см 
SPID               .M/H                                    : 2 Скорость, м/час -    0.0 см 
TENS               .T                                      : 6 Натяжение кабеля, т -    0.0 см 
TIME               .S                                      : 4 Время, сек -    0.0 см 
UBK                .V                                      : 19 Напр. БК, В - 1768.0 см 
~Ascii
# ...
2757.6     7.39       10.8       10.6       8.3        7.1        5.8        7.8        0.028      104.9      427.317    0          568.74     10.5       -287       2.757      -1790      0          28518.66   0.877     
2757.8     7.37       9.7        11.4       7.7        7          5.6        8.1        0.028      108.2      428        0          569.49     10.3       -287       2.757      -1789      0          28518.26   0.867     
2758       7.47       9.5        12.1       7.9        7.2        5.4        8.4        0.027      109.4      428        0          570.35     10.4       -287       2.757      -1789      0          28517.84   0.842     
2758.2     7.44       9.5        11.6       7.9        7.3        5.5        8.5        0.026      111.1      428        0          571.15     10.3       -287       2.757      -1788      0          28517.43   0.823     
2758.4     7.24       9.3        10.6       8          7.5        5.8        8.4        0.027      111.1      428        0          571.27     10.3       -287       2.757      -1787      0          28517.11   0.815     
2758.6     7.75       9.1        10.1       8.2        7.7        5.8        8.4        0.025      111.8      428        0          570.19     10.4       -287       2.758      -1784      0          28516.64   0.814     
2758.8     7.89       9.5        9.9        8.7        7.6        5.9        8.4        0.024      111.1      426.4      0          569.33     10.5       -287       2.759      -1779      0          28516.25   0.811     
2759       7.28       9.7        9.6        9.5        7.5        5.9        8.2        0.026      110.9      428        0          569.7      10.6       -287       2.759      -1771      0          28515.92   0.811     
2759.2     7.33       9.3        9.1        10.1       7.3        6          7.9        0.026      111.1      426.5      0          569.61     10.6       -287       2.758      -1756      0          28515.46   0.813     
2759.4     7.38       9.2        9.2        9.9        7.3        6.1        8.1        0.026      111.3      426.667    0          569.74     10.5       -287       2.763      -1776      0          28515.04   0.821     
2759.6     7.7        9.2        9.2        9.7        7.6        6.3        8.5        0.025      110.3      428        0          568.57     10.6       -287       2.758      -1789      0          28514.63   0.82      
2759.8     7.99       9.8        9.8        9.6        7.9        6.5        8.8        0.024      109.2      427.598    1          568.73     10.7       -287       2.76       -1788      0          28514.22   0.822     
2760       7.09       10.1       9.8        9.5        8          7.1        9.3        0.027      109.1      428        0          569.58     10.5       -283       2.758      -1786      0          28513.76   0.822     
2760.2     7.15       9.5        9.5        9.5        8.4        7.9        10.4       0.027      108.5      428        0          569.86     11         -283       2.76       -1784      0          28513.36   0.822     
2760.4     9.13       9.5        10.3       10.4       9.3        8.6        11.8       0.021      108.9      428        0          569.38     11.4       -283       2.761      -1778      0          28513      0.822     
2760.6     8.77       11.4       11.6       10.6       9.4        8.5        11         0.022      107        428        0          569.3      10.9       -283       2.76       -1778      0          28512.55   0.823     
2760.8     7.6        10.6       9.6        9.5        8.7        8.5        9.4        0.026      106.1      428        0          568.96     10.6       -283       2.758      -1817      0          28512.14   0.823     
2761       7.94       10.7       9.1        8.5        8.3        7.9        8.5        0.025      107.9      428        0          569.25     10.4       -283       2.757      -1805      0          28511.76   0.821     
2761.2     7.59       10.5       9.5        8.2        8.6        7.4        8.4        0.026      109.7      428        0          569.68     10.4       -283       2.758      -1790      0          28511.35   0.829     
2761.4     7.39       10         9.8        8.1        8.9        7.3        8.6        0.027      109.9      428        0          569.75     10.4       -283       2.759      -1789      0          28510.95   0.837     
2761.6     7.43       9.6        10.3       7.9        8.5        7.1        8.6        0.027      110.1      428        0          569.24     10.6       -283       2.758      -1789      0          28510.58   0.846     
2761.8     7.42       9.5        10.1       7.8        8.3        7.2        8.8        0.027      110        428        0          568.87     11         -283       2.757      -1788      0          28510.2    0.837     
2762       7.39       9.3        9.5        7.9        8          7.3        8.9        0.027      109.3      428        0          568.77     11.3       -283       2.758      -1787      0          28509.77   0.83      
2762.2     7.37       9.1        9.3        8          7.7        7.6        8.9        0.027      108.6      428        0          569.07     11.1       -283       2.757      -1784      0          28509.37   0.826     
2762.4     8.46       9.1        9.1        8.2        8.1        8          9.5        0.023      108.8      428        0          568.13     10.7       -283       2.76       -1779      0          28508.99   0.823     
2762.6     8.09       9.9        9.7        9.4        8.9        8.2        10.4       0.024      108        428        0          568.12     10.8       -283       2.759      -1770      0          28508.54   0.825     
2762.8     9.82       11.3       11.5       10.6       9.2        8.3        10.8       0.02       107.3      428        0          568.33     10.5       -283       2.76       -1757      0          28508.15   0.826     
2763       7.57       11.3       10.8       10.6       9          8.3        10.5       0.026      107        428        0          568.89     10.5       -283       2.76       -1778      0          28507.76   0.824     
2763.2     7.42       10.5       10.1       9.5        8.1        8.1        9.6        0.026      109.1      427.333    0          570.05     10.5       -283       2.758      -1790      0          28507.38   0.823     
2763.4     7.16       9.9        9.7        8.7        7.8        7.5        9.8        0.027      111.2      428        0          569.49     10.4       -283       2.758      -1790      0          28506.95   0.823     
2763.6     7.94       9.3        9.4        8.3        7.3        7.3        9.9        0.025      112.3      427.35     0          569.5      10.2       -283       2.759      -1790      0          28506.54   0.822     
2763.8     7.71       9.5        9.6        8.1        7.1        7.1        10.1       0.025      112.6      428        0          569.12     10.1       -283       2.761      -1790      0          28506.18   0.823     
2764       7.14       9.9        10         8.1        7.1        6.9        10.9       0.027      111.9      428        0          569.87     10.3       -283       2.765      -1790      0          28505.73   0.818     
2764.2     7.69       9.5        9.6        8          6.9        6.9        11.7       0.025      112.3      426        0          569.77     10.4       -283       2.758      -1790      0          28505.34   0.817     
2764.4     7.15       9.2        9.3        8.2        7          6.8        12.5       0.027      112.5      428        0          569.81     10.5       -283       2.758      -1790      0          28504.96   0.817     
2764.6     7.17       9.1        9.2        7.9        6.9        6.7        12.7       0.027      112.5      428        0          568.89     10.7       -283       2.758      -1791      0          28504.55   0.826     
2764.8     8.05       8.9        9.1        8          7.1        6.5        11.7       0.024      110.9      428        0          568.03     10.8       -283       2.759      -1791      0          28504.16   0.83      
