~Version
 VERS              .         2.0                           : CWLS LOG ASCII STANDARD - VERSION 2.0
 WRAP              .         NO                            : ONE LINE PER DEPTH STEP
 DLM               .         SPACE                         : DELIMITING CHARACTER(SPACE TAB OR COMMA)
~Well Information
#_______________________________________________________________________________
#
#PARAMETER_NAME    .UNIT     VALUE                         : DESCRIPTION
#_______________________________________________________________________________
STRT               .M        3.8                           : First reference value
STOP               .M        216                           : Last reference value
STEP               .M        0.2                           : Step increment
NULL               .         -9999                         : Missing value
COMP               .                                       : Company
WELL               .         616                           : Well name
FLD                .                                       : Field
LOC                .                                       : Location
CNTY               .                                       : County
STAT               .                                       : State
CTRY               .                                       : Country
SRVC               .                                       : Service Company
DATE               .                                       : Date
API                .                                       : API number
PROJECT_UPGRADE_TIME .         2021-03-18T21_24_50           : 
group              .         Good                          : 
~Parameter Information Block
#_______________________________________________________________________________
#
#PARAMETER_NAME    .UNIT     VALUE                         : DESCRIPTION
#_______________________________________________________________________________
SET                .         D1350_D                       : 
OTHER              .         Программное обеспечение станции MONITOR-386EX 25/12/99 15_08_10   BGF V52 22/08/01 16_56_30   3.1_SNGF__BGF_								111238: 
OTHER_10           .         Тарировки_                    : 
OTHER_11           .         <_techsia_sc_> Постоянная времени фильтра  0.5 сек, kf=0.181269: 
OTHER_12           .         TM.GRD = 0.00428968*TM$.UE + -0.3284: 
OTHER_13           .         GK.MKR/H = GK$.UE / 40.16     : 
OTHER_14           .         NKT. = NKT$.UE / 1            : 
OTHER_2            .         Kedr.exe версия 3.3.2.43      : 
OTHER_3            .         KedrData.dll версия 3.3.2.22  : 
OTHER_4            .         Драйвер версия 2.1.1.3        : 
OTHER_5            .         Мнемоники версия 3.3 S        : 
OTHER_6            .         Прибор_ РК4-38                : 
OTHER_7            .         Номер прибора_ 35с            : 
OTHER_8            .         Режим_ РК4-38                 : 
OTHER_9            .         Форма_ 3                      : 
PROJECT_UPGRADE_TIME .         2021-03-18T21_24_49           : 
TLFamily_DEPT      .         Measured Depth                : 
TLFamily_GK        .         Gamma Ray                     : 
TLFamily_GK$       .                                       : 
TLFamily_LM        .         Casing Collar locator         : 
TLFamily_METKA     .                                       : 
TLFamily_NKT       .         Neutron Far                   : 
TLFamily_NKT$      .         Neutron Far                   : 
TLFamily_RCOR      .                                       : 
TLFamily_SPID      .         Spontaneous Potential         : 
TLFamily_TENS      .         Cable Tension                 : 
TLFamily_TIME      .         Time                          : 
TLFamily_TM        .         Temperature                   : 
TLFamily_TM$       .         Temperature                   : 
group              .         prim                          : 
~Curve Information
#_______________________________________________________________________________
#
#LOGNAME           .UNIT     LOG_ID                        : DESCRIPTION
#_______________________________________________________________________________
DEPT               .M                                      : 1 Глубина, м -    0.0 см 
GK                 .MKR/H                                  : 12 Гамма-активность, мкр./ч -   23.0 см 
GK$                .UE                                     : 10 Гамма-активность, усл.ед. -   23.0 см 
LM                 .                                       : 8 Локатор муфт,  -  180.0 см 
METKA              .                                       : 3 Метки,  -    0.0 см 
NKT                .                                       : 13 НКТ, прив. -  160.0 см 
NKT$               .UE                                     : 9 НКТ, усл.ед. -  160.0 см 
RCOR               .CM/KM                                  : 5 Коррекция по ролику, см/км -    0.0 см 
SPID               .M/H                                    : 2 Скорость, м/час -    0.0 см 
TENS               .T                                      : 6 Натяжение кабеля, т -    0.0 см 
TIME               .S                                      : 4 Время, сек -    0.0 см 
TM                 .GRD                                    : 11 Температура, °C -  193.0 см 
TM$                .UE                                     : 7 Температура, усл.ед. -  193.0 см 
~Ascii
# ...
82.2       3.91       154        25         0          0          0          7013       -333       0          3243.96    8.235      1996      
82.4       4.17       154        27         0          0          0          7013       -337       0          3241.85    8.238      1997      
82.6       4.51       168        25         0          0          0          7013       -323       0          3239.64    8.234      1996      
82.8       4.79       189        25         0          0          0          7013       -326       0          3237.52    8.234      1996      
83         4.81       197        25         0          0          0          7013       -330       0          3235.31    8.234      1996      
83.2       4.67       188        24         0          0          0          7013       -330       0          3233.1     8.234      1996      
83.4       4.63       192        25         0          0          0          7013       -337       0          3230.97    8.234      1996      
83.6       4.16       165        25         0          0          0          7013       -340       0          3228.87    8.234      1996      
83.8       4.32       168        25         0          0          0          7013       -342       0          3226.7     8.234      1996      
84         4.4        174        25         0          0          0          7013       -328       0          3224.59    8.234      1996      
84.2       4.32       180        25         0          0          0          7013       -327       0          3222.53    8.238      1997      
84.4       4.2        165        25         0          0          0          7013       -338       0          3220.32    8.238      1997      
84.6       4.35       173        25         0          0          0          7013       -328       0          3218.1     8.234      1996      
84.8       4.43       178        25         0          0          0          7013       -332       0          3216.09    8.238      1997      
85         4.41       176        26         0          0          0          7013       -326       0          3213.87    8.242      1998      
85.2       4.49       176        37         0          0          0          7013       -331       0          3211.77    8.255      2001      
85.4       4.69       179        59         0          0          0          7013       -332       0          3209.55    8.26       2002      
85.6       4.75       194        25         0          0          0          7013       -336       0          3207.38    8.26       2002      
85.8       4.63       190        27         0          0          0          7013       -341       0          3205.12    8.26       2002      
86         4.51       178        49         0          0          0          7013       -332       0          3203.16    8.255      2001      
86.2       4.64       187        238        0          0          0          7013       -334       0          3200.99    8.251      2000      
86.4       4.59       187        205        0          0          0          7013       -336       0          3198.78    8.237      1997      
86.6       4.41       187        27         0          0          0          7013       -334       0          3196.59    8.228      1995      
86.8       4.33       174        30         0          0          0          7013       -338       0          3194.45    8.221      1993      
87         4.4        172        37         0          0          0          7013       -332       0          3192.34    8.214      1991      
87.2       4.48       181        35         0          0          0          7013       -329       0          3190.22    8.208      1990      
87.4       4.45       179        33         0          0          0          7013       -324       0          3188.06    8.199      1988      
87.6       4.44       178        29         0          0          0          7013       -343       0          3185.89    8.19       1986      
87.8       4.45       182        28         0          0          0          7013       -336       0          3183.69    8.182      1984      
88         4.19       168        32         0          0          0          7013       -335       0          3181.57    8.182      1984      
88.2       4.2        168        33         0          0          0          7013       -336       0          3179.43    8.178      1983      
88.4       4.31       167        66         0          0          0          7013       -332       0          3177.2     8.178      1983      
88.6       4.4        179        40         0          0          0          7013       -337       0          3175.18    8.178      1983      
88.8       4.28       176        45         0          0          0          7013       -346       0          3172.97    8.212      1991      
89         4.14       165        49         0          0          0          7013       -334       0          3170.8     8.208      1990      
89.2       4.19       169        113        1          0          0          7013       -329       0          3168.65    8.212      1991      
89.4       4.14       168        199        0          0          0          7013       -335       0          3166.53    8.212      1991      
89.6       4.07       167        677        0          0          0          7013       -331       0          3164.39    8.212      1991      
89.8       4.24       159        8505       0          0          0          7013       -326       0          3162.2     8.204      1989      
90         4.47       174        8256       2          0          0          7013       -336       0          3160.08    8.208      1990      
90.2       4.58       189        47         0          0          0          7013       -332       0          3158.21    8.176      1983      
90.4       4.27       182        28         0          0          0          7013       -337       0          3157.29    8.182      1984      
90.6       4.11       182        30         0          0          0          7013       -327       0          3155.16    8.191      1986      
90.8       3.46       156        32         0          0          0          7013       -331       0          3152.98    8.217      1992      
91         2.77       114        33         0          0          0          7013       -332       0          3150.82    8.212      1991      
91.2       2.6        102        28         0          0          0          7013       -334       0          3148.68    8.238      1997      
91.4       2.8        114        29         0          0          0          7013       -329       0          3146.5     8.255      2001      
91.6       2.67       114        46         0          0          0          7013       -327       0          3144.38    8.27       2005      
91.8       2.55       107        121        0          0          0          7013       -318       0          3142.27    8.272      2005      
92         2.5        100        158        0          0          0          7013       -334       0          3140.05    8.277      2006      
92.2       2.53       100        1148       0          0          0          7013       -330       0          3137.94    8.272      2005      
92.4       2.63       102        1726       0          0          0          7013       -327       0          3135.78    8.277      2006      
92.6       2.81       114        30         0          0          0          7013       -330       0          3133.66    8.284      2008      
92.8       2.72       113        36         0          0          0          7013       -327       0          3131.4     8.322      2017      
93         2.61       110        39         0          0          0          7013       -334       0          3129.19    8.307      2013      
93.2       2.7        101        31         0          0          0          7013       -334       0          3127.03    8.337      2020      
