~Version
 VERS              .         2.0                           : CWLS LOG ASCII STANDARD - VERSION 2.0
 WRAP              .         NO                            : ONE LINE PER DEPTH STEP
 DLM               .         SPACE                         : DELIMITING CHARACTER(SPACE TAB OR COMMA)
~Well Information
#_______________________________________________________________________________
#
#PARAMETER_NAME    .UNIT     VALUE                         : DESCRIPTION
#_______________________________________________________________________________
STRT               .M        2733.1                        : First reference value
STOP               .M        2798.6                        : Last reference value
STEP               .M        0.1                           : Step increment
NULL               .         -9999                         : Missing value
COMP               .                                       : Company
WELL               .         616                           : Well name
FLD                .                                       : Field
LOC                .                                       : Location
CNTY               .                                       : County
STAT               .                                       : State
CTRY               .                                       : Country
SRVC               .                                       : Service Company
DATE               .                                       : Date
API                .                                       : API number
PROJECT_UPGRADE_TIME .         2021-03-18T21_24_50           : 
group              .         Good                          : 
~Parameter Information Block
#_______________________________________________________________________________
#
#PARAMETER_NAME    .UNIT     VALUE                         : DESCRIPTION
#_______________________________________________________________________________
SET                .         D2661_D                       : 
OTHER              .         Программное обеспечение станции MONITOR-386EX 25/12/99 15_08_10   BGF V50 26/12/00 07_26_01   3.1_SNGF___BGF_N_092085: 
OTHER_10           .         Тарировки_                    : 
OTHER_11           .         IK1.GRD = IK1$.UE - -5.96     : 
OTHER_12           .         IK5.GRD = IK5$.UE - -0.74     : 
OTHER_13           .         IK4.GRD = IK4$.UE - -0.9      : 
OTHER_14           .         IK3.GRD = IK3$.UE - -1.28     : 
OTHER_15           .         IK2.GRD = IK2$.UE - -3.55     : 
OTHER_2            .         Kedr.exe версия 3.3.2.32      : 
OTHER_3            .         KedrData.dll версия 3.3.2.17  : 
OTHER_4            .         Драйвер версия 2.1.0.4        : 
OTHER_5            .         Мнемоники версия 3.3 S        : 
OTHER_6            .         Прибор_ Викиз                 : 
OTHER_7            .         Номер прибора_ 0006012        : 
OTHER_8            .         Режим_ Викиз                  : 
OTHER_9            .         Форма_ ВИКИЗ                  : 
PROJECT_UPGRADE_TIME .         2021-03-18T21_24_49           : 
TLFamily_DEPT      .         Measured Depth                : 
TLFamily_IK1       .         Extra Shallow Resistivity     : 
TLFamily_IK1$      .         Extra Shallow Resistivity     : 
TLFamily_IK2       .         Shallow Resistivity           : 
TLFamily_IK2$      .         Shallow Resistivity           : 
TLFamily_IK3       .         Medium Resistivity            : 
TLFamily_IK3$      .         Medium Resistivity            : 
TLFamily_IK4       .         Deep Resistivity              : 
TLFamily_IK4$      .         Deep Resistivity              : 
TLFamily_IK5       .         Resistivity 20                : 
TLFamily_IK5$      .         Resistivity 20                : 
TLFamily_METKA     .                                       : 
TLFamily_PS        .         Spontaneous Potential         : 
TLFamily_RCOR      .                                       : 
TLFamily_SPID      .         Spontaneous Potential         : 
TLFamily_TENS      .         Cable Tension                 : 
TLFamily_TIME      .         Time                          : 
group              .         prim                          : 
~Curve Information
#_______________________________________________________________________________
#
#LOGNAME           .UNIT     LOG_ID                        : DESCRIPTION
#_______________________________________________________________________________
DEPT               .M                                      : 1 Глубина, м -    0.0 см 
IK1                .GRD                                    : 13 3Ф0.5, град. -  226.0 см 
IK1$               .UE                                     : 7 3Ф0.5, усл.ед. -  226.0 см 
IK2                .GRD                                    : 17 3Ф0.7, град. -  240.0 см 
IK2$               .UE                                     : 11 3Ф0.7, усл.ед. -  240.0 см 
IK3                .GRD                                    : 16 3Ф1.0, град. -  260.0 см 
IK3$               .UE                                     : 10 3Ф1.0, усл.ед. -  260.0 см 
IK4                .GRD                                    : 15 3Ф1.4, град. -  288.0 см 
IK4$               .UE                                     : 9 3Ф1.4, усл.ед. -  288.0 см 
IK5                .GRD                                    : 14 3Ф2.0, град. -  328.0 см 
IK5$               .UE                                     : 8 3Ф2.0, усл.ед. -  328.0 см 
METKA              .                                       : 3 Метки,  -    0.0 см 
PS                 .mV                                     : 12 ПС, мВ -  372.0 см 
RCOR               .CM/KM                                  : 5 Коррекция по ролику, см/км -    0.0 см 
SPID               .M/H                                    : 2 Скорость, м/час -    0.0 см 
TENS               .T                                      : 6 Натяжение кабеля, т -    0.0 см 
TIME               .S                                      : 4 Время, сек -    0.0 см 
~Ascii
# ...
2771.8     15.02      9.06       14.24      10.69      13.97      12.69      13.34      12.44      13.11      12.37      0          327.14     -292       -1809      0          34406.31  
2771.9     14.98      9.02       14.22      10.67      13.9       12.62      13.28      12.38      13         12.26      0          326.86     -292       -1813      0          34406.12  
2772       14.87      8.91       14.12      10.57      13.79      12.51      13.15      12.25      12.87      12.13      0          326.22     -292       -1820      0          34405.89  
2772.1     14.74      8.78       13.95      10.4       13.62      12.34      12.96      12.06      12.71      11.97      0          325.34     -292       -1827      0          34405.71  
2772.2     14.47      8.51       13.72      10.17      13.39      12.11      12.72      11.82      12.52      11.78      0          324.13     -292       -1820      0          34405.52  
2772.3     14.03      8.07       13.4       9.85       13.11      11.83      12.49      11.59      12.28      11.54      0          323.37     -292       -1808      0          34405.3   
2772.4     13.72      7.76       13.05      9.5        12.88      11.6       12.26      11.36      12.07      11.33      0          323.51     -292       -1799      0          34405.11  
2772.5     13.46      7.5        12.77      9.22       12.63      11.35      11.99      11.09      11.86      11.12      0          324.34     -292       -1801      0          34404.93  
2772.6     13.2       7.24       12.56      9.01       12.36      11.08      11.78      10.88      11.65      10.91      0          324.99     -292       -1804      0          34404.73  
2772.7     12.92      6.96       12.26      8.71       11.99      10.71      11.56      10.66      11.49      10.75      0          325.24     -292       -1802      0          34404.53  
2772.8     12.67      6.71       11.96      8.41       11.72      10.44      11.31      10.41      11.33      10.59      0          325.34     -292       -1788      0          34404.34  
2772.9     12.31      6.35       11.65      8.1        11.43      10.15      11.05      10.15      11.18      10.44      0          325.47     -292       -1771      0          34404.15  
2773       12.09      6.13       11.39      7.84       11.26      9.98       10.91      10.01      11.1       10.36      0          326.45     -292       -1777      0          34403.93  
2773.1     12.07      6.11       11.36      7.81       11.2       9.92       10.87      9.97       11.06      10.32      0          327.71     -292       -1788      0          34403.74  
2773.2     12.18      6.22       11.4       7.85       11.19      9.91       10.88      9.98       11.06      10.32      0          329.04     -292       -1802      0          34403.56  
2773.3     12.07      6.11       11.31      7.76       11.14      9.86       10.89      9.99       11.11      10.37      0          330.24     -292       -1806      0          34403.32  
2773.4     11.98      6.02       11.29      7.74       11.13      9.85       10.92      10.02      11.19      10.45      0          331.18     -292       -1809      0          34403.13  
2773.5     12.19      6.23       11.5       7.95       11.32      10.04      11.06      10.16      11.31      10.57      0          330.95     -292       -1814      0          34402.94  
2773.6     12.54      6.58       11.82      8.27       11.62      10.34      11.28      10.38      11.5       10.76      0          330.36     -292       -1821      0          34402.72  
2773.7     13.09      7.13       12.34      8.79       11.97      10.69      11.54      10.64      11.7       10.96      0          328.83     -292       -1829      0          34402.52  
2773.8     13.6       7.64       12.76      9.21       12.3       11.02      11.8       10.9       11.87      11.13      0          327.49     -292       -1837      0          34402.33  
2773.9     13.94      7.98       13         9.45       12.49      11.21      11.93      11.03      12.01      11.27      0          327.2      -292       -1831      0          34402.14  
2774       14.01      8.05       13.07      9.52       12.57      11.29      11.98      11.08      12.1       11.36      0          326.71     -292       -1823      0          34401.94  
2774.1     14.04      8.08       13.12      9.57       12.63      11.35      11.99      11.09      12.12      11.38      0          326.02     -292       -1815      0          34401.75  
2774.2     14.07      8.11       13.17      9.62       12.69      11.41      12.02      11.12      12.13      11.39      0          325.35     -292       -1804      0          34401.56  
2774.3     14.12      8.16       13.25      9.7        12.77      11.49      12.07      11.17      12.13      11.39      0          325.03     -292       -1789      0          34401.35  
2774.4     14.17      8.21       13.36      9.81       12.86      11.58      12.13      11.23      12.15      11.41      0          325.89     -292       -1783      0          34401.15  
2774.5     14.21      8.25       13.44      9.89       12.97      11.69      12.24      11.34      12.19      11.45      0          326.69     -292       -1795      0          34400.97  
2774.6     14.24      8.28       13.51      9.96       13.14      11.86      12.36      11.46      12.27      11.53      0          327.2      -292       -1810      0          34400.78  
2774.7     14.35      8.39       13.66      10.11      13.3       12.02      12.51      11.61      12.35      11.61      0          326.93     -292       -1818      0          34400.55  
2774.8     14.49      8.53       13.79      10.24      13.47      12.19      12.66      11.76      12.42      11.68      0          326.91     -292       -1825      0          34400.37  
2774.9     14.63      8.67       13.88      10.33      13.6       12.32      12.81      11.91      12.5       11.76      0          327.28     -292       -1831      0          34400.18  
2775       14.73      8.77       13.94      10.39      13.67      12.39      12.92      12.02      12.56      11.82      0          328.28     -292       -1823      0          34399.95  
2775.1     14.8       8.84       14         10.45      13.74      12.46      13         12.1       12.61      11.87      0          328.77     -292       -1814      0          34399.77  
2775.2     14.87      8.91       14.06      10.51      13.79      12.51      13.07      12.17      12.65      11.91      0          328.55     -292       -1808      0          34399.58  
2775.3     14.94      8.98       14.12      10.57      13.82      12.54      13.11      12.21      12.67      11.93      0          327.9      -292       -1813      0          34399.36  
2775.4     14.98      9.02       14.14      10.59      13.79      12.51      13.1       12.2       12.67      11.93      0          327.24     -292       -1819      0          34399.16  
2775.5     14.91      8.95       14.06      10.51      13.72      12.44      13.05      12.15      12.63      11.89      0          327.35     -292       -1818      0          34398.98  
2775.6     14.73      8.77       13.95      10.4       13.63      12.35      12.97      12.07      12.59      11.85      0          327.61     -292       -1809      0          34398.81  
2775.7     14.63      8.67       13.85      10.3       13.56      12.28      12.89      11.99      12.54      11.8       0          327.18     -292       -1794      0          34398.59  
2775.8     14.54      8.58       13.8       10.25      13.51      12.23      12.83      11.93      12.5       11.76      0          326.51     -292       -1788      0          34398.4   
2775.9     14.41      8.45       13.7       10.15      13.4       12.12      12.76      11.86      12.45      11.71      0          325.75     -292       -1788      0          34398.21  
2776       14.29      8.33       13.59      10.04      13.33      12.05      12.7       11.8       12.4       11.66      0          326.05     -292       -1787      0          34397.99  
