~Version
 VERS              .         2.0                           : CWLS LOG ASCII STANDARD - VERSION 2.0
 WRAP              .         NO                            : ONE LINE PER DEPTH STEP
 DLM               .         SPACE                         : DELIMITING CHARACTER(SPACE TAB OR COMMA)
~Well Information
#_______________________________________________________________________________
#
#PARAMETER_NAME    .UNIT     VALUE                         : DESCRIPTION
#_______________________________________________________________________________
STRT               .M        549.2                         : First reference value
STOP               .M        805.2                         : Last reference value
STEP               .M        0.2                           : Step increment
NULL               .         -9999                         : Missing value
COMP               .                                       : Company
WELL               .         616                           : Well name
FLD                .                                       : Field
LOC                .                                       : Location
CNTY               .                                       : County
STAT               .                                       : State
CTRY               .                                       : Country
SRVC               .                                       : Service Company
DATE               .                                       : Date
API                .                                       : API number
PROJECT_UPGRADE_TIME .         2021-03-18T21_24_50           : 
group              .         Good                          : 
~Parameter Information Block
#_______________________________________________________________________________
#
#PARAMETER_NAME    .UNIT     VALUE                         : DESCRIPTION
#_______________________________________________________________________________
SET                .         616_4                         : 
CONF               .         00                            : 
END                .         0                             : 
ERR                .         0                             : 
GS00               .M        0803.23                       : 
GS01               .M        0546.74                       : 
MM00               .M        0120.00                       : 
NOKG               .         0                             : 
NPR                .         980402                        : 
PART               .         Палагутин                     : 
PROJECT_UPGRADE_TIME .         2021-03-18T21_24_49           : 
PRZK               .         Шакиров                       : 
TLFamily_AZIMUTH   .         True Dip Azimuth              : 
TLFamily_DEPTH     .         Measured Depth                : 
TLFamily_METKA     .                                       : 
TLFamily_ROLL      .                                       : 
TLFamily_SPEED     .         Spontaneous Potential         : 
TLFamily_ZENIT     .                                       : 
VPRG               .         310                           : 
WAY                .         UP                            : 
group              .         prim                          : 
~Curve Information
#_______________________________________________________________________________
#
#LOGNAME           .UNIT     LOG_ID                        : DESCRIPTION
#_______________________________________________________________________________
DEPTH              .M                                      :  
AZIMUTH            .DEG                                    :  
METKA              .                                       :  
ROLL               .DEG                                    :  
SPEED              .M/H                                    :  
ZENIT              .DEG                                    :  
~Ascii
# ...
622.4      261.23     0          332.04     576        27.87     
622.6      257.73     0          339.15     648        27.82     
622.8      259.55     0          348.4      648        27.92     
623        256.02     0          359.37     684        27.21     
623.2      256.02     0          10.87      648        27.05     
623.4      259.03     0          22.75      684        27.51     
623.6      257.84     0          29.13      648        27.37     
623.8      257.67     0          31.7       612        27.41     
624        257.93     0          33.18      576        27.48     
624.2      258.48     0          34.18      648        27.34     
624.4      258.25     0          35.02      684        27.46     
624.6      258.37     0          35.49      648        27.3      
624.8      257.99     0          36.36      648        27.33     
625        257.19     0          37.81      612        27.16     
625.2      259.92     0          39.29      648        27.85     
625.4      258.97     0          39.1       684        27.85     
625.6      256.87     0          37.95      648        27.37     
625.8      257.85     0          39.36      612        27.48     
626        257.25     0          40.82      648        27.37     
626.2      257.36     0          41.42      648        27.38     
626.4      257.61     0          41.64      648        27.44     
626.6      257        0          42.08      648        27.36     
626.8      257.11     0          42.78      612        27.39     
627        257.31     0          42.92      648        27.47     
627.2      257.13     0          42.63      648        27.46     
627.4      257.39     0          42.35      612        27.52     
627.6      257.27     0          42.17      648        27.47     
627.8      257.28     0          42.31      648        27.5      
628        257.05     0          42.43      648        27.46     
628.2      257.52     0          42.24      648        27.57     
628.4      257.2      0          41.83      648        27.53     
628.6      256.69     0          41.55      612        27.41     
628.8      257.25     0          41.32      612        27.54     
629        256.79     0          40.97      648        27.4      
629.2      256.96     0          40.72      648        27.49     
629.4      257.54     0          40.39      612        27.66     
629.6      257.13     0          40.45      648        27.49     
629.8      257.45     0          40.48      648        27.58     
630        257.56     0          40.86      648        27.61     
630.2      258.25     0          41.75      648        27.72     
630.4      257.66     0          41.94      684        27.61     
630.6      257.68     0          41.79      612        27.59     
630.8      257.43     0          41.57      648        27.65     
631        257.33     0          41.65      648        27.45     
631.2      257.04     0          41.97      648        27.51     
631.4      257.28     0          42.08      648        27.57     
631.6      256.97     0          42         612        27.44     
631.8      257.58     0          42.11      612        27.58     
632        257.78     0          42.12      648        27.63     
632.2      258.02     1          41.41      648        27.58     
632.4      258.33     0          40.25      612        27.63     
632.6      258.87     0          39.91      612        27.6      
632.8      261.32     0          40.72      612        27.67     
633        266.63     0          41.82      684        27.69     
633.2      285.44     0          42         648        27.81     
633.4      326.57     0          41.95      684        27.72     
633.6      265.59     0          41.99      612        27.77     
633.8      159.94     0          41.84      648        27.96     
634        353.81     0          41.27      648        27.91     
634.2      283.62     0          39.66      648        27.78     
634.4      266        0          38.55      648        27.83     
634.6      260.85     0          38.07      612        27.69     
634.8      259.35     0          38.1       648        27.7      
635        258.79     0          37.62      612        27.74     
635.2      258.64     0          36.79      648        27.78     
635.4      257.82     0          36.39      684        27.66     
635.6      258.45     0          36.23      648        27.68     
635.8      259.24     0          35.78      648        27.89     
636        256.83     0          35.35      648        27.51     
636.2      256.43     0          37.08      612        27.32     
636.4      257.33     0          40.18      648        27.27     
636.6      257.79     0          42.49      576        27.29     
636.8      257.57     0          43.19      648        27.36     
637        257.88     0          43.2       648        27.5      
637.2      257.07     0          43.35      612        27.32     
637.4      257.05     0          43.03      648        27.43     
637.6      257.16     0          42.78      648        27.49     
637.8      257.71     0          43.18      648        27.65     
638        257.05     0          43.05      648        27.62     
638.2      257.36     0          42.8       684        27.69     
638.4      256.84     0          42.88      612        27.57     
638.6      256.92     0          43.2       648        27.61     
638.8      257.25     0          43.33      612        27.67     
639        256.26     0          43.49      684        27.52     
639.2      256.82     0          43.66      648        27.64     
639.4      257.03     0          43.65      612        27.7      
639.6      256.76     0          43.53      648        27.67     
639.8      257.35     0          43.53      648        27.82     
640        257.08     0          43.34      648        27.78     
640.2      257.11     0          43.06      684        27.82     
640.4      257.43     0          43.07      612        27.85     
640.6      257.63     0          43.11      612        27.93     
640.8      257.44     0          42.88      612        27.91     
641        256.8      0          42.85      684        27.77     
641.2      257.2      0          42.67      648        27.86     
641.4      256.6      0          42.12      648        27.75     
641.6      256.67     0          41.53      648        27.82     
641.8      257.58     0          41.38      648        27.98     
642        256.65     1          41.61      648        27.83     
642.2      257.01     0          42.1       612        27.89     
642.4      257.25     0          42.48      648        27.96     
642.6      256.56     0          42.61      612        27.85     
642.8      256.91     0          42.87      612        27.91     
643        256.85     0          43.33      648        27.92     
643.2      256.83     0          44.06      684        27.88     
643.4      257.27     0          44.78      648        27.95     
643.6      257.17     0          44.59      612        27.93     
643.8      257.05     0          43.88      612        27.91     
644        256.63     0          43.85      648        27.81     
644.2      257.38     0          44.06      648        27.91     
644.4      257.28     0          43.76      648        27.83     
644.6      257.04     0          43.12      612        27.75     
644.8      258.72     0          42.71      648        27.93     
645        260.94     0          42.33      648        27.97     
645.2      267        0          42.79      684        28.07     
645.4      287.93     0          43.64      648        28.16     
645.6      264.89     0          44.45      612        28.09     
645.8      178.73     0          45.16      648        28.07     
646        76.01      0          45.46      648        28.05     
646.2      350.6      0          45.51      612        28.16     
646.4      278.41     0          45.5       648        28.07     
646.6      263.64     0          43.63      612        28.12     
