~Version
 VERS              .         2.0                           : CWLS LOG ASCII STANDARD - VERSION 2.0
 WRAP              .         NO                            : ONE LINE PER DEPTH STEP
 DLM               .         SPACE                         : DELIMITING CHARACTER(SPACE TAB OR COMMA)
~Well Information
#_______________________________________________________________________________
#
#PARAMETER_NAME    .UNIT     VALUE                         : DESCRIPTION
#_______________________________________________________________________________
STRT               .M        10.2                          : First reference value
STOP               .M        2757.4                        : Last reference value
STEP               .M        0.2                           : Step increment
NULL               .         -9999                         : Missing value
COMP               .                                       : Company
WELL               .         616                           : Well name
FLD                .                                       : Field
LOC                .                                       : Location
CNTY               .                                       : County
STAT               .                                       : State
CTRY               .                                       : Country
SRVC               .                                       : Service Company
DATE               .                                       : Date
API                .                                       : API number
PROJECT_UPGRADE_TIME .         2021-03-18T21_24_50           : 
group              .         Good                          : 
~Parameter Information Block
#_______________________________________________________________________________
#
#PARAMETER_NAME    .UNIT     VALUE                         : DESCRIPTION
#_______________________________________________________________________________
SET                .         D7016_D                       : 
OTHER              .         Kedr.exe версия 2.1.2.32      : 
OTHER_10           .         TM.GRD = 0.00404*TM$.UE + 0.07: 
OTHER_11           .         MN.ATM = (6.33279e-006*TM.GRD + 0.02401)*(MN$.UE + 2.72*TM.GRD + -2018): 
OTHER_12           .         GK.MKR/H = GK$.UE / 43.5489 + 0: 
OTHER_13           .         RES.SM = 0.00476*CRES.UE - 1.51709: 
OTHER_14           .         PL.GSM3 = 0 + 0 * (PL.UE / 1) +  0 * (PL.UE / 1)^2: 
OTHER_15           .         Постоянная времени ГГП = 6 сек: 
OTHER_16           .         Постоянная времени ГК = 6 сек : 
OTHER_2            .         KedrData.dll версия 3.2.2.14  : 
OTHER_3            .         LasInf.dll версия 3.2.0.13    : 
OTHER_4            .         Драйвер версия 1.2.0.5        : 
OTHER_5            .         Прибор_ КСА-M1                : 
OTHER_6            .         Номер прибора_ 155+р204       : 
OTHER_7            .         Режим_ КСА-М1 + ГГП + Резистивиметр: 
OTHER_8            .         Форма_ 223\2                  : 
OTHER_9            .         Тарировки_                    : 
PROJECT_UPGRADE_TIME .         2021-03-18T21_24_50           : 
TLFamily_CRES      .                                       : 
TLFamily_DEPT      .         Measured Depth                : 
TLFamily_GK        .         Gamma Ray                     : 
TLFamily_GK$       .                                       : 
TLFamily_LM        .         Casing Collar locator         : 
TLFamily_METKA     .                                       : 
TLFamily_MN        .                                       : 
TLFamily_MN$       .                                       : 
TLFamily_PL        .                                       : 
TLFamily_PL_2      .                                       : 
TLFamily_RCOR      .                                       : 
TLFamily_RES       .         Mud Resistivity               : 
TLFamily_SPID      .         Spontaneous Potential         : 
TLFamily_STD       .                                       : 
TLFamily_TIME      .         Time                          : 
TLFamily_TM        .         Temperature                   : 
TLFamily_TM$       .         Temperature                   : 
TLFamily_VGD       .         Gas Volume                    : 
group              .         prim                          : 
~Curve Information
#_______________________________________________________________________________
#
#LOGNAME           .UNIT     LOG_ID                        : DESCRIPTION
#_______________________________________________________________________________
DEPT               .M                                      : 1 Глубина, м -    0.0 см 
CRES               .UE                                     : 9 Проводимость, усл.ед. -  270.0 см 
GK                 .MKR/H                                  : 16 Гамма-активность, мкр./ч -  106.0 см 
GK$                .UE                                     : 13 Гамма-активность, усл.ед. -  106.0 см 
LM                 .                                       : 11 Локатор муфт,  -   16.0 см 
METKA              .                                       : 3 Метки,  -    0.0 см 
MN                 .ATM                                    : 15 Давление, атм. -  160.0 см 
MN$                .UE                                     : 7 Давление, усл.ед. -  160.0 см 
PL                 .UE                                     : 10 Плотность, усл.ед. -  270.0 см 
PL_2               .GSM3                                   : 18 Плотность, г./см3 -  270.0 см 
RCOR               .CM/KM                                  : 5 Коррекция по ролику, см/км -    0.0 см 
RES                .SM                                     : 17 Проводимость,  -  270.0 см 
SPID               .M/H                                    : 2 Скорость, м/час -    0.0 см 
STD                .                                       : 12 Приток,  -  170.0 см 
TIME               .S                                      : 4 Время, сек -    0.0 см 
TM                 .GRD                                    : 14 Температура, °C -  180.0 см 
TM$                .UE                                     : 6 Температура, усл.ед. -  180.0 см 
VGD                .                                       : 8 Влагомер,  -  170.0 см 
~Ascii
# ...
1289.4     1237       9          392        1119       0          115.825    6669       14         0          0          4.371      1660       8494       4422       43.428     10732      6586      
1289.6     1237       8.94       378        908        0          115.834    6670       13         0          0          4.3724     1660       8494       4422.43    43.432     10733      6582      
1289.8     1238       8.88       378        1369       0          115.832    6670       14         0          0          4.3758     1632       8496       4422.88    43.437     10734      6584      
1290       1237       8.84       378        1290       0          115.859    6671       14         0          0          4.3734     1600       8496       4423.33    43.441     10736      6587      
1290.2     1238       8.81       378        941        1          115.869    6671       14         0          0          4.3741     1614       8497       4423.95    43.443     10736      6590      
1290.4     1238       8.78       378        927        0          115.89     6672       14         0          0          4.3758     1660       8498       4424.39    43.452     10738      6588      
1290.6     1238       8.77       381        1218       0          115.895    6672       14         0          0          4.3758     1660       8500       4424.81    43.456     10739      6588      
1290.8     1237       8.77       381        1029       0          115.943    6674       14         0          0          4.3713     1660       8500       4425.25    43.463     10741      6586      
1291       1238       8.76       381        1033       0          115.944    6674       14         0          0          4.3758     1660       8500       4425.68    43.464     10741      6577      
1291.2     1238       8.76       381        1328       0          115.952    6674       14         0          0          4.3758     1660       8501       4426.14    43.469     10742      6578      
1291.4     1238       8.76       381        1108       0          115.98     6675       14         0          0          4.3758     1660       8501       4426.56    43.473     10743      6583      
1291.6     1238       8.77       385        948        0          115.994    6676       13         0          0          4.3758     1600       8504       4427.01    43.478     10744      6589      
1291.8     1236       8.94       418        1947       0          116.037    6678       14         0          0          4.3657     1616       8503       4427.45    43.482     10746      6587      
1292       1236       9.08       418        1545       0          116.028    6677       14         0          0          4.3663     1637       8505       4427.89    43.485     10746      6587      
1292.2     1236       9.19       418        1377       0          116.044    6678       14         0          0          4.3673     1600       8506       4428.34    43.491     10748      6587      
1292.4     1238       9.28       418        1137       0          116.058    6679       13         0          0          4.3747     1639       8508       4428.77    43.498     10749      6589      
1292.6     1238       9.34       418        1124       0          116.068    6679       14         0          0          4.3755     1660       8507       4429.22    43.502     10751      6588      
1292.8     1237       9.38       414        1395       0          116.09     6680       14         0          0          4.3729     1660       8508       4429.65    43.501     10750      6583      
1293       1238       9.41       414        943        0          116.116    6681       13         0          0          4.3758     1660       8508       4430.09    43.507     10752      6580      
1293.2     1238       9.43       414        745        0          116.142    6682       14         0          0          4.3758     1660       8509       4430.52    43.508     10752      6572      
1293.4     1238       9.45       414        5243       0          116.149    6682       14         0          0          4.3758     1642       8509       4430.96    43.513     10753      6568      
1293.6     1237       9.46       414        3355       0          116.167    6683       14         0          0          4.371      1627       8511       4431.4     43.517     10754      6573      
1293.8     1237       9.47       414        2455       0          116.181    6684       14         0          0          4.371      1660       8512       4431.83    43.522     10755      6568      
1294       1237       9.33       379        1810       0          116.193    6684       13         0          0          4.371      1660       8511       4432.27    43.526     10757      6576      
1294.2     1238       9.14       366        1495       0          116.214    6685       14         0          0          4.3736     1660       8515       4432.71    43.534     10758      6573      
1294.4     1231       8.98       366        1819       0          116.218    6685       14         0          0          4.3422     1660       8515       4433.13    43.543     10761      6570      
1294.6     1234       8.86       366        1598       0          116.245    6686       14         0          0          4.3545     1660       8518       4433.58    43.541     10760      6577      
1294.8     1236       8.77       366        1766       0          116.288    6688       14         0          0          4.3663     1660       8518       4434       43.549     10762      6570      
1295       1236       8.69       366        1249       0          116.275    6687       13         0          0          4.3657     1660       8520       4434.45    43.553     10763      6577      
1295.2     1229       8.63       366        1492       0          116.303    6688       14         0          0          4.3321     1637       8519       4434.88    43.558     10764      6578      
1295.4     1210       8.58       366        1062       0          116.33     6690       14         0          0          4.2428     1634       8520       4435.33    43.561     10765      6566      
1295.6     1207       8.55       366        1386       0          116.342    6690       14         0          0          4.2282     1660       8521       4435.77    43.563     10766      6572      
1295.8     1205       8.52       366        1037       0          116.342    6690       14         0          0          4.2195     1660       8522       4436.19    43.567     10767      6567      
1296       1205       8.49       366        965        0          116.364    6691       14         0          0          4.2174     1660       8522       4436.64    43.569     10767      6564      
1296.2     1207       8.47       365        824        0          116.392    6692       14         0          0          4.2271     1660       8524       4437.06    43.572     10768      6567      
1296.4     1206       8.37       348        934        0          116.419    6693       14         0          0          4.2235     1660       8525       4437.5     43.573     10768      6561      
1296.6     1205       8.29       348        921        0          116.441    6694       14         0          0          4.2192     1660       8525       4437.94    43.581     10770      6561      
1296.8     1206       8.23       348        751        0          116.441    6694       14         0          0          4.2235     1633       8524       4438.39    43.586     10771      6565      
1297       1206       8.18       348        710        0          116.455    6695       13         0          0          4.2235     1635       8527       4438.83    43.589     10772      6567      
1297.2     1206       8.14       348        911        0          116.466    6695       14         0          0          4.2235     1660       8527       4439.27    43.591     10773      6566      
1297.4     1206       8.17       362        749        0          116.484    6696       14         0          0          4.2235     1610       8528       4439.7     43.593     10773      6559      
