~Version
 VERS              .         2.0                           : CWLS LOG ASCII STANDARD - VERSION 2.0
 WRAP              .         NO                            : ONE LINE PER DEPTH STEP
 DLM               .         SPACE                         : DELIMITING CHARACTER(SPACE TAB OR COMMA)
~Well Information
#_______________________________________________________________________________
#
#PARAMETER_NAME    .UNIT     VALUE                         : DESCRIPTION
#_______________________________________________________________________________
STRT               .M        2654.8                        : First reference value
STOP               .M        2761.6                        : Last reference value
STEP               .M        0.2000001                     : Step increment
NULL               .         -9999                         : Missing value
COMP               .                                       : Company
WELL               .         616                           : Well name
FLD                .                                       : Field
LOC                .                                       : Location
CNTY               .                                       : County
STAT               .                                       : State
CTRY               .                                       : Country
SRVC               .                                       : Service Company
DATE               .                                       : Date
API                .                                       : API number
PROJECT_UPGRADE_TIME .         2021-03-18T21_24_50           : 
group              .         Good                          : 
~Parameter Information Block
#_______________________________________________________________________________
#
#PARAMETER_NAME    .UNIT     VALUE                         : DESCRIPTION
#_______________________________________________________________________________
SET                .         D8107_D                       : 
OTHER              .         Программное обеспечение станции MONITOR-386EX 25/12/99 15_08_10   BGF V52 22/08/01 16_56_30   4_SNGF_BGF_N_011645: 
OTHER_10           .         Тарировки_                    : 
OTHER_11           .         TM.GRD = 0.00412*TM$.UE + -2.13: 
OTHER_12           .         MN.ATM = (5.87652e-006*TM.GRD + 0.01993)*(MN$.UE + -2.72*TM.GRD + -1925): 
OTHER_13           .         GK.MKR/H = GK$.UE / 57.4657   : 
OTHER_2            .         Kedr.exe версия 3.4.2.51      : 
OTHER_3            .         KedrData.dll версия 3.4.2.24  : 
OTHER_4            .         Драйвер версия 2.1.0.2        : 
OTHER_5            .         Мнемоники версия 3.3 S        : 
OTHER_6            .         Прибор_ АКП4-90               : 
OTHER_7            .         Номер прибора_ 53             : 
OTHER_8            .         Режим_ АКП4_90                : 
OTHER_9            .         Форма_ ПК-53ое                : 
PROJECT_UPGRADE_TIME .         2021-03-18T21_24_50           : 
TLFamily_DEPT      .         Measured Depth                : 
TLFamily_GK        .         Gamma Ray                     : 
TLFamily_GK$       .                                       : 
TLFamily_LM        .         Casing Collar locator         : 
TLFamily_METKA     .                                       : 
TLFamily_METKA_1   .                                       : 
TLFamily_MN        .                                       : 
TLFamily_MN$       .                                       : 
TLFamily_RCOR      .                                       : 
TLFamily_SPID      .         Spontaneous Potential         : 
TLFamily_TENS      .         Cable Tension                 : 
TLFamily_TIME      .         Time                          : 
TLFamily_TM        .         Temperature                   : 
TLFamily_TM$       .         Temperature                   : 
group              .         prim                          : 
~Curve Information
#_______________________________________________________________________________
#
#LOGNAME           .UNIT     LOG_ID                        : DESCRIPTION
#_______________________________________________________________________________
DEPT               .M                                      : 1 Глубина, м -    0.0 см 
GK                 .MKR/H                                  : 13 Гамма-активность, мкр./ч -   65.0 см 
GK$                .UE                                     : 10 Гамма-активность, усл.ед. -   65.0 см 
LM                 .                                       : 9 Локатор муфт,  -   30.0 см 
METKA              .                                       : 3 Метки,  -    0.0 см 
METKA_1            .                                       : 14 Маркеры - 65 см 
MN                 .ATM                                    : 12 Давление, атм. -  140.0 см 
MN$                .UE                                     : 8 Давление, усл.ед. -  140.0 см 
RCOR               .CM/KM                                  : 5 Коррекция по ролику, см/км -    0.0 см 
SPID               .M/H                                    : 2 Скорость, м/час -    0.0 см 
TENS               .T                                      : 6 Натяжение кабеля, т -    0.0 см 
TIME               .S                                      : 4 Время, сек -    0.0 см 
TM                 .GRD                                    : 11 Температура, °C -  145.0 см 
TM$                .UE                                     : 7 Температура, усл.ед. -  145.0 см 
~Ascii
# ...
2727.6     5.52       317        202        0          0          249.999    14469      -6         -620       1.03       15390.82   45.573     11579     
2727.8     5.58       321        452        0          0          250.136    14476      -6         -624       1.04       15389.65   45.621     11590     
2728       5.44       313        126        0          0          250.107    14474      -6         -620       1.03       15388.52   45.66      11600     
2728.2     5.4        310        172        0          0          250.135    14476      -6         -625       1.03       15387.36   45.727     11616     
2728.4     5.15       296        283        0          0          250.191    14479      -6         -621       1.03       15386.19   45.753     11622     
2728.6     4.65       267        70         0          0          250.151    14476      -6         -622       1.05       15385.05   45.815     11637     
2728.8     5.08       292        227        0          0          250.211    14480      -6         -615       1.03       15383.91   45.879     11653     
2729       5.86       337        303        0          0          250.241    14481      -6         -619       1.03       15382.77   45.929     11665     
2729.2     6.2        356        195        0          0          250.228    14480      -6         -626       1.03       15381.59   46.026     11688     
2729.4     7.92       455        622        0          0          250.274    14483      -6         -621       1.03       15380.5    46.159     11721     
2729.6     7.98       458        356        0          0          250.267    14482      -6         -620       1.03       15379.32   46.222     11736     
2729.8     8.89       511        259        2          0          250.278    14483      -5         -620       1.05       15378.09   46.301     11755     
2730       8.92       512        569        0          0          250.338    14486      -3         -623       1.03       15376.83   46.329     11762     
2730.2     9.26       532        332        0          0          250.321    14485      -3         -620       1.03       15375.66   46.337     11764     
2730.4     9.26       532        309        0          0          250.338    14486      -3         -620       1.05       15374.53   46.411     11782     
2730.6     9.4        540        403        0          0          250.361    14487      -3         -624       1.04       15373.37   46.487     11800     
2730.8     9.42       541        76         0          0          250.363    14487      -3         -621       1.03       15372.24   46.55      11816     
2731       9.57       550        247        0          0          250.401    14489      -3         -614       1.03       15371.07   46.586     11824     
2731.2     9.6        552        255        0          0          250.44     14491      -3         -617       1.03       15369.92   46.592     11826     
2731.4     9.78       562        76         0          0          250.42     14490      -3         -623       1.03       15368.73   46.656     11841     
2731.6     10.1       580        262        0          0          250.487    14493      -3         -616       1.03       15367.6    46.71      11854     
2731.8     9.81       564        157        0          0          250.487    14493      -3         -621       1.03       15366.47   46.743     11862     
2732       8.34       479        581        0          0          250.5      14494      -3         -622       1.03       15365.27   46.824     11882     
2732.2     8.15       468        902        0          0          250.534    14496      -3         -623       1.03       15364.19   46.898     11900     
2732.4     7.17       412        172        0          0          250.523    14495      -3         -623       1.03       15363      46.964     11916     
2732.6     7.17       412        422        0          0          250.526    14495      -3         -624       1.03       15361.87   47.088     11946     
2732.8     7.22       415        389        0          0          250.6      14499      -3         -626       1.03       15360.73   47.16      11964     
2733       7.22       415        131        0          0          250.56     14497      -3         -628       1.03       15359.55   47.244     11984     
2733.2     7.1        408        484        0          0          250.58     14498      -3         -623       1.03       15358.41   47.312     12000     
2733.4     7.02       403        625        0          0          250.6      14499      -3         -625       1.03       15357.26   47.386     12018     
2733.6     6.82       392        109        0          0          250.6      14499      -3         -627       1.03       15356.12   47.504     12047     
2733.8     6.72       386        173        0          0          250.66     14502      -3         -622       1.03       15354.96   47.539     12056     
2734       6.68       384        111        0          0          250.677    14503      -3         -625       1.03       15353.82   47.59      12068     
2734.2     6.57       377        211        0          0          250.682    14503      -3         -624       1.03       15352.66   47.745     12106     
2734.4     6.74       387        469        0          0          250.719    14505      -3         -618       1.03       15351.55   47.881     12139     
2734.6     7.17       412        220        0          0          250.719    14505      -3         -621       1.03       15350.37   48.025     12174     
2734.8     7.09       407        188        0          0          250.733    14506      -3         -625       1.03       15349.2    48.194     12215     
2735       6.49       373        276        0          0          250.792    14509      -3         -623       1.03       15348.1    48.301     12240     
2735.2     6.47       372        163        0          0          250.771    14508      -3         -628       1.03       15346.92   48.414     12268     
2735.4     6.14       353        465        0          0          250.816    14510      -3         -624       1.03       15345.77   48.51      12291     
2735.6     6.1        351        797        0          0          250.839    14511      -3         -625       1.03       15344.6    48.571     12306     
2735.8     5.93       341        913        0          0          250.839    14511      -3         -627       1.03       15343.46   48.665     12329     
2736       5.93       341        220        0          0          250.87     14513      -3         -622       1.03       15342.32   48.704     12338     
2736.2     6.12       351        262        0          0          250.879    14513      -3         -621       1.03       15341.13   48.772     12355     
2736.4     6.46       371        457        0          0          250.879    14513      -3         -623       1.03       15340      48.906     12387     
2736.6     6.52       375        1017       0          0          250.945    14516      -3         -623       1.03       15338.86   49.023     12416     
2736.8     6.6        379        253        0          0          250.919    14515      -3         -625       1.03       15337.72   49.086     12431     
2737       6.63       381        477        0          0          250.952    14517      -3         -626       1.03       15336.58   49.226     12465     
2737.2     6.82       392        831        0          0          250.995    14519      -3         -621       1.03       15335.45   49.312     12486     
2737.4     6.84       393        2993       0          0          250.978    14518      -3         -630       1.03       15334.3    49.43      12514     
2737.6     7.13       410        11211      0          0          250.998    14519      -3         -626       1.03       15333.13   49.553     12544     
2737.8     7.09       407        17565      0          0          251.038    14521      -3         -627       1.03       15332      49.629     12563     
