~Version
 VERS              .         2.0                           : CWLS LOG ASCII STANDARD - VERSION 2.0
 WRAP              .         NO                            : ONE LINE PER DEPTH STEP
 DLM               .         SPACE                         : DELIMITING CHARACTER(SPACE TAB OR COMMA)
~Well Information
#_______________________________________________________________________________
#
#PARAMETER_NAME    .UNIT     VALUE                         : DESCRIPTION
#_______________________________________________________________________________
STRT               .M        2659.8                        : First reference value
STOP               .M        2768.999945                   : Last reference value
STEP               .M        0.1999999                     : Step increment
NULL               .         -9999                         : Missing value
COMP               .                                       : Company
WELL               .         616                           : Well name
FLD                .                                       : Field
LOC                .                                       : Location
CNTY               .                                       : County
STAT               .                                       : State
CTRY               .                                       : Country
SRVC               .                                       : Service Company
DATE               .                                       : Date
API                .                                       : API number
PROJECT_UPGRADE_TIME .         2021-03-18T21_24_50           : 
group              .         Good                          : 
~Parameter Information Block
#_______________________________________________________________________________
#
#PARAMETER_NAME    .UNIT     VALUE                         : DESCRIPTION
#_______________________________________________________________________________
SET                .         D1169_D                       : 
OTHER              .         Программное обеспечение станции MONITOR-386EX 25/12/99 15_08_10   BGF V52 22/08/01 16_56_30   3.2_BGF_N_3070031: 
OTHER_10           .         Тарировки_                    : 
OTHER_11           .         TM.GRD = 0.00403*TM$.UE + -1.19: 
OTHER_12           .         MN.ATM = (7.1e-006*TM.GRD + 0.02017)*(MN$.UE + -3.03*TM.GRD + -1833): 
OTHER_13           .         Id error                      : 
OTHER_2            .         Kedr.exe версия 3.4.2.51      : 
OTHER_3            .         KedrData.dll версия 3.4.2.24  : 
OTHER_4            .         Драйвер версия 2.1.1.8        : 
OTHER_5            .         Мнемоники версия 3.3 S        : 
OTHER_6            .         Прибор_ КСА-М1                : 
OTHER_7            .         Номер прибора_ 265            : 
OTHER_8            .         Режим_ КСА-М1                 : 
OTHER_9            .         Форма_ ТЕРМОМЕТР              : 
PROJECT_UPGRADE_TIME .         2021-03-18T21_24_49           : 
TLFamily_DEPT      .         Measured Depth                : 
TLFamily_GK        .         Gamma Ray                     : 
TLFamily_GK$       .                                       : 
TLFamily_LM        .         Casing Collar locator         : 
TLFamily_METKA     .                                       : 
TLFamily_MN        .                                       : 
TLFamily_MN$       .                                       : 
TLFamily_RCOR      .                                       : 
TLFamily_SPID      .         Spontaneous Potential         : 
TLFamily_STD       .                                       : 
TLFamily_TENS      .         Cable Tension                 : 
TLFamily_TIME      .         Time                          : 
TLFamily_TM        .         Temperature                   : 
TLFamily_TM$       .         Temperature                   : 
TLFamily_VGD       .         Gas Volume                    : 
group              .         prim                          : 
~Curve Information
#_______________________________________________________________________________
#
#LOGNAME           .UNIT     LOG_ID                        : DESCRIPTION
#_______________________________________________________________________________
DEPT               .M                                      : 1 Глубина, м -    0.0 см 
GK                 .MKR/H                                  : 15 Гамма-активность, мкр./ч -  110.0 см 
GK$                .UE                                     : 12 Гамма-активность, усл.ед. -  110.0 см 
LM                 .                                       : 10 Локатор муфт,  -   20.0 см 
METKA              .                                       : 3 Метки,  -    0.0 см 
MN                 .ATM                                    : 14 Давление, атм. -  160.0 см 
MN$                .UE                                     : 8 Давление, усл.ед. -  160.0 см 
RCOR               .CM/KM                                  : 5 Коррекция по ролику, см/км -    0.0 см 
SPID               .M/H                                    : 2 Скорость, м/час -    0.0 см 
STD                .                                       : 11 Приток,  -  170.0 см 
TENS               .T                                      : 6 Натяжение кабеля, т -    0.0 см 
TIME               .S                                      : 4 Время, сек -    0.0 см 
TM                 .GRD                                    : 13 Температура, °C -  180.0 см 
TM$                .UE                                     : 7 Температура, усл.ед. -  180.0 см 
VGD                .                                       : 9 Влагомер,  -  170.0 см 
~Ascii
# ...
2718.599971 8.94       403        1          0          260.758    14644      -1400      582        30921      0          25915.89   84.499     21263      6575      
2718.799971 9.28       403        1          0          260.786    14645      -1400      588        30904      0          25917.18   84.478     21258      6574      
2718.99997 8.86       348        1          0          260.807    14646      -1400      582        30894      0          25918.41   84.467     21255      6573      
2719.19997 8.35       348        1          0          260.807    14646      -1400      581        30885      0          25919.64   84.464     21254      6574      
2719.39997 7.47       264        1          0          260.827    14647      -1400      586        30879      0          25920.87   84.464     21254      6574      
2719.59997 6.59       264        1          0          260.848    14648      -1400      579        30876      0          25922.15   84.464     21254      6573      
2719.79997 6.08       236        1          0          260.869    14649      -1400      585        30874      0          25923.39   84.468     21255      6574      
2719.99997 5.5        225        1          2          260.902    14651      -1400      583        30874      0          25924.72   84.466     21255      6574      
2720.19997 5.33       224        1          0          260.931    14652      -1400      583        30872      0          25925.98   84.468     21255      6574      
2720.39997 5.25       223        1          0          260.931    14652      -1400      582        30872      0          25927.21   84.466     21255      6575      
2720.59997 5.26       226        1          0          260.952    14653      -1400      581        30872      0          25928.44   84.468     21255      6574      
2720.79997 5.28       226        1          0          260.972    14654      -1400      583        30870      0          25929.69   84.46      21253      6575      
2720.999969 5.24       221        1          0          260.993    14655      -1400      579        30867      0          25930.96   84.452     21251      6574      
2721.199969 5.19       221        1          0          261.016    14656      -1400      580        30866      0          25932.19   84.451     21251      6574      
2721.399969 5.22       226        1          0          261.039    14657      -1400      590        30873      0          25933.42   84.524     21269      6573      
2721.599969 5.27       226        1          0          261.061    14658      -1400      581        30891      0          25934.64   84.605     21289      6573      
2721.799969 5.2        216        1          0          261.083    14659      -1400      580        30917      0          25935.88   84.669     21305      6572      
2721.999969 5.06       214        1          0          261.105    14660      -1400      580        30937      0          25937.11   84.717     21317      6571      
2722.199969 5.05       217        1          0          261.127    14661      -1400      588        30961      0          25938.34   84.757     21327      6571      
2722.399969 5.08       218        1          0          261.148    14662      -1400      582        30980      0          25939.61   84.785     21334      6571      
2722.599969 5.39       249        1          0          261.155    14662      -1400      582        31000      0          25940.8    84.816     21341      6571      
2722.799968 5.7        249        1          0          261.174    14663      -1400      586        31019      0          25942.03   84.851     21350      6571      
2722.999968 5.74       244        1          0          261.213    14665      -1400      577        31035      0          25943.33   84.888     21359      6569      
2723.199968 5.72       244        1          0          261.214    14665      -1400      589        31051      0          25944.49   84.919     21367      6569      
2723.399968 5.68       240        1          0          261.236    14666      -1400      595        31068      0          25945.73   84.953     21376      6570      
2723.599968 5.62       239        1          0          261.258    14667      -1400      594        31084      0          25946.92   84.995     21386      6570      
2723.799968 5.58       237        1          0          261.279    14668      -1400      580        31098      0          25948.25   85.028     21394      6570      
2723.999968 5.54       236        1          0          261.3      14669      -1400      583        31111      0          25949.42   85.055     21401      6569      
2724.199968 5.53       237        1          0          261.322    14670      -1400      587        31121      0          25950.65   85.075     21406      6569      
2724.399968 5.56       238        1          0          261.343    14671      -1400      585        31130      0          25951.94   85.092     21410      6569      
2724.599968 5.56       238        1          0          261.364    14672      -1400      584        31138      0          25953.11   85.1       21412      6569      
2724.799968 5.76       250        1          0          261.384    14673      -1400      586        31146      0          25954.34   85.108     21414      6569      
2724.999967 5.73       238        1          0          261.405    14674      -1400      587        31152      0          25955.57   85.106     21413      6569      
2725.199967 5.59       236        1          0          261.426    14675      -1400      576        31154      0          25956.84   85.104     21413      6568      
2725.399967 5.47       227        1          0          261.446    14676      -1400      578        31153      0          25958.03   85.099     21412      6569      
2725.599967 5.14       214        2000       0          261.467    14677      -1400      590        31153      0          25959.26   85.088     21409      6568      
2725.799967 5.03       212        1435       0          261.487    14678      -1400      580        31147      0          25960.55   85.084     21408      6568      
2725.999967 4.73       197        195        0          261.508    14679      -1400      579        31145      0          25961.72   85.076     21406      6568      
2726.199967 4.65       197        1          0          261.529    14680      -1400      580        31143      0          25962.95   85.068     21404      6567      
2726.399967 4.87       213        1          0          261.549    14681      -1400      586        31142      0          25964.16   85.067     21404      6568      
2726.599967 4.95       213        1          0          261.57     14682      -1400      577        31139      0          25965.41   85.064     21403      6568      
2726.799967 5.28       234        1          0          261.591    14683      -1400      589        31143      0          25966.64   85.074     21405      6567      
2726.999966 5.44       237        1          0          261.613    14684      -1400      587        31147      0          25967.87   85.083     21408      6567      
2727.199966 5.59       242        1          0          261.635    14685      -1400      591        31155      0          25969.16   85.107     21414      6567      
2727.399966 5.64       242        1          0          261.657    14686      -1400      582        31166      0          25970.33   85.145     21423      6567      
2727.599966 5.61       239        1          0          261.658    14686      -1400      587        31180      0          25971.56   85.193     21435      6567      
2727.799966 5.6        239        1          0          261.692    14688      -1400      585        31195      0          25972.79   85.24      21447      6567      
2727.999966 5.88       258        1          0          261.711    14688      -1400      584        31217      0          25974.02   85.308     21463      6567      
2728.199966 5.99       258        1          0          261.732    14689      -1400      584        31244      0          25975.25   85.383     21482      6566      
