~Version
 VERS              .         2.0                           : CWLS LOG ASCII STANDARD - VERSION 2.0
 WRAP              .         NO                            : ONE LINE PER DEPTH STEP
 DLM               .         SPACE                         : DELIMITING CHARACTER(SPACE TAB OR COMMA)
~Well Information
#_______________________________________________________________________________
#
#PARAMETER_NAME    .UNIT     VALUE                         : DESCRIPTION
#_______________________________________________________________________________
STRT               .M        2670                          : First reference value
STOP               .M        2776                          : Last reference value
STEP               .M        0.2                           : Step increment
NULL               .         -9999                         : Missing value
COMP               .                                       : Company
WELL               .         616                           : Well name
FLD                .                                       : Field
LOC                .                                       : Location
CNTY               .                                       : County
STAT               .                                       : State
CTRY               .                                       : Country
SRVC               .                                       : Service Company
DATE               .                                       : Date
API                .                                       : API number
PROJECT_UPGRADE_TIME .         2021-03-18T21_24_50           : 
group              .         Good                          : 
~Parameter Information Block
#_______________________________________________________________________________
#
#PARAMETER_NAME    .UNIT     VALUE                         : DESCRIPTION
#_______________________________________________________________________________
SET                .         D1803_D                       : 
OTHER              .         Программное обеспечение станции MONITOR-386EX 25/12/99 15_08_10   BGF V52 22/08/01 16_56_30   3.1_SNGF___BGF_N_092049: 
OTHER_10           .         Тарировки_                    : 
OTHER_11           .         TM.GRD = 0.00403*TM$.UE + -1.07: 
OTHER_12           .         MN.ATM = (9.34907e-006*TM.GRD + 0.02171)*(MN$.UE + -7.93*TM.GRD + -1787): 
OTHER_13           .         GK.MKR/H = LM. / 42.4676      : 
OTHER_14           .         GK.FLT = 0.1*GK.MKR/H[-1] + (1-0.1)*GK.MKR/H[0]: 
OTHER_2            .         Kedr.exe версия 3.4.2.51      : 
OTHER_3            .         KedrData.dll версия 3.4.2.24  : 
OTHER_4            .         Драйвер версия 2.1.1.3        : 
OTHER_5            .         Мнемоники версия 3.3 S        : 
OTHER_6            .         Прибор_ КСА-Т4                : 
OTHER_7            .         Номер прибора_ 03             : 
OTHER_8            .         Режим_ КСА-Т4                 : 
OTHER_9            .         Форма_ КВА.                   : 
PROJECT_UPGRADE_TIME .         2021-03-18T21_24_49           : 
TLFamily_DEPT      .         Measured Depth                : 
TLFamily_GK        .         Gamma Ray                     : 
TLFamily_GK$       .                                       : 
TLFamily_GK_2      .         Gamma Ray                     : 
TLFamily_LM        .         Casing Collar locator         : 
TLFamily_METKA     .                                       : 
TLFamily_MN        .                                       : 
TLFamily_MN$       .                                       : 
TLFamily_RCOR      .                                       : 
TLFamily_SPID      .         Spontaneous Potential         : 
TLFamily_TENS      .         Cable Tension                 : 
TLFamily_TIME      .         Time                          : 
TLFamily_TM        .         Temperature                   : 
TLFamily_TM$       .         Temperature                   : 
group              .         prim                          : 
~Curve Information
#_______________________________________________________________________________
#
#LOGNAME           .UNIT     LOG_ID                        : DESCRIPTION
#_______________________________________________________________________________
DEPT               .M                                      : 1 Глубина, м -    0.0 см 
GK                 .MKR/H                                  : 13 Гамма-активность, мкр./ч -  110.0 см 
GK$                .UE                                     : 10 Гамма-активность, усл.ед. -  110.0 см 
GK_2               .FLT                                    : 14 Гамма-активность фильтрованная, мкр./ч -  110.0 см 
LM                 .                                       : 9 Локатор муфт,  -   20.0 см 
METKA              .                                       : 3 Метки,  -    0.0 см 
MN                 .ATM                                    : 12 Давление, атм. -  160.0 см 
MN$                .UE                                     : 8 Давление, усл.ед. -  160.0 см 
RCOR               .CM/KM                                  : 5 Коррекция по ролику, см/км -    0.0 см 
SPID               .M/H                                    : 2 Скорость, м/час -    0.0 см 
TENS               .T                                      : 6 Натяжение кабеля, т -    0.0 см 
TIME               .S                                      : 4 Время, сек -    0.0 см 
TM                 .GRD                                    : 11 Температура, °C -  170.0 см 
TM$                .UE                                     : 7 Температура, усл.ед. -  170.0 см 
~Ascii
# ...
2711.6     13.4       569        13.39      292        0          335.307    17303      -647       577        0.01       1787.47    50.216     12726     
2711.8     12.97      551        13.06      233        0          337.468    17401      -647       569        0.01       1788.73    50.204     12723     
2712       12.97      551        12.98      211        0          339.532    17494      -647       578        0.01       1789.98    50.2       12722     
2712.2     10.86      461        11.11      221        0          333.488    17221      -647       582        0.01       1791.2     50.208     12724     
2712.4     10.86      461        10.87      285        0          335.941    17332      -647       573        0.03       1792.45    50.208     12724     
2712.6     9.25       393        9.58       582        1          334.583    17270      -647       572        0.01       1793.67    50.204     12723     
2712.8     9.25       393        9.26       374        0          335.875    17329      -647       574        0.01       1794.94    50.204     12723     
2713       11.91      506        11.63      214        0          332.712    17186      -647       576        0.01       1796.19    50.208     12724     
2713.2     11.91      506        11.9       623        0          334.184    17252      -647       566        0.01       1797.47    50.209     12724     
2713.4     14.72      625        14.24      558        0          332.919    17195      -647       568        0.01       1798.73    50.204     12723     
2713.6     14.72      625        14.7       206        0          334.725    17277      -647       572        0.01       1799.94    50.202     12723     
2713.8     13.23      562        13.66      194        0          332.118    17159      -647       574        0.01       1801.18    50.202     12723     
2714       13.23      562        13.25      246        0          333.243    17210      -647       576        0.01       1802.42    50.204     12723     
2714.2     12.93      549        12.98      302        0          332.247    17165      -647       569        0.01       1803.69    50.208     12724     
2714.4     12.93      549        12.93      256        0          332.777    17189      -647       565        0.01       1804.89    50.209     12724     
2714.6     13.28      564        13.19      264        0          331.403    17127      -647       563        0.01       1806.17    50.212     12725     
2714.8     13.28      564        13.28      2421       0          332.459    17175      -647       558        0.01       1807.44    50.212     12725     
2715       10.13      430        10.51      972        0          329.895    17059      -647       559        0.01       1808.64    50.215     12726     
2715.2     10.13      430        10.14      283        0          331.737    17142      -647       565        0.03       1809.91    50.21      12725     
2715.4     8.05       342        8.58       224        0          331.204    17118      -647       569        0.01       1811.18    50.211     12725     
2715.6     8.05       342        8.07       222        0          331.964    17152      -647       572        0.03       1812.39    50.212     12725     
2715.8     8.71       370        8.63       221        0          329.451    17039      -647       575        0.03       1813.59    50.216     12726     
2716       8.71       370        8.71       194        0          331.29     17122      -647       580        0.03       1814.86    50.216     12726     
2716.2     8.69       369        8.69       219        0          330.313    17078      -647       570        0.01       1816.18    50.216     12726     
2716.4     8.69       369        8.69       181        0          331.29     17122      -647       559        0.03       1817.39    50.212     12725     
2716.6     11.51      489        11.17      235        0          329.827    17056      -647       557        0.01       1818.61    50.213     12725     
2716.8     11.51      489        11.5       245        0          330.935    17106      -647       564        0.03       1819.86    50.212     12725     
2717       15.52      659        14.67      211        0          329.454    17039      -647       569        0.01       1821.12    50.208     12724     
2717.2     15.52      659        15.49      209        0          330.44     17084      -647       572        0.01       1822.33    50.208     12724     
2717.4     12.55      533        13.37      211        0          330.136    17070      -647       574        0.01       1823.59    50.208     12724     
2717.6     12.55      533        12.58      211        0          330.795    17100      -647       576        0.01       1824.82    50.205     12723     
2717.8     9.82       417        10.28      264        0          329.334    17034      -647       577        0.03       1826.13    50.204     12723     
2718       9.82       417        9.84       245        0          330.381    17081      -647       574        0.02       1827.37    50.208     12724     
2718.2     10.6       450        10.4       246        0          329.5      17041      -647       570        0.02       1828.59    50.212     12725     
2718.4     10.6       450        10.59      218        0          329.893    17059      -647       575        0.03       1829.8     50.212     12725     
2718.6     10.03      426        10.13      240        0          329.55     17044      -647       576        0.03       1831.06    50.212     12725     
2718.8     10.03      426        10.03      210        0          330.313    17078      -647       578        0.02       1832.3     50.216     12726     
2719       9.96       423        9.98       251        0          329.345    17034      -647       578        0.03       1833.57    50.216     12726     
2719.2     9.96       423        9.96       238        0          329.62     17047      -647       579        0.01       1834.78    50.208     12724     
2719.4     10.13      430        10.07      235        0          329.56     17044      -647       578        0.01       1836.05    50.208     12724     
2719.6     10.13      430        10.12      225        0          329.469    17040      -647       570        0.02       1837.31    50.201     12722     
2719.8     10.03      426        10.05      219        0          329.052    17021      -647       570        0.01       1838.53    50.203     12723     
2720       10.03      426        10.03      203        2          329.561    17044      -647       573        0.01       1839.77    50.208     12724     
2720.2     10.41      442        10.28      253        0          328.475    16995      -654       576        -0         1841.41    50.204     12723     
2720.4     10.41      442        10.4       236        0          329.16     17026      -654       577        0.02       1842.67    50.2       12722     
2720.6     10.86      461        10.78      231        0          329.036    17020      -654       578        0.01       1843.94    50.204     12723     
2720.8     10.86      461        10.85      225        0          328.736    17007      -654       578        0.01       1845.24    50.204     12723     
2721       10.6       450        10.67      255        0          328.692    17005      -654       570        0.01       1846.45    50.2       12722     
2721.2     10.6       450        10.6       247        0          329.272    17031      -654       568        0.01       1847.66    50.204     12723     
2721.4     10.29      437        10.33      241        0          328.682    17004      -654       572        0.03       1848.91    50.204     12723     
2721.6     10.29      437        10.29      245        0          328.874    17013      -654       574        0.01       1850.18    50.204     12723     
2721.8     10.46      444        10.44      282        0          328.599    17001      -654       576        0.01       1851.39    50.203     12723     
