~Version
 VERS              .         2.0                           : CWLS LOG ASCII STANDARD - VERSION 2.0
 WRAP              .         NO                            : ONE LINE PER DEPTH STEP
 DLM               .         SPACE                         : DELIMITING CHARACTER(SPACE TAB OR COMMA)
~Well Information
#_______________________________________________________________________________
#
#PARAMETER_NAME    .UNIT     VALUE                         : DESCRIPTION
#_______________________________________________________________________________
STRT               .M        2733.1                        : First reference value
STOP               .M        2798.6                        : Last reference value
STEP               .M        0.1                           : Step increment
NULL               .         -9999                         : Missing value
COMP               .                                       : Company
WELL               .         616                           : Well name
FLD                .                                       : Field
LOC                .                                       : Location
CNTY               .                                       : County
STAT               .                                       : State
CTRY               .                                       : Country
SRVC               .                                       : Service Company
DATE               .                                       : Date
API                .                                       : API number
PROJECT_UPGRADE_TIME .         2021-03-18T21_24_50           : 
group              .         Good                          : 
~Parameter Information Block
#_______________________________________________________________________________
#
#PARAMETER_NAME    .UNIT     VALUE                         : DESCRIPTION
#_______________________________________________________________________________
SET                .         D2661_D                       : 
OTHER              .         Программное обеспечение станции MONITOR-386EX 25/12/99 15_08_10   BGF V50 26/12/00 07_26_01   3.1_SNGF___BGF_N_092085: 
OTHER_10           .         Тарировки_                    : 
OTHER_11           .         IK1.GRD = IK1$.UE - -5.96     : 
OTHER_12           .         IK5.GRD = IK5$.UE - -0.74     : 
OTHER_13           .         IK4.GRD = IK4$.UE - -0.9      : 
OTHER_14           .         IK3.GRD = IK3$.UE - -1.28     : 
OTHER_15           .         IK2.GRD = IK2$.UE - -3.55     : 
OTHER_2            .         Kedr.exe версия 3.3.2.32      : 
OTHER_3            .         KedrData.dll версия 3.3.2.17  : 
OTHER_4            .         Драйвер версия 2.1.0.4        : 
OTHER_5            .         Мнемоники версия 3.3 S        : 
OTHER_6            .         Прибор_ Викиз                 : 
OTHER_7            .         Номер прибора_ 0006012        : 
OTHER_8            .         Режим_ Викиз                  : 
OTHER_9            .         Форма_ ВИКИЗ                  : 
PROJECT_UPGRADE_TIME .         2021-03-18T21_24_49           : 
TLFamily_DEPT      .         Measured Depth                : 
TLFamily_IK1       .         Extra Shallow Resistivity     : 
TLFamily_IK1$      .         Extra Shallow Resistivity     : 
TLFamily_IK2       .         Shallow Resistivity           : 
TLFamily_IK2$      .         Shallow Resistivity           : 
TLFamily_IK3       .         Medium Resistivity            : 
TLFamily_IK3$      .         Medium Resistivity            : 
TLFamily_IK4       .         Deep Resistivity              : 
TLFamily_IK4$      .         Deep Resistivity              : 
TLFamily_IK5       .         Resistivity 20                : 
TLFamily_IK5$      .         Resistivity 20                : 
TLFamily_METKA     .                                       : 
TLFamily_PS        .         Spontaneous Potential         : 
TLFamily_RCOR      .                                       : 
TLFamily_SPID      .         Spontaneous Potential         : 
TLFamily_TENS      .         Cable Tension                 : 
TLFamily_TIME      .         Time                          : 
group              .         prim                          : 
~Curve Information
#_______________________________________________________________________________
#
#LOGNAME           .UNIT     LOG_ID                        : DESCRIPTION
#_______________________________________________________________________________
DEPT               .M                                      : 1 Глубина, м -    0.0 см 
IK1                .GRD                                    : 13 3Ф0.5, град. -  226.0 см 
IK1$               .UE                                     : 7 3Ф0.5, усл.ед. -  226.0 см 
IK2                .GRD                                    : 17 3Ф0.7, град. -  240.0 см 
IK2$               .UE                                     : 11 3Ф0.7, усл.ед. -  240.0 см 
IK3                .GRD                                    : 16 3Ф1.0, град. -  260.0 см 
IK3$               .UE                                     : 10 3Ф1.0, усл.ед. -  260.0 см 
IK4                .GRD                                    : 15 3Ф1.4, град. -  288.0 см 
IK4$               .UE                                     : 9 3Ф1.4, усл.ед. -  288.0 см 
IK5                .GRD                                    : 14 3Ф2.0, град. -  328.0 см 
IK5$               .UE                                     : 8 3Ф2.0, усл.ед. -  328.0 см 
METKA              .                                       : 3 Метки,  -    0.0 см 
PS                 .mV                                     : 12 ПС, мВ -  372.0 см 
RCOR               .CM/KM                                  : 5 Коррекция по ролику, см/км -    0.0 см 
SPID               .M/H                                    : 2 Скорость, м/час -    0.0 см 
TENS               .T                                      : 6 Натяжение кабеля, т -    0.0 см 
TIME               .S                                      : 4 Время, сек -    0.0 см 
~Ascii
# ...
2789       12.38      6.42       11.66      8.11       11.32      10.04      10.93      10.03      11.19      10.45      0          324.2      -286       -1315      0          34371.12  
2789.1     11.97      6.01       11.39      7.84       11.19      9.91       10.86      9.96       11.17      10.43      0          325.7      -286       -1307      0          34370.89  
2789.2     12.06      6.1        11.58      8.03       11.33      10.05      10.99      10.09      11.27      10.53      1          325.82     -286       -1295      0          34370.61  
2789.3     12.45      6.49       11.92      8.37       11.78      10.5       11.3       10.4       11.52      10.78      0          326.35     -286       -1299      0          34370.34  
2789.4     12.9       6.94       12.38      8.83       12.22      10.94      11.66      10.76      11.81      11.07      0          327.11     -286       -1305      0          34370.07  
2789.5     13.46      7.5        12.87      9.32       12.65      11.37      12.02      11.12      12.08      11.34      0          326.94     -286       -1315      0          34369.79  
2789.6     14.17      8.21       13.3       9.75       13.09      11.81      12.42      11.52      12.36      11.62      0          327.78     -286       -1327      0          34369.54  
2789.7     14.56      8.6        13.65      10.1       13.34      12.06      12.68      11.78      12.59      11.85      0          328.06     -286       -1327      0          34369.23  
2789.8     14.89      8.93       13.87      10.32      13.49      12.21      12.87      11.97      12.74      12         0          329.23     -286       -1323      0          34368.97  
2789.9     15.22      9.26       14.09      10.54      13.67      12.39      13.03      12.13      12.85      12.11      1          329.42     -286       -1316      0          34368.65  
2790       15.55      9.59       14.4       10.85      13.8       12.52      13.14      12.24      12.94      12.2       0          329.92     -286       -1301      0          34368.22  
2790.1     15.72      9.76       14.58      11.03      13.91      12.63      13.21      12.31      13.01      12.27      0          330.5      -286       -1285      0          34367.92  
2790.2     15.82      9.86       14.68      11.13      13.99      12.71      13.24      12.34      13.06      12.32      0          330.57     -286       -1284      0          34367.67  
2790.3     15.73      9.77       14.67      11.12      14.03      12.75      13.26      12.36      13.11      12.37      0          331.1      -286       -1308      0          34367.39  
2790.4     15.6       9.64       14.61      11.06      14.06      12.78      13.29      12.39      13.16      12.42      0          330.78     -286       -1324      0          34367.13  
2790.5     15.43      9.47       14.53      10.98      14.13      12.85      13.37      12.47      13.23      12.49      0          331.99     -286       -1318      0          34366.85  
2790.6     15.26      9.3        14.49      10.94      14.25      12.97      13.53      12.63      13.38      12.64      0          332.05     -286       -1309      0          34366.54  
2790.7     15.43      9.47       14.65      11.1       14.51      13.23      13.78      12.88      13.53      12.79      0          332.14     -286       -1299      0          34366.31  
2790.8     15.93      9.97       15.06      11.51      14.85      13.57      14.05      13.15      13.69      12.95      0          332.08     -286       -1289      0          34366.01  
2790.9     16.09      10.13      15.25      11.7       15.06      13.78      14.28      13.38      13.86      13.12      0          332.37     -286       -1292      0          34365.75  
2791       16.06      10.1       15.23      11.68      15.12      13.84      14.41      13.51      13.97      13.23      0          332.26     -286       -1297      0          34365.48  
2791.1     16.11      10.15      15.24      11.69      15.15      13.87      14.53      13.63      14.07      13.33      0          332.56     -286       -1303      0          34365.2   
2791.2     16.19      10.23      15.25      11.7       15.19      13.91      14.63      13.73      14.15      13.41      0          332.55     -286       -1311      0          34364.95  
2791.3     16.24      10.28      15.26      11.71      15.24      13.96      14.75      13.85      14.25      13.51      0          332.62     -286       -1324      0          34364.64  
2791.4     16.24      10.28      15.31      11.76      15.3       14.02      14.86      13.96      14.35      13.61      0          332.58     -286       -1336      0          34364.39  
2791.5     16.21      10.25      15.35      11.8       15.41      14.13      14.98      14.08      14.5       13.76      0          332.63     -286       -1334      0          34364.09  
2791.6     16.21      10.25      15.42      11.87      15.56      14.28      15.13      14.23      14.63      13.89      0          332.44     -286       -1332      0          34363.83  
2791.7     16.23      10.27      15.53      11.98      15.74      14.46      15.25      14.35      14.78      14.04      0          332.62     -286       -1329      0          34363.56  
2791.8     16.23      10.27      15.65      12.1       15.98      14.7       15.39      14.49      14.9       14.16      0          332.16     -286       -1324      0          34363.28  
2791.9     16.2       10.24      15.7       12.15      16.15      14.87      15.45      14.55      14.96      14.22      0          332.2      -286       -1319      0          34363.02  
2792       15.99      10.03      15.66      12.11      16.18      14.9       15.41      14.51      14.93      14.19      0          331.85     -286       -1312      0          34362.73  
2792.1     15.94      9.98       15.62      12.07      16.11      14.83      15.25      14.35      14.84      14.1       0          332.05     -286       -1302      0          34362.48  
2792.2     15.99      10.03      15.6       12.05      16.03      14.75      15.03      14.13      14.65      13.91      0          332.19     -286       -1290      0          34362.24  
2792.3     15.99      10.03      15.5       11.95      15.9       14.62      14.85      13.95      14.46      13.72      0          332.26     -286       -1288      0          34361.94  
2792.4     15.99      10.03      15.48      11.93      15.83      14.55      14.74      13.84      14.31      13.57      0          331.95     -286       -1291      0          34361.69  
2792.5     15.99      10.03      15.48      11.93      15.81      14.53      14.69      13.79      14.18      13.44      0          331.56     -286       -1295      0          34361.4   
2792.6     15.99      10.03      15.47      11.92      15.8       14.52      14.66      13.76      14.09      13.35      0          331.53     -286       -1301      0          34361.13  
2792.7     15.99      10.03      15.47      11.92      15.8       14.52      14.63      13.73      14.03      13.29      0          331.69     -286       -1294      0          34360.87  
2792.8     15.99      10.03      15.47      11.92      15.79      14.51      14.62      13.72      13.98      13.24      0          331.78     -286       -1275      0          34360.57  
2792.9     15.99      10.03      15.47      11.92      15.79      14.51      14.61      13.71      13.91      13.17      0          331.42     -286       -1267      0          34360.31  
2793       15.99      10.03      15.47      11.92      15.78      14.5       14.61      13.71      13.84      13.1       0          331.35     -286       -1263      0          34360.03  
2793.1     15.99      10.03      15.47      11.92      15.77      14.49      14.61      13.71      13.76      13.02      0          331.52     -286       -1257      0          34359.77  
2793.2     15.99      10.03      15.47      11.92      15.78      14.5       14.61      13.71      13.71      12.97      0          331.63     -286       -1248      0          34359.5   
