~Version
 VERS              .         2.0                           : CWLS LOG ASCII STANDARD - VERSION 2.0
 WRAP              .         NO                            : ONE LINE PER DEPTH STEP
 DLM               .         SPACE                         : DELIMITING CHARACTER(SPACE TAB OR COMMA)
~Well Information
#_______________________________________________________________________________
#
#PARAMETER_NAME    .UNIT     VALUE                         : DESCRIPTION
#_______________________________________________________________________________
STRT               .M        2645.6                        : First reference value
STOP               .M        2754.199837                   : Last reference value
STEP               .M        0.1999997                     : Step increment
NULL               .         -9999                         : Missing value
COMP               .                                       : Company
WELL               .         616                           : Well name
FLD                .                                       : Field
LOC                .                                       : Location
CNTY               .                                       : County
STAT               .                                       : State
CTRY               .                                       : Country
SRVC               .                                       : Service Company
DATE               .                                       : Date
API                .                                       : API number
PROJECT_UPGRADE_TIME .         2021-03-18T21_24_50           : 
group              .         Good                          : 
~Parameter Information Block
#_______________________________________________________________________________
#
#PARAMETER_NAME    .UNIT     VALUE                         : DESCRIPTION
#_______________________________________________________________________________
SET                .         D7026_D                       : 
OTHER              .         Kedr.exe версия 2.1.2.32      : 
OTHER_10           .         TM.GRD = 0.00404*TM$.UE + 0.07: 
OTHER_11           .         MN.ATM = (6.33279e-006*TM.GRD + 0.02401)*(MN$.UE + 2.72*TM.GRD + -2018): 
OTHER_12           .         GK.MKR/H = GK$.UE / 43.5489 + 0: 
OTHER_13           .         RES.SM = 0.00476*CRES.UE - 1.51709: 
OTHER_14           .         PL.GSM3 = 0 + 0 * (PL.UE / 1) +  0 * (PL.UE / 1)^2: 
OTHER_15           .         Постоянная времени ГГП = 6 сек: 
OTHER_16           .         Постоянная времени ГК = 6 сек : 
OTHER_2            .         KedrData.dll версия 3.2.2.14  : 
OTHER_3            .         LasInf.dll версия 3.2.0.13    : 
OTHER_4            .         Драйвер версия 1.2.0.5        : 
OTHER_5            .         Прибор_ КСА-M1                : 
OTHER_6            .         Номер прибора_ 155+р204       : 
OTHER_7            .         Режим_ КСА-М1 + ГГП + Резистивиметр: 
OTHER_8            .         Форма_ 223\2                  : 
OTHER_9            .         Тарировки_                    : 
PROJECT_UPGRADE_TIME .         2021-03-18T21_24_50           : 
TLFamily_CRES      .                                       : 
TLFamily_DEPT      .         Measured Depth                : 
TLFamily_GK        .         Gamma Ray                     : 
TLFamily_GK$       .                                       : 
TLFamily_LM        .         Casing Collar locator         : 
TLFamily_METKA     .                                       : 
TLFamily_MN        .                                       : 
TLFamily_MN$       .                                       : 
TLFamily_PL        .                                       : 
TLFamily_PL_2      .                                       : 
TLFamily_RCOR      .                                       : 
TLFamily_RES       .         Mud Resistivity               : 
TLFamily_SPID      .         Spontaneous Potential         : 
TLFamily_STD       .                                       : 
TLFamily_TIME      .         Time                          : 
TLFamily_TM        .         Temperature                   : 
TLFamily_TM$       .         Temperature                   : 
TLFamily_VGD       .         Gas Volume                    : 
group              .         prim                          : 
~Curve Information
#_______________________________________________________________________________
#
#LOGNAME           .UNIT     LOG_ID                        : DESCRIPTION
#_______________________________________________________________________________
DEPT               .M                                      : 1 Глубина, м -    0.0 см 
CRES               .UE                                     : 9 Проводимость, усл.ед. -  222.0 см 
GK                 .MKR/H                                  : 16 Гамма-активность, мкр./ч -  106.0 см 
GK$                .UE                                     : 13 Гамма-активность, усл.ед. -  106.0 см 
LM                 .                                       : 11 Локатор муфт,  -   16.0 см 
METKA              .                                       : 3 Метки,  -    0.0 см 
MN                 .ATM                                    : 15 Давление, атм. -  160.0 см 
MN$                .UE                                     : 7 Давление, усл.ед. -  160.0 см 
PL                 .UE                                     : 10 Плотность, усл.ед. -  270.0 см 
PL_2               .GSM3                                   : 18 Плотность, г./см3 -  270.0 см 
RCOR               .CM/KM                                  : 5 Коррекция по ролику, см/км -    0.0 см 
RES                .SM                                     : 17 Проводимость,  -  222.0 см 
SPID               .M/H                                    : 2 Скорость, м/час -    0.0 см 
STD                .                                       : 12 Приток,  -  170.0 см 
TIME               .S                                      : 4 Время, сек -    0.0 см 
TM                 .GRD                                    : 14 Температура, °C -  180.0 см 
TM$                .UE                                     : 6 Температура, усл.ед. -  180.0 см 
VGD                .                                       : 8 Влагомер,  -  170.0 см 
~Ascii
# ...
2678.399951 1229       9.49       408        67         0          246.375    11974      14         0          0          4.333      580        11086      17363.5    56.703     14018      6683      
2678.59995 1228       9.39       403        82         0          246.398    11975      14         0          0          4.3282     545        11085      17364.82   56.687     14014      6683      
2678.79995 1228       9.32       403        127        0          246.421    11976      14         0          0          4.3306     530        11082      17366.11   56.678     14012      6682      
2678.99995 1229       9.44       426        112        0          246.44     11977      14         0          0          4.333      580        11081      17367.4    56.668     14009      6683      
2679.19995 1228       9.61       426        84         0          246.467    11978      14         0          0          4.3282     580        11081      17368.72   56.658     14007      6683      
2679.399949 1227       10.04      466        105        0          246.476    11978      14         0          0          4.3244     580        11080      17369.99   56.646     14004      6682      
2679.599949 1227       10.36      466        100        0          246.488    11979      14         0          0          4.3258     569        11082      17371.3    56.636     14002      6682      
2679.799949 1227       10.58      471        115        0          246.511    11980      14         0          0          4.3234     487        11080      17372.67   56.619     13997      6682      
2679.999948 1226       10.7       471        129        0          246.535    11981      14         0          0          4.3187     545        11082      17373.94   56.61      13995      6682      
2680.199948 1226       10.44      435        112        1          246.546    11982      14         0          0          4.3203     510        11085      17375.8    56.602     13993      6683      
2680.399948 1226       10.22      435        70         0          246.574    11983      14         0          0          4.3166     580        11083      17377.12   56.596     13991      6683      
2680.599947 1226       10.09      434        57         0          246.579    11983      14         0          0          4.318      569        11079      17378.43   56.582     13988      6683      
2680.799947 1226       10.05      440        57         0          246.601    11984      14         0          0          4.3187     580        11071      17379.7    56.565     13984      6683      
2680.999947 1225       10.2       451        64         0          246.623    11985      14         0          0          4.316      580        11063      17381.02   56.548     13980      6683      
2681.199947 1226       10.25      445        43         0          246.642    11986      14         0          0          4.3187     557        11058      17382.33   56.531     13975      6682      
2681.399946 1226       10.23      445        50         0          246.667    11987      14         0          0          4.3187     522        11052      17383.58   56.521     13973      6683      
2681.599946 1226       10.16      436        62         0          246.664    11987      14         0          0          4.3187     580        11048      17384.85   56.498     13967      6681      
2681.799946 1226       10.09      436        1378       0          246.685    11988      14         0          0          4.3163     557        11042      17386.16   56.476     13962      6683      
2681.999945 1226       9.87       416        846        0          246.707    11989      14         0          0          4.3187     560        11036      17387.52   56.448     13955      6683      
2682.199945 1225       9.71       416        138        0          246.725    11990      14         0          0          4.3147     580        11033      17388.81   56.428     13950      6683      
2682.399945 1224       9.7        422        47         0          246.752    11991      14         0          0          4.3098     580        11031      17390.13   56.413     13946      6681      
2682.599944 1224       9.69       422        33         0          246.783    11992      14         0          0          4.3108     580        11031      17391.39   56.4       13943      6683      
2682.799944 1226       9.81       435        38         0          246.798    11993      14         0          0          4.3163     560        11035      17392.67   56.39      13941      6682      
2682.999944 1225       9.9        435        29         0          246.797    11993      14         0          0          4.3139     510        11036      17393.96   56.384     13939      6684      
2683.199944 1225       10.16      455        34         0          246.819    11994      14         0          0          4.3139     533        11034      17395.29   56.375     13937      6683      
2683.399943 1225       10.33      462        27         0          246.84     11995      14         0          0          4.3139     533        11029      17396.61   56.351     13931      6684      
2683.599943 1225       10.76      488        27         0          246.862    11996      14         0          0          4.3139     580        11023      17397.93   56.324     13924      6684      
2683.799943 1224       10.99      488        34         0          246.884    11997      14         0          0          4.3091     580        11016      17399.19   56.308     13920      6683      
2683.999942 1225       10.84      464        16         0          246.891    11997      14         0          0          4.3139     540        11011      17400.48   56.295     13917      6684      
2684.199942 1224       10.7       453        15         0          246.93     11999      14         0          0          4.3091     522        11008      17401.83   56.281     13914      6683      
2684.399942 1225       10.28      430        21         0          246.945    12000      14         0          0          4.3123     580        11003      17403.1    56.268     13910      6684      
2684.599942 1224       10.1       433        28         0          246.974    12001      14         0          0          4.3091     534        10999      17404.41   56.251     13906      6683      
2684.799941 1223       10.02      433        23         0          246.972    12001      14         0          0          4.3052     550        10997      17405.69   56.238     13903      6683      
2684.999941 1222       10.02      443        24         0          246.995    12002      14         0          0          4.301      510        10997      17406.99   56.221     13899      6684      
2685.199941 1223       10.2       452        22         0          247.018    12003      14         0          0          4.3044     580        10998      17408.3    56.207     13895      6685      
2685.39994 1223       10.31      457        19         0          247.042    12004      14         0          0          4.3044     580        10997      17409.56   56.202     13894      6684      
2685.59994 1223       10.4       457        20         0          247.064    12005      14         0          0          4.3028     580        10997      17410.87   56.193     13892      6684      
2685.79994 1223       10.75      502        38         0          247.083    12006      14         0          0          4.3044     510        10994      17412.14   56.18      13889      6684      
2685.999939 1223       11.14      502        40         0          247.11     12007      14         0          0          4.3044     568        10991      17413.46   56.166     13885      6683      
2686.199939 1223       11.73      551        31         0          247.133    12008      14         0          0          4.3044     580        10987      17414.77   56.157     13883      6684      
2686.399939 1222       12.18      551        18         0          247.13     12008      14         0          0          4.2996     510        10980      17416.04   56.144     13880      6683      
