~Version
 VERS              .         2.0                           : CWLS LOG ASCII STANDARD - VERSION 2.0
 WRAP              .         NO                            : ONE LINE PER DEPTH STEP
 DLM               .         SPACE                         : DELIMITING CHARACTER(SPACE TAB OR COMMA)
~Well Information
#_______________________________________________________________________________
#
#PARAMETER_NAME    .UNIT     VALUE                         : DESCRIPTION
#_______________________________________________________________________________
STRT               .M        1.8                           : First reference value
STOP               .M        2776                          : Last reference value
STEP               .M        0.2                           : Step increment
NULL               .         -9999                         : Missing value
COMP               .                                       : Company
WELL               .         616                           : Well name
FLD                .                                       : Field
LOC                .                                       : Location
CNTY               .                                       : County
STAT               .                                       : State
CTRY               .                                       : Country
SRVC               .                                       : Service Company
DATE               .                                       : Date
API                .                                       : API number
PROJECT_UPGRADE_TIME .         2021-03-18T21_24_50           : 
group              .         Good                          : 
~Parameter Information Block
#_______________________________________________________________________________
#
#PARAMETER_NAME    .UNIT     VALUE                         : DESCRIPTION
#_______________________________________________________________________________
SET                .         D1799_D                       : 
OTHER              .         Программное обеспечение станции MONITOR-386EX 25/12/99 15_08_10   BGF V52 22/08/01 16_56_30   3.1_SNGF___BGF_N_092049: 
OTHER_10           .         Тарировки_                    : 
OTHER_11           .         TM.GRD = 0.00403*TM$.UE + -1.07: 
OTHER_12           .         MN.ATM = (9.34907e-006*TM.GRD + 0.02171)*(MN$.UE + -7.93*TM.GRD + -1787): 
OTHER_13           .         GK.MKR/H = LM. / 42.4676      : 
OTHER_14           .         GK.FLT = 0.1*GK.MKR/H[-1] + (1-0.1)*GK.MKR/H[0]: 
OTHER_2            .         Kedr.exe версия 3.4.2.51      : 
OTHER_3            .         KedrData.dll версия 3.4.2.24  : 
OTHER_4            .         Драйвер версия 2.1.1.3        : 
OTHER_5            .         Мнемоники версия 3.3 S        : 
OTHER_6            .         Прибор_ КСА-Т4                : 
OTHER_7            .         Номер прибора_ 03             : 
OTHER_8            .         Режим_ КСА-Т4                 : 
OTHER_9            .         Форма_ КВА.                   : 
PROJECT_UPGRADE_TIME .         2021-03-18T21_24_49           : 
TLFamily_DEPT      .         Measured Depth                : 
TLFamily_GK        .         Gamma Ray                     : 
TLFamily_GK$       .                                       : 
TLFamily_GK_2      .         Gamma Ray                     : 
TLFamily_LM        .         Casing Collar locator         : 
TLFamily_METKA     .                                       : 
TLFamily_MN        .                                       : 
TLFamily_MN$       .                                       : 
TLFamily_RCOR      .                                       : 
TLFamily_SPID      .         Spontaneous Potential         : 
TLFamily_TENS      .         Cable Tension                 : 
TLFamily_TIME      .         Time                          : 
TLFamily_TM        .         Temperature                   : 
TLFamily_TM$       .         Temperature                   : 
group              .         prim                          : 
~Curve Information
#_______________________________________________________________________________
#
#LOGNAME           .UNIT     LOG_ID                        : DESCRIPTION
#_______________________________________________________________________________
DEPT               .M                                      : 1 Глубина, м -    0.0 см 
GK                 .MKR/H                                  : 13 Гамма-активность, мкр./ч -  110.0 см 
GK$                .UE                                     : 10 Гамма-активность, усл.ед. -  110.0 см 
GK_2               .FLT                                    : 14 Гамма-активность фильтрованная, мкр./ч -  110.0 см 
LM                 .                                       : 9 Локатор муфт,  -   20.0 см 
METKA              .                                       : 3 Метки,  -    0.0 см 
MN                 .ATM                                    : 12 Давление, атм. -  160.0 см 
MN$                .UE                                     : 8 Давление, усл.ед. -  160.0 см 
RCOR               .CM/KM                                  : 5 Коррекция по ролику, см/км -    0.0 см 
SPID               .M/H                                    : 2 Скорость, м/час -    0.0 см 
TENS               .T                                      : 6 Натяжение кабеля, т -    0.0 см 
TIME               .S                                      : 4 Время, сек -    0.0 см 
TM                 .GRD                                    : 11 Температура, °C -  170.0 см 
TM$                .UE                                     : 7 Температура, усл.ед. -  170.0 см 
~Ascii
# ...
189        2.52       107        2.52       550        0          18.429     2781       -625       1956       -0.77      737.76     19.137     5014      
189.2      2.51       107        2.51       557        0          18.45      2782       -625       1959       -0.77      738.11     19.141     5015      
189.4      2.5        106        2.5        588        0          18.471     2783       -625       1955       -0.77      738.47     19.145     5016      
189.6      2.5        106        2.5        707        0          18.495     2784       -625       1957       -0.77      738.83     19.149     5017      
189.8      2.5        106        2.5        684        0          18.517     2785       -625       1960       -0.77      739.19     19.154     5018      
190        2.5        106        2.5        661        0          18.52      2785       -625       1962       -0.77      739.59     19.158     5019      
190.2      2.5        106        2.5        665        2          18.558     2787       -630       1964       -0.77      740.05     19.162     5020      
190.4      2.5        106        2.5        644        0          18.583     2788       -630       1969       -0.77      740.42     19.166     5021      
190.6      2.75       117        2.66       702        0          18.583     2788       -630       1972       -0.77      740.77     19.172     5023      
190.8      3.06       130        2.91       717        0          18.603     2789       -630       1966       -0.77      741.14     19.179     5024      
191        3.06       130        3.01       711        0          18.624     2790       -630       1964       -0.77      741.51     19.181     5025      
191.2      3.06       130        3.05       670        0          18.645     2791       -630       1966       -0.77      741.86     19.184     5026      
191.4      3.06       130        3.06       614        0          18.666     2792       -630       1967       -0.77      742.22     19.191     5027      
191.6      3.06       130        3.06       594        0          18.67      2792       -630       1963       -0.77      742.58     19.195     5029      
191.8      3.06       130        3.06       633        0          18.709     2794       -630       1952       -0.77      742.97     19.203     5031      
192        3.51       149        3.34       663        0          18.726     2795       -630       1954       -0.77      743.34     19.209     5032      
192.2      3.53       150        3.46       639        0          18.751     2796       -630       1955       -0.77      743.7      19.213     5033      
192.4      3.53       150        3.51       623        0          18.76      2796       -630       1952       -0.77      744.06     19.217     5034      
192.6      3.53       150        3.52       614        0          18.782     2797       -630       1952       -0.77      744.43     19.221     5035      
192.8      3.53       150        3.53       611        0          18.803     2798       -630       1955       -0.77      744.8      19.225     5036      
193        3.53       150        3.53       561        0          18.824     2799       -630       1958       -0.77      745.14     19.229     5037      
193.2      3.56       151        3.55       549        0          18.835     2800       -630       1956       -0.77      745.52     19.233     5038      
193.4      3.79       161        3.7        3821       0          18.859     2801       -630       1952       -0.77      745.91     19.237     5039      
193.6      3.79       161        3.76       6841       0          18.878     2802       -630       1953       -0.77      746.27     19.242     5040      
193.8      3.79       161        3.78       4391       0          18.89      2803       -630       1952       -0.77      746.63     19.246     5041      
194        3.79       161        3.79       2863       0          18.912     2804       -630       1948       -0.77      746.99     19.25      5042      
194.2      3.79       161        3.79       1887       0          18.933     2805       -630       1950       -0.77      747.35     19.254     5043      
194.4      3.79       161        3.79       1312       0          18.941     2805       -630       1953       -0.77      747.71     19.258     5044      
194.6      3.7        157        3.73       959        0          18.954     2806       -630       1956       -0.77      748.07     19.263     5045      
194.8      3.41       145        3.53       769        0          18.991     2807       -630       1953       -0.77      748.46     19.27      5047      
195        3.41       145        3.46       670        0          19.02      2809       -630       1955       -0.77      748.82     19.274     5048      
195.2      3.41       145        3.43       688        0          19.025     2809       -630       1958       -0.77      749.18     19.278     5049      
195.4      3.41       145        3.42       662        0          19.041     2810       -630       1955       -0.77      749.56     19.281     5050      
195.6      3.41       145        3.42       600        0          19.063     2811       -630       1956       -0.77      749.9      19.283     5050      
195.8      3.41       145        3.42       638        0          19.084     2812       -630       1959       -0.77      750.3      19.287     5051      
196        3.21       136        3.28       559        0          19.105     2813       -630       1961       -0.77      750.66     19.292     5053      
196.2      2.83       120        2.99       558        0          19.126     2814       -630       1963       -0.77      751.02     19.299     5054      
196.4      2.83       120        2.89       557        0          19.13      2814       -630       1965       -0.77      751.39     19.304     5056      
196.6      2.83       120        2.85       614        0          19.147     2815       -630       1960       -0.77      751.75     19.313     5058      
196.8      2.83       120        2.83       694        0          19.168     2816       -630       1956       -0.77      752.11     19.319     5059      
197        2.83       120        2.83       660        0          19.19      2817       -630       1953       -0.77      752.47     19.323     5060      
197.2      2.83       120        2.83       635        0          19.212     2818       -630       1956       -0.77      752.83     19.327     5061      
197.4      3.07       131        2.98       635        0          19.235     2819       -630       1958       -0.77      753.19     19.332     5062      
197.6      3.3        140        3.18       636        0          19.256     2820       -630       1960       -0.77      753.55     19.338     5064      
197.8      3.3        140        3.26       665        0          19.277     2821       -630       1962       -0.77      753.92     19.342     5065      
198        3.3        140        3.28       802        0          19.278     2821       -630       1963       -0.77      754.32     19.344     5066      
198.2      3.3        140        3.29       766        0          19.298     2822       -630       1958       -0.77      754.69     19.35      5067      
198.4      3.3        140        3.29       757        0          19.321     2823       -630       1954       -0.77      755.04     19.356     5069      
198.6      3.3        140        3.3        738        0          19.362     2825       -630       1953       -0.77      755.4      19.36      5070      
198.8      3.85       163        3.64       681        0          19.363     2825       -630       1956       -0.77      755.76     19.365     5071      
199        4.21       179        4.03       629        0          19.384     2826       -630       1958       -0.77      756.12     19.371     5072      
199.2      4.21       179        4.15       683        0          19.403     2827       -630       1960       -0.77      756.48     19.377     5074      
