~Version
 VERS              .         2.0                           : CWLS LOG ASCII STANDARD - VERSION 2.0
 WRAP              .         NO                            : ONE LINE PER DEPTH STEP
 DLM               .         SPACE                         : DELIMITING CHARACTER(SPACE TAB OR COMMA)
~Well Information
#_______________________________________________________________________________
#
#PARAMETER_NAME    .UNIT     VALUE                         : DESCRIPTION
#_______________________________________________________________________________
STRT               .M        10.2                          : First reference value
STOP               .M        2757.4                        : Last reference value
STEP               .M        0.2                           : Step increment
NULL               .         -9999                         : Missing value
COMP               .                                       : Company
WELL               .         616                           : Well name
FLD                .                                       : Field
LOC                .                                       : Location
CNTY               .                                       : County
STAT               .                                       : State
CTRY               .                                       : Country
SRVC               .                                       : Service Company
DATE               .                                       : Date
API                .                                       : API number
PROJECT_UPGRADE_TIME .         2021-03-18T21_24_50           : 
group              .         Good                          : 
~Parameter Information Block
#_______________________________________________________________________________
#
#PARAMETER_NAME    .UNIT     VALUE                         : DESCRIPTION
#_______________________________________________________________________________
SET                .         D7016_D                       : 
OTHER              .         Kedr.exe версия 2.1.2.32      : 
OTHER_10           .         TM.GRD = 0.00404*TM$.UE + 0.07: 
OTHER_11           .         MN.ATM = (6.33279e-006*TM.GRD + 0.02401)*(MN$.UE + 2.72*TM.GRD + -2018): 
OTHER_12           .         GK.MKR/H = GK$.UE / 43.5489 + 0: 
OTHER_13           .         RES.SM = 0.00476*CRES.UE - 1.51709: 
OTHER_14           .         PL.GSM3 = 0 + 0 * (PL.UE / 1) +  0 * (PL.UE / 1)^2: 
OTHER_15           .         Постоянная времени ГГП = 6 сек: 
OTHER_16           .         Постоянная времени ГК = 6 сек : 
OTHER_2            .         KedrData.dll версия 3.2.2.14  : 
OTHER_3            .         LasInf.dll версия 3.2.0.13    : 
OTHER_4            .         Драйвер версия 1.2.0.5        : 
OTHER_5            .         Прибор_ КСА-M1                : 
OTHER_6            .         Номер прибора_ 155+р204       : 
OTHER_7            .         Режим_ КСА-М1 + ГГП + Резистивиметр: 
OTHER_8            .         Форма_ 223\2                  : 
OTHER_9            .         Тарировки_                    : 
PROJECT_UPGRADE_TIME .         2021-03-18T21_24_50           : 
TLFamily_CRES      .                                       : 
TLFamily_DEPT      .         Measured Depth                : 
TLFamily_GK        .         Gamma Ray                     : 
TLFamily_GK$       .                                       : 
TLFamily_LM        .         Casing Collar locator         : 
TLFamily_METKA     .                                       : 
TLFamily_MN        .                                       : 
TLFamily_MN$       .                                       : 
TLFamily_PL        .                                       : 
TLFamily_PL_2      .                                       : 
TLFamily_RCOR      .                                       : 
TLFamily_RES       .         Mud Resistivity               : 
TLFamily_SPID      .         Spontaneous Potential         : 
TLFamily_STD       .                                       : 
TLFamily_TIME      .         Time                          : 
TLFamily_TM        .         Temperature                   : 
TLFamily_TM$       .         Temperature                   : 
TLFamily_VGD       .         Gas Volume                    : 
group              .         prim                          : 
~Curve Information
#_______________________________________________________________________________
#
#LOGNAME           .UNIT     LOG_ID                        : DESCRIPTION
#_______________________________________________________________________________
DEPT               .M                                      : 1 Глубина, м -    0.0 см 
CRES               .UE                                     : 9 Проводимость, усл.ед. -  270.0 см 
GK                 .MKR/H                                  : 16 Гамма-активность, мкр./ч -  106.0 см 
GK$                .UE                                     : 13 Гамма-активность, усл.ед. -  106.0 см 
LM                 .                                       : 11 Локатор муфт,  -   16.0 см 
METKA              .                                       : 3 Метки,  -    0.0 см 
MN                 .ATM                                    : 15 Давление, атм. -  160.0 см 
MN$                .UE                                     : 7 Давление, усл.ед. -  160.0 см 
PL                 .UE                                     : 10 Плотность, усл.ед. -  270.0 см 
PL_2               .GSM3                                   : 18 Плотность, г./см3 -  270.0 см 
RCOR               .CM/KM                                  : 5 Коррекция по ролику, см/км -    0.0 см 
RES                .SM                                     : 17 Проводимость,  -  270.0 см 
SPID               .M/H                                    : 2 Скорость, м/час -    0.0 см 
STD                .                                       : 12 Приток,  -  170.0 см 
TIME               .S                                      : 4 Время, сек -    0.0 см 
TM                 .GRD                                    : 14 Температура, °C -  180.0 см 
TM$                .UE                                     : 6 Температура, усл.ед. -  180.0 см 
VGD                .                                       : 8 Влагомер,  -  170.0 см 
~Ascii
# ...
190.6      904        2.58       117        597        0          18.312     2733       14         0          0          2.7879     1660       3181       2010.35    16.286     4014       6660      
190.8      904        2.62       122        399        0          18.333     2734       15         0          0          2.7859     1660       3182       2010.77    16.29      4015       6644      
191        904        2.69       127        349        0          18.355     2735       14         0          0          2.7859     1660       3183       2011.2     16.287     4014       6645      
191.2      904        2.75       127        363        0          18.382     2736       14         0          0          2.7868     1691       3184       2011.64    16.288     4014       6639      
191.4      905        2.79       127        7636       0          18.402     2737       15         0          0          2.7907     1689       3184       2012.06    16.291     4015       6641      
191.6      905        2.82       127        4829       0          18.43      2738       14         0          0          2.7907     1660       3185       2012.5     16.294     4016       6635      
191.8      904        2.75       106        3080       0          18.445     2739       15         0          0          2.7873     1660       3187       2012.93    16.295     4016       6631      
192        904        2.65       100        1338       0          18.456     2739       15         0          0          2.7859     1660       3186       2013.38    16.302     4018       6628      
192.2      905        2.57       100        931        0          18.479     2740       15         0          0          2.7907     1660       3188       2013.8     16.313     4021       6638      
192.4      905        2.52       100        760        0          18.504     2741       14         0          0          2.7907     1660       3189       2014.22    16.319     4022       6644      
192.6      905        2.47       100        591        0          18.512     2741       14         0          0          2.7927     1660       3190       2014.66    16.319     4022       6642      
192.8      906        2.43       100        557        0          18.54      2742       15         0          0          2.7955     1714       3193       2015.08    16.322     4023       6648      
193        906        2.38       96         466        0          18.568     2744       15         0          0          2.7955     1730       3193       2015.5     16.331     4025       6624      
193.2      906        2.34       95         483        0          18.578     2744       14         0          0          2.7936     1660       3193       2015.94    16.338     4027       6645      
193.4      905        2.31       95         505        0          18.601     2745       14         0          0          2.7907     1660       3193       2016.37    16.334     4026       6620      
193.6      904        2.28       95         649        0          18.626     2746       14         0          0          2.784      1660       3194       2016.82    16.342     4028       6621      
193.8      905        2.26       95         584        0          18.634     2746       14         0          0          2.7896     1660       3195       2017.25    16.34      4027       6627      
194        904        2.24       95         472        0          18.662     2747       15         0          0          2.7859     1660       3196       2017.68    16.345     4029       6634      
194.2      904        2.27       106        504        0          18.676     2748       15         0          0          2.7859     1664       3196       2018.12    16.351     4030       6639      
194.4      904        2.33       109        688        0          18.695     2749       14         0          0          2.7876     1730       3197       2018.55    16.359     4032       6644      
194.6      905        2.36       109        723        0          18.723     2750       14         0          0          2.7907     1681       3198       2018.98    16.366     4034       6644      
194.8      906        2.39       109        598        0          18.729     2750       14         0          0          2.7941     1668       3200       2019.4     16.375     4036       6649      
195        905        2.42       109        526        0          18.75      2751       14         0          0          2.7913     1730       3200       2019.83    16.384     4038       6646      
195.2      906        2.44       109        410        0          18.763     2752       14         0          0          2.7955     1668       3202       2020.26    16.389     4039       6651      
195.4      906        2.49       118        551        0          18.792     2753       14         0          0          2.7955     1660       3202       2020.71    16.396     4041       6653      
195.6      906        2.55       120        691        0          18.82      2754       14         0          0          2.7955     1660       3203       2021.14    16.403     4043       6653      
195.8      906        2.59       120        839        0          18.826     2754       15         0          0          2.7955     1660       3204       2021.58    16.41      4045       6652      
196        906        2.63       120        785        0          18.853     2755       15         0          0          2.7955     1660       3206       2022       16.416     4046       6655      
196.2      906        2.66       120        710        0          18.883     2756       15         0          0          2.7955     1660       3208       2022.44    16.421     4047       6655      
196.4      906        2.69       123        729        0          18.898     2757       15         0          0          2.7955     1660       3208       2022.87    16.427     4049       6655      
196.6      906        2.72       124        610        0          18.915     2758       15         0          0          2.7955     1668       3209       2023.29    16.432     4050       6654      
196.8      906        2.75       124        580        0          18.923     2758       14         0          0          2.7955     1730       3210       2023.72    16.438     4051       6647      
197        906        2.77       124        712        0          18.949     2759       15         0          0          2.7955     1697       3211       2024.16    16.444     4053       6655      
197.2      907        2.79       124        635        0          18.972     2760       14         0          0          2.7991     1660       3212       2024.6     16.452     4055       6654      
197.4      906        2.8        124        644        0          18.983     2760       14         0          0          2.7955     1660       3213       2025.03    16.457     4056       6655      
197.6      907        2.85       132        488        0          19.011     2762       14         0          0          2.7999     1660       3215       2025.45    16.462     4057       6654      
197.8      906        2.9        135        531        0          19.022     2762       15         0          0          2.7969     1660       3215       2025.9     16.467     4059       6655      
198        907        2.95       135        583        0          19.045     2763       15         0          0          2.798      1660       3216       2026.32    16.475     4061       6655      
198.2      907        2.98       135        516        0          19.073     2764       14         0          0          2.7985     1695       3217       2026.74    16.48      4062       6654      
198.4      907        3.01       135        618        0          19.095     2765       15         0          0          2.8002     1730       3218       2027.17    16.485     4063       6654      
198.6      907        3.03       135        666        0          19.107     2765       14         0          0          2.8002     1730       3219       2027.59    16.49      4064       6656      
