~Version
 VERS              .         2.0                           : CWLS LOG ASCII STANDARD - VERSION 2.0
 WRAP              .         NO                            : ONE LINE PER DEPTH STEP
 DLM               .         SPACE                         : DELIMITING CHARACTER(SPACE TAB OR COMMA)
~Well Information
#_______________________________________________________________________________
#
#PARAMETER_NAME    .UNIT     VALUE                         : DESCRIPTION
#_______________________________________________________________________________
STRT               .M        10.2                          : First reference value
STOP               .M        2774.8                        : Last reference value
STEP               .M        0.2                           : Step increment
NULL               .         -9999                         : Missing value
COMP               .                                       : Company
WELL               .         616                           : Well name
FLD                .                                       : Field
LOC                .                                       : Location
CNTY               .                                       : County
STAT               .                                       : State
CTRY               .                                       : Country
SRVC               .                                       : Service Company
DATE               .                                       : Date
API                .                                       : API number
PROJECT_UPGRADE_TIME .         2021-03-18T21_24_50           : 
group              .         Good                          : 
~Parameter Information Block
#_______________________________________________________________________________
#
#PARAMETER_NAME    .UNIT     VALUE                         : DESCRIPTION
#_______________________________________________________________________________
SET                .         D1813_D_2                     : 
NPR                .                                       : 
OTHER              .         Программное обеспечение станции MONITOR-386EX 25/12/99 15_08_10   BGF V52 22/08/01 16_56_30   3.1_SNGF___BGF_N_092049: 
OTHER_10           .         Тарировки_                    : 
OTHER_11           .         TM.GRD = 0.00403*TM$.UE + -1.07: 
OTHER_12           .         MN.ATM = (9.34907e-006*TM.GRD + 0.02171)*(MN$.UE + -7.93*TM.GRD + -1787): 
OTHER_13           .         GK.MKR/H = LM. / 42.4676      : 
OTHER_14           .         GK.FLT = 0.1*GK.MKR/H[-1] + (1-0.1)*GK.MKR/H[0]: 
OTHER_2            .         Kedr.exe версия 3.4.2.51      : 
OTHER_3            .         KedrData.dll версия 3.4.2.24  : 
OTHER_4            .         Драйвер версия 2.1.1.3        : 
OTHER_5            .         Мнемоники версия 3.3 S        : 
OTHER_6            .         Прибор_ КСА-Т4                : 
OTHER_7            .         Номер прибора_ 03             : 
OTHER_8            .         Режим_ КСА-Т4                 : 
OTHER_9            .         Форма_ КВА.                   : 
PR                 .                                       : 
PROJECT_UPGRADE_TIME .         2021-03-18T21_24_49           : 
PRTY               .         ПП-603-1                      : N партии
SRV                .                                       : 
SRVC               .         Карпов                        : Начальник партии
TLFamily_DEPT      .         Measured Depth                : 
TLFamily_LM        .         Casing Collar locator         : 
TLFamily_MN        .                                       : 
TLFamily_TM        .         Temperature                   : 
group              .         second                        : 
~Curve Information
#_______________________________________________________________________________
#
#LOGNAME           .UNIT     LOG_ID                        : DESCRIPTION
#_______________________________________________________________________________
DEPT               .M                                      : Depth curve 
LM                 .е.ацп                                  : Локатор муфт,е.ацп 
MN                 .атм                                    : Манометрия, атм 
TM                 .град.C                                 : Термограмма по стволу скважины,град.C 
~Ascii
# ...
1102.2     1588.007   100.192    37.738    
1102.4     1675       100.227    37.742    
1102.6     1675.02    100.243    37.747    
1102.8     1927.996   100.246    37.752    
1103       1882.983   100.256    37.755    
1103.2     1672.017   100.273    37.759    
1103.4     1888       100.29     37.762    
1103.6     1887.991   100.326    37.767    
1103.8     1776.009   100.332    37.771    
1104       1887.001   100.343    37.772    
1104.2     1902.996   100.36     37.775    
1104.4     1850       100.377    37.781    
1104.6     1850.011   100.394    37.785    
1104.8     1984.987   100.412    37.789    
1105       1818.009   100.428    37.793    
1105.2     1933.015   100.445    37.799    
1105.4     2124       100.463    37.802    
1105.6     2123.987   100.482    37.799    
1105.8     1964.981   100.497    37.802    
1106       1728.996   100.513    37.816    
1106.2     1685.004   100.531    37.819    
1106.4     1733.02    100.549    37.823    
1106.6     1980       100.567    37.828    
1106.8     1980.008   100.583    37.832    
1107       2082.002   100.6      37.833    
1107.2     2110.004   100.618    37.839    
1107.4     2163.988   100.636    37.84     
1107.6     2020       100.651    37.844    
1107.8     2020.004   100.669    37.848    
1108       2063.981   100.687    37.849    
1108.2     1823.003   100.704    37.856    
1108.4     1865       100.72     37.859    
1108.6     1865.008   100.738    37.862    
1108.8     1970.001   100.756    37.865    
1109       1981.023   100.773    37.87     
1109.2     2264.018   100.79     37.876    
1109.4     2492.027   100.806    37.879    
1109.6     2828       100.825    37.882    
1109.8     2828.07    100.842    37.886    
1110       3688.114   100.858    37.89     
1110.2     5092.178   100.875    37.896    
1110.4     7293.566   100.893    37.899    
1110.6     1938       100.91     37.903    
1110.8     1938.012   100.927    37.908    
1111       2082.01    100.945    37.912    
1111.2     2202.995   100.963    37.913    
1111.4     2135.983   100.974    37.916    
1111.6     1930       100.973    37.921    
1111.8     1930.003   101.01     37.926    
1112       1972.032   101.031    37.929    
1112.2     2362.972   101.048    37.933    
1112.4     2018.991   101.064    37.936    
1112.6     1914       101.082    37.941    
1112.8     1914.014   101.1      37.946    
1113       2091.005   101.116    37.95     
1113.2     2153.004   101.133    37.952    
1113.4     2197.978   101.151    37.956    
1113.6     1924       101.169    37.962    
1113.8     1924.016   101.184    37.966    
1114       2127.002   101.201    37.969    
1114.2     2150.031   101.22     37.973    
1114.4     2534.068   101.238    37.976    
1114.6     3369       101.255    37.98     
1114.8     3368.902   101.27     37.985    
1115       2161.941   101.289    37.99     
1115.2     1438.972   101.306    37.993    
1115.4     1093.016   101.323    37.996    
1115.6     1295       101.338    38.002    
1115.8     1295.015   101.337    38.007    
1116       1476.999   101.368    38.01     
1116.2     1458.986   101.391    38.013    
1116.4     1282.011   101.408    38.016    
1116.6     1420       101.426    38.023    
1116.8     1419.992   101.443    38.027    
1117       1316.005   101.46     38.03     
1117.2     1377.003   101.477    38.034    
1117.4     1418.985   101.495    38.037    
1117.6     1233       101.512    38.04     
1117.8     1233.006   101.529    38.043    
1118       1303.022   101.546    38.046    
1118.2     1574.025   101.564    38.05     
1118.4     1880.978   101.581    38.053    
1118.6     1609       101.598    38.059    
1118.8     1609.007   101.615    38.063    
1119       1696.989   101.632    38.067    
1119.2     1559.985   101.649    38.07     
1119.4     1377.006   101.666    38.073    
1119.6     1449       101.683    38.079    
1119.8     1449.013   101.7      38.084    
1120       1609.007   101.718    38.087    
1120.2     1694.007   101.735    38.09     
1120.4     1785.028   101.752    38.097    
1120.6     2132       101.769    38.098    
1120.8     2132.061   101.785    38.102    
1121       2879.072   101.804    38.107    
1121.2     3763.13    101.809    38.11     
1121.4     5352.218   101.821    38.113    
1121.6     8012       101.852    38.116    
1121.8     8011.445   101.851    38.122    
1122       1237.002   101.882    38.126    
1122.2     1258       101.905    38.126    
1122.4     1257.004   101.916    38.133    
1122.6     1305       101.918    38.137    
1122.8     1304.999   101.935    38.14     
1123       1297.01    101.967    38.143    
1123.2     1423.011   101.98     38.147    
1123.4     1552.005   101.987    38.153    
1123.6     1609       102.005    38.157    
1123.8     1609.038   102.04     38.16     
1124       2074.051   102.06     38.163    
1124.2     2699.06    102.066    38.167    
1124.4     3427.109   102.078    38.17     
1124.6     4759       102.111    38.176    
1124.8     4758.884   102.129    38.18     
1125       3349.914   102.13     38.185    
1125.2     2296.919   102.14     38.191    
1125.4     1313.008   102.164    38.194    
1125.6     1410       102.194    38.2      
1125.8     1409.995   102.194    38.202    
1126       1354.014   102.209    38.203    
1126.2     1518.993   102.226    38.207    
1126.4     1429.999   102.243    38.214    
1126.6     1417       102.26     38.217    
1126.8     1416.993   102.277    38.22     
1127       1329.98    102.295    38.224    
1127.2     1091.998   102.313    38.227    
1127.4     1065.009   102.33     38.23     
1127.6     1175       102.346    38.233    
1127.8     1175.007   102.364    38.239    
1128       1265.999   102.382    38.244    
1128.2     1258.002   102.398    38.247    
1128.4     1278.993   102.415    38.25     
1128.6     1188       102.432    38.256    
1128.8     1187.993   102.451    38.259    
1129       1101.998   102.466    38.261    
1129.2     1076.006   102.483    38.267    
1129.4     1145.008   102.501    38.271    
1129.6     1245       102.519    38.274    
1129.8     1244.988   102.536    38.277    
1130       1098.005   102.553    38.28     
1130.2     1155.018   102.57     38.284    
1130.4     1376.005   102.588    38.291    
1130.6     1434.996   102.605    38.294    
1130.8     1392       102.621    38.297    
1131       1392.009   102.639    38.302    
1131.2     1499.02    102.656    38.308    
1131.4     1742.037   102.673    38.311    
1131.6     2195       102.69     38.314    
1131.8     2195.04    102.708    38.317    
1132       2677.094   102.726    38.321    
1132.2     3810.157   102.743    38.324    
1132.4     5707.84    102.759    38.327    
1132.6     3768.825   102.776    38.337    
1132.8     1650       102.794    38.339    
1133       1649.997   102.811    38.341    
1133.2     1611.007   102.828    38.344    
1133.4     1700.009   102.845    38.347    
1133.6     1806.005   102.862    38.354    
1133.8     1861       102.88     38.358    
1134       1861.016   102.895    38.363    
1134.2     2052.054   102.913    38.368    
1134.4     2704.029   102.931    38.372    
1134.6     3054       102.948    38.375    
1134.8     3054.087   102.964    38.378    
1135       4100.891   102.982    38.382    
1135.2     2779.897   102.986    38.389    
1135.4     1534.964   103.003    38.392    
1135.6     1105.002   103.033    38.395    
1135.8     1134       103.051    38.398    
1136       1134.001   103.068    38.401    
1136.2     1151.991   103.085    38.405    
1136.4     1048.999   103.102    38.412    
1136.6     1037.008   103.119    38.415    
1136.8     1133       103.137    38.416    
1137       1133.003   103.153    38.419    
1137.2     1163.993   103.171    38.425    
1137.4     1079.003   103.188    38.428    
1137.6     1114.997   103.206    38.431    
1137.8     1080       103.224    38.435    
1138       1080.008   103.24     38.439    
1138.2     1174.99    103.257    38.445    
1138.4     1060.011   103.274    38.448    
