~Version
 VERS              .         2.0                           : CWLS LOG ASCII STANDARD - VERSION 2.0
 WRAP              .         NO                            : ONE LINE PER DEPTH STEP
 DLM               .         SPACE                         : DELIMITING CHARACTER(SPACE TAB OR COMMA)
~Well Information
#_______________________________________________________________________________
#
#PARAMETER_NAME    .UNIT     VALUE                         : DESCRIPTION
#_______________________________________________________________________________
STRT               .M        2697.8                        : First reference value
STOP               .M        2752.8                        : Last reference value
STEP               .M        0.2                           : Step increment
NULL               .         -9999                         : Missing value
COMP               .                                       : Company
WELL               .         616                           : Well name
FLD                .                                       : Field
LOC                .                                       : Location
CNTY               .                                       : County
STAT               .                                       : State
CTRY               .                                       : Country
SRVC               .                                       : Service Company
DATE               .                                       : Date
API                .                                       : API number
PROJECT_UPGRADE_TIME .         2021-03-18T21_24_50           : 
group              .         Good                          : 
~Parameter Information Block
#_______________________________________________________________________________
#
#PARAMETER_NAME    .UNIT     VALUE                         : DESCRIPTION
#_______________________________________________________________________________
SET                .         D1170_D                       : 
OTHER              .         Программное обеспечение станции MONITOR-386EX 25/12/99 15_08_10   BGF V52 22/08/01 16_56_30   3.2_BGF_N_3070031: 
OTHER_10           .         Тарировки_                    : 
OTHER_11           .         RGD.M3/SUT = 0.603482 * RGD.UE + 9.9644: 
OTHER_2            .         Kedr.exe версия 3.4.2.51      : 
OTHER_3            .         KedrData.dll версия 3.4.2.24  : 
OTHER_4            .         Драйвер версия 2.1.0.2        : 
OTHER_5            .         Мнемоники версия 3.3 S        : 
OTHER_6            .         Прибор_ Гранат                : 
OTHER_7            .         Номер прибора_ 257            : 
OTHER_8            .         Режим_ КСА_Гранат             : 
OTHER_9            .         Форма_ РАСХОД                 : 
PROJECT_UPGRADE_TIME .         2021-03-18T21_24_49           : 
TLFamily_DEPT      .         Measured Depth                : 
TLFamily_METKA     .                                       : 
TLFamily_RCOR      .                                       : 
TLFamily_RGD       .                                       : 
TLFamily_RGD_2     .                                       : 
TLFamily_SPID      .         Spontaneous Potential         : 
TLFamily_TENS      .         Cable Tension                 : 
TLFamily_TIME      .         Time                          : 
group              .         prim                          : 
~Curve Information
#_______________________________________________________________________________
#
#LOGNAME           .UNIT     LOG_ID                        : DESCRIPTION
#_______________________________________________________________________________
DEPT               .M                                      : 1 Глубина, м -    0.0 см 
METKA              .                                       : 3 Метки,  -    0.0 см 
RCOR               .CM/KM                                  : 5 Коррекция по ролику, см/км -    0.0 см 
RGD                .UE                                     : 7 Расход, имп/мин -  232.0 см 
RGD_2              .M3/SUT                                 : 8 Расход, м3/сут -  232.0 см 
SPID               .M/H                                    : 2 Скорость, м/час -    0.0 см 
TENS               .T                                      : 6 Натяжение кабеля, т -    0.0 см 
TIME               .S                                      : 4 Время, сек -    0.0 см 
~Ascii
2697.8     -9999      -9999      -9999      -9999      -9999      -9999      -9999     
2698       -9999      -1400      -9999      -9999      -157       0          27459.41  
2698.2     0          -1400      -9999      -9999      -184       0          27455.31  
2698.4     0          -1400      -9999      -9999      -187       0          27450.91  
2698.6     0          -1400      -9999      -9999      -170       0          27446.81  
2698.8     0          -1400      -9999      -9999      -159       0          27442.72  
2699       0          -1400      -9999      -9999      -183       0          27438.43  
2699.2     0          -1400      -9999      -9999      -171       0          27434.34  
2699.4     0          -1400      -9999      -9999      -184       0          27430.14  
2699.6     0          -1400      -9999      -9999      -176       0          27426.14  
2699.8     0          -1400      -9999      -9999      -184       0          27421.75  
2700       2          -1400      -9999      -9999      -166       0          27417.66  
2700.2     0          -1400      -9999      -9999      -173       0          27413.07  
2700.4     0          -1400      70         52.05      -175       0          27408.87  
2700.6     0          -1400      62         47.45      -179       0          27404.77  
2700.8     0          -1400      64         48.63      -180       0          27400.68  
2701       0          -1400      68         51.29      -162       0          27396.48  
2701.2     0          -1400      63         47.76      -174       0          27392.19  
2701.4     0          -1400      73         54.17      -180       0          27388.1   
2701.6     0          -1400      71         52.61      -182       0          27384.01  
2701.8     0          -1400      66         49.68      -174       0          27379.71  
2702       0          -1400      77         56.69      -176       0          27375.62  
2702.2     0          -1400      63         47.77      -163       0          27371.52  
2702.4     0          -1400      78         57.27      -162       0          27367.32  
2702.6     0          -1400      63         47.9       -174       0          27363.04  
2702.8     0          -1400      74         54.36      -180       0          27358.94  
2703       0          -1400      71         52.85      -175       0          27354.85  
2703.2     0          -1400      67         50.45      -170       0          27350.55  
2703.4     0          -1400      68         50.7       -177       0          27346.45  
2703.6     0          -1400      63         48.2       -176       0          27342.36  
2703.8     0          -1400      71         52.9       -170       0          27338.27  
2704       0          -1400      68         50.72      -176       0          27333.88  
2704.2     0          -1400      67         50.52      -179       0          27329.78  
2704.4     0          -1400      76         56.1       -180       0          27325.68  
2704.6     0          -1400      61         46.72      -181       0          27321.48  
2704.8     0          -1400      70         52.31      -178       0          27317.39  
2705       0          -1400      77         56.31      -181       0          27313.21  
2705.2     0          -1400      60         46.37      -166       0          27309.11  
2705.4     0          -1400      68         50.87      -185       0          27304.81  
2705.6     0          -1400      64         48.49      -180       0          27300.71  
2705.8     0          -1400      69         51.52      -166       0          27296.62  
2706       0          -1400      62         47.63      -174       0          27292.33  
2706.2     0          -1400      71         52.73      -178       0          27288.14  
2706.4     0          -1400      70         51.94      -181       0          27284.04  
2706.6     0          -1400      65         49.38      -180       0          27280.04  
2706.8     0          -1400      74         54.59      -182       0          27275.65  
2707       0          -1400      61         46.58      -179       0          27271.55  
2707.2     0          -1400      69         51.56      -181       0          27267.36  
2707.4     0          -1400      76         56.12      -178       0          27263.27  
2707.6     0          -1400      60         46.28      -177       0          27259.08  
2707.8     0          -1400      70         52.25      -180       0          27254.98  
2708       0          -1400      66         50.06      -165       0          27250.79  
2708.2     0          -1400      60         46.27      -175       0          27246.49  
2708.4     0          -1400      68         50.98      -181       0          27242.39  
2708.6     0          -1400      75         55.07      -166       0          27238.3   
2708.8     1          -1400      57         44.07      -171       0          27234.21  
2709       0          -1400      61         46.66      -176       0          27229.92  
2709.2     0          -1400      68         51         -181       0          27225.82  
2709.4     0          -1400      62         47.26      -178       0          27221.72  
2709.6     0          -1400      53         41.66      -176       0          27217.33  
2709.8     0          -1400      56         43.95      -180       0          27213.24  
2710       2          -1400      58         45.15      -178       0          27209.14  
2710.2     0          -1400      62         47.62      -171       0          27204.15  
2710.4     0          -1400      66         49.63      -166       0          27200.15  
2710.6     0          -1400      60         46.42      -174       0          27196.05  
2710.8     0          -1400      62         47.18      -164       0          27191.87  
2711       0          -1400      51         40.69      -160       0          27187.57  
2711.2     0          -1400      55         43.05      -170       0          27183.48  
2711.4     0          -1400      55         43.44      -173       0          27179.38  
2711.6     0          -1400      56         43.93      -160       0          27175.29  
2711.8     0          -1400      58         44.96      -163       0          27170.99  
2712       0          -1400      64         48.73      -201       0          27166.8   
2712.2     1          -1400      67         50.25      -165       0          27162.71  
2712.4     0          -1400      51         40.63      -157       0          27158.51  
2712.6     0          -1400      55         43.33      -168       0          27154.41  
2712.8     0          -1400      58         44.98      -177       0          27150.22  
2713       0          -1400      65         48.97      -181       0          27146.13  
2713.2     1          -1400      73         53.82      -165       0          27141.84  
2713.4     0          -1400      56         43.85      -186       0          27137.64  
2713.6     0          -1400      75         55.2       -164       0          27133.54  
2713.8     0          -1400      75         55.22      -184       0          27129.25  
2714       0          -1400      64         48.76      -180       0          27125.15  
2714.2     0          -1400      74         54.86      -177       0          27121.06  
2714.4     0          -1400      59         45.3       -159       0          27116.97  
2714.6     0          -1400      66         49.8       -182       0          27112.57  
2714.8     0          -1400      80         58         -179       0          27108.48  
2715       0          -1400      97         68.67      -179       0          27104.38  
2715.2     0          -1400      135        91.54      -171       0          27100.09  
2715.4     0          -1400      27         26.51      -177       0          27096     
2715.6     0          -1400      63         48.28      -180       0          27091.91  
2715.8     0          -1400      77         56.47      -148       0          27087.81  
