~Version
 VERS              .         2.0                           : CWLS LOG ASCII STANDARD - VERSION 2.0
 WRAP              .         NO                            : ONE LINE PER DEPTH STEP
 DLM               .         SPACE                         : DELIMITING CHARACTER(SPACE TAB OR COMMA)
~Well Information
#_______________________________________________________________________________
#
#PARAMETER_NAME    .UNIT     VALUE                         : DESCRIPTION
#_______________________________________________________________________________
STRT               .M        1740.47                       : First reference value
STOP               .M        2787.78                       : Last reference value
STEP               .M        0                             : Step increment
NULL               .         -9999                         : Missing value
COMP               .                                       : Company
WELL               .         616                           : Well name
FLD                .                                       : Field
LOC                .                                       : Location
CNTY               .                                       : County
STAT               .                                       : State
CTRY               .                                       : Country
SRVC               .                                       : Service Company
DATE               .                                       : Date
API                .                                       : API number
PROJECT_UPGRADE_TIME .         2021-03-18T21_24_50           : 
group              .         Good                          : 
~Parameter Information Block
#_______________________________________________________________________________
#
#PARAMETER_NAME    .UNIT     VALUE                         : DESCRIPTION
#_______________________________________________________________________________
SET                .         D2664                         : 
NPR                .         980607                        : ЗАВ НОМЕР ПРИБОРА
NPRT               .         Мещеряков                     : НАЧ ПАРТИИ
PROJECT_UPGRADE_TIME .         2021-03-18T21_24_50           : 
TLFamily_AZIMUTH   .         True Dip Azimuth              : 
TLFamily_DEPTH     .         Measured Depth                : 
TLFamily_DRILL     .                                       : 
TLFamily_METKA     .                                       : 
TLFamily_ZENIT     .                                       : 
group              .         prim                          : 
~Curve Information
#_______________________________________________________________________________
#
#LOGNAME           .UNIT     LOG_ID                        : DESCRIPTION
#_______________________________________________________________________________
DEPTH              .M                                      : 1 ГЛУБИНА 
AZIMUTH            .ГРАД                                   : 4 АЗИМУТ 
DRILL              .ГРАД                                   : 2 ПОВОРОТ 
METKA              .                                       : 5 МАГН МЕТКА 
ZENIT              .ГРАД                                   : 3 ЗЕНИТ 
~Ascii
# ...
2586.41    70.5       274.01     0          0.81      
2586.6     70.96      277.18     0          0.81      
2586.79    71.43      280.31     0          0.82      
2586.98    71.91      283.45     0          0.82      
2587.18    72.4       286.57     0          0.83      
2587.37    72.9       289.73     0          0.83      
2587.56    73.33      292.95     0          0.84      
2587.75    73.77      296.12     0          0.84      
2587.94    74.16      299.25     0          0.85      
2588.13    74.51      302.36     0          0.85      
2588.32    74.83      305.46     0          0.86      
2588.51    75.01      308.65     0          0.86      
2588.7     75.16      311.86     0          0.86      
2588.89    75.27      315.1      0          0.86      
2589.08    75.41      318.32     0          0.87      
2589.27    75.4       321.69     0          0.87      
2589.46    75.49      325.02     0          0.87      
2589.65    75.61      328.34     0          0.88      
2589.84    75.58      331.76     0          0.88      
2590.03    75.55      335.17     0          0.89      
2590.22    75.54      338.58     0          0.9       
2590.41    75.37      342.12     0          0.9       
2590.6     75.22      345.65     0          0.91      
2590.79    75.06      349.19     0          0.92      
2590.98    74.97      352.68     0          0.92      
2591.17    74.8       356.26     0          0.93      
2591.36    74.54      359.94     0          0.94      
2591.55    74.35      3.6        0          0.94      
2591.74    74.06      7.32       0          0.95      
2591.93    73.79      11.02      0          0.95      
2592.12    73.45      14.74      0          0.96      
2592.31    73.22      18.36      0          0.96      
2592.5     72.9       22.02      0          0.97      
2592.69    72.5       25.71      0          0.97      
2592.88    72         29.44      0          0.97      
2593.07    71.53      33.11      0          0.98      
2593.26    70.97      36.84      0          0.98      
2593.45    70.33      40.62      0          0.99      
2593.64    69.63      44.43      0          1         
2593.83    69         48.17      0          1         
2594.02    68.39      51.88      0          1.01      
2594.21    67.84      55.46      0          1.01      
2594.4     67.28      59         0          1.02      
2594.59    66.71      62.53      0          1.02      
2594.78    66.23      65.93      0          1.03      
2594.98    65.86      69.17      0          1.04      
2595.17    65.4       72.46      0          1.04      
2595.36    64.91      75.69      0          1.04      
2595.55    64.45      78.86      0          1.05      
2595.74    64.01      81.96      0          1.05      
2595.93    63.53      85.03      0          1.05      
2596.12    63.09      88.02      0          1.05      
2596.31    62.61      91.01      0          1.06      
2596.5     62.17      93.94      0          1.06      
2596.69    61.74      96.79      0          1.06      
2596.88    61.33      99.55      0          1.06      
2597.07    60.9       102.25     0          1.07      
2597.26    60.42      104.92     0          1.07      
2597.46    59.94      107.56     0          1.07      
2597.65    59.51      110.12     0          1.08      
2597.84    59.01      112.72     0          1.08      
2598.03    58.47      115.34     0          1.09      
2598.22    57.97      117.9      0          1.09      
2598.41    57.5       120.39     0          1.09      
2598.6     57.03      122.82     0          1.1       
2598.79    56.62      125.17     0          1.1       
2598.98    56.06      127.6      0          1.1       
2599.18    55.6       129.91     0          1.11      
2599.37    55.15      132.2      0          1.11      
2599.56    54.65      134.53     0          1.11      
2599.75    54.16      136.85     0          1.11      
2599.94    53.54      139.31     0          1.11      
2600.13    52.93      141.76     0          1.11      
2600.32    52.41      144.1      0          1.12      
2600.51    51.77      146.55     0          1.11      
2600.7     51.14      149.02     0          1.12      
2600.89    50.52      151.51     0          1.12      
2601.08    49.91      154.07     0          1.12      
2601.27    49.41      156.6      0          1.12      
2601.46    48.88      159.24     0          1.13      
2601.65    48.39      161.9      0          1.13      
2601.84    47.88      164.6      0          1.13      
2602.03    47.44      167.27     0          1.14      
2602.22    46.95      170.03     0          1.14      
2602.41    46.43      172.86     0          1.14      
2602.6     45.96      175.73     0          1.14      
2602.79    45.55      178.63     0          1.14      
2602.98    45.17      181.58     0          1.14      
2603.17    44.85      184.55     0          1.14      
2603.36    44.54      187.58     0          1.14      
2603.55    44.35      190.54     0          1.14      
2603.74    44.16      193.53     0          1.13      
2603.93    43.97      196.53     0          1.13      
2604.12    43.8       199.56     0          1.12      
2604.3     43.61      202.64     0          1.12      
2604.49    43.38      205.78     0          1.12      
2604.68    43.3       208.85     0          1.11      
2604.87    43.15      212.03     0          1.11      
2605.06    42.98      215.25     0          1.1       
2605.25    42.8       218.48     0          1.1       
2605.44    42.65      221.68     0          1.09      
2605.64    42.58      224.8      0          1.09      
2605.83    42.52      227.93     0          1.09      
2606.02    42.43      231.06     0          1.08      
2606.21    42.43      234.1      0          1.08      
2606.4     42.45      237.08     0          1.07      
2606.59    42.47      240.01     0          1.07      
2606.78    42.56      242.8      0          1.06      
2606.97    42.56      245.62     0          1.05      
2607.16    42.6       248.31     0          1.04      
2607.35    42.64      250.91     0          1.03      
2607.54    42.71      253.45     0          1.03      
2607.73    42.74      255.95     0          1.02      
2607.92    42.88      258.26     0          1.01      
2608.12    43.02      260.47     0          1         
2608.31    43.12      262.63     0          0.99      
2608.5     43.28      264.66     0          0.98      
2608.69    43.37      266.69     0          0.98      
2608.88    43.42      268.69     0          0.97      
2609.07    43.49      270.62     0          0.96      
2609.26    43.52      272.57     0          0.95      
2609.45    43.66      274.46     0          0.95      
2609.64    43.88      276.29     0          0.94      
2609.83    44.13      278.07     0          0.93      
2610.02    44.42      279.78     0          0.92      
2610.21    44.67      281.48     0          0.92      
2610.4     44.94      283.09     0          0.91      
2610.59    45.23      284.59     0          0.9       
2610.78    45.57      285.99     0          0.89      
2610.97    46.02      287.25     0          0.88      
2611.16    46.44      288.52     0          0.87      
2611.35    46.95      289.68     0          0.85      
2611.54    47.57      290.74     0          0.84      
2611.73    48.21      291.77     0          0.84      
2611.92    48.78      292.88     0          0.83      
2612.11    49.39      293.93     0          0.82      
2612.3     49.99      295.01     0          0.81      
2612.49    50.7       296.01     0          0.8       
2612.68    51.22      297.25     0          0.8       
2612.87    51.8       298.49     0          0.79      
2613.06    52.34      299.83     0          0.78      
2613.25    52.88      301.2      0          0.78      
2613.44    53.37      302.67     0          0.77      
2613.63    53.75      304.33     0          0.77      
2613.82    54.21      306.02     0          0.76      
2614.01    54.74      307.73     0          0.75      
