~Version
 VERS              .         2.0                           : CWLS LOG ASCII STANDARD - VERSION 2.0
 WRAP              .         NO                            : ONE LINE PER DEPTH STEP
 DLM               .         SPACE                         : DELIMITING CHARACTER(SPACE TAB OR COMMA)
~Well Information
#_______________________________________________________________________________
#
#PARAMETER_NAME    .UNIT     VALUE                         : DESCRIPTION
#_______________________________________________________________________________
STRT               .M        749.69                        : First reference value
STOP               .M        1410.72                       : Last reference value
STEP               .M        0                             : Step increment
NULL               .         -9999                         : Missing value
COMP               .                                       : Company
WELL               .         616                           : Well name
FLD                .                                       : Field
LOC                .                                       : Location
CNTY               .                                       : County
STAT               .                                       : State
CTRY               .                                       : Country
SRVC               .                                       : Service Company
DATE               .                                       : Date
API                .                                       : API number
PROJECT_UPGRADE_TIME .         2021-03-18T21_24_50           : 
group              .         Good                          : 
~Parameter Information Block
#_______________________________________________________________________________
#
#PARAMETER_NAME    .UNIT     VALUE                         : DESCRIPTION
#_______________________________________________________________________________
SET                .         D0928                         : 
NPR                .         210404                        : ЗАВ НОМЕР ПРИБОРА
NPRT               .         Каштанов                      : НАЧ ПАРТИИ
PROJECT_UPGRADE_TIME .         2021-03-18T21_24_49           : 
TLFamily_AZIMUTH   .         True Dip Azimuth              : 
TLFamily_DEPTH     .         Measured Depth                : 
TLFamily_DRILL     .                                       : 
TLFamily_METKA     .                                       : 
TLFamily_ZENIT     .                                       : 
group              .         prim                          : 
~Curve Information
#_______________________________________________________________________________
#
#LOGNAME           .UNIT     LOG_ID                        : DESCRIPTION
#_______________________________________________________________________________
DEPTH              .M                                      : 1 ГЛУБИНА 
AZIMUTH            .ГРАД                                   : 4 АЗИМУТ 
DRILL              .ГРАД                                   : 2 ПОВОРОТ 
METKA              .                                       : 5 МАГН МЕТКА 
ZENIT              .ГРАД                                   : 3 ЗЕНИТ 
~Ascii
749.69     4.43       142.64     0          30.95     
749.88     4.15       142.61     0          30.95     
750.08     3.63       142.61     0          30.97     
750.28     3.26       142.62     0          30.98     
750.47     2.39       142.66     0          30.98     
750.67     2.13       142.72     0          30.99     
750.86     1.35       142.78     0          31.01     
751.06     1.04       142.87     0          31.02     
751.26     0.69       142.97     0          31.03     
751.45     0.69       143.06     0          31.04     
751.65     359.55     143.12     0          31.07     
751.84     358.44     143.16     0          31.07     
752.04     357.33     143.21     0          31.09     
752.23     356.8      143.25     0          31.08     
752.43     355.78     143.28     0          31.11     
752.63     355.78     143.33     0          31.12     
752.82     355.07     143.38     0          31.15     
753.02     354.81     143.43     0          31.14     
753.21     354.44     143.48     0          31.16     
753.41     352.42     143.54     0          31.17     
753.61     350.87     143.6      0          31.19     
753.8      350.99     143.67     0          31.19     
754        349.61     143.73     0          31.21     
754.19     349.1      143.75     0          31.23     
754.39     348.94     143.76     0          31.25     
754.59     348.49     143.76     0          31.26     
754.78     348.37     143.75     0          31.26     
754.98     348.01     143.76     0          31.26     
755.17     347.97     143.83     0          31.25     
755.37     347.75     143.96     0          31.26     
755.57     347.78     144.07     0          31.26     
755.76     347.24     144.14     0          31.27     
755.96     347.04     144.16     0          31.26     
756.15     347.04     144.14     0          31.27     
756.35     347.13     144.1      0          31.27     
756.54     347.35     144.07     0          31.28     
756.74     347.82     144.05     0          31.26     
756.94     347.94     144.05     0          31.26     
757.13     348.76     144.07     0          31.26     
757.33     349.17     144.07     0          31.25     
757.52     350.32     144.07     0          31.26     
757.72     350.8      144.07     0          31.26     
757.92     351.18     144.07     0          31.27     
758.11     351.26     144.11     0          31.29     
758.31     352.05     144.17     0          31.3      
758.51     352.13     144.23     0          31.3      
758.7      352.64     144.31     0          31.31     
758.9      352.84     144.4      0          31.31     
759.09     352.38     144.47     0          31.33     
759.29     354.8      144.58     0          31.31     
759.48     355.73     144.74     0          31.33     
759.68     355.53     144.89     0          31.32     
759.88     356.47     145.03     0          31.34     
760.07     357.18     145.2      0          31.32     
760.27     357.04     145.38     0          31.33     
760.46     357.5      145.62     0          31.32     
760.66     357.35     145.96     0          31.35     
760.85     357.52     146.36     0          31.35     
761.05     357.59     146.78     0          31.38     
761.25     357.82     147.24     0          31.38     
761.44     357.66     147.85     0          31.39     
761.64     358.14     148.69     0          31.41     
761.83     358.56     149.68     0          31.41     
762.03     358.46     150.79     0          31.45     
762.23     359.12     151.99     0          31.45     
762.42     358.61     153.23     0          31.49     
762.62     358.51     154.5      0          31.48     
762.81     358.1      155.79     0          31.53     
763.01     357.5      157.13     0          31.52     
763.21     356.48     158.59     0          31.59     
763.4      355.69     160.12     0          31.57     
763.6      354.91     161.72     0          31.6      
763.79     354.5      163.39     0          31.59     
763.99     354.54     165.15     0          31.61     
764.18     354.1      166.98     0          31.6      
764.38     353.88     168.97     0          31.64     
764.58     353.66     171.26     0          31.66     
764.77     353.31     173.82     0          31.67     
764.97     353.37     176.61     0          31.69     
765.16     353.4      179.59     0          31.71     
765.36     353.12     182.78     0          31.71     
765.56     353.07     186.26     0          31.71     
765.75     351.29     189.99     0          31.69     
765.95     352.6      193.81     0          31.68     
766.14     353.04     197.5      0          31.69     
766.34     352.95     200.86     0          31.7      
766.54     352.35     203.77     0          31.72     
766.73     352.34     206.24     0          31.74     
766.93     352.19     208.31     0          31.77     
767.13     352.31     209.91     0          31.78     
767.32     352.09     210.93     0          31.78     
767.52     352.16     211.13     0          31.79     
767.71     351.53     210.39     0          31.78     
767.91     351.54     208.45     0          31.77     
768.11     351.35     205.01     0          31.78     
768.3      352.21     199.69     0          31.76     
768.5      352.29     192.1      0          31.78     
768.7      353.17     181.73     0          31.75     
768.89     353.97     168.29     0          31.76     
769.09     354.65     153.01     0          31.73     
769.28     355.2      138.7      0          31.76     
769.48     355.87     127        0          31.74     
769.68     356.19     118.25     0          31.76     
769.87     356.1      111.88     0          31.76     
770.07     356.38     107.17     0          31.76     
770.26     356.57     103.78     0          31.74     
770.46     357.07     101.68     0          31.72     
770.66     357.33     100.59     0          31.73     
770.85     357.75     100.14     0          31.71     
771.05     357.52     100.11     0          31.72     
771.25     357.91     100.6      0          31.71     
771.44     358.13     101.71     0          31.73     
771.64     359.31     103.59     0          31.74     
771.84     358.05     106.09     0          31.78     
772.03     357.37     109.08     0          31.78     
772.23     357.52     112.28     0          31.79     
772.42     357.75     115.49     0          31.77     
772.62     358.23     118.52     0          31.76     
772.82     357.95     121.3      0          31.74     
773.01     358.11     123.84     0          31.74     
773.21     358.16     126.17     0          31.76     
773.41     358.45     128.24     0          31.75     
773.6      358.64     130.04     0          31.78     
773.8      358.91     131.6      0          31.77     
773.99     358.55     132.93     0          31.79     
774.19     357.96     134.09     0          31.79     
774.39     357.81     135.11     0          31.81     
774.58     356.68     135.99     0          31.81     
774.78     355.95     136.72     0          31.82     
774.98     355.23     137.29     0          31.82     
775.17     355.01     137.73     0          31.83     
775.37     354.51     138.07     0          31.82     
775.57     354.43     138.31     0          31.82     
775.76     353.94     138.47     0          31.8      
775.96     353.71     138.59     0          31.81     
776.15     353        138.66     0          31.8      
776.35     352.58     138.69     0          31.8      
776.55     351.49     138.74     0          31.8      
776.74     351.42     138.82     0          31.8      
776.94     351.22     138.93     0          31.79     
777.13     350.89     139.01     0          31.8      
777.33     350.99     139.04     0          31.81     
777.52     351.43     139.02     0          31.81     
777.72     351.14     138.97     0          31.82     
777.92     351.73     138.93     0          31.83     
778.11     352.66     138.9      0          31.84     
