~Version
 VERS              .         2.0                           : CWLS LOG ASCII STANDARD - VERSION 2.0
 WRAP              .         NO                            : ONE LINE PER DEPTH STEP
 DLM               .         SPACE                         : DELIMITING CHARACTER(SPACE TAB OR COMMA)
~Well Information
#_______________________________________________________________________________
#
#PARAMETER_NAME    .UNIT     VALUE                         : DESCRIPTION
#_______________________________________________________________________________
STRT               .M        2656.6                        : First reference value
STOP               .M        2765.2                        : Last reference value
STEP               .M        0.1999997                     : Step increment
NULL               .         -9999                         : Missing value
COMP               .                                       : Company
WELL               .         616                           : Well name
FLD                .                                       : Field
LOC                .                                       : Location
CNTY               .                                       : County
STAT               .                                       : State
CTRY               .                                       : Country
SRVC               .                                       : Service Company
DATE               .                                       : Date
API                .                                       : API number
PROJECT_UPGRADE_TIME .         2021-03-18T21_24_50           : 
group              .         Good                          : 
~Parameter Information Block
#_______________________________________________________________________________
#
#PARAMETER_NAME    .UNIT     VALUE                         : DESCRIPTION
#_______________________________________________________________________________
SET                .         D8102_D                       : 
OTHER              .         Программное обеспечение станции MONITOR-386EX 25/12/99 15_08_10   BGF V52 22/08/01 16_56_30   4_SNGF_BGF_N_011645: 
OTHER_10           .         Тарировки_                    : 
OTHER_11           .         TM.GRD = 0.00412*TM$.UE + -2.13: 
OTHER_12           .         MN.ATM = (5.87652e-006*TM.GRD + 0.01993)*(MN$.UE + -2.72*TM.GRD + -1925): 
OTHER_13           .         GK.MKR/H = GK$.UE / 57.4657   : 
OTHER_2            .         Kedr.exe версия 3.4.2.51      : 
OTHER_3            .         KedrData.dll версия 3.4.2.24  : 
OTHER_4            .         Драйвер версия 2.1.0.2        : 
OTHER_5            .         Мнемоники версия 3.3 S        : 
OTHER_6            .         Прибор_ АКП4-90               : 
OTHER_7            .         Номер прибора_ 53             : 
OTHER_8            .         Режим_ АКП4_90                : 
OTHER_9            .         Форма_ ПК-53ое                : 
PROJECT_UPGRADE_TIME .         2021-03-18T21_24_50           : 
TLFamily_DEPT      .         Measured Depth                : 
TLFamily_GK        .         Gamma Ray                     : 
TLFamily_GK$       .                                       : 
TLFamily_LM        .         Casing Collar locator         : 
TLFamily_METKA     .                                       : 
TLFamily_METKA_1   .                                       : 
TLFamily_MN        .                                       : 
TLFamily_MN$       .                                       : 
TLFamily_RCOR      .                                       : 
TLFamily_SPID      .         Spontaneous Potential         : 
TLFamily_TENS      .         Cable Tension                 : 
TLFamily_TIME      .         Time                          : 
TLFamily_TM        .         Temperature                   : 
TLFamily_TM$       .         Temperature                   : 
group              .         prim                          : 
~Curve Information
#_______________________________________________________________________________
#
#LOGNAME           .UNIT     LOG_ID                        : DESCRIPTION
#_______________________________________________________________________________
DEPT               .M                                      : 1 Глубина, м -    0.0 см 
GK                 .MKR/H                                  : 13 Гамма-активность, мкр./ч -   65.0 см 
GK$                .UE                                     : 10 Гамма-активность, усл.ед. -   65.0 см 
LM                 .                                       : 9 Локатор муфт,  -   30.0 см 
METKA              .                                       : 3 Метки,  -    0.0 см 
METKA_1            .                                       : 14 Маркеры - 65 см 
MN                 .ATM                                    : 12 Давление, атм. -  140.0 см 
MN$                .UE                                     : 8 Давление, усл.ед. -  140.0 см 
RCOR               .CM/KM                                  : 5 Коррекция по ролику, см/км -    0.0 см 
SPID               .M/H                                    : 2 Скорость, м/час -    0.0 см 
TENS               .T                                      : 6 Натяжение кабеля, т -    0.0 см 
TIME               .S                                      : 4 Время, сек -    0.0 см 
TM                 .GRD                                    : 11 Температура, °C -  145.0 см 
TM$                .UE                                     : 7 Температура, усл.ед. -  145.0 см 
~Ascii
# ...
2719       6.8        391        544        0          0          249.324    14435      -8         -316       0.75       953.01     45.869     11650     
2719.2     7.76       446        902        0          0          249.331    14435      -8         -318       0.75       950.75     45.806     11635     
2719.4     8.29       477        115        0          0          249.344    14436      -8         -317       0.75       948.51     45.746     11621     
2719.6     7.31       420        82         0          0          249.354    14436      -8         -314       0.75       946.25     45.701     11610     
2719.8     6.63       381        137        0          0          249.374    14438      -8         -316       0.75       943.88     45.647     11596     
2720       6.47       372        130        0          0          249.344    14436      -8         -312       0.75       941.62     45.584     11581     
2720.2     5.69       327        139        0          0          249.411    14439      -8         -305       0.75       939.37     45.544     11571     
2720.4     5.27       303        160        0          0          249.464    14442      -8         -319       0.76       937.12     45.508     11563     
2720.6     5.15       296        181        2          0          249.457    14442      -6         -319       0.75       934.49     45.475     11555     
2720.8     5.11       294        419        0          0          249.47     14442      -6         -318       0.75       932.33     45.434     11545     
2721       4.99       287        657        0          0          249.524    14445      -6         -316       0.75       930.11     45.401     11537     
2721.2     4.21       242        113        0          0          249.524    14445      -6         -312       0.75       927.86     45.356     11526     
2721.4     3.6        207        113        0          0          249.543    14446      -6         -321       0.75       925.6      45.312     11515     
2721.6     3.97       228        132        0          0          249.544    14446      -6         -321       0.75       923.23     45.28      11507     
2721.8     4.04       232        190        0          0          249.603    14449      -6         -323       0.75       920.96     45.268     11504     
2722       4.11       236        1391       0          0          249.603    14449      -6         -325       0.75       918.71     45.254     11501     
2722.2     4.66       268        2161       0          0          249.623    14450      -6         -308       0.75       916.46     45.225     11494     
2722.4     4.38       252        552        0          0          249.623    14450      -6         -277       0.75       914.2      45.204     11489     
2722.6     4.18       240        512        0          0          249.69     14453      -6         -261       0.75       911.82     45.188     11485     
2722.8     4.39       252        282        0          0          249.696    14454      -6         -243       0.75       909.19     45.175     11482     
2723       4.39       252        264        0          0          249.683    14453      -6         -202       0.75       906.57     45.163     11479     
2723.2     4.53       260        253        0          0          249.703    14454      -6         -129       0.73       903.94     45.172     11481     
2723.4     5.23       300        152        0          0          249.763    14457      -6         -0         0.71       900.69     45.18      11483     
2723.6     5.22       300        225        0          0          249.763    14457      -6         -318       0.73       602.59     45.192     11486     
2723.8     4.95       284        255        0          0          249.763    14457      -6         -311       0.73       600.33     45.205     11489     
2724       5.36       308        267        0          0          249.803    14459      -6         -314       0.75       597.95     45.224     11494     
2724.2     5.44       313        176        0          1          249.842    14461      -6         -308       0.75       595.7      45.238     11497     
2724.4     5.6        322        305        0          0          249.849    14461      -6         -308       0.75       593.38     45.231     11496     
2724.6     5.2        299        146        0          0          249.869    14462      -6         -302       0.73       591.03     45.198     11487     
2724.8     5.26       302        204        0          0          249.882    14463      -6         -310       0.75       588.69     45.18      11483     
2725       5.34       307        219        0          0          249.862    14462      -6         -315       0.75       586.43     45.225     11494     
2725.2     5.43       312        186        0          0          249.922    14465      -6         -307       0.74       584.06     45.239     11497     
2725.4     6          345        243        0          0          249.922    14465      -6         -303       0.75       581.74     45.253     11501     
2725.6     6.32       363        396        0          0          249.922    14465      -6         -309       0.73       579.43     45.265     11504     
2725.8     6.1        350        421        0          0          249.932    14465      -6         -308       0.75       577.05     45.283     11508     
2726       5.86       336        293        0          0          249.962    14467      -6         -306       0.75       574.8      45.304     11513     
2726.2     5.43       312        419        0          0          249.942    14466      -6         -319       0.75       572.42     45.331     11520     
2726.4     5.39       309        639        0          0          249.962    14467      -6         -310       0.75       570.1      45.342     11522     
2726.6     5.41       311        203        0          0          249.975    14468      -6         -317       0.74       567.79     45.353     11525     
2726.8     4.78       274        309        0          0          249.982    14468      -6         -315       0.75       565.41     45.386     11533     
2727       4.14       238        595        0          0          250.062    14472      -6         -309       0.75       563.14     45.416     11540     
2727.2     4.57       262        6967       0          0          250.061    14472      -6         -309       0.75       560.83     45.423     11542     
2727.4     5.06       291        25677      0          0          250.082    14473      -6         -315       0.73       558.56     45.459     11551     
2727.6     4.77       274        2775       0          0          250.108    14474      -6         -315       0.75       556.19     45.501     11561     
2727.8     5.09       292        352        0          0          250.151    14477      -6         -305       0.75       553.81     45.541     11571     
2728       5.45       313        117        0          0          250.155    14477      -6         -314       0.73       551.56     45.547     11572     
2728.2     5.38       309        119        0          0          250.161    14477      -6         -309       0.74       549.3      45.585     11581     
2728.4     5.34       307        119        0          0          250.201    14479      -6         -309       0.75       546.91     45.644     11596     
2728.6     5.06       291        312        0          0          250.241    14481      -6         -308       0.75       544.63     45.678     11604     
2728.8     5.17       297        110        0          0          250.241    14481      -6         -312       0.75       542.24     45.705     11611     
2729       5.6        322        130        0          0          250.241    14481      -6         -312       0.75       539.97     45.753     11622     
2729.2     5.84       335        183        0          0          250.281    14483      -6         -306       0.73       537.64     45.786     11630     
