~Version
 VERS              .         2.0                           : CWLS LOG ASCII STANDARD - VERSION 2.0
 WRAP              .         NO                            : ONE LINE PER DEPTH STEP
 DLM               .         SPACE                         : DELIMITING CHARACTER(SPACE TAB OR COMMA)
~Well Information
#_______________________________________________________________________________
#
#PARAMETER_NAME    .UNIT     VALUE                         : DESCRIPTION
#_______________________________________________________________________________
STRT               .M        2699.4                        : First reference value
STOP               .M        2769                          : Last reference value
STEP               .M        0.2000003                     : Step increment
NULL               .         -9999                         : Missing value
COMP               .                                       : Company
WELL               .         616                           : Well name
FLD                .                                       : Field
LOC                .                                       : Location
CNTY               .                                       : County
STAT               .                                       : State
CTRY               .                                       : Country
SRVC               .                                       : Service Company
DATE               .                                       : Date
API                .                                       : API number
PROJECT_UPGRADE_TIME .         2021-03-18T21_24_50           : 
group              .         Good                          : 
~Parameter Information Block
#_______________________________________________________________________________
#
#PARAMETER_NAME    .UNIT     VALUE                         : DESCRIPTION
#_______________________________________________________________________________
SET                .         D1167_D                       : 
OTHER              .         Программное обеспечение станции MONITOR-386EX 25/12/99 15_08_10   BGF V52 22/08/01 16_56_30   3.2_BGF_N_3070031: 
OTHER_10           .         Тарировки_                    : 
OTHER_11           .         RGD.M3/SUT = 0.603482 * RGD.UE + 9.9644: 
OTHER_2            .         Kedr.exe версия 3.4.2.51      : 
OTHER_3            .         KedrData.dll версия 3.4.2.24  : 
OTHER_4            .         Драйвер версия 2.1.0.2        : 
OTHER_5            .         Мнемоники версия 3.3 S        : 
OTHER_6            .         Прибор_ Гранат                : 
OTHER_7            .         Номер прибора_ 257            : 
OTHER_8            .         Режим_ КСА_Гранат             : 
OTHER_9            .         Форма_ РАСХОД                 : 
PROJECT_UPGRADE_TIME .         2021-03-18T21_24_49           : 
TLFamily_DEPT      .         Measured Depth                : 
TLFamily_METKA     .                                       : 
TLFamily_RCOR      .                                       : 
TLFamily_RGD       .                                       : 
TLFamily_RGD_2     .                                       : 
TLFamily_SPID      .         Spontaneous Potential         : 
TLFamily_TENS      .         Cable Tension                 : 
TLFamily_TIME      .         Time                          : 
group              .         prim                          : 
~Curve Information
#_______________________________________________________________________________
#
#LOGNAME           .UNIT     LOG_ID                        : DESCRIPTION
#_______________________________________________________________________________
DEPT               .M                                      : 1 Глубина, м -    0.0 см 
METKA              .                                       : 3 Метки,  -    0.0 см 
RCOR               .CM/KM                                  : 5 Коррекция по ролику, см/км -    0.0 см 
RGD                .UE                                     : 7 Расход, имп/мин -  232.0 см 
RGD_2              .M3/SUT                                 : 8 Расход, м3/сут -  232.0 см 
SPID               .M/H                                    : 2 Скорость, м/час -    0.0 см 
TENS               .T                                      : 6 Натяжение кабеля, т -    0.0 см 
TIME               .S                                      : 4 Время, сек -    0.0 см 
~Ascii
# ...
2754       0          -1400      53         41.79      -141       0          22943.51  
2754.2     0          -1400      65         49.18      -136       0          22938.52  
2754.4     0          -1400      69         51.47      -163       0          22933.33  
2754.6     0          -1400      57         44.25      -151       0          22928.44  
2754.8     0          -1400      56         43.88      -150       0          22923.54  
2755       0          -1400      71         52.59      -126       0          22918.65  
2755.2     0          -1400      63         47.87      -160       0          22913.56  
2755.4     0          -1400      56         43.59      -158       0          22908.66  
2755.6     0          -1400      68         51.01      -136       0          22903.77  
2755.8     0          -1400      58         44.81      -151       0          22898.48  
2756       0          -1400      62         47.38      -165       0          22893.58  
2756.2     0          -1400      64         48.81      -143       0          22888.59  
2756.4     0          -1400      57         44.66      -120       0          22883.7   
2756.6     0          -1400      76         55.76      -143       0          22878.71  
2756.8     0          -1400      61         46.86      -156       0          22873.71  
2757       0          -1400      64         48.55      -138       0          22868.81  
2757.2     0          -1400      71         52.66      -146       0          22863.53  
2757.4     0          -1400      66         50.08      -138       0          22858.63  
2757.6     0          -1400      73         53.89      -157       0          22853.74  
2757.8     0          -1400      67         50.31      -131       0          22848.85  
2758       0          -1400      75         55.49      -157       0          22843.65  
2758.2     0          -1400      66         49.81      -135       0          22838.76  
2758.4     0          -1400      61         46.76      -142       0          22833.86  
2758.6     0          -1400      69         51.74      -144       0          22828.67  
2758.8     0          -1400      80         58.21      -155       0          22823.68  
2759       0          -1400      65         49.48      -134       0          22818.78  
2759.2     0          -1400      73         54.3       -132       0          22813.79  
2759.4     0          -1400      71         53         -153       0          22808.7   
2759.6     0          -1400      72         53.65      -146       0          22803.81  
2759.8     0          -1400      66         49.98      -138       0          22798.91  
2760       2          -1400      76         55.58      -143       0          22793.62  
2760.2     0          -1400      78         57.23      -146       0          22791.62  
2760.4     0          -1400      72         53.18      -144       0          22786.73  
2760.6     0          -1400      71         52.8       -136       0          22781.84  
2760.8     0          -1400      72         53.22      -145       0          22776.64  
2761       0          -1400      79         57.72      -156       0          22771.76  
2761.2     0          -1400      81         59.08      -148       0          22766.86  
2761.4     0          -1400      72         53.63      -156       0          22761.86  
2761.6     0          -1400      67         50.12      -152       0          22756.67  
2761.8     0          -1400      71         52.78      -163       0          22751.78  
2762       0          -1400      76         56         -144       0          22746.89  
2762.2     0          -1400      79         57.83      -142       0          22741.89  
2762.4     0          -1400      74         54.75      -137       0          22736.79  
2762.6     0          -1400      76         55.77      -143       0          22731.8   
2762.8     0          -1400      83         60.31      -152       0          22726.91  
2763       0          -1400      92         65.23      -142       0          22721.62  
2763.2     0          -1400      81         58.96      -151       0          22716.63  
2763.4     0          -1400      83         60.13      -155       0          22711.63  
2763.6     0          -1400      81         58.9       -133       0          22706.64  
2763.8     0          -1400      94         66.63      -139       0          22701.44  
2764       0          -1400      84         60.58      -138       0          22696.46  
2764.2     0          -1400      87         62.2       -141       0          22691.46  
2764.4     0          -1400      88         62.9       -186       0          22686.27  
2764.6     0          -1400      82         59.41      -221       0          22682.67  
2764.8     0          -1400      82         59.38      -203       0          22679.27  
2765       0          -1400      96         67.72      -207       0          22675.78  
2765.2     0          -1400      103        72.05      -194       0          22672.09  
2765.4     0          -1400      81         58.86      -196       0          22668.6   
2765.6     0          -1400      106        73.95      -189       0          22665.09  
2765.8     0          -1400      99         69.65      -190       0          22661.31  
2766       0          -1400      114        78.56      -206       0          22657.71  
2766.2     0          -1400      129        87.85      -189       0          22654.02  
2766.4     0          -1400      146        98.17      -158       0          22650.32  
2766.6     0          -1400      168        111.25     -183       0          22646.32  
2766.8     0          -9999      119        81.9       -9999      -9999      -9999     
2767       -9999      -9999      85         61.24      -9999      -9999      -9999     
2767.2     -9999      -9999      84         60.65      -9999      -9999      -9999     
2767.4     -9999      -9999      72         53.68      -9999      -9999      -9999     
2767.6     -9999      -9999      44         36.45      -9999      -9999      -9999     
2767.8     -9999      -9999      0          9.97       -9999      -9999      -9999     
2768       -9999      -9999      0          9.98       -9999      -9999      -9999     
2768.2     -9999      -9999      0          9.99       -9999      -9999      -9999     
2768.4     -9999      -9999      0          10.01      -9999      -9999      -9999     
2768.6     -9999      -9999      0          10.07      -9999      -9999      -9999     
2768.8     -9999      -9999      0          10.18      -9999      -9999      -9999     
2769       -9999      -9999      1          10.43      -9999      -9999      -9999     
