~Version
 VERS              .         2.0                           : CWLS LOG ASCII STANDARD - VERSION 2.0
 WRAP              .         NO                            : ONE LINE PER DEPTH STEP
 DLM               .         SPACE                         : DELIMITING CHARACTER(SPACE TAB OR COMMA)
~Well Information
#_______________________________________________________________________________
#
#PARAMETER_NAME    .UNIT     VALUE                         : DESCRIPTION
#_______________________________________________________________________________
STRT               .M        2659.6                        : First reference value
STOP               .M        2769.6                        : Last reference value
STEP               .M        0.2                           : Step increment
NULL               .         -9999                         : Missing value
COMP               .                                       : Company
WELL               .         616                           : Well name
FLD                .                                       : Field
LOC                .                                       : Location
CNTY               .                                       : County
STAT               .                                       : State
CTRY               .                                       : Country
SRVC               .                                       : Service Company
DATE               .                                       : Date
API                .                                       : API number
PROJECT_UPGRADE_TIME .         2021-03-18T21_24_50           : 
group              .         Good                          : 
~Parameter Information Block
#_______________________________________________________________________________
#
#PARAMETER_NAME    .UNIT     VALUE                         : DESCRIPTION
#_______________________________________________________________________________
SET                .         D1162_D                       : 
OTHER              .         Программное обеспечение станции MONITOR-386EX 25/12/99 15_08_10   BGF V52 22/08/01 16_56_30   3.2_BGF_N_3070031: 
OTHER_10           .         Тарировки_                    : 
OTHER_11           .         TM.GRD = 0.00403*TM$.UE + -1.19: 
OTHER_12           .         MN.ATM = (7.1e-006*TM.GRD + 0.02017)*(MN$.UE + -3.03*TM.GRD + -1833): 
OTHER_13           .         Id error                      : 
OTHER_2            .         Kedr.exe версия 3.4.2.51      : 
OTHER_3            .         KedrData.dll версия 3.4.2.24  : 
OTHER_4            .         Драйвер версия 2.1.1.8        : 
OTHER_5            .         Мнемоники версия 3.3 S        : 
OTHER_6            .         Прибор_ КСА-М1                : 
OTHER_7            .         Номер прибора_ 265            : 
OTHER_8            .         Режим_ КСА-М1                 : 
OTHER_9            .         Форма_ ТЕРМОМЕТР              : 
PROJECT_UPGRADE_TIME .         2021-03-18T21_24_49           : 
TLFamily_DEPT      .         Measured Depth                : 
TLFamily_GK        .         Gamma Ray                     : 
TLFamily_GK$       .                                       : 
TLFamily_LM        .         Casing Collar locator         : 
TLFamily_METKA     .                                       : 
TLFamily_MN        .                                       : 
TLFamily_MN$       .                                       : 
TLFamily_RCOR      .                                       : 
TLFamily_SPID      .         Spontaneous Potential         : 
TLFamily_STD       .                                       : 
TLFamily_TENS      .         Cable Tension                 : 
TLFamily_TIME      .         Time                          : 
TLFamily_TM        .         Temperature                   : 
TLFamily_TM$       .         Temperature                   : 
TLFamily_VGD       .         Gas Volume                    : 
group              .         prim                          : 
~Curve Information
#_______________________________________________________________________________
#
#LOGNAME           .UNIT     LOG_ID                        : DESCRIPTION
#_______________________________________________________________________________
DEPT               .M                                      : 1 Глубина, м -    0.0 см 
GK                 .MKR/H                                  : 15 Гамма-активность, мкр./ч -  110.0 см 
GK$                .UE                                     : 12 Гамма-активность, усл.ед. -  110.0 см 
LM                 .                                       : 10 Локатор муфт,  -   20.0 см 
METKA              .                                       : 3 Метки,  -    0.0 см 
MN                 .ATM                                    : 14 Давление, атм. -  160.0 см 
MN$                .UE                                     : 8 Давление, усл.ед. -  160.0 см 
RCOR               .CM/KM                                  : 5 Коррекция по ролику, см/км -    0.0 см 
SPID               .M/H                                    : 2 Скорость, м/час -    0.0 см 
STD                .                                       : 11 Приток,  -  170.0 см 
TENS               .T                                      : 6 Натяжение кабеля, т -    0.0 см 
TIME               .S                                      : 4 Время, сек -    0.0 см 
TM                 .GRD                                    : 13 Температура, °C -  180.0 см 
TM$                .UE                                     : 7 Температура, усл.ед. -  180.0 см 
VGD                .                                       : 9 Влагомер,  -  170.0 см 
~Ascii
# ...
2728.2     5.74       246        1          0          253.083    14269      -1400      597        32373      0          17823.36   89.363     22470      6493      
2728.4     5.73       244        1          0          253.107    14270      -1400      603        32372      0          17824.57   89.373     22472      6493      
2728.6     5.48       229        1          0          253.092    14269      -1400      603        32373      0          17825.75   89.384     22475      6494      
2728.8     5.39       229        1          0          253.155    14272      -1400      602        32373      0          17826.99   89.4       22479      6495      
2729       5.28       223        1          0          253.135    14271      -1400      598        32374      0          17828.14   89.427     22486      6493      
2729.2     5.24       223        1          0          253.204    14274      -1400      604        32372      0          17829.35   89.445     22490      6493      
2729.4     5.67       259        1          0          253.177    14273      -1400      592        32373      0          17830.6    89.47      22496      6493      
2729.6     5.94       259        1          0          253.217    14275      -1400      599        32373      0          17831.74   89.489     22501      6494      
2729.8     6.4        284        1          0          253.251    14276      -1400      600        32373      0          17832.91   89.512     22507      6493      
2730       6.56       284        1          2          253.253    14277      -1400      606        32373      0          17834.11   89.529     22511      6494      
2730.2     6.92       308        1          0          253.304    14279      -1400      599        32373      0          17835.34   89.548     22516      6494      
2730.4     7.11       308        1          0          253.281    14278      -1400      610        32373      0          17836.54   89.57      22521      6493      
2730.6     7.34       324        1          0          253.346    14281      -1400      612        32373      0          17837.73   89.585     22525      6494      
2730.8     7.5        324        1          0          253.321    14280      -1400      606        32373      0          17838.99   89.6       22529      6493      
2731       7.59       328        1          0          253.37     14282      -1400      611        32373      0          17840.13   89.615     22532      6493      
2731.2     7.66       329        1          0          253.389    14283      -1400      613        32373      0          17841.28   89.617     22533      6493      
2731.4     7.61       322        1          0          253.398    14283      -1400      614        32373      0          17842.5    89.638     22538      6493      
2731.6     7.56       322        1          0          253.431    14285      -1400      608        32373      0          17843.73   89.646     22540      6493      
2731.8     7.31       293        1          0          253.41     14284      -1400      607        32373      0          17844.86   89.654     22542      6494      
2732       7.01       293        1          0          253.473    14287      -1400      614        32373      0          17846.01   89.658     22543      6494      
2732.2     6.92       295        1          0          253.452    14286      -1400      608        32372      0          17847.27   89.662     22544      6494      
2732.4     6.97       299        1          0          253.509    14289      -1400      607        32373      0          17848.42   89.664     22545      6495      
2732.6     6.99       299        1          0          253.515    14289      -1400      610        32373      0          17849.59   89.666     22545      6494      
2732.8     6.95       296        1          0          253.52     14289      -1400      609        32373      0          17850.78   89.67      22546      6494      
2733       6.97       301        1          0          253.568    14292      -1400      613        32374      0          17851.96   89.67      22546      6494      
2733.2     7.53       333        1          0          253.546    14291      -1400      616        32373      0          17853.14   89.668     22545      6494      
2733.4     7.71       333        1          0          253.598    14293      -1400      616        32373      0          17854.29   89.671     22546      6495      
2733.6     8.29       369        1          0          253.598    14293      -1400      609        32373      0          17855.55   89.67      22546      6495      
2733.8     8.52       369        1          0          253.626    14294      -1400      613        32373      0          17856.69   89.67      22546      6495      
2734       8.2        336        1          0          253.639    14295      -1400      609        32372      0          17857.83   89.67      22546      6495      
2734.2     7.97       336        1          0          253.634    14295      -1400      609        32372      0          17859.02   89.674     22547      6494      
2734.4     8.06       348        1          0          253.681    14297      -1400      603        32372      0          17860.24   89.674     22547      6495      
2734.6     8.11       348        1          0          253.663    14296      -1400      602        32373      0          17861.38   89.674     22547      6495      
2734.8     8.65       394        1          0          253.738    14300      -1400      610        32373      0          17862.54   89.674     22547      6495      
2735       9.03       394        1          0          253.702    14298      -1400      614        32373      0          17863.77   89.674     22547      6495      
2735.2     9.32       415        1          0          253.759    14301      -1400      607        32373      0          17864.91   89.674     22547      6495      
2735.4     9.58       415        1          0          253.764    14301      -1400      615        32374      0          17866.09   89.678     22548      6494      
2735.6     9.6        406        1          0          253.77     14301      -1400      616        32373      0          17867.28   89.682     22549      6495      
2735.8     9.41       398        1          0          253.82     14304      -1400      611        32374      0          17868.45   89.682     22549      6495      
2736       9          355        1          0          253.788    14302      -1400      618        32373      0          17869.6    89.685     22550      6495      
2736.2     8.3        341        1          0          253.864    14306      -1400      617        32373      0          17870.75   89.687     22550      6496      
2736.4     8.04       335        1          0          253.848    14305      -1400      617        32372      0          17871.95   89.687     22550      6496      
2736.6     7.39       303        1          0          253.895    14307      -1400      618        32373      0          17873.11   89.691     22551      6496      
2736.8     7.19       303        2053       0          253.913    14308      -1400      621        32373      0          17874.29   89.691     22551      6496      
2737       7.53       332        765        0          253.913    14308      -1400      622        32373      0          17875.43   89.695     22552      6496      
2737.2     7.69       332        135        0          253.958    14310      -1400      616        32373      0          17876.64   89.695     22552      6495      
2737.4     7.77       335        1          0          253.931    14309      -1400      617        32373      0          17877.83   89.699     22553      6495      
2737.6     7.82       335        1          0          254.007    14313      -1400      616        32373      0          17878.97   89.699     22553      6494      
2737.8     7.78       331        1          0          253.989    14312      -1400      612        32373      0          17880.17   89.703     22554      6495      
