~Version
 VERS              .         2.0                           : CWLS LOG ASCII STANDARD - VERSION 2.0
 WRAP              .         NO                            : ONE LINE PER DEPTH STEP
 DLM               .         SPACE                         : DELIMITING CHARACTER(SPACE TAB OR COMMA)
~Well Information
#_______________________________________________________________________________
#
#PARAMETER_NAME    .UNIT     VALUE                         : DESCRIPTION
#_______________________________________________________________________________
STRT               .M        1549.2                        : First reference value
STOP               .M        2296.2                        : Last reference value
STEP               .M        0.2                           : Step increment
NULL               .         -9999                         : Missing value
COMP               .                                       : Company
WELL               .         616                           : Well name
FLD                .                                       : Field
LOC                .                                       : Location
CNTY               .                                       : County
STAT               .                                       : State
CTRY               .                                       : Country
SRVC               .                                       : Service Company
DATE               .                                       : Date
API                .                                       : API number
PROJECT_UPGRADE_TIME .         2021-03-18T21_24_50           : 
group              .         Good                          : 
~Parameter Information Block
#_______________________________________________________________________________
#
#PARAMETER_NAME    .UNIT     VALUE                         : DESCRIPTION
#_______________________________________________________________________________
SET                .         616_10                        : 
CONF               .         00                            : 
END                .         0                             : 
ERR                .         2                             : 
GS00               .M        2294.21                       : 
GS01               .M        1546.72                       : 
MM00               .M        2240.00                       : 
NOKG               .         0                             : 
NPR                .         980119                        : 
PART               .         Палагутин                     : 
PROJECT_UPGRADE_TIME .         2021-03-18T21_24_49           : 
PRZK               .         Якименко                      : 
TLFamily_AZIMUTH   .         True Dip Azimuth              : 
TLFamily_DEPTH     .         Measured Depth                : 
TLFamily_METKA     .                                       : 
TLFamily_ROLL      .                                       : 
TLFamily_SPEED     .         Spontaneous Potential         : 
TLFamily_ZENIT     .                                       : 
VPRG               .         310                           : 
WAY                .         UP                            : 
group              .         prim                          : 
~Curve Information
#_______________________________________________________________________________
#
#LOGNAME           .UNIT     LOG_ID                        : DESCRIPTION
#_______________________________________________________________________________
DEPTH              .M                                      :  
AZIMUTH            .DEG                                    :  
METKA              .                                       :  
ROLL               .DEG                                    :  
SPEED              .M/H                                    :  
ZENIT              .DEG                                    :  
~Ascii
# ...
1939.6     14.61      0          37.98      720        18.12     
1939.8     358.95     0          38.75      576        18.2      
1940       1.98       0          38.56      648        18.3      
1940.2     0.82       0          37.27      684        18.25     
1940.4     16.65      0          35.31      648        18.31     
1940.6     186.64     0          33.73      684        18.24     
1940.8     251.73     0          33.11      612        18.34     
1941       275.99     0          32.31      648        18.27     
1941.2     342.23     0          31         684        17.82     
1941.4     13.02      0          32.43      684        17.53     
1941.6     0.34       0          35.04      648        17.29     
1941.8     320.01     0          36.78      684        17.28     
1942       322.92     0          37.56      648        17.36     
1942.2     331.92     1          37.26      648        17.33     
1942.4     1.19       0          36.55      648        17.53     
1942.6     339.55     0          36.36      684        17.24     
1942.8     47.82      0          35.77      648        17.63     
1943       12.28      0          39.7       684        17.6      
1943.2     6.21       0          45.11      648        17.61     
1943.4     3.27       0          49.82      684        17.48     
1943.6     1.05       0          58.89      612        17.46     
1943.8     358.84     0          71.09      648        17.59     
1944       332.38     0          79.18      684        17.57     
1944.2     337.14     0          85.16      684        17.6      
1944.4     335.81     0          92.46      648        17.76     
1944.6     359.61     0          101.67     648        18        
1944.8     358.39     0          113.77     612        17.99     
1945       357.88     0          125.86     684        17.96     
1945.2     21.64      0          135.6      684        17.8      
1945.4     359.67     0          141.14     648        17.82     
1945.6     353.05     0          144.87     612        17.84     
1945.8     0.8        0          147.97     684        17.84     
1946       347.17     0          150.06     684        17.72     
1946.2     334.84     0          151.44     684        17.72     
1946.4     358.09     0          152.07     684        17.77     
1946.6     57.48      0          151.83     648        17.69     
1946.8     60.57      0          150.98     576        17.71     
1947       24.06      0          150.3      720        17.76     
1947.2     73.11      0          150.21     684        17.73     
1947.4     9.11       0          151.33     684        17.7      
1947.6     344.74     0          153.21     576        17.86     
1947.8     345.9      0          157.75     648        17.85     
1948       337.39     0          163.49     684        17.81     
1948.2     346.83     0          169.86     684        17.79     
1948.4     336.89     0          176.89     684        17.68     
1948.6     338.06     0          184.22     684        17.6      
1948.8     336.36     0          193.44     576        17.62     
1949       6.77       0          202.59     684        17.59     
1949.2     341.24     0          210.02     684        17.54     
1949.4     349.51     0          215.24     684        17.67     
1949.6     276.9      0          218.39     684        17.73     
1949.8     344.18     0          220.24     612        17.7      
1950       196.26     0          221.4      684        17.81     
1950.2     349.68     0          222.37     684        17.75     
1950.4     221.93     0          224.07     684        17.64     
1950.6     117.35     0          227.11     684        17.64     
1950.8     127.3      0          229.97     612        17.69     
1951       117.84     0          232.14     648        17.62     
1951.2     126.58     0          235.17     684        17.59     
1951.4     142.22     0          241.84     648        17.4      
1951.6     135.63     0          257.17     684        17.83     
1951.8     163.05     0          276.3      684        18.16     
1952       6.14       1          294.32     612        18.19     
1952.2     46.17      0          313.2      576        18.18     
1952.4     9.54       0          329.09     684        18.13     
1952.6     359.6      0          340.87     684        18.02     
1952.8     9.66       0          352.46     612        17.91     
1953       319.57     0          5.28       684        17.77     
1953.2     296.89     0          17.32      648        17.82     
1953.4     321.15     0          25.4       684        17.82     
1953.6     235.3      0          31.18      648        17.55     
1953.8     2.08       0          34.69      684        17.45     
1954       355.82     0          36.42      684        17.17     
1954.2     330.71     0          37.15      648        17.1      
1954.4     356.4      0          37.23      684        17.19     
1954.6     348.16     0          37.52      612        17.27     
1954.8     349.36     0          36.16      684        17.63     
1955       329.86     0          34.55      684        17.57     
1955.2     338.48     0          36.44      684        17.27     
1955.4     312.22     0          39.11      648        17.42     
1955.6     4.5        0          40.48      612        17.48     
1955.8     327.61     0          41.89      684        17.38     
1956       356.41     0          44.16      684        17.44     
1956.2     311.01     0          48.3       684        17.28     
1956.4     348.68     0          59.36      648        17.4      
1956.6     344.13     0          72.48      612        17.41     
1956.8     349.25     0          81.79      684        17.37     
1957       332.52     0          89.41      684        17.46     
1957.2     332.41     0          97.2       684        17.56     
1957.4     342.71     0          105.4      684        17.65     
1957.6     325.29     0          115.15     576        17.56     
1957.8     315.2      0          124.93     648        17.62     
1958       340.95     0          134.04     684        17.51     
1958.2     322.21     0          139.3      684        17.45     
1958.4     356.79     0          141.62     684        17.46     
1958.6     331.72     0          142.15     576        17.39     
1958.8     327.59     0          141.54     720        17.33     
1959       341.09     0          140.98     684        17.4      
1959.2     315.54     0          141.56     684        17.45     
1959.4     321.93     0          143.27     684        17.44     
1959.6     334.41     0          146.1      612        17.46     
1959.8     324.22     0          149.6      612        17.49     
1960       323.71     0          153.8      684        17.42     
1960.2     319.83     0          159.32     684        17.59     
1960.4     9.39       0          169.08     684        17.64     
1960.6     346.69     0          180.75     612        17.35     
1960.8     334.7      0          192.89     648        17.27     
1961       341.41     0          202.89     684        17.3      
1961.2     342.69     0          210.83     684        17.39     
1961.4     322.67     0          215.84     612        17.34     
1961.6     315.1      0          219.15     648        17.37     
1961.8     315.79     0          221.11     684        17.42     
1962       339.36     0          222.49     684        17.41     
1962.2     332.71     1          223.9      612        17.38     
1962.4     310.2      0          225.03     648        17.31     
1962.6     323.76     0          226.36     612        17.38     
1962.8     297.87     0          228.35     684        17.42     
1963       283.82     0          229.64     684        17.43     
1963.2     284        0          231.04     684        17.46     
1963.4     280.44     0          232.95     612        17.37     
1963.6     278.38     0          239.29     648        17.13     
1963.8     298.99     0          254.56     648        17.4      
