~Version
 VERS              .         2.0                           : CWLS LOG ASCII STANDARD - VERSION 2.0
 WRAP              .         NO                            : ONE LINE PER DEPTH STEP
 DLM               .         SPACE                         : DELIMITING CHARACTER(SPACE TAB OR COMMA)
~Well Information
#_______________________________________________________________________________
#
#PARAMETER_NAME    .UNIT     VALUE                         : DESCRIPTION
#_______________________________________________________________________________
STRT               .M        2733.1                        : First reference value
STOP               .M        2798.6                        : Last reference value
STEP               .M        0.1                           : Step increment
NULL               .         -9999                         : Missing value
COMP               .                                       : Company
WELL               .         616                           : Well name
FLD                .                                       : Field
LOC                .                                       : Location
CNTY               .                                       : County
STAT               .                                       : State
CTRY               .                                       : Country
SRVC               .                                       : Service Company
DATE               .                                       : Date
API                .                                       : API number
PROJECT_UPGRADE_TIME .         2021-03-18T21_24_50           : 
group              .         Good                          : 
~Parameter Information Block
#_______________________________________________________________________________
#
#PARAMETER_NAME    .UNIT     VALUE                         : DESCRIPTION
#_______________________________________________________________________________
SET                .         D2661_D                       : 
OTHER              .         Программное обеспечение станции MONITOR-386EX 25/12/99 15_08_10   BGF V50 26/12/00 07_26_01   3.1_SNGF___BGF_N_092085: 
OTHER_10           .         Тарировки_                    : 
OTHER_11           .         IK1.GRD = IK1$.UE - -5.96     : 
OTHER_12           .         IK5.GRD = IK5$.UE - -0.74     : 
OTHER_13           .         IK4.GRD = IK4$.UE - -0.9      : 
OTHER_14           .         IK3.GRD = IK3$.UE - -1.28     : 
OTHER_15           .         IK2.GRD = IK2$.UE - -3.55     : 
OTHER_2            .         Kedr.exe версия 3.3.2.32      : 
OTHER_3            .         KedrData.dll версия 3.3.2.17  : 
OTHER_4            .         Драйвер версия 2.1.0.4        : 
OTHER_5            .         Мнемоники версия 3.3 S        : 
OTHER_6            .         Прибор_ Викиз                 : 
OTHER_7            .         Номер прибора_ 0006012        : 
OTHER_8            .         Режим_ Викиз                  : 
OTHER_9            .         Форма_ ВИКИЗ                  : 
PROJECT_UPGRADE_TIME .         2021-03-18T21_24_49           : 
TLFamily_DEPT      .         Measured Depth                : 
TLFamily_IK1       .         Extra Shallow Resistivity     : 
TLFamily_IK1$      .         Extra Shallow Resistivity     : 
TLFamily_IK2       .         Shallow Resistivity           : 
TLFamily_IK2$      .         Shallow Resistivity           : 
TLFamily_IK3       .         Medium Resistivity            : 
TLFamily_IK3$      .         Medium Resistivity            : 
TLFamily_IK4       .         Deep Resistivity              : 
TLFamily_IK4$      .         Deep Resistivity              : 
TLFamily_IK5       .         Resistivity 20                : 
TLFamily_IK5$      .         Resistivity 20                : 
TLFamily_METKA     .                                       : 
TLFamily_PS        .         Spontaneous Potential         : 
TLFamily_RCOR      .                                       : 
TLFamily_SPID      .         Spontaneous Potential         : 
TLFamily_TENS      .         Cable Tension                 : 
TLFamily_TIME      .         Time                          : 
group              .         prim                          : 
~Curve Information
#_______________________________________________________________________________
#
#LOGNAME           .UNIT     LOG_ID                        : DESCRIPTION
#_______________________________________________________________________________
DEPT               .M                                      : 1 Глубина, м -    0.0 см 
IK1                .GRD                                    : 13 3Ф0.5, град. -  226.0 см 
IK1$               .UE                                     : 7 3Ф0.5, усл.ед. -  226.0 см 
IK2                .GRD                                    : 17 3Ф0.7, град. -  240.0 см 
IK2$               .UE                                     : 11 3Ф0.7, усл.ед. -  240.0 см 
IK3                .GRD                                    : 16 3Ф1.0, град. -  260.0 см 
IK3$               .UE                                     : 10 3Ф1.0, усл.ед. -  260.0 см 
IK4                .GRD                                    : 15 3Ф1.4, град. -  288.0 см 
IK4$               .UE                                     : 9 3Ф1.4, усл.ед. -  288.0 см 
IK5                .GRD                                    : 14 3Ф2.0, град. -  328.0 см 
IK5$               .UE                                     : 8 3Ф2.0, усл.ед. -  328.0 см 
METKA              .                                       : 3 Метки,  -    0.0 см 
PS                 .mV                                     : 12 ПС, мВ -  372.0 см 
RCOR               .CM/KM                                  : 5 Коррекция по ролику, см/км -    0.0 см 
SPID               .M/H                                    : 2 Скорость, м/час -    0.0 см 
TENS               .T                                      : 6 Натяжение кабеля, т -    0.0 см 
TIME               .S                                      : 4 Время, сек -    0.0 см 
~Ascii
# ...
2754.6     15.3       9.34       14.55      11         14.25      12.97      13.69      12.79      13.61      12.87      0          332.85     -299       -1811      0          34440.39  
2754.7     15.19      9.23       14.43      10.88      14.12      12.84      13.57      12.67      13.52      12.78      0          332.11     -299       -1813      0          34440.2   
2754.8     15.02      9.06       14.27      10.72      13.97      12.69      13.46      12.56      13.42      12.68      0          331.24     -299       -1819      0          34439.98  
2754.9     14.85      8.89       14.06      10.51      13.85      12.57      13.37      12.47      13.34      12.6       0          330.33     -299       -1825      0          34439.81  
2755       14.79      8.83       13.96      10.41      13.75      12.47      13.28      12.38      13.28      12.54      0          329.56     -299       -1819      0          34439.63  
2755.1     14.77      8.81       13.9       10.35      13.69      12.41      13.25      12.35      13.23      12.49      0          328.98     -299       -1809      0          34439.44  
2755.2     14.75      8.79       13.86      10.31      13.66      12.38      13.23      12.33      13.22      12.48      0          328.8      -299       -1796      0          34439.21  
2755.3     14.75      8.79       13.83      10.28      13.65      12.37      13.23      12.33      13.21      12.47      0          328.42     -299       -1798      0          34439.03  
2755.4     14.74      8.78       13.83      10.28      13.66      12.38      13.23      12.33      13.2       12.46      0          328.35     -299       -1800      0          34438.84  
2755.5     14.74      8.78       13.83      10.28      13.68      12.4       13.24      12.34      13.19      12.45      0          328.54     -299       -1802      0          34438.64  
2755.6     14.78      8.82       13.87      10.32      13.7       12.42      13.23      12.33      13.17      12.43      0          328.6      -299       -1805      0          34438.44  
2755.7     14.78      8.82       13.88      10.33      13.7       12.42      13.2       12.3       13.13      12.39      0          328.74     -299       -1809      0          34438.25  
2755.8     14.72      8.76       13.87      10.32      13.66      12.38      13.14      12.24      13.05      12.31      0          328.92     -299       -1808      0          34438.05  
2755.9     14.66      8.7        13.84      10.29      13.6       12.32      13.05      12.15      12.96      12.22      0          328.86     -299       -1794      0          34437.83  
2756       14.59      8.63       13.8       10.25      13.53      12.25      12.92      12.02      12.82      12.08      0          328.43     -299       -1779      0          34437.65  
2756.1     14.41      8.45       13.7       10.15      13.39      12.11      12.75      11.85      12.64      11.9       0          328.13     -299       -1774      0          34437.46  
2756.2     14.24      8.28       13.53      9.98       13.23      11.95      12.57      11.67      12.46      11.72      0          327.69     -299       -1787      0          34437.26  
2756.3     14.05      8.09       13.33      9.78       13.03      11.75      12.36      11.46      12.28      11.54      0          327.06     -299       -1800      0          34437.05  
2756.4     13.74      7.78       13.06      9.51       12.75      11.47      12.11      11.21      12.06      11.32      0          326.44     -299       -1807      0          34436.86  
2756.5     13.4       7.44       12.71      9.16       12.44      11.16      11.88      10.98      11.83      11.09      0          325.81     -299       -1812      0          34436.65  
2756.6     13.01      7.05       12.25      8.7        12.12      10.84      11.66      10.76      11.67      10.93      0          325.44     -299       -1817      0          34436.44  
2756.7     12.59      6.63       11.88      8.33       11.85      10.57      11.46      10.56      11.56      10.82      0          325.66     -299       -1824      0          34436.25  
2756.8     12.19      6.23       11.62      8.07       11.66      10.38      11.39      10.49      11.51      10.77      0          326.07     -299       -1832      0          34436.07  
2756.9     12.01      6.05       11.51      7.96       11.64      10.36      11.45      10.55      11.56      10.82      0          327.2      -299       -1840      0          34435.84  
2757       12.13      6.17       11.7       8.15       11.82      10.54      11.65      10.75      11.72      10.98      0          328.27     -299       -1836      0          34435.66  
2757.1     12.74      6.78       12.17      8.62       12.29      11.01      12.02      11.12      12.01      11.27      0          328.81     -299       -1830      0          34435.46  
2757.2     13.42      7.46       12.85      9.3        12.74      11.46      12.38      11.48      12.29      11.55      0          328.98     -299       -1822      0          34435.23  
2757.3     13.96      8          13.22      9.67       13.08      11.8       12.67      11.77      12.58      11.84      0          329.08     -299       -1813      0          34435.05  
2757.4     14.25      8.29       13.45      9.9        13.29      12.01      12.88      11.98      12.79      12.05      0          329.47     -299       -1802      0          34434.87  
2757.5     14.53      8.57       13.64      10.09      13.37      12.09      12.96      12.06      12.93      12.19      0          329.71     -299       -1794      0          34434.66  
2757.6     14.8       8.84       13.86      10.31      13.46      12.18      13.01      12.11      12.98      12.24      0          329.94     -299       -1795      0          34434.48  
2757.7     14.97      9.01       14         10.45      13.55      12.27      13.06      12.16      13.01      12.27      0          330.02     -299       -1796      0          34434.29  
2757.8     15.14      9.18       14.13      10.58      13.65      12.37      13.08      12.18      13.02      12.28      0          330.04     -299       -1798      0          34434.09  
2757.9     15.2       9.24       14.24      10.69      13.74      12.46      13.1       12.2       13.03      12.29      0          330.04     -299       -1800      0          34433.88  
2758       15.21      9.25       14.3       10.75      13.82      12.54      13.14      12.24      13.03      12.29      0          330.15     -299       -1803      0          34433.69  
2758.1     15.21      9.25       14.31      10.76      13.9       12.62      13.18      12.28      13.04      12.3       0          329.86     -299       -1806      0          34433.5   
2758.2     15.26      9.3        14.33      10.78      14.01      12.73      13.23      12.33      13.04      12.3       0          329.81     -299       -1810      0          34433.29  
2758.3     15.28      9.32       14.35      10.8       14.09      12.81      13.28      12.38      13.06      12.32      0          329.76     -299       -1815      0          34433.1   
2758.4     15.29      9.33       14.34      10.79      14.13      12.85      13.34      12.44      13.07      12.33      0          330.03     -299       -1820      0          34432.91  
2758.5     15.28      9.32       14.33      10.78      14.14      12.86      13.38      12.48      13.09      12.35      0          330.29     -299       -1828      0          34432.71  
2758.6     15.21      9.25       14.27      10.72      14.11      12.83      13.41      12.51      13.09      12.35      0          330.55     -299       -1837      0          34432.49  
2758.7     15.1       9.14       14.2       10.65      14.05      12.77      13.43      12.53      13.1       12.36      0          330.64     -299       -1832      0          34432.3   
2758.8     14.98      9.02       14.17      10.62      13.99      12.71      13.45      12.55      13.11      12.37      0          330.91     -299       -1825      0          34432.11  
