~Version
 VERS              .         2.0                           : CWLS LOG ASCII STANDARD - VERSION 2.0
 WRAP              .         NO                            : ONE LINE PER DEPTH STEP
 DLM               .         SPACE                         : DELIMITING CHARACTER(SPACE TAB OR COMMA)
~Well Information
#_______________________________________________________________________________
#
#PARAMETER_NAME    .UNIT     VALUE                         : DESCRIPTION
#_______________________________________________________________________________
STRT               .M        2648.8                        : First reference value
STOP               .M        2755.39984                    : Last reference value
STEP               .M        0.1999997                     : Step increment
NULL               .         -9999                         : Missing value
COMP               .                                       : Company
WELL               .         616                           : Well name
FLD                .                                       : Field
LOC                .                                       : Location
CNTY               .                                       : County
STAT               .                                       : State
CTRY               .                                       : Country
SRVC               .                                       : Service Company
DATE               .                                       : Date
API                .                                       : API number
PROJECT_UPGRADE_TIME .         2021-03-18T21_24_50           : 
group              .         Good                          : 
~Parameter Information Block
#_______________________________________________________________________________
#
#PARAMETER_NAME    .UNIT     VALUE                         : DESCRIPTION
#_______________________________________________________________________________
SET                .         D7023_D                       : 
OTHER              .         Kedr.exe версия 2.1.2.32      : 
OTHER_10           .         TM.GRD = 0.00404*TM$.UE + 0.07: 
OTHER_11           .         MN.ATM = (6.33279e-006*TM.GRD + 0.02401)*(MN$.UE + 2.72*TM.GRD + -2018): 
OTHER_12           .         GK.MKR/H = GK$.UE / 43.5489 + 0: 
OTHER_13           .         RES.SM = 0.00476*CRES.UE - 1.51709: 
OTHER_14           .         PL.GSM3 = 0 + 0 * (PL.UE / 1) +  0 * (PL.UE / 1)^2: 
OTHER_15           .         Постоянная времени ГГП = 6 сек: 
OTHER_16           .         Постоянная времени ГК = 6 сек : 
OTHER_2            .         KedrData.dll версия 3.2.2.14  : 
OTHER_3            .         LasInf.dll версия 3.2.0.13    : 
OTHER_4            .         Драйвер версия 1.2.0.5        : 
OTHER_5            .         Прибор_ КСА-M1                : 
OTHER_6            .         Номер прибора_ 155+р204       : 
OTHER_7            .         Режим_ КСА-М1 + ГГП + Резистивиметр: 
OTHER_8            .         Форма_ 223\2                  : 
OTHER_9            .         Тарировки_                    : 
PROJECT_UPGRADE_TIME .         2021-03-18T21_24_50           : 
TLFamily_CRES      .                                       : 
TLFamily_DEPT      .         Measured Depth                : 
TLFamily_GK        .         Gamma Ray                     : 
TLFamily_GK$       .                                       : 
TLFamily_LM        .         Casing Collar locator         : 
TLFamily_METKA     .                                       : 
TLFamily_MN        .                                       : 
TLFamily_MN$       .                                       : 
TLFamily_PL        .                                       : 
TLFamily_PL_2      .                                       : 
TLFamily_RCOR      .                                       : 
TLFamily_RES       .         Mud Resistivity               : 
TLFamily_SPID      .         Spontaneous Potential         : 
TLFamily_STD       .                                       : 
TLFamily_TIME      .         Time                          : 
TLFamily_TM        .         Temperature                   : 
TLFamily_TM$       .         Temperature                   : 
TLFamily_VGD       .         Gas Volume                    : 
group              .         prim                          : 
~Curve Information
#_______________________________________________________________________________
#
#LOGNAME           .UNIT     LOG_ID                        : DESCRIPTION
#_______________________________________________________________________________
DEPT               .M                                      : 1 Глубина, м -    0.0 см 
CRES               .UE                                     : 9 Проводимость, усл.ед. -  222.0 см 
GK                 .MKR/H                                  : 16 Гамма-активность, мкр./ч -  106.0 см 
GK$                .UE                                     : 13 Гамма-активность, усл.ед. -  106.0 см 
LM                 .                                       : 11 Локатор муфт,  -   16.0 см 
METKA              .                                       : 3 Метки,  -    0.0 см 
MN                 .ATM                                    : 15 Давление, атм. -  160.0 см 
MN$                .UE                                     : 7 Давление, усл.ед. -  160.0 см 
PL                 .UE                                     : 10 Плотность, усл.ед. -  270.0 см 
PL_2               .GSM3                                   : 18 Плотность, г./см3 -  270.0 см 
RCOR               .CM/KM                                  : 5 Коррекция по ролику, см/км -    0.0 см 
RES                .SM                                     : 17 Проводимость,  -  222.0 см 
SPID               .M/H                                    : 2 Скорость, м/час -    0.0 см 
STD                .                                       : 12 Приток,  -  170.0 см 
TIME               .S                                      : 4 Время, сек -    0.0 см 
TM                 .GRD                                    : 14 Температура, °C -  180.0 см 
TM$                .UE                                     : 6 Температура, усл.ед. -  180.0 см 
VGD                .                                       : 8 Влагомер,  -  170.0 см 
~Ascii
# ...
2673.399963 1220       8.63       386        110        0          360.227    16662      14         0          0          4.2909     570        10656      14860.96   54.307     13425      6698      
2673.599963 1221       8.74       386        155        0          359.879    16647      14         0          0          4.2949     522        10654      14862.29   54.299     13423      6698      
2673.799963 1222       8.76       381        113        0          358.829    16604      14         0          0          4.2996     580        10653      14863.58   54.294     13422      6697      
2673.999962 1221       8.75       381        102        0          358.663    16598      14         0          0          4.2965     533        10651      14864.87   54.289     13420      6696      
2674.199962 1221       8.67       373        121        0          358.231    16580      13         0          0          4.2957     580        10648      14866.14   54.279     13418      6696      
2674.399962 1222       8.62       373        131        0          357.68     16557      14         0          0          4.3004     510        10648      14867.41   54.271     13416      6697      
2674.599961 1221       9.19       427        122        0          357.705    16558      14         0          0          4.2949     540        10645      14868.76   54.267     13415      6696      
2674.799961 1220       9.51       431        125        0          357.293    16541      14         0          0          4.2908     580        10640      14870.06   54.261     13413      6699      
2674.999961 1219       9.74       435        110        0          356.888    16525      14         0          0          4.2853     580        10639      14871.33   54.26      13413      6699      
2675.19996 1217       9.86       435        83         0          357.134    16535      14         0          0          4.2774     580        10637      14872.6    54.259     13413      6700      
2675.39996 1217       9.43       390        86         0          357.65     16556      14         0          0          4.2774     580        10639      14873.91   54.249     13411      6699      
2675.59996 1218       9.23       400        83         0          358.538    16593      14         0          0          4.2786     557        10636      14875.25   54.241     13409      6700      
2675.79996 1219       9.31       409        82         0          358.013    16571      14         0          0          4.2853     510        10633      14876.52   54.228     13405      6698      
2675.999959 1221       9.34       407        133        0          358.811    16604      13         0          0          4.2942     510        10632      14877.92   54.223     13404      6698      
2676.199959 1222       9.34       407        143        0          358.521    16592      14         0          0          4.2996     580        10631      14879.23   54.21      13401      6698      
2676.399959 1221       9.36       409        130        0          359.45     16630      14         0          0          4.2949     580        10630      14880.45   54.208     13401      6701      
2676.599958 1221       9.37       409        100        0          360.426    16670      14         0          0          4.2949     580        10631      14881.77   54.207     13400      6701      
2676.799958 1222       9.46       427        89         0          360.314    16666      13         0          0          4.2975     580        10632      14883.11   54.202     13399      6702      
2676.999958 1219       9.67       430        102        0          360.21     16662      14         0          0          4.2838     580        10630      14884.42   54.202     13399      6702      
2677.199957 1220       9.55       397        126        0          359.828    16646      14         0          0          4.2901     532        10630      14885.69   54.202     13399      6702      
2677.399957 1218       9.34       397        140        0          360.217    16662      14         0          0          4.282      580        10630      14887.02   54.191     13396      6701      
2677.599957 1218       9.23       397        108        0          359.204    16620      14         0          0          4.2806     580        10630      14888.36   54.182     13394      6699      
2677.799957 1217       9.17       397        111        0          358.723    16601      14         0          0          4.2774     568        10631      14889.67   54.174     13392      6698      
2677.999956 1217       9.42       425        139        0          358.474    16591      14         0          0          4.2735     510        10632      14890.94   54.167     13390      6701      
2678.199956 1215       9.58       425        87         0          357.605    16555      14         0          0          4.2663     568        10628      14892.21   54.155     13387      6699      
2678.399956 1220       9.68       426        102        0          357.951    16569      14         0          0          4.2885     580        10625      14893.54   54.137     13383      6698      
2678.599955 1221       9.73       426        100        0          357.833    16565      14         0          0          4.2936     521        10620      14894.86   54.124     13380      6698      
2678.799955 1221       9.87       437        95         0          357.333    16544      14         0          0          4.2935     580        10615      14896.13   54.117     13378      6700      
2678.999955 1223       9.95       437        76         0          357.577    16554      13         0          0          4.3044     522        10611      14897.4    54.113     13377      6699      
2679.199954 1219       10.3       465        101        0          359.308    16625      14         0          0          4.2853     552        10608      14898.68   54.108     13376      6697      
2679.399954 1220       10.49      465        129        0          359.942    16651      13         0          0          4.2901     580        10605      14899.98   54.103     13374      6698      
2679.599954 1220       10.77      483        183        0          360.786    16686      14         0          0          4.2893     580        10603      14901.26   54.094     13372      6694      
2679.799954 1220       10.92      483        102        0          360.059    16656      13         0          0          4.2909     520        10600      14902.58   54.089     13371      6697      
2679.999953 1221       10.75      460        96         0          360.665    16681      14         0          0          4.2925     557        10598      14903.85   54.081     13369      6697      
2680.199953 1220       10.63      454        71         1          361.235    16705      14         0          0          4.2901     568        10599      14905.77   54.079     13368      6698      
2680.399953 1220       10.44      446        65         0          361.702    16724      14         0          0          4.2917     580        10599      14907.11   54.076     13368      6700      
2680.599952 1221       10.35      448        66         0          360.921    16692      14         0          0          4.2941     533        10600      14908.38   54.073     13367      6695      
2680.799952 1218       10.32      448        64         0          360.709    16683      14         0          0          4.2806     580        10601      14909.69   54.069     13366      6681      
2680.999952 1219       10.3       447        69         0          359.826    16647      14         0          0          4.2838     580        10602      14911      54.063     13365      6681      
2681.199951 1216       10.25      445        76         0          359.311    16626      14         0          0          4.2727     545        10601      14912.29   54.052     13362      6683      
2681.399951 1215       10.53      477        837        0          359.454    16632      15         0          0          4.2663     530        10600      14913.58   54.044     13360      6679      
