~Version
 VERS              .         2.0                           : CWLS LOG ASCII STANDARD - VERSION 2.0
 WRAP              .         NO                            : ONE LINE PER DEPTH STEP
 DLM               .         SPACE                         : DELIMITING CHARACTER(SPACE TAB OR COMMA)
~Well Information
#_______________________________________________________________________________
#
#PARAMETER_NAME    .UNIT     VALUE                         : DESCRIPTION
#_______________________________________________________________________________
STRT               .M        2659.6                        : First reference value
STOP               .M        2769.6                        : Last reference value
STEP               .M        0.2                           : Step increment
NULL               .         -9999                         : Missing value
COMP               .                                       : Company
WELL               .         616                           : Well name
FLD                .                                       : Field
LOC                .                                       : Location
CNTY               .                                       : County
STAT               .                                       : State
CTRY               .                                       : Country
SRVC               .                                       : Service Company
DATE               .                                       : Date
API                .                                       : API number
PROJECT_UPGRADE_TIME .         2021-03-18T21_24_50           : 
group              .         Good                          : 
~Parameter Information Block
#_______________________________________________________________________________
#
#PARAMETER_NAME    .UNIT     VALUE                         : DESCRIPTION
#_______________________________________________________________________________
SET                .         D1162_D                       : 
OTHER              .         Программное обеспечение станции MONITOR-386EX 25/12/99 15_08_10   BGF V52 22/08/01 16_56_30   3.2_BGF_N_3070031: 
OTHER_10           .         Тарировки_                    : 
OTHER_11           .         TM.GRD = 0.00403*TM$.UE + -1.19: 
OTHER_12           .         MN.ATM = (7.1e-006*TM.GRD + 0.02017)*(MN$.UE + -3.03*TM.GRD + -1833): 
OTHER_13           .         Id error                      : 
OTHER_2            .         Kedr.exe версия 3.4.2.51      : 
OTHER_3            .         KedrData.dll версия 3.4.2.24  : 
OTHER_4            .         Драйвер версия 2.1.1.8        : 
OTHER_5            .         Мнемоники версия 3.3 S        : 
OTHER_6            .         Прибор_ КСА-М1                : 
OTHER_7            .         Номер прибора_ 265            : 
OTHER_8            .         Режим_ КСА-М1                 : 
OTHER_9            .         Форма_ ТЕРМОМЕТР              : 
PROJECT_UPGRADE_TIME .         2021-03-18T21_24_49           : 
TLFamily_DEPT      .         Measured Depth                : 
TLFamily_GK        .         Gamma Ray                     : 
TLFamily_GK$       .                                       : 
TLFamily_LM        .         Casing Collar locator         : 
TLFamily_METKA     .                                       : 
TLFamily_MN        .                                       : 
TLFamily_MN$       .                                       : 
TLFamily_RCOR      .                                       : 
TLFamily_SPID      .         Spontaneous Potential         : 
TLFamily_STD       .                                       : 
TLFamily_TENS      .         Cable Tension                 : 
TLFamily_TIME      .         Time                          : 
TLFamily_TM        .         Temperature                   : 
TLFamily_TM$       .         Temperature                   : 
TLFamily_VGD       .         Gas Volume                    : 
group              .         prim                          : 
~Curve Information
#_______________________________________________________________________________
#
#LOGNAME           .UNIT     LOG_ID                        : DESCRIPTION
#_______________________________________________________________________________
DEPT               .M                                      : 1 Глубина, м -    0.0 см 
GK                 .MKR/H                                  : 15 Гамма-активность, мкр./ч -  110.0 см 
GK$                .UE                                     : 12 Гамма-активность, усл.ед. -  110.0 см 
LM                 .                                       : 10 Локатор муфт,  -   20.0 см 
METKA              .                                       : 3 Метки,  -    0.0 см 
MN                 .ATM                                    : 14 Давление, атм. -  160.0 см 
MN$                .UE                                     : 8 Давление, усл.ед. -  160.0 см 
RCOR               .CM/KM                                  : 5 Коррекция по ролику, см/км -    0.0 см 
SPID               .M/H                                    : 2 Скорость, м/час -    0.0 см 
STD                .                                       : 11 Приток,  -  170.0 см 
TENS               .T                                      : 6 Натяжение кабеля, т -    0.0 см 
TIME               .S                                      : 4 Время, сек -    0.0 см 
TM                 .GRD                                    : 13 Температура, °C -  180.0 см 
TM$                .UE                                     : 7 Температура, усл.ед. -  180.0 см 
VGD                .                                       : 9 Влагомер,  -  170.0 см 
~Ascii
# ...
2747.8     7.84       334        1          0          254.928    14357      -1400      615        32373      0          17938.85   89.856     22592      6497      
2748       7.47       293        3000       0          254.983    14359      -1400      621        32373      0          17940      89.856     22592      6497      
2748.2     7.07       293        2384       0          254.976    14359      -1400      615        32373      0          17941.16   89.86      22593      6497      
2748.4     6.95       296        361        0          255.002    14360      -1400      610        32373      0          17942.36   89.864     22594      6498      
2748.6     6.93       296        1          0          255.03     14362      -1400      617        32374      0          17943.52   89.868     22595      6496      
2748.8     7.21       331        1          0          255.017    14361      -1400      615        32373      0          17944.66   89.87      22596      6498      
2749       7.77       345        1          0          255.08     14364      -1400      618        32373      0          17945.87   89.872     22596      6497      
2749.2     7.98       345        1          0          255.059    14363      -1400      612        32373      0          17947.02   89.876     22597      6498      
2749.4     8.4        368        1          0          255.122    14366      -1400      619        32373      0          17948.17   89.88      22598      6497      
2749.6     8.48       361        1          0          255.13     14366      -1400      624        32373      0          17949.32   89.884     22599      6498      
2749.8     8.18       344        1          0          255.132    14367      -1400      617        32373      0          17950.53   89.886     22600      6498      
2750       8.09       344        1          2          255.184    14369      -1400      622        32373      0          17951.66   89.892     22601      6497      
2750.2     8.01       340        1          0          255.156    14368      -1400      617        32373      0          17952.94   89.892     22601      6498      
2750.4     7.97       340        1          0          255.231    14371      -1400      617        32373      0          17954.14   89.9       22603      6498      
2750.6     7.91       335        1          0          255.185    14369      -1400      609        32373      0          17955.29   89.901     22603      6498      
2750.8     7.86       335        1          0          255.26     14373      -1400      614        32373      0          17956.39   89.908     22605      6498      
2751       8.07       353        1          0          255.279    14373      -1400      620        32373      0          17957.6    89.912     22606      6497      
2751.2     8.2        353        1          0          255.286    14374      -1400      613        32373      0          17958.77   89.916     22607      6499      
2751.4     7.93       323        1          0          255.331    14376      -1400      619        32373      0          17959.95   89.92      22608      6500      
2751.6     7.68       323        1          0          255.31     14375      -1400      619        32373      0          17961.11   89.927     22610      6499      
2751.8     7.63       327        1          0          255.373    14378      -1400      622        32372      0          17962.24   89.928     22610      6500      
2752       7.66       328        1          0          255.355    14377      -1400      612        32373      0          17963.46   89.932     22611      6497      
2752.2     7.73       335        1          0          255.394    14379      -1400      613        32373      0          17964.6    89.936     22612      6499      
2752.4     8.61       386        1          0          255.415    14380      -1400      620        32373      0          17965.73   89.944     22614      6499      
2752.6     8.92       390        1          0          255.41     14380      -1400      618        32373      0          17966.97   89.944     22614      6497      
2752.8     9.15       396        1          0          255.477    14383      -1400      613        32373      0          17968.06   89.951     22616      6498      
2753       9.23       396        1          0          255.457    14382      -1400      612        32373      0          17969.27   89.958     22617      6498      
2753.2     8.55       348        1          0          255.514    14385      -1400      615        32373      0          17970.37   89.961     22618      6500      
2753.4     8.28       348        1          0          255.512    14385      -1400      611        32373      0          17971.62   89.965     22619      6500      
2753.6     7.77       315        1          0          255.522    14385      -1400      613        32374      0          17972.74   89.97      22620      6499      
2753.8     7.51       315        1          0          255.561    14387      -1400      619        32372      0          17973.86   89.973     22621      6498      
2754       7.81       345        1          0          255.546    14386      -1400      610        32373      0          17975.12   89.98      22623      6499      
2754.2     7.98       345        1          0          255.606    14389      -1400      615        32372      0          17976.25   89.985     22624      6498      
2754.4     8.24       365        1          0          255.59     14388      -1400      611        32373      0          17977.38   89.985     22624      6498      
2754.6     8.44       365        1          0          255.619    14390      -1400      612        32374      0          17978.61   89.989     22625      6498      
2754.8     8.61       378        1          0          255.645    14391      -1400      613        32373      0          17979.76   89.994     22626      6499      
2755       8.93       388        1          0          255.639    14391      -1400      614        32373      0          17980.95   89.997     22627      6498      
2755.2     8.94       377        1          0          255.701    14394      -1400      615        32373      0          17982.04   90.001     22628      6499      
2755.4     8.86       377        1          0          255.669    14392      -1400      605        32372      0          17983.26   90.006     22629      6498      
2755.6     8.73       364        1          0          255.722    14395      -1400      605        32373      0          17984.4    90.009     22630      6499      
2755.8     7.95       325        1          0          255.708    14394      -1400      614        32373      0          17985.59   90.013     22631      6499      
2756       7.72       325        1          0          255.726    14395      -1400      614        32373      0          17986.72   90.018     22632      6499      
2756.2     7.68       328        1          0          255.791    14398      -1400      605        32373      0          17987.9    90.021     22633      6499      
2756.4     7.68       328        1          0          255.756    14396      -1400      613        32373      0          17989.09   90.028     22635      6499      
2756.6     7.64       325        1          0          255.833    14400      -1400      620        32373      0          17990.21   90.03      22635      6499      
2756.8     7.61       325        1          0          255.802    14398      -1400      614        32373      0          17991.41   90.037     22637      6500      
2757       7.25       297        1          0          255.839    14400      -1400      609        32373      0          17992.56   90.041     22638      6500      
2757.2     7.05       297        1          0          255.857    14401      -1400      616        32372      0          17993.73   90.045     22639      6499      
2757.4     6.78       276        1          0          255.866    14402      -1400      617        32373      0          17994.87   90.049     22640      6499      
