~Version
 VERS              .         2.0                           : CWLS LOG ASCII STANDARD - VERSION 2.0
 WRAP              .         NO                            : ONE LINE PER DEPTH STEP
 DLM               .         SPACE                         : DELIMITING CHARACTER(SPACE TAB OR COMMA)
~Well Information
#_______________________________________________________________________________
#
#PARAMETER_NAME    .UNIT     VALUE                         : DESCRIPTION
#_______________________________________________________________________________
STRT               .M        749.69                        : First reference value
STOP               .M        1410.72                       : Last reference value
STEP               .M        0                             : Step increment
NULL               .         -9999                         : Missing value
COMP               .                                       : Company
WELL               .         616                           : Well name
FLD                .                                       : Field
LOC                .                                       : Location
CNTY               .                                       : County
STAT               .                                       : State
CTRY               .                                       : Country
SRVC               .                                       : Service Company
DATE               .                                       : Date
API                .                                       : API number
PROJECT_UPGRADE_TIME .         2021-03-18T21_24_50           : 
group              .         Good                          : 
~Parameter Information Block
#_______________________________________________________________________________
#
#PARAMETER_NAME    .UNIT     VALUE                         : DESCRIPTION
#_______________________________________________________________________________
SET                .         D0928                         : 
NPR                .         210404                        : ЗАВ НОМЕР ПРИБОРА
NPRT               .         Каштанов                      : НАЧ ПАРТИИ
PROJECT_UPGRADE_TIME .         2021-03-18T21_24_49           : 
TLFamily_AZIMUTH   .         True Dip Azimuth              : 
TLFamily_DEPTH     .         Measured Depth                : 
TLFamily_DRILL     .                                       : 
TLFamily_METKA     .                                       : 
TLFamily_ZENIT     .                                       : 
group              .         prim                          : 
~Curve Information
#_______________________________________________________________________________
#
#LOGNAME           .UNIT     LOG_ID                        : DESCRIPTION
#_______________________________________________________________________________
DEPTH              .M                                      : 1 ГЛУБИНА 
AZIMUTH            .ГРАД                                   : 4 АЗИМУТ 
DRILL              .ГРАД                                   : 2 ПОВОРОТ 
METKA              .                                       : 5 МАГН МЕТКА 
ZENIT              .ГРАД                                   : 3 ЗЕНИТ 
~Ascii
# ...
1132.97    316.58     82.67      0          32.41     
1133.15    318.45     79.97      0          32.4      
1133.34    319.71     79.03      0          32.35     
1133.52    318.96     79.26      0          32.35     
1133.71    319.94     80.14      0          32.31     
1133.9     321.13     81.2       0          32.32     
1134.08    323.31     82.46      0          32.31     
1134.27    324.74     84.17      0          32.34     
1134.45    326.02     86.39      0          32.31     
1134.64    326.34     89.28      0          32.34     
1134.82    328.05     92.73      0          32.36     
1135.01    328.78     96.45      0          32.38     
1135.2     330.33     100.23     0          32.35     
1135.38    330.85     103.89     0          32.37     
1135.57    331.04     107.34     0          32.33     
1135.75    333.38     110.53     0          32.32     
1135.94    334.84     113.43     0          32.3      
1136.12    337.38     116.01     0          32.3      
1136.31    337.93     118.29     0          32.24     
1136.5     337.67     120.35     0          32.2      
1136.68    335.96     122.24     0          32.22     
1136.87    333.71     124        0          32.17     
1137.05    332.52     125.6      0          32.2      
1137.24    330.92     127.1      0          32.15     
1137.42    329.32     128.51     0          32.16     
1137.61    330.97     129.89     0          32.13     
1137.8     331.99     131.2      0          32.15     
1137.98    333.12     132.43     0          32.07     
1138.17    334.25     133.59     0          32.09     
1138.35    332.94     134.72     0          32.08     
1138.54    331.86     135.8      0          32.11     
1138.72    329.96     136.74     0          32.1      
1138.91    329.87     137.51     0          32.14     
1139.1     329.88     138.14     0          32.14     
1139.28    329.79     138.63     0          32.17     
1139.47    329.47     139.02     0          32.16     
1139.65    328.57     139.4      0          32.17     
1139.84    328.46     139.74     0          32.14     
1140.02    327.84     140.03     0          32.18     
1140.21    327.39     140.13     0          32.16     
1140.39    325.97     140.14     0          32.18     
1140.58    325.81     140.14     0          32.18     
1140.77    324.51     140.11     0          32.2      
1140.95    324.42     140.07     0          32.19     
1141.14    324.59     140.03     0          32.2      
1141.32    325.24     140.01     0          32.2      
1141.51    325.55     140.01     0          32.21     
1141.69    325.93     140.05     0          32.2      
1141.88    326.91     140.11     0          32.21     
1142.06    326.58     140.13     0          32.21     
1142.25    326.65     140.13     0          32.22     
1142.44    326.53     140.09     0          32.22     
1142.62    326.53     140.08     0          32.22     
1142.81    325.33     140.11     0          32.21     
1142.99    324.41     140.15     0          32.18     
1143.18    322.44     140.22     0          32.19     
1143.36    323.68     140.32     0          32.18     
1143.55    325.56     140.49     0          32.2      
1143.73    326.82     140.77     0          32.2      
1143.92    328.9      141.26     0          32.21     
1144.11    330.18     141.95     0          32.21     
1144.29    330.58     142.8      0          32.26     
1144.48    330.16     143.8      0          32.25     
1144.66    332.6      144.87     0          32.24     
1144.85    332.46     145.97     0          32.21     
1145.03    333.23     147.12     0          32.21     
1145.22    334.13     148.39     0          32.19     
1145.4     334.32     149.76     0          32.21     
1145.59    335.31     151.22     0          32.19     
1145.78    335.65     152.77     0          32.17     
1145.96    337.21     154.44     0          32.15     
1146.15    337.11     156.29     0          32.13     
1146.33    339.06     158.31     0          32.13     
1146.52    339.06     160.55     0          32.15     
1146.7     340.69     163.05     0          32.14     
1146.89    340.37     165.7      0          32.13     
1147.08    341.07     168.48     0          32.13     
1147.26    340.94     171.39     0          32.13     
1147.45    341.97     174.39     0          32.12     
1147.63    342.49     177.53     0          32.1      
1147.82    343.88     180.79     0          32.1      
1148       345.11     184.24     0          32.09     
1148.19    345.96     187.95     0          32.08     
1148.38    347.81     191.96     0          32.08     
1148.56    349.61     196.22     0          32.09     
1148.75    351.11     200.56     0          32.04     
1148.93    350.46     204.77     0          32.03     
1149.12    350.43     208.55     0          32.03     
1149.3     349.49     211.66     0          32.03     
1149.49    348.9      214.19     0          32.03     
1149.67    348.04     216.28     0          32.04     
1149.86    349.24     218.03     0          31.99     
1150.05    349.76     219.4      0          32.01     
1150.23    349.58     220.45     0          32.01     
1150.42    349.68     221.21     0          32.05     
1150.6     349.95     221.72     0          32.04     
1150.79    350.1      221.85     0          32.06     
1150.97    350.59     221.5      0          32.04     
1151.16    350.85     220.29     0          32.06     
1151.35    351.83     216        0          32.07     
1151.53    352.05     195.97     0          32.1      
1151.72    352.36     104.1      0          32.12     
1151.9     352.63     77.11      0          32.11     
1152.09    353.02     72.77      0          32.08     
1152.28    353.01     73.17      0          32.1      
1152.46    353.03     74.8       0          32.07     
1152.65    353.22     76.64      0          32.07     
1152.83    353.08     78.41      0          32.07     
1153.02    353.56     79.99      0          32.08     
1153.2     354.02     81.45      0          32.09     
1153.39    354.14     82.88      0          32.1      
1153.57    354.17     84.35      0          32.09     
1153.76    354.49     86.15      0          32.1      
1153.94    354.78     88.44      0          32.11     
1154.13    355.17     91.31      0          32.15     
1154.32    355.37     94.68      0          32.19     
1154.5     355.23     98.38      0          32.2      
1154.69    355.44     102.16     0          32.19     
1154.87    355.62     105.74     0          32.19     
1155.06    355.69     108.98     0          32.2      
1155.25    355.17     111.95     0          32.21     
1155.43    354.82     114.74     0          32.22     
1155.62    355.52     117.29     0          32.22     
1155.8     355.78     119.64     0          32.24     
1155.99    356.29     121.8      0          32.25     
1156.18    356.33     123.8      0          32.27     
1156.36    356.04     125.72     0          32.29     
1156.55    355.65     127.58     0          32.32     
1156.73    354.87     129.4      0          32.35     
1156.92    355.73     131.11     0          32.37     
1157.1     355.9      132.71     0          32.37     
1157.29    355.05     134.2      0          32.35     
1157.47    355.53     135.58     0          32.33     
1157.66    355.57     136.82     0          32.34     
1157.85    352.31     137.86     0          32.31     
1158.03    350.9      138.64     0          32.32     
1158.22    348.48     139.12     0          32.32     
1158.4     348.8      139.41     0          32.36     
1158.59    347.38     139.47     0          32.34     
1158.77    346.33     139.47     0          32.33     
1158.96    342.76     139.57     0          32.32     
1159.15    342.72     139.77     0          32.33     
1159.33    341.65     139.97     0          32.33     
1159.52    341.91     140.17     0          32.33     
1159.7     340.6      140.31     0          32.32     
1159.89    341.38     140.38     0          32.33     
