~Version
 VERS              .         2.0                           : CWLS LOG ASCII STANDARD - VERSION 2.0
 WRAP              .         NO                            : ONE LINE PER DEPTH STEP
 DLM               .         SPACE                         : DELIMITING CHARACTER(SPACE TAB OR COMMA)
~Well Information
#_______________________________________________________________________________
#
#PARAMETER_NAME    .UNIT     VALUE                         : DESCRIPTION
#_______________________________________________________________________________
STRT               .M        2689.5                        : First reference value
STOP               .M        2741.9                        : Last reference value
STEP               .M        0.09999981                    : Step increment
NULL               .         -9999                         : Missing value
COMP               .                                       : Company
WELL               .         616                           : Well name
FLD                .                                       : Field
LOC                .                                       : Location
CNTY               .                                       : County
STAT               .                                       : State
CTRY               .                                       : Country
SRVC               .                                       : Service Company
DATE               .                                       : Date
API                .                                       : API number
PROJECT_UPGRADE_TIME .         2021-03-18T21_24_50           : 
group              .         Good                          : 
~Parameter Information Block
#_______________________________________________________________________________
#
#PARAMETER_NAME    .UNIT     VALUE                         : DESCRIPTION
#_______________________________________________________________________________
SET                .         D7030_D                       : 
OTHER              .         Kedr.exe версия 2.1.2.32      : 
OTHER_10           .         RGD. = 0.647457 * RGD. + 2.35279: 
OTHER_2            .         KedrData.dll версия 3.2.2.14  : 
OTHER_3            .         LasInf.dll версия 3.2.0.13    : 
OTHER_4            .         Драйвер версия 1.2.0.6        : 
OTHER_5            .         Прибор_ Расходомер            : 
OTHER_6            .         Номер прибора_ 963            : 
OTHER_7            .         Режим_ Расходомер             : 
OTHER_8            .         Форма_ Саня                   : 
OTHER_9            .         Тарировки_                    : 
PROJECT_UPGRADE_TIME .         2021-03-18T21_24_50           : 
TLFamily_DEPT      .         Measured Depth                : 
TLFamily_METKA     .                                       : 
TLFamily_RCOR      .                                       : 
TLFamily_RGD       .                                       : 
TLFamily_RGD_2     .                                       : 
TLFamily_SPID      .         Spontaneous Potential         : 
TLFamily_TIME      .         Time                          : 
group              .         prim                          : 
~Curve Information
#_______________________________________________________________________________
#
#LOGNAME           .UNIT     LOG_ID                        : DESCRIPTION
#_______________________________________________________________________________
DEPT               .M                                      : 1 Глубина, м -    0.0 см 
METKA              .                                       : 3 Метки,  -    0.0 см 
RCOR               .CM/KM                                  : 5 Коррекция по ролику, см/км -    0.0 см 
RGD                .                                       : 6 Расход, усл.ед. -   49.0 см 
RGD_2              .                                       : 7 Расход, м3/сут -   49.0 см 
SPID               .M/H                                    : 2 Скорость, м/час -    0.0 см 
TIME               .S                                      : 4 Время, сек -    0.0 см 
~Ascii
# ...
2731.1     0          0          32         23.03      -190       43210.82  
2731.2     0          0          35         25.33      -190       43208.94  
2731.3     0          0          33         23.71      -190       43206.94  
2731.4     0          0          34         24.67      -190       43204.96  
2731.5     0          0          40         28.22      -190       43202.95  
2731.6     0          0          38         26.98      -131       43200.94  
2731.7     0          0          41         28.69      -190       43198.95  
2731.8     0          0          22         16.75      -190       43196.95  
2731.9     0          0          20         15.31      -130       43194.94  
2732       0          0          17         13.15      -190       43192.94  
2732.1     0          0          39         27.29      -190       43190.93  
2732.2     0          0          24         17.68      -190       43188.95  
2732.3     0          0          23         17.46      -190       43186.95  
2732.4     0          0          34         24.28      -190       43184.95  
2732.5     0          0          33         23.9       -190       43182.95  
2732.6     0          0          38         27.01      -161       43180.91  
2732.7     0          0          41         28.73      -190       43178.87  
2732.8     0          0          54         37.32      -190       43176.94  
2732.9     0          0          28         20.6       -130       43174.93  
2733       0          0          26         18.9       -130       43172.93  
2733.1     0          0          23         17.03      -190       43170.94  
2733.2     0          0          41         29.14      -130       43168.95  
2733.3     0          0          48         33.21      -190       43166.81  
2733.4     0          0          52         35.75      -190       43164.94  
2733.5     0          0          42         29.63      -190       43162.94  
2733.6     0          0          31         22.72      -190       43160.93  
2733.7     0          0          43         30.25      -190       43158.93  
2733.8     0          0          30         21.9       -190       43156.93  
2733.9     0          0          32         22.76      -190       43154.95  
2734       0          0          36         25.95      -130       43152.94  
2734.1     0          0          34         24.56      -190       43150.93  
2734.2     0          0          39         27.34      -130       43148.94  
2734.3     0          0          41         29.19      -190       43146.93  
2734.4     0          0          43         30.4       -190       43144.93  
2734.5     0          0          35         25.26      -130       43142.93  
2734.6     0          0          41         28.92      -190       43140.92  
2734.7     0          0          52         35.9       -190       43138.92  
2734.8     0          0          22         16.59      -190       43136.94  
2734.9     0          0          36         25.82      -190       43134.94  
2735       0          0          23         17.4       -190       43132.93  
2735.1     0          0          26         19.11      -190       43130.93  
2735.2     0          0          26         19.45      -190       43128.93  
2735.3     0          0          28         20.62      -130       43126.93  
2735.4     0          0          42         29.24      -190       43124.92  
2735.5     0          0          37         26.45      -190       43122.92  
2735.6     0          0          29         20.85      -130       43120.93  
2735.7     0          0          42         29.48      -190       43118.93  
2735.8     0          0          31         22.45      -190       43116.93  
2735.9     0          0          39         27.59      -190       43114.93  
2736       0          0          48         33.33      -190       43112.93  
2736.1     0          0          32         22.92      -130       43110.91  
2736.2     0          0          39         27.51      -190       43108.92  
2736.3     0          0          44         30.91      -130       43106.92  
2736.4     0          0          30         21.63      -190       43105.04  
2736.5     0          0          38         26.87      -190       43102.93  
2736.6     0          0          40         28.49      -131       43100.92  
2736.7     0          0          32         22.78      -190       43098.93  
2736.8     0          0          53         36.43      -190       43096.92  
2736.9     0          0          39         27.62      -130       43094.92  
2737       0          0          36         25.89      -190       43092.92  
2737.1     0          0          46         32.21      -131       43090.91  
2737.2     0          0          42         29.72      -190       43088.91  
2737.3     0          0          44         30.98      -190       43086.93  
2737.4     0          0          42         29.37      -190       43085.05  
2737.5     0          0          39         27.3       -190       43083.04  
2737.6     0          0          53         36.59      -190       43081.04  
2737.7     0          0          54         37.34      -190       43079.18  
2737.8     0          0          47         32.99      -130       43077.17  
2737.9     0          0          44         30.75      -190       43075.04  
2738       0          0          48         33.45      -190       43073.17  
2738.1     0          0          59         40.57      -189       43071.16  
2738.2     0          0          57         38.99      -190       43069.16  
2738.3     0          0          31         22.36      -190       43067.16  
2738.4     0          0          44         30.59      -190       43065.16  
2738.5     0          0          56         38.53      -190       43063.15  
2738.6     0          0          48         33.56      -130       43061.16  
2738.7     0          0          69         46.88      -160       43059.04  
2738.8     0          0          42         29.82      -190       43057.03  
2738.9     0          0          47         32.53      -190       43055.16  
2739       0          0          46         31.9       -190       43053.16  
2739.1     0          0          35         25.04      -190       43051.15  
2739.2     0          0          50         34.68      -190       43049.15  
2739.3     0          0          51         35.37      -190       43047.15  
2739.4     0          0          41         29.19      -190       43045.16  
2739.5     0          0          44         30.78      -190       43043.18  
2739.6     0          0          43         30.43      -190       43041.15  
2739.7     1          0          47         32.53      -190       43039.16  
2739.8     0          0          65         44.36      -190       43037.16  
2739.9     1          0          59         40.66      -190       43034.91  
2740       1          0          58         40.22      -130       43032.91  
2740.1     0          0          75         50.77      -130       43032.75  
2740.2     0          0          57         39.32      -190       43031.91  
2740.3     0          0          53         36.57      -190       43029.91  
2740.4     0          0          66         45.32      -190       43027.9   
2740.5     0          0          52         36.26      -190       43025.9   
2740.6     0          0          56         38.6       -130       43023.89  
2740.7     0          0          57         39.12      -190       43021.89  
2740.8     0          0          52         36.03      -190       43019.91  
2740.9     0          0          47         32.98      -190       43017.91  
2741       0          0          73         49.67      -190       43015.91  
2741.1     0          0          65         44.47      -226       43014.02  
2741.2     0          0          76         51.26      -190       43012.14  
2741.3     0          0          65         44.26      -255       43010.53  
2741.4     0          0          53         36.35      -320       43009.16  
