~Version
 VERS              .         2.0                           : CWLS LOG ASCII STANDARD - VERSION 2.0
 WRAP              .         NO                            : ONE LINE PER DEPTH STEP
 DLM               .         SPACE                         : DELIMITING CHARACTER(SPACE TAB OR COMMA)
~Well Information
#_______________________________________________________________________________
#
#PARAMETER_NAME    .UNIT     VALUE                         : DESCRIPTION
#_______________________________________________________________________________
STRT               .M        10.2                          : First reference value
STOP               .M        2757.4                        : Last reference value
STEP               .M        0.2                           : Step increment
NULL               .         -9999                         : Missing value
COMP               .                                       : Company
WELL               .         616                           : Well name
FLD                .                                       : Field
LOC                .                                       : Location
CNTY               .                                       : County
STAT               .                                       : State
CTRY               .                                       : Country
SRVC               .                                       : Service Company
DATE               .                                       : Date
API                .                                       : API number
PROJECT_UPGRADE_TIME .         2021-03-18T21_24_50           : 
group              .         Good                          : 
~Parameter Information Block
#_______________________________________________________________________________
#
#PARAMETER_NAME    .UNIT     VALUE                         : DESCRIPTION
#_______________________________________________________________________________
SET                .         D7016_D                       : 
OTHER              .         Kedr.exe версия 2.1.2.32      : 
OTHER_10           .         TM.GRD = 0.00404*TM$.UE + 0.07: 
OTHER_11           .         MN.ATM = (6.33279e-006*TM.GRD + 0.02401)*(MN$.UE + 2.72*TM.GRD + -2018): 
OTHER_12           .         GK.MKR/H = GK$.UE / 43.5489 + 0: 
OTHER_13           .         RES.SM = 0.00476*CRES.UE - 1.51709: 
OTHER_14           .         PL.GSM3 = 0 + 0 * (PL.UE / 1) +  0 * (PL.UE / 1)^2: 
OTHER_15           .         Постоянная времени ГГП = 6 сек: 
OTHER_16           .         Постоянная времени ГК = 6 сек : 
OTHER_2            .         KedrData.dll версия 3.2.2.14  : 
OTHER_3            .         LasInf.dll версия 3.2.0.13    : 
OTHER_4            .         Драйвер версия 1.2.0.5        : 
OTHER_5            .         Прибор_ КСА-M1                : 
OTHER_6            .         Номер прибора_ 155+р204       : 
OTHER_7            .         Режим_ КСА-М1 + ГГП + Резистивиметр: 
OTHER_8            .         Форма_ 223\2                  : 
OTHER_9            .         Тарировки_                    : 
PROJECT_UPGRADE_TIME .         2021-03-18T21_24_50           : 
TLFamily_CRES      .                                       : 
TLFamily_DEPT      .         Measured Depth                : 
TLFamily_GK        .         Gamma Ray                     : 
TLFamily_GK$       .                                       : 
TLFamily_LM        .         Casing Collar locator         : 
TLFamily_METKA     .                                       : 
TLFamily_MN        .                                       : 
TLFamily_MN$       .                                       : 
TLFamily_PL        .                                       : 
TLFamily_PL_2      .                                       : 
TLFamily_RCOR      .                                       : 
TLFamily_RES       .         Mud Resistivity               : 
TLFamily_SPID      .         Spontaneous Potential         : 
TLFamily_STD       .                                       : 
TLFamily_TIME      .         Time                          : 
TLFamily_TM        .         Temperature                   : 
TLFamily_TM$       .         Temperature                   : 
TLFamily_VGD       .         Gas Volume                    : 
group              .         prim                          : 
~Curve Information
#_______________________________________________________________________________
#
#LOGNAME           .UNIT     LOG_ID                        : DESCRIPTION
#_______________________________________________________________________________
DEPT               .M                                      : 1 Глубина, м -    0.0 см 
CRES               .UE                                     : 9 Проводимость, усл.ед. -  270.0 см 
GK                 .MKR/H                                  : 16 Гамма-активность, мкр./ч -  106.0 см 
GK$                .UE                                     : 13 Гамма-активность, усл.ед. -  106.0 см 
LM                 .                                       : 11 Локатор муфт,  -   16.0 см 
METKA              .                                       : 3 Метки,  -    0.0 см 
MN                 .ATM                                    : 15 Давление, атм. -  160.0 см 
MN$                .UE                                     : 7 Давление, усл.ед. -  160.0 см 
PL                 .UE                                     : 10 Плотность, усл.ед. -  270.0 см 
PL_2               .GSM3                                   : 18 Плотность, г./см3 -  270.0 см 
RCOR               .CM/KM                                  : 5 Коррекция по ролику, см/км -    0.0 см 
RES                .SM                                     : 17 Проводимость,  -  270.0 см 
SPID               .M/H                                    : 2 Скорость, м/час -    0.0 см 
STD                .                                       : 12 Приток,  -  170.0 см 
TIME               .S                                      : 4 Время, сек -    0.0 см 
TM                 .GRD                                    : 14 Температура, °C -  180.0 см 
TM$                .UE                                     : 6 Температура, усл.ед. -  180.0 см 
VGD                .                                       : 8 Влагомер,  -  170.0 см 
~Ascii
# ...
920.4      1195       8.93       398        259        0          84.408     5403       14         0          0          4.1716     1660       7001       3611.37    35.78      8839       6517      
920.6      1193       8.97       398        358        0          84.457     5405       14         0          0          4.1613     1603       7001       3611.81    35.781     8839       6519      
920.8      1192       9.01       398        318        0          84.473     5406       14         0          0          4.1579     1660       7000       3612.24    35.789     8841       6524      
921        1193       9          389        323        0          84.474     5406       14         0          0          4.1598     1660       7002       3612.68    35.793     8842       6519      
921.2      1193       8.94       384        281        0          84.474     5406       13         0          0          4.1636     1686       7002       3613.1     35.8       8844       6522      
921.4      1194       8.92       384        260        0          84.496     5407       14         0          0          4.1653     1730       7002       3613.54    35.804     8845       6521      
921.6      1191       8.9        384        376        0          84.523     5408       15         0          0          4.1543     1686       7003       3613.97    35.811     8847       6520      
921.8      1193       8.88       384        291        0          84.549     5409       13         0          0          4.1605     1660       7004       3614.41    35.816     8848       6521      
922        1190       8.86       382        264        0          84.569     5410       14         0          0          4.1481     1660       7005       3614.84    35.82      8849       6528      
922.2      1195       8.84       382        681        0          84.573     5410       14         0          0          4.1704     1660       7007       3615.28    35.827     8851       6522      
922.4      1194       8.83       382        505        0          84.601     5411       14         0          0          4.1675     1660       7008       3615.7     35.828     8851       6517      
922.6      1194       8.81       382        423        0          84.623     5412       14         0          0          4.1671     1660       7009       3616.13    35.833     8852       6515      
922.8      1194       8.81       382        403        0          84.632     5412       15         0          0          4.1663     1660       7011       3616.57    35.841     8854       6523      
923        1194       8.8        382        324        0          84.648     5413       14         0          0          4.1652     1660       7012       3617       35.846     8855       6525      
923.2      1193       8.83       390        361        0          84.664     5414       14         0          0          4.1616     1660       7013       3617.44    35.85      8857       6533      
923.4      1192       8.88       394        493        0          84.693     5415       14         0          0          4.1565     1660       7013       3617.88    35.855     8858       6520      
923.6      1192       8.91       394        431        0          84.72      5416       14         0          0          4.1584     1660       7014       3618.3     35.86      8859       6525      
923.8      1192       8.94       394        355        0          84.722     5416       14         0          0          4.1577     1660       7015       3618.73    35.864     8860       6523      
924        1192       8.96       394        388        0          84.727     5416       14         0          0          4.1568     1660       7015       3619.17    35.869     8861       6519      
924.2      1191       8.98       394        539        0          84.755     5417       14         0          0          4.1521     1660       7016       3619.6     35.873     8862       6518      
924.4      1191       8.98       390        642        0          84.783     5418       14         0          0          4.1521     1660       7017       3620.04    35.878     8863       6521      
924.6      1193       8.96       387        478        0          84.797     5419       14         0          0          4.1608     1660       7017       3620.47    35.882     8864       6518      
924.8      1195       8.94       387        393        0          84.815     5420       14         0          0          4.1691     1660       7019       3620.92    35.887     8866       6514      
925        1195       8.93       387        381        0          84.822     5420       14         0          0          4.1703     1660       7020       3621.35    35.892     8867       6522      
925.2      1192       8.92       387        449        0          84.846     5421       13         0          0          4.1587     1660       7021       3621.79    35.896     8868       6519      
925.4      1191       8.91       385        369        0          84.849     5421       13         0          0          4.1521     1660       7022       3622.2     35.901     8869       6520      
925.6      1193       8.85       377        331        0          84.879     5422       13         0          0          4.1616     1660       7023       3622.64    35.902     8869       6517      
925.8      1191       8.81       377        424        0          84.897     5423       14         0          0          4.1521     1660       7025       3623.07    35.914     8872       6516      
926        1192       8.78       377        347        0          84.91      5424       14         0          0          4.1577     1660       7026       3623.5     35.919     8873       6519      
926.2      1195       8.75       377        334        0          84.921     5424       14         0          0          4.1711     1660       7027       3623.93    35.923     8875       6518      
926.4      1196       8.73       377        398        0          84.943     5425       15         0          0          4.1738     1660       7027       3624.37    35.925     8875       6527      
926.6      1195       8.71       376        355        0          84.946     5425       15         0          0          4.1725     1660       7028       3624.82    35.929     8876       6532      
926.8      1193       8.63       361        356        0          84.975     5426       14         0          0          4.1592     1660       7029       3625.26    35.933     8877       6532      
927        1191       8.55       361        327        0          85.002     5427       14         0          0          4.1521     1660       7030       3625.69    35.942     8879       6534      
927.2      1194       8.5        361        268        0          85.02      5428       15         0          0          4.1658     1660       7032       3626.13    35.945     8880       6535      
927.4      1194       8.45       361        269        0          85.034     5429       14         0          0          4.1644     1660       7033       3626.55    35.948     8881       6519      
927.6      1195       8.42       361        271        0          85.045     5429       13         0          0          4.1732     1660       7033       3626.99    35.955     8883       6525      
927.8      1196       8.42       369        330        0          85.064     5430       14         0          0          4.1759     1660       7033       3627.41    35.957     8883       6524      
928        1195       8.43       369        275        0          85.07      5430       14         0          0          4.1726     1660       7034       3627.86    35.96      8884       6526      
928.2      1195       8.44       369        278        0          85.076     5430       14         0          0          4.1711     1642       7034       3628.31    35.965     8885       6524      
928.4      1195       8.45       369        392        0          85.113     5432       13         0          0          4.1711     1600       7035       3628.75    35.97      8886       6534      
