~Version
 VERS              .         2.0                           : CWLS LOG ASCII STANDARD - VERSION 2.0
 WRAP              .         NO                            : ONE LINE PER DEPTH STEP
 DLM               .         SPACE                         : DELIMITING CHARACTER(SPACE TAB OR COMMA)
~Well Information
#_______________________________________________________________________________
#
#PARAMETER_NAME    .UNIT     VALUE                         : DESCRIPTION
#_______________________________________________________________________________
STRT               .M        2699.4                        : First reference value
STOP               .M        2769                          : Last reference value
STEP               .M        0.2000003                     : Step increment
NULL               .         -9999                         : Missing value
COMP               .                                       : Company
WELL               .         616                           : Well name
FLD                .                                       : Field
LOC                .                                       : Location
CNTY               .                                       : County
STAT               .                                       : State
CTRY               .                                       : Country
SRVC               .                                       : Service Company
DATE               .                                       : Date
API                .                                       : API number
PROJECT_UPGRADE_TIME .         2021-03-18T21_24_50           : 
group              .         Good                          : 
~Parameter Information Block
#_______________________________________________________________________________
#
#PARAMETER_NAME    .UNIT     VALUE                         : DESCRIPTION
#_______________________________________________________________________________
SET                .         D1167_D                       : 
OTHER              .         Программное обеспечение станции MONITOR-386EX 25/12/99 15_08_10   BGF V52 22/08/01 16_56_30   3.2_BGF_N_3070031: 
OTHER_10           .         Тарировки_                    : 
OTHER_11           .         RGD.M3/SUT = 0.603482 * RGD.UE + 9.9644: 
OTHER_2            .         Kedr.exe версия 3.4.2.51      : 
OTHER_3            .         KedrData.dll версия 3.4.2.24  : 
OTHER_4            .         Драйвер версия 2.1.0.2        : 
OTHER_5            .         Мнемоники версия 3.3 S        : 
OTHER_6            .         Прибор_ Гранат                : 
OTHER_7            .         Номер прибора_ 257            : 
OTHER_8            .         Режим_ КСА_Гранат             : 
OTHER_9            .         Форма_ РАСХОД                 : 
PROJECT_UPGRADE_TIME .         2021-03-18T21_24_49           : 
TLFamily_DEPT      .         Measured Depth                : 
TLFamily_METKA     .                                       : 
TLFamily_RCOR      .                                       : 
TLFamily_RGD       .                                       : 
TLFamily_RGD_2     .                                       : 
TLFamily_SPID      .         Spontaneous Potential         : 
TLFamily_TENS      .         Cable Tension                 : 
TLFamily_TIME      .         Time                          : 
group              .         prim                          : 
~Curve Information
#_______________________________________________________________________________
#
#LOGNAME           .UNIT     LOG_ID                        : DESCRIPTION
#_______________________________________________________________________________
DEPT               .M                                      : 1 Глубина, м -    0.0 см 
METKA              .                                       : 3 Метки,  -    0.0 см 
RCOR               .CM/KM                                  : 5 Коррекция по ролику, см/км -    0.0 см 
RGD                .UE                                     : 7 Расход, имп/мин -  232.0 см 
RGD_2              .M3/SUT                                 : 8 Расход, м3/сут -  232.0 см 
SPID               .M/H                                    : 2 Скорость, м/час -    0.0 см 
TENS               .T                                      : 6 Натяжение кабеля, т -    0.0 см 
TIME               .S                                      : 4 Время, сек -    0.0 см 
~Ascii
2699.3999023 -9999      -9999      -9999      -9999      -9999      -9999      -9999     
2699.6     -9999      -1400      -9999      -9999      -152       0          24260.71  
2699.8     0          -1400      -9999      -9999      -158       0          24255.92  
2700       2          -1400      -9999      -9999      -149       0          24251.13  
2700.2     0          -1400      -9999      -9999      -138       0          24245.93  
2700.4     0          -1400      -9999      -9999      -172       0          24241.04  
2700.6     0          -1400      -9999      -9999      -146       0          24236.35  
2700.8     0          -1400      -9999      -9999      -149       0          24231.55  
2701       0          -1400      -9999      -9999      -150       0          24226.56  
2701.2     0          -1400      -9999      -9999      -155       0          24221.77  
2701.4     0          -1400      -9999      -9999      -155       0          24217.07  
2701.6     0          -1400      -9999      -9999      -131       0          24212.38  
2701.8     0          -1400      -9999      -9999      -164       0          24207.39  
2702       0          -1400      215        139.46     -139       0          24202.59  
2702.2     0          -1400      205        133.58     -167       0          24197.89  
2702.4     0          -1400      220        142.92     -155       0          24192.91  
2702.6     0          -1400      222        143.65     -150       0          24188.21  
2702.8     0          -1400      209        136.17     -165       0          24183.42  
2703       0          -1400      208        135.73     -134       0          24178.73  
2703.2     0          -1400      211        137.26     -152       0          24173.83  
2703.4     0          -1400      237        153.03     -145       0          24169.14  
2703.6     0          -1400      219        141.86     -152       0          24164.35  
2703.8     0          -1400      216        140.59     -164       0          24159.35  
2704       0          -1400      211        137.01     -155       0          24154.66  
2704.2     0          -1400      214        139.04     -147       0          24149.87  
2704.4     0          -1400      236        152.32     -136       0          24145.17  
2704.6     0          -1400      217        140.67     -164       0          24140.38  
2704.8     0          -1400      211        137.48     -154       0          24135.59  
2705       0          -1400      213        138.34     -140       0          24130.89  
2705.2     0          -1400      216        140.04     -146       0          24125.8   
2705.4     0          -1400      225        145.63     -150       0          24121.21  
2705.6     0          -1400      213        138.63     -155       0          24116.41  
2705.8     0          -1400      214        138.87     -136       0          24111.62  
2706       0          -1400      217        141.05     -164       0          24106.72  
2706.2     0          -1400      218        141.58     -159       0          24102.03  
2706.4     0          -1400      231        149.36     -140       0          24097.34  
2706.6     0          -1400      209        135.92     -153       0          24092.34  
2706.8     0          -1400      219        142.31     -155       0          24087.55  
2707       0          -1400      241        155.3      -161       0          24082.76  
2707.2     0          -1400      222        143.9      -146       0          24078.06  
2707.4     0          -1400      220        142.49     -147       0          24073.17  
2707.6     0          -1400      215        139.87     -161       0          24068.48  
2707.8     0          -1400      198        129.46     -140       0          24063.68  
2708       0          -1400      208        135.64     -147       0          24058.7   
2708.2     0          -1400      230        148.65     -156       0          24053.9   
2708.4     0          -1400      216        140.07     -150       0          24049.2   
2708.6     1          -1400      212        138.16     -156       0          24044.5   
2708.8     0          -1400      208        135.76     -145       0          24039.62  
2709       0          -1400      208        135.26     -151       0          24034.82  
2709.2     0          -1400      226        146.49     -147       0          24030.13  
2709.4     0          -1400      228        147.26     -150       0          24025.14  
2709.6     0          -1400      203        132.46     -169       0          24020.44  
2709.8     0          -1400      208        135.7      -154       0          24015.65  
2710       2          -1400      222        143.68     -139       0          24010.96  
2710.2     0          -1400      226        146.21     -155       0          24005.56  
2710.4     0          -1400      218        141.25     -136       0          24000.87  
2710.6     0          -1400      198        129.3      -159       0          23996.07  
2710.8     0          -1400      210        136.99     -145       0          23991.08  
2711       0          -1400      230        148.94     -162       0          23986.29  
2711.2     0          -1400      217        140.81     -153       0          23981.59  
2711.4     0          -1400      206        134.31     -146       0          23976.9   
2711.6     0          -1400      205        133.77     -159       0          23972.01  
2711.8     0          -1400      210        136.55     -139       0          23967.21  
2712       0          -1400      217        141.05     -163       0          23962.52  
2712.2     1          -1400      197        129.03     -155       0          23957.53  
2712.4     0          -1400      195        127.67     -157       0          23952.83  
2712.6     0          -1400      187        122.58     -150       0          23948.04  
2712.8     0          -1400      202        131.61     -148       0          23943.25  
2713       0          -1400      193        126.18     -158       0          23938.35  
2713.2     0          -1400      190        124.78     -141       0          23933.67  
2713.4     1          -1400      186        122.06     -150       0          23928.97  
2713.6     0          -1400      179        118.1      -150       0          23923.97  
2713.8     0          -1400      195        127.53     -155       0          23919.18  
2714       0          -1400      170        112.84     -155       0          23914.39  
2714.2     0          -1400      168        111.21     -143       0          23909.69  
2714.4     0          -1400      165        109.83     -164       0          23904.8   
2714.6     0          -1400      165        109.74     -139       0          23900.11  
2714.8     0          -1400      165        109.56     -148       0          23895.31  
2715       0          -1400      161        107.39     -155       0          23890.32  
2715.2     0          -1400      151        101.36     -146       0          23885.63  
2715.4     0          -1400      149        100.06     -164       0          23880.83  
2715.6     0          -1400      150        100.34     -149       0          23876.14  
2715.8     0          -1400      145        97.76      -153       0          23871.25  
2716       0          -1400      151        100.96     -158       0          23866.55  
2716.2     0          -1400      145        97.31      -164       0          23861.86  
2716.4     0          -1400      142        95.9       -142       0          23857.17  
2716.6     0          -1400      159        106.09     -142       0          23852.07  
2716.8     0          -1400      139        94.08      -150       0          23847.38  
2717       0          -1400      146        98.11      -142       0          23842.58  
2717.2     0          -1400      144        96.8       -162       0          23837.7   
2717.4     0          -1400      160        106.23     -157       0          23833     
