~Version
 VERS              .         2.0                           : CWLS LOG ASCII STANDARD - VERSION 2.0
 WRAP              .         NO                            : ONE LINE PER DEPTH STEP
 DLM               .         SPACE                         : DELIMITING CHARACTER(SPACE TAB OR COMMA)
~Well Information
#_______________________________________________________________________________
#
#PARAMETER_NAME    .UNIT     VALUE                         : DESCRIPTION
#_______________________________________________________________________________
STRT               .M        1549.2                        : First reference value
STOP               .M        2296.2                        : Last reference value
STEP               .M        0.2                           : Step increment
NULL               .         -9999                         : Missing value
COMP               .                                       : Company
WELL               .         616                           : Well name
FLD                .                                       : Field
LOC                .                                       : Location
CNTY               .                                       : County
STAT               .                                       : State
CTRY               .                                       : Country
SRVC               .                                       : Service Company
DATE               .                                       : Date
API                .                                       : API number
PROJECT_UPGRADE_TIME .         2021-03-18T21_24_50           : 
group              .         Good                          : 
~Parameter Information Block
#_______________________________________________________________________________
#
#PARAMETER_NAME    .UNIT     VALUE                         : DESCRIPTION
#_______________________________________________________________________________
SET                .         616_10                        : 
CONF               .         00                            : 
END                .         0                             : 
ERR                .         2                             : 
GS00               .M        2294.21                       : 
GS01               .M        1546.72                       : 
MM00               .M        2240.00                       : 
NOKG               .         0                             : 
NPR                .         980119                        : 
PART               .         Палагутин                     : 
PROJECT_UPGRADE_TIME .         2021-03-18T21_24_49           : 
PRZK               .         Якименко                      : 
TLFamily_AZIMUTH   .         True Dip Azimuth              : 
TLFamily_DEPTH     .         Measured Depth                : 
TLFamily_METKA     .                                       : 
TLFamily_ROLL      .                                       : 
TLFamily_SPEED     .         Spontaneous Potential         : 
TLFamily_ZENIT     .                                       : 
VPRG               .         310                           : 
WAY                .         UP                            : 
group              .         prim                          : 
~Curve Information
#_______________________________________________________________________________
#
#LOGNAME           .UNIT     LOG_ID                        : DESCRIPTION
#_______________________________________________________________________________
DEPTH              .M                                      :  
AZIMUTH            .DEG                                    :  
METKA              .                                       :  
ROLL               .DEG                                    :  
SPEED              .M/H                                    :  
ZENIT              .DEG                                    :  
~Ascii
# ...
2183.6     357.94     0          225.91     648        12.61     
2183.8     11.27      0          225.89     648        12.71     
2184       11.4       0          226.43     684        12.75     
2184.2     50.93      0          227.07     648        12.87     
2184.4     32.79      0          226.84     612        12.69     
2184.6     359.85     0          226.18     648        12.4      
2184.8     312.22     0          225.96     648        12.47     
2185       320.62     0          226.3      648        12.37     
2185.2     17.26      0          227.32     648        12.11     
2185.4     224.01     0          227.01     648        11.68     
2185.6     131.72     0          226.96     648        11.59     
2185.8     187.35     0          227.52     648        11.58     
2186       73.47      0          228.11     684        11.61     
2186.2     238.76     0          228.68     648        11.98     
2186.4     60.84      0          229.45     648        12.02     
2186.6     346.33     0          229.11     648        11.84     
2186.8     49.42      0          227.61     648        11.82     
2187       327.38     0          226.7      648        11.75     
2187.2     343.3      0          226.79     648        11.73     
2187.4     153.45     0          227.23     648        11.7      
2187.6     77.33      0          226.7      684        11.68     
2187.8     310.42     0          224.82     684        11.63     
2188       149.02     0          223.33     648        11.6      
2188.2     286.47     0          223.3      648        11.6      
2188.4     272.5      0          224.07     648        11.55     
2188.6     330.95     0          224.91     684        11.54     
2188.8     189.89     0          225.09     648        11.47     
2189       345.3      0          224.96     648        11.45     
2189.2     205.85     0          225.02     612        11.47     
2189.4     260.88     0          225        648        11.47     
2189.6     277.02     0          225.01     684        11.45     
2189.8     45.45      0          225.06     648        11.46     
2190       312.91     0          224.98     684        11.41     
2190.2     25.97      0          225.76     648        11.49     
2190.4     321.67     0          226.65     648        11.49     
2190.6     342        0          226.63     684        11.47     
2190.8     267.78     0          226.57     648        11.44     
2191       112.89     0          226.49     648        11.45     
2191.2     328.5      0          226.19     648        11.41     
2191.4     32.12      0          225.7      612        11.4      
2191.6     342.94     0          225.47     684        11.31     
2191.8     19.63      0          225.38     684        11.29     
2192       10.05      0          224.87     684        11.23     
2192.2     44.47      1          224.13     540        11.29     
2192.4     341.65     0          223.35     612        11.19     
2192.6     347.03     0          222.83     684        11.18     
2192.8     336.29     0          222.51     648        11.13     
2193       40.24      0          222.01     648        11.1      
2193.2     357.38     0          221.66     648        11.13     
2193.4     196.89     0          221.41     648        11.03     
2193.6     346.38     0          220.49     648        11.07     
2193.8     277.27     0          217.45     684        11.13     
2194       273.85     0          212.92     612        11.11     
2194.2     173.29     0          209.39     612        11.11     
2194.4     203.16     0          206.64     684        11.03     
2194.6     215.85     0          205.66     648        10.94     
2194.8     184.14     0          207.41     648        10.95     
2195       192.38     0          209.64     648        11.01     
2195.2     167.32     0          210.64     576        11.19     
2195.4     243.93     0          210.5      612        11.13     
2195.6     201.51     0          209.15     612        11.24     
2195.8     245.71     0          206.4      648        11.21     
2196       348.03     0          203.57     612        11.29     
2196.2     336.52     0          200.44     540        11.4      
2196.4     313.51     0          197.22     576        11.26     
2196.6     291.85     0          192.78     576        11.14     
2196.8     284.16     0          190.76     576        10.51     
2197       348.82     0          70.33      540        13.45     
2197.2     61.59      0.1        85.87      1332       10.64     
2197.4     189.68     0          180.88     1332       10.59     
2197.6     260.13     0          233.11     540        10.44     
2197.8     260.15     0          233.07     576        10.38     
2198       260.06     0          232.89     468        10.37     
2198.2     259.69     0          232.6      540        10.37     
2198.4     258.5      0          232.95     576        10.27     
2198.6     258.08     0          234.34     576        10.1      
2198.8     257.9      0          234.33     576        10        
2199       258.01     0          233.82     540        10        
2199.2     257.67     0          234.1      576        9.99      
2199.4     257.89     0          233.58     576        10.06     
2199.6     257.62     0          232.04     612        10.13     
2199.8     256.83     0          230.98     576        10.11     
2200       256.48     0          230.34     504        10.05     
2200.2     256.04     0          230.98     576        9.98      
2200.4     256.32     0          231.58     576        9.98      
2200.6     256.51     0          232.06     576        10.02     
2200.8     254.93     0          232.3      576        9.87      
2201       255.84     0          232.3      504        9.9       
2201.2     255.87     0          231.88     576        9.86      
2201.4     255.48     0          231.55     576        9.82      
2201.6     255.87     0          231.81     576        9.85      
2201.8     255.34     0          231.63     576        9.79      
2202       255.76     0          230.9      576        9.8       
2202.2     255.26     1          230        432        9.72      
2202.4     255.26     0          229.8      540        9.66      
2202.6     254.4      0          230.75     576        9.68      
2202.8     254.78     0          231.05     576        9.54      
2203       255.49     0          232.39     504        9.58      
2203.2     255.25     0          233.7      576        9.57      
2203.4     255.28     0          234.03     540        9.56      
2203.6     255.16     0          233.94     576        9.53      
2203.8     255.09     0          233.67     612        9.49      
2204       254.59     0          233.74     504        9.36      
2204.2     254.84     0          234.31     576        9.37      
2204.4     255.22     0          234.75     612        9.29      
2204.6     254.87     0          235.25     540        9.31      
2204.8     255.22     0          235.95     576        9.31      
2205       255.19     0          236.44     576        9.26      
2205.2     255.08     0          236.37     576        9.26      
2205.4     255.26     0          236.35     576        9.25      
2205.6     254.99     0          236.74     576        9.21      
2205.8     255.6      0          237.53     576        9.17      
2206       255.74     0          236.81     540        9.19      
2206.2     255.58     0          235.3      576        9.17      
2206.4     255.36     0          233.68     576        9.07      
2206.6     255.85     0          232.15     576        9.05      
2206.8     256.13     0          231.21     540        8.99      
2207       257.24     0          230.34     576        9.04      
2207.2     259.75     0          229.42     576        9.01      
2207.4     270.71     0          229.17     576        9.03      
2207.6     314.16     0          229.2      576        9.02      
2207.8     172.2      0          228.92     612        9.09      
