~Version
 VERS              .         2.0                           : CWLS LOG ASCII STANDARD - VERSION 2.0
 WRAP              .         NO                            : ONE LINE PER DEPTH STEP
 DLM               .         SPACE                         : DELIMITING CHARACTER(SPACE TAB OR COMMA)
~Well Information
#_______________________________________________________________________________
#
#PARAMETER_NAME    .UNIT     VALUE                         : DESCRIPTION
#_______________________________________________________________________________
STRT               .M        1740                          : First reference value
STOP               .M        2780                          : Last reference value
STEP               .M        10                            : Step increment
NULL               .         -9999                         : Missing value
COMP               .                                       : Company
WELL               .         616                           : Well name
FLD                .                                       : Field
LOC                .                                       : Location
CNTY               .                                       : County
STAT               .                                       : State
CTRY               .                                       : Country
SRVC               .                                       : Service Company
DATE               .                                       : Date
API                .                                       : API number
PROJECT_UPGRADE_TIME .         2021-03-18T21_24_50           : 
group              .         Good                          : 
~Parameter Information Block
#_______________________________________________________________________________
#
#PARAMETER_NAME    .UNIT     VALUE                         : DESCRIPTION
#_______________________________________________________________________________
SET                .         D2664_2                       : 
ALT                .м        78.80                         : Альтитуда
COND               .м        0.00                          : Кондуктор
KWRK               .         Откpытый                      : Вид работ
KX                 .м        0.00                          : Координата X устья скважины
KY                 .м        0.00                          : Координата Y устья скважины
NPR                .         980607                        : Номер прибора
Operator           .         Захаркин                      : 
PART               .         Мещеряков                     : Начальник партии
PROJECT_UPGRADE_TIME .         2021-03-18T21_24_50           : 
SCLN               .         18.24                         : Поправка на магн.склон. и сближ.мерид.
TLFamily_AZIM      .         Hole Azimuth                  : 
TLFamily_DEPT      .         Measured Depth                : 
TLFamily_DRIL      .                                       : 
TLFamily_METKA     .                                       : 
TLFamily_ZENI      .                                       : 
TPR                .         ИОН-1                         : Тип скважинного прибора
group              .         second                        : 
~Curve Information
#_______________________________________________________________________________
#
#LOGNAME           .UNIT     LOG_ID                        : DESCRIPTION
#_______________________________________________________________________________
DEPT               .M                                      :  
AZIM               .ГРАД                                   :  
DRIL               .ГРАД                                   :  
METKA              .                                       :  
ZENI               .ГРАД                                   :  
~Ascii
1740.0     260.66     65.93      0          21.04     
1750       260.91     108.13     0          20.83     
1760       261.88     241.85     0          20.47     
1770       262.03     351.55     0          20.23     
1780       261.73     36.18      0          20.04     
1790       261.99     92.63      0          19.52     
1800       261.65     346.09     0          19.54     
1810       261.27     27.51      0          19.39     
1820       260.98     51.57      0          19.32     
1830       261.19     110.99     0          19.32     
1840       260.96     290.89     0          18.96     
1850       260.82     5.1        0          18.83     
1860       260.68     11.24      0          18.6      
1870       260.87     52.41      0          18.35     
1880       261.08     127.07     0          18.03     
1890       261.69     292.48     0          17.92     
1900       261.74     354.94     0          17.72     
1910       261.8      17.93      0          17.63     
1920       261.74     13.6       0          17.6      
1930       261.53     15.54      0          17.68     
1940       261.13     38.28      0          17.73     
1950       260.92     109.86     0          17.56     
1960       260.29     293.23     0          17.44     
1970       259.77     18.48      0          17.11     
1980       258.89     23.56      0          16.68     
1990       258.25     100.98     0          16.48     
2000       258.22     283.72     0          16.61     
2010       257.76     15.62      0          16.54     
2020       257.38     21.02      0          16.56     
2030       256.62     71.78      0          16.42     
2040       256.33     107.12     0          16.26     
2050       255.71     124.83     0          16.15     
2060       255.42     141.3      0          16.09     
2070       255.31     141.17     0          15.68     
2080       255.19     142.98     0          15.32     
2090       254.9      145.7      0          14.79     
2100       254.7      143.77     0          14.43     
2110       254.74     152.17     0          14.25     
2120       254.61     168.67     0          14.14     
2130       254.4      189.3      0          14.32     
2140       254.29     189        0          14.36     
2150       254.19     246.45     0          14.26     
2160       254.85     234.23     0          13.9      
2170       255.91     216.45     0          13.64     
2180       255.15     226.33     0          12.63     
2190       254.39     108.64     0          11.47     
2200       254.74     94.61      0          10.01     
2210       255.1      142.85     0          8.48      
2220       256.66     343.12     0          6.88      
2230       259.1      88.43      0          5.81      
2240       261.73     90.98      0          5.11      
2250       263.48     100.9      0          4.8       
2260       267.09     101.7      0          4.56      
2270       271.76     101.95     0          4.28      
2280       274.44     103.93     0          3.66      
2290       275.52     114.29     0          2.79      
2300       275.56     124.71     0          2.07      
2310       275.91     125.39     0          1.43      
2320       288.56     114.5      0          0.92      
2330       300.86     102.25     0          0.7       
2340       321.46     77.03      0          0.59      
2350       348.55     40.11      0          0.64      
2360       352.01     36.84      0          0.65      
2370       353.69     26.81      0          0.61      
2380       355.36     15.96      0          0.66      
2390       6.55       11.84      0          0.61      
2400       11.85      27.59      0          0.63      
2410       357.72     170.1      0          0.76      
2420       3.59       293.05     0          0.64      
2430       9.44       14.71      0          0.64      
2440       4.59       125.33     0          0.52      
2450       6.82       171.53     0          0.61      
2460       10.91      213.4      0          0.58      
2470       32.57      332.9      0          0.44      
2480       37.31      103.77     0          0.41      
2490       31.91      208.59     0          0.43      
2500       61.24      329.67     0          0.42      
2510       64.33      63.47      0          0.54      
2520       47.42      133.53     0          0.61      
2530       53.84      230.01     0          0.64      
2540       66.87      311.62     0          0.68      
2550       70.43      25.82      0          0.76      
2560       62.44      96.13      0          0.74      
2570       55.33      124.55     0          0.66      
2580       60.12      163.89     0          0.64      
2590       75.5       334.65     0          0.89      
2600       53.22      144.25     0          1.11      
2610       44.44      279.5      0          0.92      
2620       77.15      9.96       0          0.73      
2630       80.15      128.55     0          0.98      
2640       81.11      321.84     0          1.29      
2650       69.22      97.82      0          1.55      
2660       51.04      217.66     0          1.24      
2670       61         79.05      0          1.1       
2680       78.45      138.99     0          1.18      
2690       84.77      217.25     0          0.93      
2700       60.36      310.24     0          0.86      
2710       52.77      342.3      0          1.01      
2720       46.79      37.43      0          1.11      
2730       49.84      320.63     0          0.72      
2740       67.96      313.18     0          1         
2750       69.91      110.67     0          1.35      
2760       119.58     166.29     0          1.69      
2770       130.06     164.06     0          1.13      
2780       131.4      74.77      0          1.47      
