~Version
 VERS              .         2.0                           : CWLS LOG ASCII STANDARD - VERSION 2.0
 WRAP              .         NO                            : ONE LINE PER DEPTH STEP
 DLM               .         SPACE                         : DELIMITING CHARACTER(SPACE TAB OR COMMA)
~Well Information
#_______________________________________________________________________________
#
#PARAMETER_NAME    .UNIT     VALUE                         : DESCRIPTION
#_______________________________________________________________________________
STRT               .M        2650.8                        : First reference value
STOP               .M        2752.199899                   : Last reference value
STEP               .M        0.1999998                     : Step increment
NULL               .         -9999                         : Missing value
COMP               .                                       : Company
WELL               .         616                           : Well name
FLD                .                                       : Field
LOC                .                                       : Location
CNTY               .                                       : County
STAT               .                                       : State
CTRY               .                                       : Country
SRVC               .                                       : Service Company
DATE               .                                       : Date
API                .                                       : API number
PROJECT_UPGRADE_TIME .         2021-03-18T21_24_50           : 
group              .         Good                          : 
~Parameter Information Block
#_______________________________________________________________________________
#
#PARAMETER_NAME    .UNIT     VALUE                         : DESCRIPTION
#_______________________________________________________________________________
SET                .         D4415_D                       : 
OTHER              .         Запись производится в присутствии: 
OTHER_10           .         Максимальная температура      : 
OTHER_11           .         Тип промывочной жидкости      : 
OTHER_12           .         Сопротивление ПЖ (Ом*м) при 20°C: 
OTHER_13           .         Плотность ПЖ(г/см3)           : 
OTHER_14           .         Вязкость ПЖ(с)                : 
OTHER_15           .         Водоотдача ПЖ(см3/30мин)      : 
OTHER_16           .         Уровень ПЖ                    : 
OTHER_17           .         Нефть ПЖ (%)                  : 
OTHER_18           .         Барит ПЖ (%)                  : 
OTHER_19           .         Гематит ПЖ (%)                : 
OTHER_2            .         Заказчик ННСН  ЦДНГ-1         : 
OTHER_20           .         КМЦ ПЖ (%)                    : 
OTHER_21           .         Разгазирование ПЖ (да,нет)    : 
OTHER_22           .         Подъемник                     : 
OTHER_23           .         Лаборатория                   : 
OTHER_24           .         Тип кабеля                    : 
OTHER_25           .         Длина кабеля (м)              : 
OTHER_26           .         Цена последней метки          : 
OTHER_27           .         Цена контрольной метки        : 
OTHER_28           .         Диаметр долота (мм)           : 
OTHER_29           .         Глубина бурения (м)           : 
OTHER_3            .         Площадь                       : 
OTHER_30           .         Искусственный забой (м)       : 
OTHER_31           .         Диаметр колонны (мм)          : 
OTHER_32           .         Толщина колонны (мм)          : 
OTHER_33           .         Башмак колонны (м)            : 
OTHER_34           .         Диаметр НКТ (мм)              : 
OTHER_35           .         Толщина НКТ (мм)              : 
OTHER_36           .         Воронка НКТ (м)               : 
OTHER_37           .         Дата цементожа                : 
OTHER_38           .         Тип, количество(т) и плотность цемента: 
OTHER_39           .         Интервалы перфорации (м)      : 
OTHER_4            .         Категория                     : 
OTHER_40           .         Направление, диаметр (мм)     : 
OTHER_41           .         Направление, глубина (м)      : 
OTHER_42           .         Кондуктор, диаметр (мм)       : 
OTHER_43           .         Кондуктор, глубина (м)        : 
OTHER_44           .         Техническая колонна, диаметр (мм): 
OTHER_45           .         Техническая колонна, глубина (м): 
OTHER_46           .         Эксплуатационная колонна, диаметр (мм): 
OTHER_47           .         Эксплуатационная колонна, глубина (м): 
OTHER_48           .         Программа Кедр-02 версия 3.4  : 
OTHER_49           .         Операционная система Windows NT 5.1 build 2600 Service Pack 2: 
OTHER_5            .         Назначение исследований       : 
OTHER_50           .         Программное обеспечение станции MONITOR-386EX 25/12/99 15_08_10   BGF V54 20/09/05 15_32_17   3.3__BGF_9030071: 
OTHER_51           .         Kedr.exe версия 3.4.2.74      : 
OTHER_52           .         KedrData.dll версия 3.4.2.29  : 
OTHER_53           .         Мнемоники версия 3.18 S       : 
OTHER_54           .         Драйвер версия 2.1.1.4        : 
OTHER_55           .         LasInf.dll 4.3.0.35           : 
OTHER_56           .         Прибор_ КСА-Т4                : 
OTHER_57           .         Номер прибора_ 160            : 
OTHER_58           .         Режим_ КСА-Т4                 : 
OTHER_59           .         Форма_ С.А.Б.                 : 
OTHER_6            .         Альтитуда стола ротора        : 
OTHER_60           .         Тарировки_                    : 
OTHER_61           .         <_techsia_sc_> Дата тарировки температуры 25.05.2010: 
OTHER_62           .         Ручной ввод коэффициентов     : 
OTHER_63           .         TM.DEGC = 0.00402*RTM.E.ACP + -0.994: 
OTHER_64           .         <_techsia_sc_> Дата тарировки давления 25.05.2010: 
OTHER_65           .         Ручной ввод коэффициентов     : 
OTHER_66           .         MN.ATM = (2.27521e-006*TM.DEGC + 0.02078)*(RMN.E.ACP + 6.2*TM.DEGC + -1688): 
OTHER_67           .         <_techsia_sc_> Дата тарировки ГК 25.05.2010: 
OTHER_68           .         Ручной ввод коэффициентов     : 
OTHER_69           .         GR.UR/H = RGR.IMP/MIN / 45.5144: 
OTHER_7            .         Вид исследований 3  6         : 
OTHER_70           .         GK.FLT = 0.1*GR.UR/H[-1] + (1-0.1)*GR.UR/H[0]: 
OTHER_8            .         Начало бурения интервала каротажа: 
OTHER_9            .         Окончание бурения интервала каротажа: 
PROJECT_UPGRADE_TIME .         2021-03-18T21_24_50           : 
TLFamily_CCLC      .                                       : 
TLFamily_DEPT      .         Measured Depth                : 
TLFamily_GK        .         Gamma Ray                     : 
TLFamily_GR        .         Gamma Ray                     : 
TLFamily_METKA     .                                       : 
TLFamily_MN        .                                       : 
TLFamily_RCOR      .                                       : 
TLFamily_RGR       .                                       : 
TLFamily_RMN       .                                       : 
TLFamily_RTEN      .                                       : 
TLFamily_RTM       .                                       : 
TLFamily_SPEE      .         Cable Speed                   : 
TLFamily_TIME      .         Time                          : 
TLFamily_TM        .         Temperature                   : 
group              .         prim                          : 
~Curve Information
#_______________________________________________________________________________
#
#LOGNAME           .UNIT     LOG_ID                        : DESCRIPTION
#_______________________________________________________________________________
DEPT               .M                                      : 1 Глубина, м -    0.0 см 
CCLC               .E.ACP                                  : 9 Локатор муфт,  -   20.0 см 
GK                 .FLT                                    : 14 Гамма-активность фильтрованная, мкр./ч -  110.0 см 
GR                 .UR/H                                   : 13 Гамма-активность, мкр./ч -  110.0 см 
METKA              .CU                                     : 3 Метки,  -    0.0 см 
MN                 .ATM                                    : 12 Давление, атм. -  160.0 см 
RCOR               .CM/KM                                  : 5 Коррекция по ролику, см/км -    0.0 см 
RGR                .IMP/MIN                                : 10 Гамма-активность, усл.ед. -  110.0 см 
RMN                .E.ACP                                  : 8 Давление, усл.ед. -  160.0 см 
RTEN               .T                                      : 6 Натяжение кабеля, т -    0.0 см 
RTM                .E.ACP                                  : 7 Температура, усл.ед. -  170.0 см 
SPEE               .M/H                                    : 2 Скорость, м/час -    0.0 см 
TIME               .S                                      : 4 Время, сек -    0.0 см 
TM                 .DEGC                                   : 11 Температура, °C -  170.0 см 
~Ascii
# ...
2661.19999 422        7.1        7.1        0          239.714    -1091      323        12738      0.25       16459      577        64.08      65.171    
2661.399989 489        7.84       7.84       0          239.713    -1091      357        12738      0.25       16458      577        65.33      65.167    
2661.599989 332        7.84       7.84       0          239.713    -1091      357        12738      0.25       16458      577        66.54      65.167    
2661.799989 414        8.2        8.2        0          239.713    -1091      373        12738      0.25       16458      577        67.81      65.167    
2661.999989 279        8.2        8.2        0          239.733    -1091      373        12739      0.25       16457      577        69.11      65.163    
2662.199989 521        8.22       8.22       0          239.754    -1091      374        12740      0.25       16456      577        70.38      65.159    
2662.399988 359        8.24       8.24       0          239.789    -1091      375        12742      0.25       16456      578        71.58      65.159    
2662.599988 478        8.55       8.55       0          239.796    -1091      389        12742      0.25       16456      578        72.83      65.159    
2662.799988 305        8.55       8.55       0          239.816    -1091      389        12743      0.25       16456      578        74.16      65.159    
2662.999988 449        8.17       8.17       0          239.836    -1091      372        12744      0.25       16456      579        75.35      65.159    
2663.199988 398        8.17       8.17       0          239.854    -1091      372        12745      0.25       16454      580        76.57      65.151    
2663.399987 424        7.95       7.95       0          239.861    -1091      362        12745      0.25       16454      579        77.81      65.153    
2663.599987 379        7.73       7.73       0          239.892    -1091      352        12747      0.25       16454      579        79.06      65.151    
2663.799987 421        8.24       8.24       0          239.899    -1091      375        12747      0.25       16453      580        80.37      65.147    
2663.999987 226        8.24       8.24       0          239.94     -1091      375        12749      0.25       16453      579        81.59      65.147    
2664.199987 333        7.95       7.95       0          239.94     -1091      362        12749      0.25       16452      580        82.84      65.143    
2664.399986 510        7.89       7.89       0          239.981    -1091      359        12751      0.25       16452      580        84.05      65.143    
2664.599986 196        8.2        8.2        0          239.981    -1091      373        12751      0.25       16452      582        85.33      65.143    
2664.799986 478        8.2        8.2        0          240.002    -1091      373        12752      0.25       16452      582        86.56      65.143    
2664.999986 346        8.79       8.79       0          240.016    -1091      400        12753      0.25       16451      582        87.83      65.139    
2665.199986 343        8.79       8.79       0          240.064    -1091      400        12755      0.25       16451      581        89.06      65.139    
2665.399985 452        8.66       8.66       0          240.064    -1091      394        12755      0.25       16450      581        90.28      65.136    
2665.599985 138        8.57       8.57       0          240.077    -1091      390        12756      0.25       16450      582        91.55      65.135    
2665.799985 301        8.77       8.77       0          240.106    -1091      399        12757      0.25       16449      583        92.8       65.132    
2665.999985 361        8.77       8.77       2          240.109    -1091      399        12757      0.25       16449      582        93.35      65.131    
2666.199985 147        8.44       8.44       0          240.137    -1091      384        12759      0.25       16448      581        94.38      65.127    
2666.399984 374        8.31       8.31       0          240.146    -1091      378        12759      0.25       16447      582        95.64      65.123    
2666.599984 292        7.25       7.25       0          240.166    -1091      330        12760      0.25       16446      582        96.9       65.119    
2666.799984 110        7.25       7.25       0          240.187    -1091      330        12761      0.25       16446      582        98.17      65.119    
2666.999984 5645       6.87       6.87       0          240.207    -1091      313        12762      0.25       16445      583        99.37      65.115    
2667.199984 2370       5.91       5.91       0          240.207    -1091      269        12762      0.25       16444      583        100.63     65.111    
2667.399983 693        5.91       5.91       0          240.249    -1091      269        12764      0.25       16444      583        101.89     65.111    
2667.599983 322        5.87       5.87       0          240.248    -1091      267        12764      0.25       16444      583        103.09     65.11     
2667.799983 369        5.87       5.87       0          240.269    -1091      267        12765      0.25       16443      584        104.34     65.107    
2667.999983 203        5.82       5.82       0          240.289    -1091      265        12766      0.25       16442      584        105.6      65.103    
2668.199983 182        5.82       5.82       0          240.309    -1091      265        12767      0.25       16442      584        106.78     65.101    
2668.399982 319        5.76       5.76       0          240.319    -1091      262        12767      0.25       16440      584        108.06     65.095    
2668.599982 186        5.76       5.76       0          240.328    -1091      262        12768      0.25       16439      584        109.28     65.091    
2668.799982 61         6.83       6.83       0          240.349    -1091      311        12769      0.25       16438      585        110.52     65.087    
2668.999982 154        6.83       6.83       0          240.369    -1091      311        12770      0.25       16437      585        111.76     65.083    
2669.199982 282        6.81       6.81       0          240.389    -1091      310        12771      0.25       16436      586        113.03     65.079    
2669.399981 177        6.81       6.81       0          240.406    -1091      310        12772      0.25       16435      585        114.24     65.074    
2669.599981 93         6.94       6.94       0          240.43     -1091      316        12773      0.25       16433      584        115.5      65.067    
2669.799981 218        6.94       6.94       0          240.436    -1091      316        12773      0.25       16433      585        116.7      65.067    
2669.999981 270        7.01       7.01       0          240.471    -1091      319        12775      0.25       16432      585        117.95     65.063    
2670.199981 90         7.01       7.01       0          240.488    -1091      319        12776      0.25       16431      586        119.22     65.057    
2670.39998 101        5.98       5.98       0          240.511    -1091      272        12777      0.25       16429      586        120.45     65.052    
2670.59998 139        5.98       5.98       0          240.52     -1091      272        12777      0.25       16428      586        121.67     65.047    
2670.79998 263        6.33       6.33       0          240.53     -1091      288        12778      0.25       16427      586        122.87     65.043    
2670.99998 116        6.33       6.33       0          240.55     -1091      288        12779      0.25       16425      586        124.14     65.037    
2671.19998 135        7.05       7.05       0          240.571    -1091      321        12780      0.25       16424      586        125.39     65.03     
2671.399979 219        7.05       7.05       0          240.58     -1091      321        12781      0.25       16422      586        126.66     65.022    
