~Version
 VERS              .         2.0                           : CWLS LOG ASCII STANDARD - VERSION 2.0
 WRAP              .         NO                            : ONE LINE PER DEPTH STEP
 DLM               .         SPACE                         : DELIMITING CHARACTER(SPACE TAB OR COMMA)
~Well Information
#_______________________________________________________________________________
#
#PARAMETER_NAME    .UNIT     VALUE                         : DESCRIPTION
#_______________________________________________________________________________
STRT               .M        2645.4                        : First reference value
STOP               .M        2753.4                        : Last reference value
STEP               .M        0.2                           : Step increment
NULL               .         -9999                         : Missing value
COMP               .                                       : Company
WELL               .         616                           : Well name
FLD                .                                       : Field
LOC                .                                       : Location
CNTY               .                                       : County
STAT               .                                       : State
CTRY               .                                       : Country
SRVC               .                                       : Service Company
DATE               .                                       : Date
API                .                                       : API number
PROJECT_UPGRADE_TIME .         2021-03-18T21_24_50           : 
group              .         Good                          : 
~Parameter Information Block
#_______________________________________________________________________________
#
#PARAMETER_NAME    .UNIT     VALUE                         : DESCRIPTION
#_______________________________________________________________________________
SET                .         D4410_D                       : 
OTHER              .         Запись производится в присутствии: 
OTHER_10           .         Максимальная температура      : 
OTHER_11           .         Тип промывочной жидкости      : 
OTHER_12           .         Сопротивление ПЖ (Ом*м) при 20°C: 
OTHER_13           .         Плотность ПЖ(г/см3)           : 
OTHER_14           .         Вязкость ПЖ(с)                : 
OTHER_15           .         Водоотдача ПЖ(см3/30мин)      : 
OTHER_16           .         Уровень ПЖ                    : 
OTHER_17           .         Нефть ПЖ (%)                  : 
OTHER_18           .         Барит ПЖ (%)                  : 
OTHER_19           .         Гематит ПЖ (%)                : 
OTHER_2            .         Заказчик ННСН  ЦДНГ-1         : 
OTHER_20           .         КМЦ ПЖ (%)                    : 
OTHER_21           .         Разгазирование ПЖ (да,нет)    : 
OTHER_22           .         Подъемник                     : 
OTHER_23           .         Лаборатория                   : 
OTHER_24           .         Тип кабеля                    : 
OTHER_25           .         Длина кабеля (м)              : 
OTHER_26           .         Цена последней метки          : 
OTHER_27           .         Цена контрольной метки        : 
OTHER_28           .         Диаметр долота (мм)           : 
OTHER_29           .         Глубина бурения (м)           : 
OTHER_3            .         Площадь                       : 
OTHER_30           .         Искусственный забой (м)       : 
OTHER_31           .         Диаметр колонны (мм)          : 
OTHER_32           .         Толщина колонны (мм)          : 
OTHER_33           .         Башмак колонны (м)            : 
OTHER_34           .         Диаметр НКТ (мм)              : 
OTHER_35           .         Толщина НКТ (мм)              : 
OTHER_36           .         Воронка НКТ (м)               : 
OTHER_37           .         Дата цементожа                : 
OTHER_38           .         Тип, количество(т) и плотность цемента: 
OTHER_39           .         Интервалы перфорации (м)      : 
OTHER_4            .         Категория                     : 
OTHER_40           .         Направление, диаметр (мм)     : 
OTHER_41           .         Направление, глубина (м)      : 
OTHER_42           .         Кондуктор, диаметр (мм)       : 
OTHER_43           .         Кондуктор, глубина (м)        : 
OTHER_44           .         Техническая колонна, диаметр (мм): 
OTHER_45           .         Техническая колонна, глубина (м): 
OTHER_46           .         Эксплуатационная колонна, диаметр (мм): 
OTHER_47           .         Эксплуатационная колонна, глубина (м): 
OTHER_48           .         Программа Кедр-02 версия 3.4  : 
OTHER_49           .         Операционная система Windows NT 5.1 build 2600 Service Pack 2: 
OTHER_5            .         Назначение исследований       : 
OTHER_50           .         Программное обеспечение станции MONITOR-386EX 25/12/99 15_08_10   BGF V54 20/09/05 15_32_17   3.3__BGF_9030071: 
OTHER_51           .         Kedr.exe версия 3.4.2.74      : 
OTHER_52           .         KedrData.dll версия 3.4.2.29  : 
OTHER_53           .         Мнемоники версия 3.18 S       : 
OTHER_54           .         Драйвер версия 2.1.1.4        : 
OTHER_55           .         LasInf.dll 4.3.0.35           : 
OTHER_56           .         Прибор_ КСА-Т4                : 
OTHER_57           .         Номер прибора_ 160            : 
OTHER_58           .         Режим_ КСА-Т4                 : 
OTHER_59           .         Форма_ С.А.Б.                 : 
OTHER_6            .         Альтитуда стола ротора        : 
OTHER_60           .         Тарировки_                    : 
OTHER_61           .         <_techsia_sc_> Дата тарировки температуры 25.05.2010: 
OTHER_62           .         Ручной ввод коэффициентов     : 
OTHER_63           .         TM.DEGC = 0.00402*RTM.E.ACP + -0.994: 
OTHER_64           .         <_techsia_sc_> Дата тарировки давления 25.05.2010: 
OTHER_65           .         Ручной ввод коэффициентов     : 
OTHER_66           .         MN.ATM = (2.27521e-006*TM.DEGC + 0.02078)*(RMN.E.ACP + 6.2*TM.DEGC + -1688): 
OTHER_67           .         <_techsia_sc_> Дата тарировки ГК 25.05.2010: 
OTHER_68           .         Ручной ввод коэффициентов     : 
OTHER_69           .         GR.UR/H = RGR.IMP/MIN / 45.5144: 
OTHER_7            .         Вид исследований 3  6         : 
OTHER_70           .         GK.FLT = 0.1*GR.UR/H[-1] + (1-0.1)*GR.UR/H[0]: 
OTHER_8            .         Начало бурения интервала каротажа: 
OTHER_9            .         Окончание бурения интервала каротажа: 
PROJECT_UPGRADE_TIME .         2021-03-18T21_24_50           : 
TLFamily_CCLC      .                                       : 
TLFamily_DEPT      .         Measured Depth                : 
TLFamily_GK        .         Gamma Ray                     : 
TLFamily_GR        .         Gamma Ray                     : 
TLFamily_METKA     .                                       : 
TLFamily_MN        .                                       : 
TLFamily_RCOR      .                                       : 
TLFamily_RGR       .                                       : 
TLFamily_RMN       .                                       : 
TLFamily_RTEN      .                                       : 
TLFamily_RTM       .                                       : 
TLFamily_SPEE      .         Cable Speed                   : 
TLFamily_TIME      .         Time                          : 
TLFamily_TM        .         Temperature                   : 
group              .         prim                          : 
~Curve Information
#_______________________________________________________________________________
#
#LOGNAME           .UNIT     LOG_ID                        : DESCRIPTION
#_______________________________________________________________________________
DEPT               .M                                      : 1 Глубина, м -    0.0 см 
CCLC               .E.ACP                                  : 9 Локатор муфт,  -   20.0 см 
GK                 .FLT                                    : 14 Гамма-активность фильтрованная, мкр./ч -  110.0 см 
GR                 .UR/H                                   : 13 Гамма-активность, мкр./ч -  110.0 см 
METKA              .CU                                     : 3 Метки,  -    0.0 см 
MN                 .ATM                                    : 12 Давление, атм. -  160.0 см 
RCOR               .CM/KM                                  : 5 Коррекция по ролику, см/км -    0.0 см 
RGR                .IMP/MIN                                : 10 Гамма-активность, усл.ед. -  110.0 см 
RMN                .E.ACP                                  : 8 Давление, усл.ед. -  160.0 см 
RTEN               .T                                      : 6 Натяжение кабеля, т -    0.0 см 
RTM                .E.ACP                                  : 7 Температура, усл.ед. -  170.0 см 
SPEE               .M/H                                    : 2 Скорость, м/час -    0.0 см 
TIME               .S                                      : 4 Время, сек -    0.0 см 
TM                 .DEGC                                   : 11 Температура, °C -  170.0 см 
~Ascii
# ...
2676.6     590        4.99       4.99       0          365.716    -1102      227        18761      0.19       16379      645        189.55     64.85     
2676.8     5896       4.99       4.99       0          365.734    -1102      227        18762      0.19       16379      644        190.65     64.85     
2677       1572       5.27       5.27       0          365.773    -1102      240        18764      0.2        16379      643        191.8      64.85     
2677.2     567        5.27       5.27       0          365.815    -1102      240        18766      0.19       16379      644        192.89     64.85     
2677.4     513        5.16       5.16       0          365.836    -1102      235        18767      0.19       16380      643        194.09     64.852    
2677.6     416        5.08       5.08       0          365.889    -1102      231        18769      0.19       16380      644        195.2      64.854    
2677.8     464        5.08       5.08       0          365.9      -1102      231        18770      0.19       16380      644        196.29     64.854    
2678       399        4.77       4.77       0          365.9      -1102      217        18770      0.19       16381      643        197.39     64.858    
2678.2     424        4.77       4.77       0          365.922    -1102      217        18771      0.19       16382      642        198.6      64.862    
2678.4     540        5.67       5.67       0          365.94     -1102      258        18772      0.19       16383      643        199.68     64.866    
2678.6     662        5.67       5.67       0          365.944    -1102      258        18772      0.19       16384      644        200.84     64.87     
2678.8     524        6.42       6.42       0          365.953    -1102      292        18772      0.19       16384      643        201.94     64.871    
2679       676        6.42       6.42       0          366.025    -1102      292        18776      0.19       16385      645        203.03     64.874    
2679.2     507        5.58       5.58       0          366.05     -1102      254        18777      0.19       16386      645        204.23     64.878    
2679.4     425        5.58       5.58       0          366.092    -1102      254        18779      0.19       16386      645        205.27     64.878    
2679.6     283        5.58       5.58       0          366.092    -1102      254        18779      0.19       16387      645        206.42     64.882    
2679.8     213        5.56       5.56       0          366.03     -1102      253        18776      0.19       16388      645        207.52     64.886    
2680       214        5.56       5.56       0          366.06     -1102      253        18777      0.19       16387      645        208.61     64.882    
2680.2     283        6.02       6.02       0          366.102    -1102      274        18779      0.19       16387      645        209.82     64.882    
2680.4     288        6.02       6.02       0          366.135    -1102      274        18781      0.19       16388      646        210.91     64.886    
2680.6     259        5.4        5.4        0          366.135    -1102      246        18781      0.19       16388      646        212        64.886    
2680.8     274        5.4        5.4        0          366.142    -1102      246        18781      0.19       16389      644        213.15     64.888    
2681       284        5.78       5.78       0          366.178    -1102      263        18783      0.19       16389      644        214.31     64.89     
2681.2     188        5.78       5.78       0          366.136    -1102      263        18781      0.2        16390      645        215.43     64.894    
2681.4     180        5.97       5.97       0          366.115    -1102      272        18780      0.2        16390      645        216.55     64.894    
2681.6     242        6.46       6.46       0          366.115    -1102      294        18780      0.2        16390      644        217.64     64.894    
2681.8     196        6.46       6.46       0          366.154    -1102      294        18782      0.2        16390      644        218.75     64.894    
2682       167        6.57       6.57       0          366.2      -1102      299        18784      0.2        16391      646        219.93     64.898    
2682.2     128        6.57       6.57       0          366.221    -1102      299        18785      0.2        16391      645        221.04     64.898    
2682.4     98         6.7        6.7        0          366.209    -1102      305        18784      0.19       16391      645        222.14     64.898    
2682.6     137        6.7        6.7        0          366.2      -1102      305        18784      0.19       16392      645        223.28     64.902    
2682.8     93         6.75       6.75       0          366.2      -1102      307        18784      0.19       16392      645        224.44     64.902    
2683       79         6.75       6.75       0          366.251    -1102      307        18786      0.19       16392      645        225.53     64.902    
2683.2     77         6.99       6.99       0          366.29     -1102      318        18788      0.19       16392      644        226.62     64.902    
2683.4     63         7.12       7.12       0          366.329    -1102      324        18790      0.19       16392      646        227.74     64.902    
2683.6     226        7.19       7.19       0          366.374    -1102      327        18792      0.19       16393      644        228.91     64.905    
2683.8     192        7.29       7.29       0          366.411    -1102      332        18794      0.19       16394      644        230.02     64.909    
2684       258        7.29       7.29       0          366.432    -1102      332        18795      0.19       16394      645        231.15     64.91     
2684.2     210        7.56       7.56       0          366.454    -1102      344        18796      0.19       16395      646        232.26     64.914    
2684.4     284        7.56       7.56       0          366.475    -1102      344        18797      0.19       16395      646        233.36     64.914    
2684.6     278        7.89       7.89       0          366.493    -1102      359        18798      0.19       16395      646        234.51     64.914    
2684.8     266        7.89       7.89       0          366.553    -1102      359        18801      0.19       16396      647        235.61     64.918    
2685       242        7.18       7.18       0          366.585    -1102      327        18802      0.19       16396      647        236.7      64.918    
2685.2     168        7.18       7.18       0          366.608    -1102      327        18803      0.19       16397      646        237.84     64.922    
2685.4     205        7.18       7.18       0          366.602    -1102      327        18803      0.19       16397      646        238.94     64.922    
2685.6     212        6.31       6.31       0          366.581    -1102      287        18802      0.19       16397      647        240.09     64.922    
2685.8     315        6.31       6.31       0          366.61     -1102      287        18803      0.19       16397      647        241.24     64.922    
2686       356        6.66       6.66       2          366.665    -1102      303        18806      0.19       16397      647        242.34     64.922    
2686.2     620        6.66       6.66       0          366.707    -1107      303        18808      0.19       16398      647        243.72     64.926    
2686.4     2863       7.84       7.84       0          366.731    -1107      357        18809      0.19       16398      647        244.88     64.926    
2686.6     1179       7.84       7.84       0          366.791    -1107      357        18812      0.19       16398      646        245.97     64.926    
2686.8     342        8.44       8.44       0          366.77     -1107      384        18811      0.19       16399      646        247.12     64.93     
