~Version
 VERS              .         2.0                           : CWLS LOG ASCII STANDARD - VERSION 2.0
 WRAP              .         NO                            : ONE LINE PER DEPTH STEP
 DLM               .         SPACE                         : DELIMITING CHARACTER(SPACE TAB OR COMMA)
~Well Information
#_______________________________________________________________________________
#
#PARAMETER_NAME    .UNIT     VALUE                         : DESCRIPTION
#_______________________________________________________________________________
STRT               .M        2733.1                        : First reference value
STOP               .M        2798.6                        : Last reference value
STEP               .M        0.1                           : Step increment
NULL               .         -9999                         : Missing value
COMP               .                                       : Company
WELL               .         616                           : Well name
FLD                .                                       : Field
LOC                .                                       : Location
CNTY               .                                       : County
STAT               .                                       : State
CTRY               .                                       : Country
SRVC               .                                       : Service Company
DATE               .                                       : Date
API                .                                       : API number
PROJECT_UPGRADE_TIME .         2021-03-18T21_24_50           : 
group              .         Good                          : 
~Parameter Information Block
#_______________________________________________________________________________
#
#PARAMETER_NAME    .UNIT     VALUE                         : DESCRIPTION
#_______________________________________________________________________________
SET                .         D2661_D                       : 
OTHER              .         Программное обеспечение станции MONITOR-386EX 25/12/99 15_08_10   BGF V50 26/12/00 07_26_01   3.1_SNGF___BGF_N_092085: 
OTHER_10           .         Тарировки_                    : 
OTHER_11           .         IK1.GRD = IK1$.UE - -5.96     : 
OTHER_12           .         IK5.GRD = IK5$.UE - -0.74     : 
OTHER_13           .         IK4.GRD = IK4$.UE - -0.9      : 
OTHER_14           .         IK3.GRD = IK3$.UE - -1.28     : 
OTHER_15           .         IK2.GRD = IK2$.UE - -3.55     : 
OTHER_2            .         Kedr.exe версия 3.3.2.32      : 
OTHER_3            .         KedrData.dll версия 3.3.2.17  : 
OTHER_4            .         Драйвер версия 2.1.0.4        : 
OTHER_5            .         Мнемоники версия 3.3 S        : 
OTHER_6            .         Прибор_ Викиз                 : 
OTHER_7            .         Номер прибора_ 0006012        : 
OTHER_8            .         Режим_ Викиз                  : 
OTHER_9            .         Форма_ ВИКИЗ                  : 
PROJECT_UPGRADE_TIME .         2021-03-18T21_24_49           : 
TLFamily_DEPT      .         Measured Depth                : 
TLFamily_IK1       .         Extra Shallow Resistivity     : 
TLFamily_IK1$      .         Extra Shallow Resistivity     : 
TLFamily_IK2       .         Shallow Resistivity           : 
TLFamily_IK2$      .         Shallow Resistivity           : 
TLFamily_IK3       .         Medium Resistivity            : 
TLFamily_IK3$      .         Medium Resistivity            : 
TLFamily_IK4       .         Deep Resistivity              : 
TLFamily_IK4$      .         Deep Resistivity              : 
TLFamily_IK5       .         Resistivity 20                : 
TLFamily_IK5$      .         Resistivity 20                : 
TLFamily_METKA     .                                       : 
TLFamily_PS        .         Spontaneous Potential         : 
TLFamily_RCOR      .                                       : 
TLFamily_SPID      .         Spontaneous Potential         : 
TLFamily_TENS      .         Cable Tension                 : 
TLFamily_TIME      .         Time                          : 
group              .         prim                          : 
~Curve Information
#_______________________________________________________________________________
#
#LOGNAME           .UNIT     LOG_ID                        : DESCRIPTION
#_______________________________________________________________________________
DEPT               .M                                      : 1 Глубина, м -    0.0 см 
IK1                .GRD                                    : 13 3Ф0.5, град. -  226.0 см 
IK1$               .UE                                     : 7 3Ф0.5, усл.ед. -  226.0 см 
IK2                .GRD                                    : 17 3Ф0.7, град. -  240.0 см 
IK2$               .UE                                     : 11 3Ф0.7, усл.ед. -  240.0 см 
IK3                .GRD                                    : 16 3Ф1.0, град. -  260.0 см 
IK3$               .UE                                     : 10 3Ф1.0, усл.ед. -  260.0 см 
IK4                .GRD                                    : 15 3Ф1.4, град. -  288.0 см 
IK4$               .UE                                     : 9 3Ф1.4, усл.ед. -  288.0 см 
IK5                .GRD                                    : 14 3Ф2.0, град. -  328.0 см 
IK5$               .UE                                     : 8 3Ф2.0, усл.ед. -  328.0 см 
METKA              .                                       : 3 Метки,  -    0.0 см 
PS                 .mV                                     : 12 ПС, мВ -  372.0 см 
RCOR               .CM/KM                                  : 5 Коррекция по ролику, см/км -    0.0 см 
SPID               .M/H                                    : 2 Скорость, м/час -    0.0 см 
TENS               .T                                      : 6 Натяжение кабеля, т -    0.0 см 
TIME               .S                                      : 4 Время, сек -    0.0 см 
~Ascii
# ...
2776.1     14.28      8.32       13.56      10.01      13.3       12.02      12.66      11.76      12.37      11.63      0          326.84     -292       -1787      0          34397.8   
2776.2     14.31      8.35       13.59      10.04      13.32      12.04      12.64      11.74      12.36      11.62      0          327.39     -292       -1786      0          34397.62  
2776.3     14.39      8.43       13.64      10.09      13.32      12.04      12.64      11.74      12.36      11.62      0          327.25     -292       -1785      0          34397.39  
2776.4     14.44      8.48       13.64      10.09      13.28      12         12.61      11.71      12.34      11.6       0          326.97     -292       -1798      0          34397.2   
2776.5     14.46      8.5        13.59      10.04      13.22      11.94      12.55      11.65      12.32      11.58      0          327.21     -292       -1814      0          34397.02  
2776.6     14.4       8.44       13.51      9.96       13.14      11.86      12.49      11.59      12.31      11.57      0          327.96     -292       -1833      0          34396.82  
2776.7     14.3       8.34       13.44      9.89       13.1       11.82      12.47      11.57      12.33      11.59      0          328.27     -292       -1825      0          34396.59  
2776.8     14.31      8.35       13.51      9.96       13.14      11.86      12.51      11.61      12.36      11.62      0          327.67     -292       -1817      0          34396.4   
2776.9     14.55      8.59       13.67      10.12      13.24      11.96      12.58      11.68      12.43      11.69      0          326.56     -292       -1812      0          34396.21  
2777       14.61      8.65       13.72      10.17      13.29      12.01      12.64      11.74      12.5       11.76      0          326.47     -292       -1818      0          34395.99  
2777.1     14.56      8.6        13.72      10.17      13.33      12.05      12.68      11.78      12.58      11.84      0          327.12     -292       -1824      0          34395.8   
2777.2     14.59      8.63       13.79      10.24      13.4       12.12      12.76      11.86      12.66      11.92      0          327.4      -292       -1824      0          34395.62  
2777.3     14.7       8.74       13.9       10.35      13.53      12.25      12.87      11.97      12.76      12.02      0          327.23     -292       -1816      0          34395.43  
2777.4     14.86      8.9        14.05      10.5       13.65      12.37      12.98      12.08      12.86      12.12      0          327.28     -292       -1804      0          34395.23  
2777.5     14.99      9.03       14.17      10.62      13.8       12.52      13.11      12.21      12.95      12.21      0          328.03     -292       -1801      0          34395.03  
2777.6     15.16      9.2        14.33      10.78      13.99      12.71      13.27      12.37      13.08      12.34      0          329.24     -292       -1804      0          34394.84  
2777.7     15.4       9.44       14.6       11.05      14.19      12.91      13.44      12.54      13.2       12.46      0          330.29     -292       -1807      0          34394.62  
2777.8     15.67      9.71       14.82      11.27      14.38      13.1       13.61      12.71      13.31      12.57      0          330.43     -292       -1812      0          34394.43  
2777.9     15.89      9.93       14.95      11.4       14.54      13.26      13.76      12.86      13.41      12.67      0          330.17     -292       -1817      0          34394.24  
2778       15.96      10         14.99      11.44      14.59      13.31      13.83      12.93      13.49      12.75      0          330.24     -292       -1824      0          34394.03  
2778.1     15.97      10.01      15.01      11.46      14.63      13.35      13.87      12.97      13.54      12.8       0          330.73     -292       -1816      0          34393.84  
2778.2     15.96      10         15.01      11.46      14.64      13.36      13.92      13.02      13.58      12.84      0          331.09     -292       -1805      0          34393.66  
2778.3     15.9       9.94       14.99      11.44      14.64      13.36      13.95      13.05      13.63      12.89      0          331.04     -292       -1793      0          34393.46  
2778.4     15.85      9.89       14.99      11.44      14.65      13.37      14         13.1       13.67      12.93      0          330.8      -292       -1793      0          34393.24  
2778.5     15.88      9.92       15.05      11.5       14.71      13.43      14.07      13.17      13.73      12.99      0          331.13     -292       -1794      0          34393.05  
2778.6     15.97      10.01      15.12      11.57      14.81      13.53      14.16      13.26      13.82      13.08      0          331.76     -292       -1795      0          34392.87  
2778.7     16.05      10.09      15.2       11.65      14.9       13.62      14.24      13.34      13.9       13.16      0          331.83     -292       -1797      0          34392.64  
2778.8     16.11      10.15      15.25      11.7       14.97      13.69      14.31      13.41      13.97      13.23      0          331.54     -292       -1798      0          34392.45  
2778.9     16.15      10.19      15.29      11.74      15.02      13.74      14.37      13.47      14.02      13.28      0          331.37     -292       -1800      0          34392.27  
2779       16.17      10.21      15.3       11.75      15         13.72      14.38      13.48      14.06      13.32      0          331.82     -292       -1803      0          34392.05  
2779.1     16.2       10.24      15.29      11.74      14.99      13.71      14.39      13.49      14.09      13.35      0          332.14     -292       -1807      0          34391.86  
2779.2     16.23      10.27      15.29      11.74      14.99      13.71      14.38      13.48      14.1       13.36      0          331.92     -292       -1810      0          34391.68  
2779.3     16.17      10.21      15.27      11.72      14.96      13.68      14.36      13.46      14.11      13.37      0          331.52     -292       -1815      0          34391.48  
2779.4     16.1       10.14      15.23      11.68      14.92      13.64      14.34      13.44      14.11      13.37      0          330.95     -292       -1823      0          34391.26  
2779.5     16.04      10.08      15.18      11.63      14.87      13.59      14.31      13.41      14.1       13.36      0          331.29     -292       -1817      0          34391.07  
2779.6     16.01      10.05      15.15      11.6       14.85      13.57      14.28      13.38      14.08      13.34      0          331.97     -292       -1807      0          34390.88  
2779.7     16.01      10.05      15.14      11.59      14.85      13.57      14.25      13.35      14.07      13.33      0          332.03     -292       -1792      0          34390.66  
2779.8     15.99      10.03      15.13      11.58      14.83      13.55      14.23      13.33      14.05      13.31      0          331.74     -292       -1793      0          34390.48  
2779.9     15.96      10         15.09      11.54      14.79      13.51      14.17      13.27      14.02      13.28      0          331.26     -292       -1793      0          34390.29  
2780       15.91      9.95       15.01      11.46      14.7       13.42      14.1       13.2       13.95      13.21      1          330.56     -292       -1794      0          34390.1   
2780.1     15.77      9.81       14.86      11.31      14.59      13.31      14.02      13.12      13.88      13.14      0          330.36     -286       -1796      0          34389.75  
2780.2     15.63      9.67       14.75      11.2       14.5       13.22      13.93      13.03      13.82      13.08      0          330.78     -286       -1797      0          34389.58  
2780.3     15.52      9.56       14.68      11.13      14.41      13.13      13.86      12.96      13.76      13.02      0          331.03     -286       -1799      0          34389.36  
