~Version
 VERS              .         2.0                           : CWLS LOG ASCII STANDARD - VERSION 2.0
 WRAP              .         NO                            : ONE LINE PER DEPTH STEP
 DLM               .         SPACE                         : DELIMITING CHARACTER(SPACE TAB OR COMMA)
~Well Information
#_______________________________________________________________________________
#
#PARAMETER_NAME    .UNIT     VALUE                         : DESCRIPTION
#_______________________________________________________________________________
STRT               .M        2657.95                       : First reference value
STOP               .M        2764.750053                   : Last reference value
STEP               .M        0.2000001                     : Step increment
NULL               .         -9999                         : Missing value
COMP               .                                       : Company
WELL               .         616                           : Well name
FLD                .                                       : Field
LOC                .                                       : Location
CNTY               .                                       : County
STAT               .                                       : State
CTRY               .                                       : Country
SRVC               .                                       : Service Company
DATE               .                                       : Date
API                .                                       : API number
PROJECT_UPGRADE_TIME .         2021-03-18T21_24_50           : 
group              .         Good                          : 
~Parameter Information Block
#_______________________________________________________________________________
#
#PARAMETER_NAME    .UNIT     VALUE                         : DESCRIPTION
#_______________________________________________________________________________
SET                .         D7022_D_2                     : 
NPR                .         155                           : Номер прибора
OTHER              .         Kedr.exe версия 2.1.2.32      : 
OTHER_10           .         TM.GRD = 0.00404*TM$.UE + 0.07: 
OTHER_11           .         MN.ATM = (6.33279e-006*TM.GRD + 0.02401)*(MN$.UE + 2.72*TM.GRD + -2018): 
OTHER_12           .         GK.MKR/H = GK$.UE / 43.5489 + 0: 
OTHER_13           .         RES.SM = 0.00476*CRES.UE - 1.51709: 
OTHER_14           .         PL.GSM3 = 0 + 0 * (PL.UE / 1) +  0 * (PL.UE / 1)^2: 
OTHER_15           .         Постоянная времени ГГП = 6 сек: 
OTHER_16           .         Постоянная времени ГК = 6 сек : 
OTHER_2            .         KedrData.dll версия 3.2.2.14  : 
OTHER_3            .         LasInf.dll версия 3.2.0.13    : 
OTHER_4            .         Драйвер версия 1.2.0.5        : 
OTHER_5            .         Прибор_ КСА-M1                : 
OTHER_6            .         Номер прибора_ 155+р204       : 
OTHER_7            .         Режим_ КСА-М1 + ГГП + Резистивиметр: 
OTHER_8            .         Форма_ 223\2                  : 
OTHER_9            .         Тарировки_                    : 
PR                 .         КСА-Т7 М1                     : Тип прибора
PROJECT_UPGRADE_TIME .         2021-03-18T21_24_50           : 
PRTY               .         ПП-223_2                      : Номер партии
SRV                .         ЦКРС                          : Заказчик
SRVC               .         Лузин  А.Б.                   : Начальник партии
TLFamily_DEPT      .         Measured Depth                : 
TLFamily_LM        .         Casing Collar locator         : 
TLFamily_MN        .                                       : 
TLFamily_SPID      .         Spontaneous Potential         : 
TLFamily_TM        .         Temperature                   : 
group              .         second                        : 
~Curve Information
#_______________________________________________________________________________
#
#LOGNAME           .UNIT     LOG_ID                        : DESCRIPTION
#_______________________________________________________________________________
DEPT               .M                                      : Depth curve 
LM                 .е.ацп                                  : Локация муфт 
MN                 .атм                                    : Манометрия, атм 
SPID               .м/ч                                    : Скорость записи,м/час 
TM                 .град.С                                 : Термометрия,град.С 
~Ascii
# ...
2744.350043 131.997    352.35     565.987    48.44     
2744.550043 119.003    352.15     579.997    48.52     
2744.750043 110.002    351.38     568.003    48.59     
2744.950043 120.997    350.96     510.014    48.67     
2745.150044 140.995    351.74     579.983    48.75     
2745.350044 118.005    353.02     545.008    48.83     
2745.550044 93.006     352.44     579.992    48.92     
2745.750044 114.995    353.52     510.017    49.02     
2745.950044 142.993    352.12     567.986    49.08     
2746.150044 125.004    352.48     579.997    49.16     
2746.350044 6468.493   354.58     580        49.23     
2746.550044 2989.827   354.58     568.003    49.31     
2746.750044 736.535    354.72     510.014    49.41     
2746.950044 250.115    354.36     579.983    49.53     
2747.150045 177.017    354.82     533.011    49.65     
2747.350045 162.004    354.35     579.989    49.78     
2747.550045 132.007    354.3      568.003    49.89     
2747.750045 142.997    353.73     579.997    49.97     
2747.950045 147.999    353.11     557.005    50.07     
2748.150045 200.987    352.95     510.011    50.17     
2748.350045 147.013    352.95     565.987    50.29     
2748.550045 91.013     353.57     579.997    50.41     
2748.750045 95.999     355.51     580        50.51     
2748.950045 116.995    353.1      570.002    50.62     
2749.150046 93.006     353.15     568        50.7      
2749.350046 104.997    354.75     545.005    50.81     
2749.550046 124.995    354.57     579.992    50.93     
2749.750046 107.004    356.66     510.017    51.01     
2749.950046 99.002     356.03     579.983    51.15     
2750.150046 107.998    356.34     580        51.32     
2750.350046 136.993    355.84     534.011    51.46     
2750.550046 122.004    356.32     510.006    51.61     
2750.750046 105.004    355.73     579.983    51.69     
2750.950046 98.002     355        580        51.79     
2751.150047 96         354.68     580        51.86     
2751.350047 132.991    354.4      545.008    52        
2751.550047 115.004    356.97     579.992    52.19     
2751.750047 112.001    358.01     580        52.42     
2751.950047 84.007     357.1      557.005    52.6      
2752.150047 112.993    355.53     510.011    52.78     
2752.350047 124.997    354.85     579.983    52.91     
2752.550047 105.005    355.36     510.017    53.04     
2752.750047 99.001     355.1      579.983    53.14     
2752.950047 100        355.44     580        53.25     
2753.150048 118.995    355.03     580        53.37     
2753.350048 121.999    354.57     510.017    53.51     
2753.550048 101.005    355.62     556.989    53.71     
2753.750048 123.995    356.12     579.995    53.89     
2753.950048 110.003    356.58     580        54.11     
2754.150048 144.992    356.77     580        54.34     
2754.350048 118.006    359.21     530.012    54.47     
2754.550048 88.007     357.84     544.996    54.67     
2754.750048 96.998     358.01     579.992    54.84     
2754.950048 81.004     359.35     580        54.91     
2755.150049 95.996     358.06     580        55.05     
2755.350049 106.997    358.15     545.008    55.23     
2755.550049 112.999    357.92     522.005    55.33     
2755.750049 127.996    358.4      579.986    55.45     
2755.950049 157.993    357.65     522.014    55.65     
2756.150049 92.016     357.48     579.986    55.85     
2756.350049 183.978    356.66     510.017    56.03     
2756.550049 122.015    356.37     510        56.15     
2756.750049 112.002    356.48     579.983    56.29     
2756.950049 103.002    358.55     580        56.46     
2757.15005 105.999    356.32     560.005    56.62     
2757.35005 94.003     355.32     579.995    56.74     
2757.55005 6042.592   356.99     580        56.9      
2757.75005 2326.88    357.82     557.005    57.13     
2757.95005 572.415    359.32     533.006    57.3      
2758.15005 161.097    359.8      520.003    57.49     
2758.35005 98.015     360.79     567.989    57.6      
2758.55005 94.001     359.42     579.997    57.76     
2758.75005 100.998    359.98     550.007    57.9      
2758.95005 95.001     359.93     579.993    58.05     
2759.150051 75.005     359.77     510.017    58.25     
2759.350051 67.002     359.28     579.983    58.51     
2759.550051 55.003     358.54     510.017    58.69     
2759.750051 53         357.63     579.983    58.77     
2759.950051 47.001     358.33     545.008    58.84     
2760.150051 49         358.1      579.992    58.96     
2760.350051 41.002     358.41     510.017    59.08     
2760.550051 37.001     357.66     579.983    59.19     
2760.750051 39         356.62     510.017    59.26     
2760.950051 36.001     358.92     579.983    59.37     
2761.150052 36         358.96     580        59.45     
2761.350052 36         360.7      580        59.5      
2761.550052 35         358.66     560.005    59.53     
2761.750052 35         358.01     579.995    59.56     
2761.950052 35         358.18     557.005    59.59     
2762.150052 33         357.86     579.995    59.66     
2762.350052 35         359.16     580        59.72     
2762.550052 33         359.44     -9999      59.77     
2762.750052 -9999      359.79     -9999      59.8      
2762.950052 -9999      360.85     -9999      59.81     
2763.150053 -9999      360.49     -9999      59.81     
2763.350053 -9999      360.78     -9999      59.78     
2763.550053 -9999      361.5      -9999      59.76     
2763.750053 -9999      361.87     -9999      59.77     
2763.950053 -9999      361.18     -9999      59.79     
2764.150053 -9999      -9999      -9999      59.79     
2764.350053 -9999      -9999      -9999      -9999     
2764.550053 -9999      -9999      -9999      -9999     
2764.750053 -9999      -9999      -9999      -9999     
