~Version
 VERS              .         2.0                           : CWLS LOG ASCII STANDARD - VERSION 2.0
 WRAP              .         NO                            : ONE LINE PER DEPTH STEP
 DLM               .         SPACE                         : DELIMITING CHARACTER(SPACE TAB OR COMMA)
~Well Information
#_______________________________________________________________________________
#
#PARAMETER_NAME    .UNIT     VALUE                         : DESCRIPTION
#_______________________________________________________________________________
STRT               .M        2659.8                        : First reference value
STOP               .M        2768.999945                   : Last reference value
STEP               .M        0.1999999                     : Step increment
NULL               .         -9999                         : Missing value
COMP               .                                       : Company
WELL               .         616                           : Well name
FLD                .                                       : Field
LOC                .                                       : Location
CNTY               .                                       : County
STAT               .                                       : State
CTRY               .                                       : Country
SRVC               .                                       : Service Company
DATE               .                                       : Date
API                .                                       : API number
PROJECT_UPGRADE_TIME .         2021-03-18T21_24_50           : 
group              .         Good                          : 
~Parameter Information Block
#_______________________________________________________________________________
#
#PARAMETER_NAME    .UNIT     VALUE                         : DESCRIPTION
#_______________________________________________________________________________
SET                .         D1169_D                       : 
OTHER              .         Программное обеспечение станции MONITOR-386EX 25/12/99 15_08_10   BGF V52 22/08/01 16_56_30   3.2_BGF_N_3070031: 
OTHER_10           .         Тарировки_                    : 
OTHER_11           .         TM.GRD = 0.00403*TM$.UE + -1.19: 
OTHER_12           .         MN.ATM = (7.1e-006*TM.GRD + 0.02017)*(MN$.UE + -3.03*TM.GRD + -1833): 
OTHER_13           .         Id error                      : 
OTHER_2            .         Kedr.exe версия 3.4.2.51      : 
OTHER_3            .         KedrData.dll версия 3.4.2.24  : 
OTHER_4            .         Драйвер версия 2.1.1.8        : 
OTHER_5            .         Мнемоники версия 3.3 S        : 
OTHER_6            .         Прибор_ КСА-М1                : 
OTHER_7            .         Номер прибора_ 265            : 
OTHER_8            .         Режим_ КСА-М1                 : 
OTHER_9            .         Форма_ ТЕРМОМЕТР              : 
PROJECT_UPGRADE_TIME .         2021-03-18T21_24_49           : 
TLFamily_DEPT      .         Measured Depth                : 
TLFamily_GK        .         Gamma Ray                     : 
TLFamily_GK$       .                                       : 
TLFamily_LM        .         Casing Collar locator         : 
TLFamily_METKA     .                                       : 
TLFamily_MN        .                                       : 
TLFamily_MN$       .                                       : 
TLFamily_RCOR      .                                       : 
TLFamily_SPID      .         Spontaneous Potential         : 
TLFamily_STD       .                                       : 
TLFamily_TENS      .         Cable Tension                 : 
TLFamily_TIME      .         Time                          : 
TLFamily_TM        .         Temperature                   : 
TLFamily_TM$       .         Temperature                   : 
TLFamily_VGD       .         Gas Volume                    : 
group              .         prim                          : 
~Curve Information
#_______________________________________________________________________________
#
#LOGNAME           .UNIT     LOG_ID                        : DESCRIPTION
#_______________________________________________________________________________
DEPT               .M                                      : 1 Глубина, м -    0.0 см 
GK                 .MKR/H                                  : 15 Гамма-активность, мкр./ч -  110.0 см 
GK$                .UE                                     : 12 Гамма-активность, усл.ед. -  110.0 см 
LM                 .                                       : 10 Локатор муфт,  -   20.0 см 
METKA              .                                       : 3 Метки,  -    0.0 см 
MN                 .ATM                                    : 14 Давление, атм. -  160.0 см 
MN$                .UE                                     : 8 Давление, усл.ед. -  160.0 см 
RCOR               .CM/KM                                  : 5 Коррекция по ролику, см/км -    0.0 см 
SPID               .M/H                                    : 2 Скорость, м/час -    0.0 см 
STD                .                                       : 11 Приток,  -  170.0 см 
TENS               .T                                      : 6 Натяжение кабеля, т -    0.0 см 
TIME               .S                                      : 4 Время, сек -    0.0 см 
TM                 .GRD                                    : 13 Температура, °C -  180.0 см 
TM$                .UE                                     : 7 Температура, усл.ед. -  180.0 см 
VGD                .                                       : 9 Влагомер,  -  170.0 см 
~Ascii
# ...
2728.399966 6.18       269        1          0          261.753    14690      -1400      592        31274      0          25976.48   85.468     21503      6566      
2728.599966 6.26       269        1          0          261.774    14691      -1400      589        31309      0          25977.71   85.582     21532      6566      
2728.799966 5.95       244        1          0          261.798    14692      -1400      587        31347      0          25978.95   85.701     21561      6566      
2728.999965 5.78       244        1          0          261.823    14693      -1400      588        31390      0          25980.17   85.834     21594      6565      
2729.199965 5.87       253        1          0          261.847    14694      -1400      588        31442      0          25981.36   85.969     21628      6565      
2729.399965 5.9        253        1          0          261.872    14695      -1400      586        31496      0          25982.67   86.107     21662      6565      
2729.599965 6.21       274        1          0          261.898    14696      -1400      585        31560      0          25983.87   86.261     21700      6564      
2729.799965 6.35       274        1          0          261.923    14697      -1400      583        31624      0          25985.1    86.441     21745      6565      
2729.999965 6.53       284        1          2          261.948    14698      -1400      587        31692      0          25986.39   86.619     21789      6564      
2730.199965 6.61       284        1          0          261.969    14699      -1400      585        31754      0          25987.62   86.773     21827      6563      
2730.399965 6.82       299        1          0          261.976    14699      -1400      589        31828      0          25988.85   86.925     21865      6563      
2730.599965 6.94       299        1          0          262.001    14700      -1400      592        31900      0          25990.05   87.059     21898      6564      
2730.799964 7.18       317        1          0          262.032    14701      -1400      582        31968      0          25991.34   87.202     21933      6562      
2730.999964 7.34       317        1          0          262.05     14702      -1400      589        32035      0          25992.54   87.337     21967      6562      
2731.199964 7.57       329        1          0          262.075    14703      -1400      591        32098      0          25993.77   87.476     22002      6561      
2731.399964 7.66       329        1          0          262.1      14704      -1400      598        32161      0          25995      87.632     22040      6561      
2731.599964 7.51       316        1          0          262.125    14705      -1400      588        32222      0          25996.23   87.805     22083      6562      
2731.799964 7.43       316        1          0          262.15     14706      -1400      591        32286      0          25997.46   87.978     22126      6561      
2731.999964 7.11       294        1          0          262.168    14707      -1400      591        32341      0          25998.66   88.106     22158      6561      
2732.199964 6.95       294        1          0          262.176    14707      -1400      581        32400      0          25999.92   88.225     22187      6561      
2732.399964 6.66       272        1          0          262.21     14709      -1400      578        32374      0          26001.15   88.327     22213      6561      
2732.599964 6.45       272        1          0          262.229    14709      -1400      587        32374      0          26002.32   88.435     22240      6560      
2732.799964 6.49       283        1          0          262.249    14710      -1400      597        32374      0          26003.6    88.523     22261      6560      
2732.999963 6.58       283        1          0          262.269    14711      -1400      586        32374      0          26004.85   88.615     22284      6560      
2733.199963 7.81       374        1          0          262.274    14711      -1400      588        32374      0          26006.04   88.699     22305      6560      
2733.399963 8.46       374        1          0          262.309    14713      -1400      588        32374      0          26007.26   88.764     22321      6559      
2733.599963 8.95       399        1          0          262.316    14713      -1400      584        32374      0          26008.53   88.837     22339      6560      
2733.799963 9.21       399        1          0          262.348    14714      -1400      584        32375      0          26009.73   88.905     22356      6559      
2733.999963 8.82       354        1          0          262.361    14715      -1400      587        32374      0          26010.97   88.97      22372      6559      
2734.199963 8.45       354        1          0          262.383    14716      -1400      590        32374      0          26012.2    89.018     22384      6559      
2734.399963 8.26       345        1          0          262.405    14717      -1400      576        32374      0          26013.45   89.066     22396      6559      
2734.599963 8.13       345        1          0          262.407    14717      -1400      582        32374      0          26014.62   89.122     22410      6558      
2734.799963 8.12       349        1          0          262.429    14718      -1400      583        32375      0          26015.86   89.173     22423      6558      
2734.999962 8.17       350        1          0          262.462    14720      -1400      585        32374      0          26017.09   89.216     22433      6559      
2735.199962 8.24       356        1          0          262.471    14720      -1400      585        32374      0          26018.33   89.239     22439      6558      
2735.399962 8.3        356        1          0          262.493    14721      -1400      584        32374      0          26019.53   89.264     22445      6557      
2735.599962 8.35       359        1          0          262.494    14721      -1400      592        32375      0          26020.79   89.289     22451      6558      
2735.799962 8.38       359        1          0          262.515    14722      -1400      585        32374      0          26022.04   89.328     22461      6558      
2735.999962 8.35       353        1          0          262.536    14723      -1400      595        32374      0          26023.22   89.347     22466      6558      
2736.199962 8.25       351        1          0          262.558    14724      -1400      598        32374      0          26024.45   89.359     22469      6558      
2736.399962 8.11       337        1          0          262.585    14725      -1400      590        32374      0          26025.7    89.374     22472      6558      
2736.599962 7.49       309        1          0          262.583    14725      -1400      588        32374      0          26026.94   89.395     22478      6558      
2736.799962 7.06       281        1861       0          262.601    14726      -1400      591        32374      0          26028.18   89.418     22483      6558      
2736.999961 6.73       281        694        0          262.622    14727      -1400      588        32374      0          26029.41   89.437     22488      6558      
2737.199961 6.78       301        19         0          262.637    14728      -1400      586        32373      0          26030.65   89.459     22494      6557      
2737.399961 7.09       309        1          0          262.665    14729      -1400      584        32375      0          26031.87   89.48      22499      6557      
2737.599961 7.36       331        1          0          262.665    14729      -1400      589        32374      0          26033.07   89.491     22502      6558      
2737.799961 7.98       353        1          0          262.668    14729      -1400      587        32374      0          26034.37   89.497     22503      6557      
2737.999961 8.17       353        1          0          262.686    14730      -1400      584        32374      0          26035.6    89.506     22505      6557      
