~Version
 VERS              .         2.0                           : CWLS LOG ASCII STANDARD - VERSION 2.0
 WRAP              .         NO                            : ONE LINE PER DEPTH STEP
 DLM               .         SPACE                         : DELIMITING CHARACTER(SPACE TAB OR COMMA)
~Well Information
#_______________________________________________________________________________
#
#PARAMETER_NAME    .UNIT     VALUE                         : DESCRIPTION
#_______________________________________________________________________________
STRT               .M        1149                          : First reference value
STOP               .M        2127.4                        : Last reference value
STEP               .M        0.2                           : Step increment
NULL               .         -9999                         : Missing value
COMP               .                                       : Company
WELL               .         616                           : Well name
FLD                .                                       : Field
LOC                .                                       : Location
CNTY               .                                       : County
STAT               .                                       : State
CTRY               .                                       : Country
SRVC               .                                       : Service Company
DATE               .                                       : Date
API                .                                       : API number
PROJECT_UPGRADE_TIME .         2021-03-18T21_24_50           : 
group              .         Good                          : 
~Parameter Information Block
#_______________________________________________________________________________
#
#PARAMETER_NAME    .UNIT     VALUE                         : DESCRIPTION
#_______________________________________________________________________________
SET                .         616_9                         : 
CONF               .         00                            : 
END                .         0                             : 
ERR                .         0                             : 
GS00               .M        2125.46                       : 
GS01               .M        1146.68                       : 
MM00               .M        2120.00                       : 
NOKG               .         0                             : 
NPR                .         990907                        : 
PART               .         Ивашин                        : 
PROJECT_UPGRADE_TIME .         2021-03-18T21_24_49           : 
PRZK               .         Шакиров                       : 
TLFamily_AZIMUTH   .         True Dip Azimuth              : 
TLFamily_DEPTH     .         Measured Depth                : 
TLFamily_METKA     .                                       : 
TLFamily_ROLL      .                                       : 
TLFamily_SPEED     .         Spontaneous Potential         : 
TLFamily_ZENIT     .                                       : 
VPRG               .         310                           : 
WAY                .         UP                            : 
group              .         prim                          : 
~Curve Information
#_______________________________________________________________________________
#
#LOGNAME           .UNIT     LOG_ID                        : DESCRIPTION
#_______________________________________________________________________________
DEPTH              .M                                      :  
AZIMUTH            .DEG                                    :  
METKA              .                                       :  
ROLL               .DEG                                    :  
SPEED              .M/H                                    :  
ZENIT              .DEG                                    :  
~Ascii
# ...
1271       258.02     0          324.86     684        33.72     
1271.2     258.27     0          324        648        33.84     
1271.4     258.17     0          323.31     684        33.9      
1271.6     257.73     0          323.27     648        33.91     
1271.8     256.79     0          324.14     648        33.67     
1272       257.26     0          325.04     648        33.53     
1272.2     258.61     1          325.78     288        33.74     
1272.4     259.57     0          327.39     648        34.07     
1272.6     258.35     0          329.28     648        33.91     
1272.8     254.97     0          327.39     648        33.83     
1273       256.4      0          325.08     648        33.43     
1273.2     258.4      0          325.01     684        33.87     
1273.4     256.48     0          325.08     648        33.48     
1273.6     257.96     0          325.29     648        33.75     
1273.8     257.36     0          325.27     684        33.63     
1274       257.82     0          324.97     648        33.7      
1274.2     258.01     0          324.83     648        33.82     
1274.4     257.36     0          324.98     648        33.66     
1274.6     257.54     0          325.26     648        33.71     
1274.8     257.14     0          325.26     684        33.58     
1275       257.57     0          325.26     648        33.69     
1275.2     257.25     0          325.57     648        33.58     
1275.4     257.73     0          326        684        33.68     
1275.6     257.57     0          326.25     648        33.66     
1275.8     257.52     0          326.4      648        33.68     
1276       257.14     0          326.66     684        33.59     
1276.2     257.69     0          326.77     648        33.69     
1276.4     257.65     0          326.4      648        33.66     
1276.6     258.28     0          325.77     648        33.81     
1276.8     257.4      0          325.44     684        33.61     
1277       258.04     0          325.6      648        33.82     
1277.2     256.46     0          325.83     648        33.44     
1277.4     258.62     0          325.6      684        33.87     
1277.6     256.94     0          325.87     648        33.56     
1277.8     257.54     0          326.24     648        33.74     
1278       256.59     0          326.88     684        33.51     
1278.2     257.89     0          326.7      648        33.73     
1278.4     257.73     0          326.42     684        33.72     
1278.6     257.33     0          326.63     648        33.69     
1278.8     258.27     0          326.61     648        33.79     
1279       258.02     0          326.48     684        33.75     
1279.2     258.88     0          326.32     648        33.83     
1279.4     258.27     0          325.74     648        33.7      
1279.6     258.63     0          325.37     648        33.76     
1279.8     258.21     0          325.67     648        33.63     
1280       260.13     0          325.57     684        33.72     
1280.2     260.2      0          326.3      648        33.6      
1280.4     266.81     0          327.64     684        33.76     
1280.6     291.09     0          328.09     648        33.87     
1280.8     331.42     0          328.19     648        33.84     
1281       185.27     0          328.15     684        33.79     
1281.2     171.39     0          327.83     648        34.01     
1281.4     13.26      0          327.97     648        33.53     
1281.6     290.31     0          328.2      684        34.02     
1281.8     267.85     0          327.92     648        33.84     
1282       262.19     1          327.71     648        34.01     
1282.2     259.77     0          327.65     252        33.89     
1282.4     257.92     0          327.14     648        33.68     
1282.6     258.56     0          326.81     684        33.6      
1282.8     257.59     0          326.55     648        33.32     
1283       258.59     0          326.41     684        33.53     
1283.2     257.09     0          326.58     648        33.33     
1283.4     257.64     0          326.19     648        33.42     
1283.6     256.64     0          325.3      648        33.34     
1283.8     257.01     0          324.55     648        33.45     
1284       258.02     0          324.97     684        33.51     
1284.2     257.1      0          325.99     648        33.28     
1284.4     257.3      0          326.83     648        33.44     
1284.6     256.92     0          327.79     648        33.44     
1284.8     247.79     0          331.16     684        32.43     
1285       256.08     0          328.56     648        33.72     
1285.2     258.26     0          326.54     684        33.73     
1285.4     257.62     0          326.53     648        33.62     
1285.6     257.7      0          326.26     648        33.69     
1285.8     257.75     0          326.06     648        33.7      
1286       257.33     0          326.05     684        33.66     
1286.2     255.84     0          327.1      648        33.4      
1286.4     258.81     0          326.9      648        33.76     
1286.6     257.29     0          325.68     684        33.49     
1286.8     258.06     0          325.59     648        33.73     
1287       257.15     0          326.11     684        33.47     
1287.2     258.29     0          326.57     648        33.72     
1287.4     257.67     0          326.68     648        33.55     
1287.6     257.83     0          326.52     684        33.59     
1287.8     257.91     0          326.12     648        33.58     
1288       257.69     0          325.86     648        33.58     
1288.2     258.08     0          326.38     648        33.7      
1288.4     257.14     0          327.11     684        33.47     
1288.6     257.45     0          327.66     648        33.6      
1288.8     257.37     0          327.92     684        33.54     
1289       257.31     0          327.88     648        33.53     
1289.2     257.93     0          327.86     648        33.65     
1289.4     258.27     0          328.19     648        33.62     
1289.6     257.46     0          328.31     648        33.65     
1289.8     257.07     0          328.48     684        33.64     
1290       257.09     0          328.38     648        33.57     
1290.2     257.44     0          328.16     684        33.62     
1290.4     256.79     0          327.43     648        33.4      
1290.6     257.65     0          326.33     648        33.62     
1290.8     257.26     0          326.27     648        33.54     
1291       259.42     0          326.45     648        33.87     
1291.2     257.64     0          326.44     648        33.53     
1291.4     258.84     0          326.67     648        33.79     
1291.6     258.47     0          326.89     684        33.64     
1291.8     259.32     0          327.14     648        33.81     
1292       259.57     0          327.22     648        33.75     
1292.2     260.02     1          327.2      684        33.68     
1292.4     263.87     0          327.47     648        33.76     
1292.6     273.63     0          328        648        33.74     
1292.8     306.55     0          328.4      648        33.76     
1293       267.56     0          328.49     684        33.71     
1293.2     216.42     0          328.4      648        33.67     
1293.4     323.89     0          328.43     648        33.88     
1293.6     318.05     0          329.04     648        33.75     
1293.8     276.21     0          329.25     684        33.89     
1294       264.19     0          328.36     648        33.67     
1294.2     259.68     0          326.9      648        33.69     
1294.4     259.06     0          326.47     684        33.61     
1294.6     258.72     0          326.42     648        33.55     
1294.8     258.46     0          326.19     684        33.41     
1295       258.82     0          326.16     648        33.44     
1295.2     258.3      0          326.34     648        33.36     
