~Version
 VERS              .         2.0                           : CWLS LOG ASCII STANDARD - VERSION 2.0
 WRAP              .         NO                            : ONE LINE PER DEPTH STEP
 DLM               .         SPACE                         : DELIMITING CHARACTER(SPACE TAB OR COMMA)
~Well Information
#_______________________________________________________________________________
#
#PARAMETER_NAME    .UNIT     VALUE                         : DESCRIPTION
#_______________________________________________________________________________
STRT               .M        10.2                          : First reference value
STOP               .M        2757.4                        : Last reference value
STEP               .M        0.2                           : Step increment
NULL               .         -9999                         : Missing value
COMP               .                                       : Company
WELL               .         616                           : Well name
FLD                .                                       : Field
LOC                .                                       : Location
CNTY               .                                       : County
STAT               .                                       : State
CTRY               .                                       : Country
SRVC               .                                       : Service Company
DATE               .                                       : Date
API                .                                       : API number
PROJECT_UPGRADE_TIME .         2021-03-18T21_24_50           : 
group              .         Good                          : 
~Parameter Information Block
#_______________________________________________________________________________
#
#PARAMETER_NAME    .UNIT     VALUE                         : DESCRIPTION
#_______________________________________________________________________________
SET                .         D7016_D                       : 
OTHER              .         Kedr.exe версия 2.1.2.32      : 
OTHER_10           .         TM.GRD = 0.00404*TM$.UE + 0.07: 
OTHER_11           .         MN.ATM = (6.33279e-006*TM.GRD + 0.02401)*(MN$.UE + 2.72*TM.GRD + -2018): 
OTHER_12           .         GK.MKR/H = GK$.UE / 43.5489 + 0: 
OTHER_13           .         RES.SM = 0.00476*CRES.UE - 1.51709: 
OTHER_14           .         PL.GSM3 = 0 + 0 * (PL.UE / 1) +  0 * (PL.UE / 1)^2: 
OTHER_15           .         Постоянная времени ГГП = 6 сек: 
OTHER_16           .         Постоянная времени ГК = 6 сек : 
OTHER_2            .         KedrData.dll версия 3.2.2.14  : 
OTHER_3            .         LasInf.dll версия 3.2.0.13    : 
OTHER_4            .         Драйвер версия 1.2.0.5        : 
OTHER_5            .         Прибор_ КСА-M1                : 
OTHER_6            .         Номер прибора_ 155+р204       : 
OTHER_7            .         Режим_ КСА-М1 + ГГП + Резистивиметр: 
OTHER_8            .         Форма_ 223\2                  : 
OTHER_9            .         Тарировки_                    : 
PROJECT_UPGRADE_TIME .         2021-03-18T21_24_50           : 
TLFamily_CRES      .                                       : 
TLFamily_DEPT      .         Measured Depth                : 
TLFamily_GK        .         Gamma Ray                     : 
TLFamily_GK$       .                                       : 
TLFamily_LM        .         Casing Collar locator         : 
TLFamily_METKA     .                                       : 
TLFamily_MN        .                                       : 
TLFamily_MN$       .                                       : 
TLFamily_PL        .                                       : 
TLFamily_PL_2      .                                       : 
TLFamily_RCOR      .                                       : 
TLFamily_RES       .         Mud Resistivity               : 
TLFamily_SPID      .         Spontaneous Potential         : 
TLFamily_STD       .                                       : 
TLFamily_TIME      .         Time                          : 
TLFamily_TM        .         Temperature                   : 
TLFamily_TM$       .         Temperature                   : 
TLFamily_VGD       .         Gas Volume                    : 
group              .         prim                          : 
~Curve Information
#_______________________________________________________________________________
#
#LOGNAME           .UNIT     LOG_ID                        : DESCRIPTION
#_______________________________________________________________________________
DEPT               .M                                      : 1 Глубина, м -    0.0 см 
CRES               .UE                                     : 9 Проводимость, усл.ед. -  270.0 см 
GK                 .MKR/H                                  : 16 Гамма-активность, мкр./ч -  106.0 см 
GK$                .UE                                     : 13 Гамма-активность, усл.ед. -  106.0 см 
LM                 .                                       : 11 Локатор муфт,  -   16.0 см 
METKA              .                                       : 3 Метки,  -    0.0 см 
MN                 .ATM                                    : 15 Давление, атм. -  160.0 см 
MN$                .UE                                     : 7 Давление, усл.ед. -  160.0 см 
PL                 .UE                                     : 10 Плотность, усл.ед. -  270.0 см 
PL_2               .GSM3                                   : 18 Плотность, г./см3 -  270.0 см 
RCOR               .CM/KM                                  : 5 Коррекция по ролику, см/км -    0.0 см 
RES                .SM                                     : 17 Проводимость,  -  270.0 см 
SPID               .M/H                                    : 2 Скорость, м/час -    0.0 см 
STD                .                                       : 12 Приток,  -  170.0 см 
TIME               .S                                      : 4 Время, сек -    0.0 см 
TM                 .GRD                                    : 14 Температура, °C -  180.0 см 
TM$                .UE                                     : 6 Температура, усл.ед. -  180.0 см 
VGD                .                                       : 8 Влагомер,  -  170.0 см 
~Ascii
# ...
1469.8     1246       8.63       363        1512       0          130.944    7276       15         0          0          4.4139     1660       9245       4818.21    47.263     11681      6598      
1470       1246       8.57       363        1504       0          130.944    7276       15         0          0          4.415      1660       9245       4818.78    47.268     11683      6584      
1470.2     1247       8.52       363        5672       1          130.957    7277       13         0          0          4.4186     1660       9247       4819.29    47.27      11683      6583      
1470.4     1247       8.41       346        3669       0          130.984    7278       12         0          0          4.4186     1660       9247       4819.73    47.279     11686      6586      
1470.6     1246       8.27       338        2647       0          130.994    7278       13         0          0          4.4128     1660       9247       4820.15    47.281     11686      6578      
1470.8     1246       8.17       338        1818       0          130.995    7278       14         0          0          4.4125     1660       9249       4820.58    47.284     11687      6571      
1471       1248       8.09       338        1291       0          131.044    7280       13         0          0          4.4218     1660       9250       4821.04    47.289     11688      6573      
1471.2     1249       7.99       338        1074       0          131.047    7280       14         0          0          4.4279     1660       9252       4821.47    47.294     11689      6580      
1471.4     1250       7.99       348        1149       0          131.065    7281       14         0          0          4.4326     1660       9251       4821.9     47.299     11690      6585      
1471.6     1249       8.01       352        953        0          131.077    7281       14         0          0          4.4297     1660       9254       4822.33    47.311     11693      6575      
1471.8     1251       8.02       352        1315       0          131.117    7283       12         0          0          4.4377     1660       9254       4822.76    47.319     11695      6565      
1472       1250       8.04       352        1021       0          131.143    7284       13         0          0          4.4334     1660       9254       4823.19    47.322     11696      6566      
1472.2     1250       8.04       352        857        0          131.126    7283       13         0          0          4.4308     1660       9255       4823.63    47.33      11698      6562      
1472.4     1250       8.05       352        951        0          131.175    7285       14         0          0          4.4329     1653       9256       4824.08    47.331     11698      6560      
1472.6     1249       8.1        362        927        0          131.195    7286       13         0          0          4.4294     1613       9253       4824.53    47.343     11701      6561      
1472.8     1250       8.24       383        1015       0          131.195    7286       14         0          0          4.4329     1660       9254       4824.96    47.346     11702      6571      
1473       1250       8.35       383        872        0          131.195    7286       15         0          0          4.4307     1633       9254       4825.4     47.348     11702      6569      
1473.2     1249       8.45       383        848        0          131.211    7287       14         0          0          4.4282     1635       9256       4825.84    47.352     11704      6581      
1473.4     1251       8.52       383        747        0          131.256    7288       14         0          0          4.4372     1660       9258       4826.29    47.357     11705      6577      
1473.6     1271       8.58       383        681        0          131.27     7289       13         0          0          4.5314     1660       9258       4826.72    47.364     11706      6575      
1473.8     1286       8.64       388        2077       0          131.27     7289       14         0          0          4.603      1660       9259       4827.16    47.366     11707      6576      
1474       1289       8.7        388        1061       0          131.295    7290       13         0          0          4.6186     1657       9261       4827.6     47.37      11708      6581      
1474.2     1290       8.74       388        882        0          131.307    7290       13         0          0          4.6233     1611       9262       4828.03    47.379     11710      6587      
1474.4     1290       8.78       388        2275       0          131.336    7292       13         0          0          4.6241     1660       9262       4828.49    47.382     11711      6587      
1474.6     1292       8.81       388        1963       0          131.331    7291       14         0          0          4.6307     1660       9265       4828.91    47.382     11711      6594      
1474.8     1293       8.75       370        1354       0          131.374    7293       15         0          0          4.6357     1660       9265       4829.34    47.384     11711      6594      
1475       1292       8.64       358        1001       0          131.377    7293       15         0          0          4.6328     1660       9268       4829.78    47.391     11713      6584      
1475.2     1292       8.55       358        868        0          131.37     7293       14         0          0          4.6328     1660       9268       4830.21    47.395     11714      6582      
1475.4     1293       8.48       358        1418       0          131.417    7295       13         0          0          4.6365     1660       9270       4830.64    47.398     11715      6587      
1475.6     1293       8.43       358        2342       0          131.444    7296       13         0          0          4.6376     1604       9271       4831.08    47.406     11717      6600      
1475.8     1294       8.39       358        1718       0          131.445    7296       15         0          0          4.6423     1600       9270       4831.55    47.411     11718      6600      
1476       1293       8.36       360        1259       0          131.453    7296       15         0          0          4.6368     1611       9273       4831.97    47.412     11718      6591      
1476.2     1292       8.37       366        1529       0          131.47     7297       14         0          0          4.6328     1660       9273       4832.42    47.42      11720      6596      
1476.4     1292       8.38       366        1131       0          131.494    7298       13         0          0          4.6328     1660       9274       4832.86    47.424     11721      6597      
1476.6     1292       8.38       366        946        0          131.534    7300       13         0          0          4.6328     1660       9276       4833.29    47.425     11722      6599      
1476.8     1292       8.39       366        2509       0          131.473    7297       13         0          0          4.6328     1660       9277       4833.72    47.428     11722      6599      
1477       1294       8.39       366        1663       0          131.524    7299       13         0          0          4.6401     1660       9277       4834.14    47.431     11723      6595      
1477.2     1293       8.56       404        1188       0          131.568    7301       13         0          0          4.6383     1714       9279       4834.57    47.434     11724      6601      
1477.4     1291       8.7        404        990        0          131.594    7302       13         0          0          4.6286     1668       9279       4835.01    47.446     11727      6601      
1477.6     1292       8.82       404        775        0          131.594    7302       14         0          0          4.6331     1660       9280       4835.43    47.444     11726      6600      
1477.8     1293       8.91       404        549        0          131.603    7302       14         0          0          4.6376     1660       9281       4835.86    47.452     11728      6599      
