~Version
 VERS              .         2.0                           : CWLS LOG ASCII STANDARD - VERSION 2.0
 WRAP              .         NO                            : ONE LINE PER DEPTH STEP
 DLM               .         SPACE                         : DELIMITING CHARACTER(SPACE TAB OR COMMA)
~Well Information
#_______________________________________________________________________________
#
#PARAMETER_NAME    .UNIT     VALUE                         : DESCRIPTION
#_______________________________________________________________________________
STRT               .M        2697.4                        : First reference value
STOP               .M        2733.2                        : Last reference value
STEP               .M        0.2000003                     : Step increment
NULL               .         -9999                         : Missing value
COMP               .                                       : Company
WELL               .         616                           : Well name
FLD                .                                       : Field
LOC                .                                       : Location
CNTY               .                                       : County
STAT               .                                       : State
CTRY               .                                       : Country
SRVC               .                                       : Service Company
DATE               .                                       : Date
API                .                                       : API number
PROJECT_UPGRADE_TIME .         2021-03-18T21_24_50           : 
group              .         Good                          : 
~Parameter Information Block
#_______________________________________________________________________________
#
#PARAMETER_NAME    .UNIT     VALUE                         : DESCRIPTION
#_______________________________________________________________________________
SET                .         D1168_D                       : 
OTHER              .         Программное обеспечение станции MONITOR-386EX 25/12/99 15_08_10   BGF V52 22/08/01 16_56_30   3.2_BGF_N_3070031: 
OTHER_10           .         Тарировки_                    : 
OTHER_11           .         RGD.M3/SUT = 0.603482 * RGD.UE + 9.9644: 
OTHER_2            .         Kedr.exe версия 3.4.2.51      : 
OTHER_3            .         KedrData.dll версия 3.4.2.24  : 
OTHER_4            .         Драйвер версия 2.1.0.2        : 
OTHER_5            .         Мнемоники версия 3.3 S        : 
OTHER_6            .         Прибор_ Гранат                : 
OTHER_7            .         Номер прибора_ 257            : 
OTHER_8            .         Режим_ КСА_Гранат             : 
OTHER_9            .         Форма_ РАСХОД                 : 
PROJECT_UPGRADE_TIME .         2021-03-18T21_24_49           : 
TLFamily_DEPT      .         Measured Depth                : 
TLFamily_METKA     .                                       : 
TLFamily_RCOR      .                                       : 
TLFamily_RGD       .                                       : 
TLFamily_RGD_2     .                                       : 
TLFamily_SPID      .         Spontaneous Potential         : 
TLFamily_TENS      .         Cable Tension                 : 
TLFamily_TIME      .         Time                          : 
group              .         prim                          : 
~Curve Information
#_______________________________________________________________________________
#
#LOGNAME           .UNIT     LOG_ID                        : DESCRIPTION
#_______________________________________________________________________________
DEPT               .M                                      : 1 Глубина, м -    0.0 см 
METKA              .                                       : 3 Метки,  -    0.0 см 
RCOR               .CM/KM                                  : 5 Коррекция по ролику, см/км -    0.0 см 
RGD                .UE                                     : 7 Расход, имп/мин -  232.0 см 
RGD_2              .M3/SUT                                 : 8 Расход, м3/сут -  232.0 см 
SPID               .M/H                                    : 2 Скорость, м/час -    0.0 см 
TENS               .T                                      : 6 Натяжение кабеля, т -    0.0 см 
TIME               .S                                      : 4 Время, сек -    0.0 см 
~Ascii
2697.3999023 -9999      -9999      -9999      -9999      -9999      -9999      -9999     
2697.6     0          -1400      -9999      -9999      -159       0          25147     
2697.8     0          -1400      -9999      -9999      -148       0          25142.6   
2698       0          -1400      -9999      -9999      -159       0          25138.12  
2698.2     0          -1400      -9999      -9999      -169       0          25133.52  
2698.4     0          -1400      -9999      -9999      -174       0          25129.13  
2698.6     0          -1400      -9999      -9999      -160       0          25124.73  
2698.8     0          -1400      -9999      -9999      -158       0          25120.34  
2699       0          -1400      -9999      -9999      -166       0          25115.64  
2699.2     0          -1400      -9999      -9999      -149       0          25111.25  
2699.4     0          -1400      -9999      -9999      -161       0          25106.85  
2699.6     0          -1400      -9999      -9999      -173       0          25102.27  
2699.8     0          -1400      234        151.11     -157       0          25097.87  
2700       2          -1400      232        150.26     -163       0          25093.37  
2700.2     0          -1400      216        140.48     -146       0          25088.59  
2700.4     0          -1400      204        132.83     -165       0          25083.89  
2700.6     0          -1400      203        132.59     -154       0          25079.49  
2700.8     0          -1400      197        128.85     -157       0          25075.1   
2701       0          -1400      216        140.27     -166       0          25070.51  
2701.2     0          -1400      213        138.34     -170       0          25066.01  
2701.4     0          -1400      225        145.81     -155       0          25061.62  
2701.6     0          -1400      236        152.42     -154       0          25057.22  
2701.8     0          -1400      216        140.49     -176       0          25052.63  
2702       0          -1400      208        135.46     -149       0          25048.14  
2702.2     0          -1400      217        140.79     -164       0          25043.74  
2702.4     0          -1400      211        137.44     -169       0          25039.14  
2702.6     0          -1400      215        139.45     -158       0          25034.76  
2702.8     0          -1400      216        140.47     -153       0          25030.36  
2703       0          -1400      240        154.7      -154       0          25025.87  
2703.2     0          -1400      219        141.97     -180       0          25021.27  
2703.4     0          -1400      201        131.11     -172       0          25016.88  
2703.6     0          -1400      220        142.75     -167       0          25012.39  
2703.8     0          -1400      205        133.47     -149       0          25007.79  
2704       0          -1400      213        138.24     -158       0          25003.39  
2704.2     0          -1400      221        143.35     -161       0          24999.01  
2704.4     0          -1400      210        136.99     -153       0          24994.61  
2704.6     0          -1400      223        144.53     -166       0          24989.91  
2704.8     0          -1400      222        144.13     -165       0          24985.52  
2705       0          -1400      211        137.4      -166       0          24981.03  
2705.2     0          -1400      207        134.59     -152       0          24976.44  
2705.4     0          -1400      203        132.29     -167       0          24972.04  
2705.6     0          -1400      194        127.17     -167       0          24967.65  
2705.8     0          -1400      219        142.02     -153       0          24963.26  
2706       0          -1400      216        140.17     -165       0          24958.56  
2706.2     0          -1400      220        142.6      -165       0          24954.06  
2706.4     0          -1400      220        142.86     -158       0          24949.78  
2706.6     0          -1400      212        137.63     -152       0          24945.18  
2706.8     0          -1400      208        135.25     -162       0          24940.78  
2707       0          -1400      207        135        -170       0          24936.29  
2707.2     0          -1400      202        131.86     -154       0          24931.9   
2707.4     0          -1400      213        138.33     -169       0          24927.21  
2707.6     0          -1400      213        138.7      -154       0          24922.81  
2707.8     0          -1400      211        137.42     -159       0          24918.31  
2708       0          -1400      236        152.61     -152       0          24913.93  
2708.2     0          -1400      221        143.23     -173       0          24909.33  
2708.4     0          -1400      205        133.53     -173       0          24905.03  
2708.6     1          -1400      208        135.59     -153       0          24900.54  
2708.8     0          -1400      208        135.65     -150       0          24895.85  
2709       0          -1400      212        137.84     -158       0          24891.45  
2709.2     0          -1400      208        135.46     -157       0          24887.06  
2709.4     0          -1400      208        135.51     -161       0          24882.66  
2709.6     0          -1400      225        145.98     -164       0          24878.07  
2709.8     0          -1400      225        145.93     -174       0          24873.68  
2710       2          -1400      215        139.57     -150       0          24869.28  
2710.2     0          -1400      211        137.19     -160       0          24864.09  
2710.4     0          -1400      217        140.9      -166       0          24859.7   
2710.6     0          -1400      216        140.16     -173       0          24855.3   
2710.8     0          -1400      216        140.41     -155       0          24850.71  
2711       0          -1400      216        140.38     -163       0          24846.32  
2711.2     0          -1400      233        150.79     -170       0          24841.92  
2711.4     0          -1400      250        160.99     -155       0          24837.53  
2711.6     0          -1400      233        150.41     -164       0          24832.83  
2711.8     0          -1400      226        146.65     -176       0          24828.44  
2712       0          -1400      206        134.26     -158       0          24824.05  
2712.2     1          -1400      192        125.91     -169       0          24819.55  
2712.4     0          -1400      190        124.73     -146       0          24815.05  
2712.6     0          -1400      199        129.88     -158       0          24810.67  
2712.8     0          -1400      209        136.29     -162       0          24806.17  
2713       0          -1400      193        126.31     -175       0          24801.47  
2713.2     0          -1400      187        122.52     -155       0          24797.08  
2713.4     1          -1400      184        120.79     -162       0          24792.69  
2713.6     0          -1400      176        116.19     -142       0          24788.29  
2713.8     0          -1400      169        112.11     -150       0          24783.7   
2714       0          -1400      178        117.53     -160       0          24779.2   
2714.2     0          -1400      173        114.52     -160       0          24774.81  
2714.4     0          -1400      180        118.49     -178       0          24770.22  
2714.6     0          -1400      176        116.15     -149       0          24765.72  
2714.8     0          -1400      155        103.49     -166       0          24761.22  
2715       0          -1400      155        103.35     -148       0          24756.84  
2715.2     0          -1400      152        101.71     -145       0          24752.24  
2715.4     0          -1400      154        102.97     -158       0          24747.85  
