~Version
 VERS              .         2.0                           : CWLS LOG ASCII STANDARD - VERSION 2.0
 WRAP              .         NO                            : ONE LINE PER DEPTH STEP
 DLM               .         SPACE                         : DELIMITING CHARACTER(SPACE TAB OR COMMA)
~Well Information
#_______________________________________________________________________________
#
#PARAMETER_NAME    .UNIT     VALUE                         : DESCRIPTION
#_______________________________________________________________________________
STRT               .M        3.8                           : First reference value
STOP               .M        216                           : Last reference value
STEP               .M        0.2                           : Step increment
NULL               .         -9999                         : Missing value
COMP               .                                       : Company
WELL               .         616                           : Well name
FLD                .                                       : Field
LOC                .                                       : Location
CNTY               .                                       : County
STAT               .                                       : State
CTRY               .                                       : Country
SRVC               .                                       : Service Company
DATE               .                                       : Date
API                .                                       : API number
PROJECT_UPGRADE_TIME .         2021-03-18T21_24_50           : 
group              .         Good                          : 
~Parameter Information Block
#_______________________________________________________________________________
#
#PARAMETER_NAME    .UNIT     VALUE                         : DESCRIPTION
#_______________________________________________________________________________
SET                .         D1350_D                       : 
OTHER              .         Программное обеспечение станции MONITOR-386EX 25/12/99 15_08_10   BGF V52 22/08/01 16_56_30   3.1_SNGF__BGF_								111238: 
OTHER_10           .         Тарировки_                    : 
OTHER_11           .         <_techsia_sc_> Постоянная времени фильтра  0.5 сек, kf=0.181269: 
OTHER_12           .         TM.GRD = 0.00428968*TM$.UE + -0.3284: 
OTHER_13           .         GK.MKR/H = GK$.UE / 40.16     : 
OTHER_14           .         NKT. = NKT$.UE / 1            : 
OTHER_2            .         Kedr.exe версия 3.3.2.43      : 
OTHER_3            .         KedrData.dll версия 3.3.2.22  : 
OTHER_4            .         Драйвер версия 2.1.1.3        : 
OTHER_5            .         Мнемоники версия 3.3 S        : 
OTHER_6            .         Прибор_ РК4-38                : 
OTHER_7            .         Номер прибора_ 35с            : 
OTHER_8            .         Режим_ РК4-38                 : 
OTHER_9            .         Форма_ 3                      : 
PROJECT_UPGRADE_TIME .         2021-03-18T21_24_49           : 
TLFamily_DEPT      .         Measured Depth                : 
TLFamily_GK        .         Gamma Ray                     : 
TLFamily_GK$       .                                       : 
TLFamily_LM        .         Casing Collar locator         : 
TLFamily_METKA     .                                       : 
TLFamily_NKT       .         Neutron Far                   : 
TLFamily_NKT$      .         Neutron Far                   : 
TLFamily_RCOR      .                                       : 
TLFamily_SPID      .         Spontaneous Potential         : 
TLFamily_TENS      .         Cable Tension                 : 
TLFamily_TIME      .         Time                          : 
TLFamily_TM        .         Temperature                   : 
TLFamily_TM$       .         Temperature                   : 
group              .         prim                          : 
~Curve Information
#_______________________________________________________________________________
#
#LOGNAME           .UNIT     LOG_ID                        : DESCRIPTION
#_______________________________________________________________________________
DEPT               .M                                      : 1 Глубина, м -    0.0 см 
GK                 .MKR/H                                  : 12 Гамма-активность, мкр./ч -   23.0 см 
GK$                .UE                                     : 10 Гамма-активность, усл.ед. -   23.0 см 
LM                 .                                       : 8 Локатор муфт,  -  180.0 см 
METKA              .                                       : 3 Метки,  -    0.0 см 
NKT                .                                       : 13 НКТ, прив. -  160.0 см 
NKT$               .UE                                     : 9 НКТ, усл.ед. -  160.0 см 
RCOR               .CM/KM                                  : 5 Коррекция по ролику, см/км -    0.0 см 
SPID               .M/H                                    : 2 Скорость, м/час -    0.0 см 
TENS               .T                                      : 6 Натяжение кабеля, т -    0.0 см 
TIME               .S                                      : 4 Время, сек -    0.0 см 
TM                 .GRD                                    : 11 Температура, °C -  193.0 см 
TM$                .UE                                     : 7 Температура, усл.ед. -  193.0 см 
~Ascii
3.8        -9999      -9999      -9999      -9999      -9999      -9999      -9999      -9999      -9999      -9999      -9999      -9999     
4          -9999      -9999      -9999      0          -9999      -9999      7013       -374       0          4086.97    -9999      -9999     
4.2        0.89       33         -9999      0          -9999      -9999      7013       -377       0          4085.27    -9999      -9999     
4.4        0.97       37         -9999      0          -9999      -9999      7013       -377       0          4083.32    -9999      -9999     
4.6        1.08       42         -9999      0          -9999      -9999      7013       -342       0          4081.5     -9999      -9999     
4.8        1.17       42         -9999      0          -9999      -9999      7013       -363       0          4079.55    -9999      -9999     
5          1.32       47         -9999      0          -9999      -9999      7013       -360       0          4077.42    -9999      -9999     
5.2        1.49       59         -9999      1          -9999      -9999      7013       -359       0          4075.46    -9999      -9999     
5.4        1.49       65         -9999      0          -9999      -9999      7013       -373       0          4073.51    -9999      -9999     
5.6        1.16       46         -9999      0          0          0          7013       -385       0          4071.59    -9999      -9999     
5.8        1.2        46         80         0          0          0          7013       -353       0          4069.73    8.47       2051      
6          1.34       45         45         0          0          0          7013       -354       0          4067.86    8.47       2051      
6.2        1.66       69         37         0          0          0          7013       -353       0          4065.81    8.468      2051      
6.4        1.52       62         40         0          0          0          7013       -348       0          4063.74    8.47       2051      
6.6        1.45       62         47         0          0          0          7013       -361       0          4061.72    8.47       2051      
6.8        1.49       55         30         0          0          0          7013       -360       0          4059.72    8.474      2052      
7          1.56       64         30         0          0          0          7013       -358       0          4057.7     8.478      2053      
7.2        1.53       61         37         0          0          0          7013       -360       0          4055.84    8.487      2055      
7.4        1.54       62         30         0          0          0          7013       -366       0          4053.8     8.482      2054      
7.6        1.54       62         37         0          0          0          7013       -376       0          4051.87    8.489      2056      
7.8        1.51       62         46         0          0          0          7013       -364       0          4049.89    8.483      2054      
8          1.43       62         56         0          0          0          7013       -363       0          4048.04    8.487      2055      
8.2        1.23       51         49         0          0          0          7013       -357       0          4046.03    8.488      2055      
8.4        1.11       42         42         0          0          0          7013       -367       0          4043.91    8.491      2056      
8.6        1.29       42         31         0          0          0          7013       -361       0          4042.01    8.491      2056      
8.8        1.48       55         43         0          0          0          7013       -358       0          4040.09    8.495      2057      
9          1.56       67         67         0          0          0          7013       -352       0          4038.08    8.495      2057      
9.2        1.36       54         37         0          0          0          7013       -341       0          4036.19    8.495      2057      
9.4        1.42       54         37         0          0          0          7013       -354       0          4033.95    8.495      2057      
9.6        1.52       56         33         0          0          0          7013       -367       0          4031.84    8.5        2058      
9.8        1.48       67         27         0          0          0          7013       -365       0          4029.84    8.5        2058      
10         1.29       55         27         2          0          0          7013       -367       0          4027.87    8.5        2058      
10.2       1.21       46         26         0          0          0          7013       -353       0          4026.18    8.5        2058      
10.4       1.38       50         26         0          0          0          7013       -344       0          4025.33    8.5        2058      
10.6       1.45       52         27         0          0          0          7013       -349       0          4023.18    8.504      2059      
10.8       1.78       72         32         0          0          0          7013       -337       0          4021.07    8.504      2059      
11         1.76       71         30         0          0          0          7013       -349       0          4019.01    8.504      2059      
11.2       1.72       71         26         0          0          0          7013       -353       0          4016.94    8.504      2059      
11.4       1.74       67         30         0          0          0          7013       -353       0          4014.83    8.504      2059      
11.6       1.78       74         31         0          0          0          7013       -358       0          4012.9     8.504      2059      
11.8       1.68       67         29         0          0          0          7013       -365       0          4010.91    8.504      2059      
12         1.72       68         30         0          0          0          7013       -372       0          4008.79    8.504      2059      
12.2       1.79       68         26         0          0          0          7013       -357       0          4006.74    8.504      2059      
12.4       1.88       73         27         0          0          0          7013       -364       0          4004.76    8.504      2059      
12.6       1.91       79         28         0          0          0          7013       -365       0          4002.7     8.517      2062      
12.8       1.79       74         28         0          0          0          7013       -351       0          4000.69    8.505      2059      
13         1.67       68         30         0          0          0          7013       -353       0          3998.72    8.507      2060      
13.2       1.62       68         41         0          0          0          7013       -323       0          3996.66    8.508      2060      
13.4       1.53       65         149        0          0          0          7013       -301       0          3994.65    8.513      2061      
13.6       1.46       59         1382       1          0          0          7013       -233       0          3992.83    8.513      2061      
13.8       1.44       59         12657      0          0          0          7013       -321       0          3988.62    8.558      2072      
14         1.37       56         8202       0          0          0          7013       -328       0          3986.35    8.528      2065      
14.2       1.41       48         37         0          0          0          7013       -333       0          3984.15    8.517      2062      
14.4       1.69       57         41         0          0          0          7013       -333       0          3981.89    8.52       2063      
14.6       1.82       73         41         0          0          0          7013       -330       0          3979.7     8.526      2064      
14.8       1.81       73         42         0          0          0          7013       -323       0          3977.54    8.53       2065      
