~Version
 VERS              .         2.0                           : CWLS LOG ASCII STANDARD - VERSION 2.0
 WRAP              .         NO                            : ONE LINE PER DEPTH STEP
 DLM               .         SPACE                         : DELIMITING CHARACTER(SPACE TAB OR COMMA)
~Well Information
#_______________________________________________________________________________
#
#PARAMETER_NAME    .UNIT     VALUE                         : DESCRIPTION
#_______________________________________________________________________________
STRT               .M        1549.2                        : First reference value
STOP               .M        2296.2                        : Last reference value
STEP               .M        0.2                           : Step increment
NULL               .         -9999                         : Missing value
COMP               .                                       : Company
WELL               .         616                           : Well name
FLD                .                                       : Field
LOC                .                                       : Location
CNTY               .                                       : County
STAT               .                                       : State
CTRY               .                                       : Country
SRVC               .                                       : Service Company
DATE               .                                       : Date
API                .                                       : API number
PROJECT_UPGRADE_TIME .         2021-03-18T21_24_50           : 
group              .         Good                          : 
~Parameter Information Block
#_______________________________________________________________________________
#
#PARAMETER_NAME    .UNIT     VALUE                         : DESCRIPTION
#_______________________________________________________________________________
SET                .         616_10                        : 
CONF               .         00                            : 
END                .         0                             : 
ERR                .         2                             : 
GS00               .M        2294.21                       : 
GS01               .M        1546.72                       : 
MM00               .M        2240.00                       : 
NOKG               .         0                             : 
NPR                .         980119                        : 
PART               .         Палагутин                     : 
PROJECT_UPGRADE_TIME .         2021-03-18T21_24_49           : 
PRZK               .         Якименко                      : 
TLFamily_AZIMUTH   .         True Dip Azimuth              : 
TLFamily_DEPTH     .         Measured Depth                : 
TLFamily_METKA     .                                       : 
TLFamily_ROLL      .                                       : 
TLFamily_SPEED     .         Spontaneous Potential         : 
TLFamily_ZENIT     .                                       : 
VPRG               .         310                           : 
WAY                .         UP                            : 
group              .         prim                          : 
~Curve Information
#_______________________________________________________________________________
#
#LOGNAME           .UNIT     LOG_ID                        : DESCRIPTION
#_______________________________________________________________________________
DEPTH              .M                                      :  
AZIMUTH            .DEG                                    :  
METKA              .                                       :  
ROLL               .DEG                                    :  
SPEED              .M/H                                    :  
ZENIT              .DEG                                    :  
~Ascii
# ...
2281.2     229.23     0          356.85     108        3.68      
2281.4     267.94     0          246.36     108        3.82      
2281.6     270.77     0          195.77     144        3.78      
2281.8     270.53     0          162.92     144        3.73      
2282       280.61     0          82.51      108        3.69      
2282.2     282.66     0          332.67     144        3.53      
2282.4     275.36     1          253.69     144        3.73      
2282.6     271.89     0          202.55     144        3.68      
2282.8     270.1      0          170.25     144        3.6       
2283       271.12     0          151.98     108        3.45      
2283.2     271.12     0          142.44     72         3.44      
2283.4     270.82     0          142.08     108        3.42      
2283.6     270.77     0          142.1      108        3.4       
2283.8     267.87     0.1        145.13     36         3.43      
2284       280.92     2          344.04     108        3.16      
2284.2     273.41     0          203.18     108        3.46      
2284.4     274.64     0          117        144        3.34      
2284.6     291.54     0          306.19     144        3.22      
2284.8     272.28     0          168.19     144        3.34      
2285       278.49     0          74.48      108        3.46      
2285.2     284.06     0          291        36         3.54      
2285.4     277.72     0          146.85     108        3.38      
2285.6     282.23     0          13.07      108        3.36      
2285.8     270.24     0          208.21     144        3.56      
2286       279.62     0          95.01      144        3.3       
2286.2     275.35     0          235.48     108        3.53      
2286.4     278.54     0          102.21     108        3.26      
2286.6     285.37     0          269.43     144        3.48      
2286.8     278.82     0          105.75     144        3.19      
2287       284.21     0          304.08     108        3.17      
2287.2     275.96     0          104.95     72         3.2       
2287.4     280.27     0          259.79     108        3.38      
2287.6     282.19     0          70.99      144        3.16      
2287.8     273.98     0          201.44     144        3.27      
2288       278.15     0          76.26      108        3.14      
2288.2     277.36     0          171.96     144        3.11      
2288.4     285.03     0          282.26     108        3.19      
2288.6     282.83     0          91.85      144        3.06      
2288.8     274.44     0          191.14     144        3.16      
2289       288        0          291.65     144        3.15      
2289.2     286.13     0          98.05      108        3.09      
2289.4     270.63     0          182.07     108        3.09      
2289.6     277.06     0          245.67     144        3.27      
2289.8     296.46     0          44.45      144        3.04      
2290       280.03     0          136.94     108        2.83      
2290.2     272.7      0          188.72     144        2.93      
2290.4     283.91     0          249.31     108        3         
2290.6     299.48     0          48.26      108        2.81      
2290.8     286.38     0          96.75      144        2.78      
2291       284.49     0          113.24     108        2.72      
2291.2     301.54     0          59.45      144        2.79      
2291.4     265.69     0          81.92      108        2.87      
2291.6     313.23     0          19.32      108        2.89      
2291.8     218.19     0          69.81      108        2.85      
2292       300.25     0          338.8      144        2.79      
2292.2     282.53     0          264.73     108        2.61      
2292.4     49.03      1          99.98      468        3.16      
2292.6     3.98       0          22.27      396        2.7       
2292.8     67.78      0          113.96     396        2.6       
2293       92.1       0          13.96      432        1.87      
2293.2     50.61      0          309.3      324        2.46      
2293.4     20.95      0          290.09     396        5.05      
2293.6     134.38     0          196.33     432        2.56      
2293.8     107.04     0          137.95     396        2.78      
2294       106.75     0          137.9      360        2.8       
2294.2     106.77     0          137.87     396        2.78      
2294.4     106.77     0          137.86     396        2.79      
2294.6     106.78     0          137.84     396        2.78      
2294.8     106.78     0          137.83     432        2.78      
2295       106.72     0          137.82     432        2.79      
2295.2     106.79     0          137.77     360        2.77      
2295.4     106.89     0          137.76     396        2.79      
2295.6     106.86     0          137.73     396        2.8       
2295.8     106.79     0          137.75     396        2.77      
2296       106.86     0          137.7      396        2.77      
2296.2     106.87     0          137.65     360        2.77      
