~Version
 VERS              .         2.0                           : CWLS LOG ASCII STANDARD - VERSION 2.0
 WRAP              .         NO                            : ONE LINE PER DEPTH STEP
 DLM               .         SPACE                         : DELIMITING CHARACTER(SPACE TAB OR COMMA)
~Well Information
#_______________________________________________________________________________
#
#PARAMETER_NAME    .UNIT     VALUE                         : DESCRIPTION
#_______________________________________________________________________________
STRT               .M        2650.8                        : First reference value
STOP               .M        2752.199899                   : Last reference value
STEP               .M        0.1999998                     : Step increment
NULL               .         -9999                         : Missing value
COMP               .                                       : Company
WELL               .         616                           : Well name
FLD                .                                       : Field
LOC                .                                       : Location
CNTY               .                                       : County
STAT               .                                       : State
CTRY               .                                       : Country
SRVC               .                                       : Service Company
DATE               .                                       : Date
API                .                                       : API number
PROJECT_UPGRADE_TIME .         2021-03-18T21_24_50           : 
group              .         Good                          : 
~Parameter Information Block
#_______________________________________________________________________________
#
#PARAMETER_NAME    .UNIT     VALUE                         : DESCRIPTION
#_______________________________________________________________________________
SET                .         D4415_D                       : 
OTHER              .         Запись производится в присутствии: 
OTHER_10           .         Максимальная температура      : 
OTHER_11           .         Тип промывочной жидкости      : 
OTHER_12           .         Сопротивление ПЖ (Ом*м) при 20°C: 
OTHER_13           .         Плотность ПЖ(г/см3)           : 
OTHER_14           .         Вязкость ПЖ(с)                : 
OTHER_15           .         Водоотдача ПЖ(см3/30мин)      : 
OTHER_16           .         Уровень ПЖ                    : 
OTHER_17           .         Нефть ПЖ (%)                  : 
OTHER_18           .         Барит ПЖ (%)                  : 
OTHER_19           .         Гематит ПЖ (%)                : 
OTHER_2            .         Заказчик ННСН  ЦДНГ-1         : 
OTHER_20           .         КМЦ ПЖ (%)                    : 
OTHER_21           .         Разгазирование ПЖ (да,нет)    : 
OTHER_22           .         Подъемник                     : 
OTHER_23           .         Лаборатория                   : 
OTHER_24           .         Тип кабеля                    : 
OTHER_25           .         Длина кабеля (м)              : 
OTHER_26           .         Цена последней метки          : 
OTHER_27           .         Цена контрольной метки        : 
OTHER_28           .         Диаметр долота (мм)           : 
OTHER_29           .         Глубина бурения (м)           : 
OTHER_3            .         Площадь                       : 
OTHER_30           .         Искусственный забой (м)       : 
OTHER_31           .         Диаметр колонны (мм)          : 
OTHER_32           .         Толщина колонны (мм)          : 
OTHER_33           .         Башмак колонны (м)            : 
OTHER_34           .         Диаметр НКТ (мм)              : 
OTHER_35           .         Толщина НКТ (мм)              : 
OTHER_36           .         Воронка НКТ (м)               : 
OTHER_37           .         Дата цементожа                : 
OTHER_38           .         Тип, количество(т) и плотность цемента: 
OTHER_39           .         Интервалы перфорации (м)      : 
OTHER_4            .         Категория                     : 
OTHER_40           .         Направление, диаметр (мм)     : 
OTHER_41           .         Направление, глубина (м)      : 
OTHER_42           .         Кондуктор, диаметр (мм)       : 
OTHER_43           .         Кондуктор, глубина (м)        : 
OTHER_44           .         Техническая колонна, диаметр (мм): 
OTHER_45           .         Техническая колонна, глубина (м): 
OTHER_46           .         Эксплуатационная колонна, диаметр (мм): 
OTHER_47           .         Эксплуатационная колонна, глубина (м): 
OTHER_48           .         Программа Кедр-02 версия 3.4  : 
OTHER_49           .         Операционная система Windows NT 5.1 build 2600 Service Pack 2: 
OTHER_5            .         Назначение исследований       : 
OTHER_50           .         Программное обеспечение станции MONITOR-386EX 25/12/99 15_08_10   BGF V54 20/09/05 15_32_17   3.3__BGF_9030071: 
OTHER_51           .         Kedr.exe версия 3.4.2.74      : 
OTHER_52           .         KedrData.dll версия 3.4.2.29  : 
OTHER_53           .         Мнемоники версия 3.18 S       : 
OTHER_54           .         Драйвер версия 2.1.1.4        : 
OTHER_55           .         LasInf.dll 4.3.0.35           : 
OTHER_56           .         Прибор_ КСА-Т4                : 
OTHER_57           .         Номер прибора_ 160            : 
OTHER_58           .         Режим_ КСА-Т4                 : 
OTHER_59           .         Форма_ С.А.Б.                 : 
OTHER_6            .         Альтитуда стола ротора        : 
OTHER_60           .         Тарировки_                    : 
OTHER_61           .         <_techsia_sc_> Дата тарировки температуры 25.05.2010: 
OTHER_62           .         Ручной ввод коэффициентов     : 
OTHER_63           .         TM.DEGC = 0.00402*RTM.E.ACP + -0.994: 
OTHER_64           .         <_techsia_sc_> Дата тарировки давления 25.05.2010: 
OTHER_65           .         Ручной ввод коэффициентов     : 
OTHER_66           .         MN.ATM = (2.27521e-006*TM.DEGC + 0.02078)*(RMN.E.ACP + 6.2*TM.DEGC + -1688): 
OTHER_67           .         <_techsia_sc_> Дата тарировки ГК 25.05.2010: 
OTHER_68           .         Ручной ввод коэффициентов     : 
OTHER_69           .         GR.UR/H = RGR.IMP/MIN / 45.5144: 
OTHER_7            .         Вид исследований 3  6         : 
OTHER_70           .         GK.FLT = 0.1*GR.UR/H[-1] + (1-0.1)*GR.UR/H[0]: 
OTHER_8            .         Начало бурения интервала каротажа: 
OTHER_9            .         Окончание бурения интервала каротажа: 
PROJECT_UPGRADE_TIME .         2021-03-18T21_24_50           : 
TLFamily_CCLC      .                                       : 
TLFamily_DEPT      .         Measured Depth                : 
TLFamily_GK        .         Gamma Ray                     : 
TLFamily_GR        .         Gamma Ray                     : 
TLFamily_METKA     .                                       : 
TLFamily_MN        .                                       : 
TLFamily_RCOR      .                                       : 
TLFamily_RGR       .                                       : 
TLFamily_RMN       .                                       : 
TLFamily_RTEN      .                                       : 
TLFamily_RTM       .                                       : 
TLFamily_SPEE      .         Cable Speed                   : 
TLFamily_TIME      .         Time                          : 
TLFamily_TM        .         Temperature                   : 
group              .         prim                          : 
~Curve Information
#_______________________________________________________________________________
#
#LOGNAME           .UNIT     LOG_ID                        : DESCRIPTION
#_______________________________________________________________________________
DEPT               .M                                      : 1 Глубина, м -    0.0 см 
CCLC               .E.ACP                                  : 9 Локатор муфт,  -   20.0 см 
GK                 .FLT                                    : 14 Гамма-активность фильтрованная, мкр./ч -  110.0 см 
GR                 .UR/H                                   : 13 Гамма-активность, мкр./ч -  110.0 см 
METKA              .CU                                     : 3 Метки,  -    0.0 см 
MN                 .ATM                                    : 12 Давление, атм. -  160.0 см 
RCOR               .CM/KM                                  : 5 Коррекция по ролику, см/км -    0.0 см 
RGR                .IMP/MIN                                : 10 Гамма-активность, усл.ед. -  110.0 см 
RMN                .E.ACP                                  : 8 Давление, усл.ед. -  160.0 см 
RTEN               .T                                      : 6 Натяжение кабеля, т -    0.0 см 
RTM                .E.ACP                                  : 7 Температура, усл.ед. -  170.0 см 
SPEE               .M/H                                    : 2 Скорость, м/час -    0.0 см 
TIME               .S                                      : 4 Время, сек -    0.0 см 
TM                 .DEGC                                   : 11 Температура, °C -  170.0 см 
~Ascii
# ...
2702.799948 137        10.88      10.88      0          243.397    -1093      495        12927      0.25       16028      595        318.7      63.44     
2702.999948 139        10.86      10.86      0          243.393    -1093      494        12927      0.25       16023      594        319.91     63.418    
2703.199948 4318       10.83      10.83      0          243.41     -1093      493        12928      0.25       16016      595        321.1      63.389    
2703.399947 2947       10.18      10.18      0          243.427    -1093      463        12929      0.25       16009      595        322.3      63.362    
2703.599947 835        9.87       9.87       0          243.442    -1093      449        12930      0.25       16002      594        323.55     63.334    
2703.799947 302        9.84       9.84       0          243.459    -1093      448        12931      0.25       15990      594        324.77     63.288    
2703.999947 178        9.71       9.71       0          243.476    -1093      442        12932      0.25       15981      593        326.02     63.25     
2704.199947 110        9.69       9.69       0          243.486    -1093      441        12933      0.25       15971      593        327.21     63.207    
2704.399946 113        9.67       9.67       0          243.505    -1093      440        12934      0.25       15963      593        328.42     63.176    
2704.599946 94         9.67       9.67       0          243.538    -1093      440        12936      0.25       15955      592        329.69     63.144    
2704.799946 72         9.49       9.49       0          243.536    -1093      432        12936      0.25       15946      592        330.88     63.109    
2704.999946 80         9.49       9.49       0          243.554    -1093      432        12937      0.25       15937      592        332.08     63.073    
2705.199946 128        9.29       9.29       0          243.565    -1093      423        12938      0.25       15930      594        333.27     63.046    
2705.399945 152        9.29       9.29       0          243.58     -1093      423        12939      0.25       15921      593        334.53     63.01     
2705.599945 137        10.08      10.08      0          243.616    -1093      459        12941      0.25       15913      593        335.8      62.978    
2705.799945 263        10.08      10.08      0          243.616    -1093      459        12941      0.25       15910      593        336.98     62.966    
2705.999945 157        10.39      10.39      0          243.631    -1093      473        12942      0.25       15903      592        338.19     62.937    
2706.199945 108        10.39      10.39      0          243.664    -1093      473        12944      0.25       15895      592        339.42     62.904    
2706.399944 131        9.78       9.78       0          243.683    -1093      445        12945      0.25       15885      592        340.71     62.864    
2706.599944 132        9.78       9.78       0          243.697    -1093      445        12946      0.25       15875      592        341.91     62.823    
2706.799944 74         9.91       9.91       0          243.699    -1093      451        12946      0.25       15866      592        343.1      62.789    
2706.999944 89         9.91       9.91       0          243.706    -1093      451        12947      0.25       15858      592        344.3      62.755    
2707.199944 81         10.3       10.3       0          243.718    -1093      469        12948      0.25       15843      589        345.56     62.694    
2707.399943 66         10.3       10.3       0          243.732    -1093      469        12949      0.25       15831      585        346.88     62.647    
2707.599943 79         10.55      10.55      0          243.755    -1093      480        12950      0.25       15823      583        348.08     62.613    
2707.799943 83         10.55      10.55      0          243.775    -1093      480        12952      0.25       15813      583        349.34     62.574    
2707.999943 72         10.57      10.57      0          243.797    -1093      481        12953      0.25       15802      582        350.59     62.531    
2708.199943 121        10.57      10.57      0          243.81     -1093      481        12954      0.25       15790      581        351.86     62.482    
2708.399942 104        11.1       11.1       0          243.811    -1093      505        12954      0.25       15779      579        353.12     62.437    
2708.599942 98         11.1       11.1       0          243.829    -1093      505        12956      0.25       15769      579        354.33     62.396    
2708.799942 106        11.47      11.47      0          243.852    -1093      522        12957      0.25       15759      579        355.58     62.356    
2708.999942 103        11.47      11.47      0          243.851    -1093      522        12957      0.25       15752      579        356.84     62.329    
2709.199942 86         11.34      11.34      0          243.867    -1093      516        12958      0.25       15744      580        358.09     62.299    
2709.399941 105        11.34      11.34      0          243.899    -1093      516        12960      0.25       15737      580        359.36     62.27     
2709.599941 76         11.01      11.01      0          243.895    -1093      501        12960      0.25       15725      580        360.57     62.222    
2709.799941 117        11.01      11.01      0          243.92     -1093      501        12962      0.25       15714      579        361.81     62.178    
2709.999941 115        10.85      10.85      0          243.943    -1093      494        12963      0.25       15706      579        363.14     62.142    
2710.199941 95         10.85      10.85      0          243.942    -1093      494        12963      0.25       15698      580        364.37     62.112    
2710.39994 80         10.81      10.81      0          243.964    -1093      492        12964      0.25       15690      579        365.6      62.079    
2710.59994 91         10.81      10.81      0          243.986    -1093      492        12966      0.25       15679      579        366.86     62.036    
2710.79994 111        11.84      11.84      0          244.008    -1093      539        12967      0.25       15669      580        368.07     61.997    
2710.99994 75         11.84      11.84      0          244.008    -1093      539        12967      0.25       15660      580        369.38     61.961    
2711.19994 73         12.57      12.57      0          244.038    -1093      572        12969      0.25       15651      580        370.56     61.923    
2711.399939 89         12.57      12.57      0          244.053    -1093      572        12970      0.25       15642      580        371.83     61.887    
2711.599939 48         11.47      11.47      0          244.076    -1093      522        12971      0.25       15633      580        373.1      61.853    
2711.799939 58         11.47      11.47      0          244.085    -1093      522        12972      0.25       15626      579        374.4      61.822    
2711.999939 85         10.61      10.61      0          244.1      -1093      483        12973      0.25       15618      579        375.61     61.788    
2712.199939 92         10.61      10.61      0          244.131    -1093      483        12975      0.25       15608      580        376.88     61.748    
2712.399938 59         10.66      10.66      0          244.129    -1093      485        12975      0.25       15596      579        378.13     61.704    
2712.599938 120        10.66      10.66      0          244.144    -1093      485        12976      0.25       15587      580        379.33     61.668    
2712.799938 144        13.03      13.03      0          244.158    -1093      593        12977      0.25       15577      580        380.63     61.628    
2712.999938 62         13.03      13.03      0          244.174    -1093      593        12978      0.25       15568      581        381.84     61.589    
