~Version
 VERS              .         2.0                           : CWLS LOG ASCII STANDARD - VERSION 2.0
 WRAP              .         NO                            : ONE LINE PER DEPTH STEP
 DLM               .         SPACE                         : DELIMITING CHARACTER(SPACE TAB OR COMMA)
~Well Information
#_______________________________________________________________________________
#
#PARAMETER_NAME    .UNIT     VALUE                         : DESCRIPTION
#_______________________________________________________________________________
STRT               .M        2645.4                        : First reference value
STOP               .M        2753.4                        : Last reference value
STEP               .M        0.2                           : Step increment
NULL               .         -9999                         : Missing value
COMP               .                                       : Company
WELL               .         616                           : Well name
FLD                .                                       : Field
LOC                .                                       : Location
CNTY               .                                       : County
STAT               .                                       : State
CTRY               .                                       : Country
SRVC               .                                       : Service Company
DATE               .                                       : Date
API                .                                       : API number
PROJECT_UPGRADE_TIME .         2021-03-18T21_24_50           : 
group              .         Good                          : 
~Parameter Information Block
#_______________________________________________________________________________
#
#PARAMETER_NAME    .UNIT     VALUE                         : DESCRIPTION
#_______________________________________________________________________________
SET                .         D4410_D                       : 
OTHER              .         Запись производится в присутствии: 
OTHER_10           .         Максимальная температура      : 
OTHER_11           .         Тип промывочной жидкости      : 
OTHER_12           .         Сопротивление ПЖ (Ом*м) при 20°C: 
OTHER_13           .         Плотность ПЖ(г/см3)           : 
OTHER_14           .         Вязкость ПЖ(с)                : 
OTHER_15           .         Водоотдача ПЖ(см3/30мин)      : 
OTHER_16           .         Уровень ПЖ                    : 
OTHER_17           .         Нефть ПЖ (%)                  : 
OTHER_18           .         Барит ПЖ (%)                  : 
OTHER_19           .         Гематит ПЖ (%)                : 
OTHER_2            .         Заказчик ННСН  ЦДНГ-1         : 
OTHER_20           .         КМЦ ПЖ (%)                    : 
OTHER_21           .         Разгазирование ПЖ (да,нет)    : 
OTHER_22           .         Подъемник                     : 
OTHER_23           .         Лаборатория                   : 
OTHER_24           .         Тип кабеля                    : 
OTHER_25           .         Длина кабеля (м)              : 
OTHER_26           .         Цена последней метки          : 
OTHER_27           .         Цена контрольной метки        : 
OTHER_28           .         Диаметр долота (мм)           : 
OTHER_29           .         Глубина бурения (м)           : 
OTHER_3            .         Площадь                       : 
OTHER_30           .         Искусственный забой (м)       : 
OTHER_31           .         Диаметр колонны (мм)          : 
OTHER_32           .         Толщина колонны (мм)          : 
OTHER_33           .         Башмак колонны (м)            : 
OTHER_34           .         Диаметр НКТ (мм)              : 
OTHER_35           .         Толщина НКТ (мм)              : 
OTHER_36           .         Воронка НКТ (м)               : 
OTHER_37           .         Дата цементожа                : 
OTHER_38           .         Тип, количество(т) и плотность цемента: 
OTHER_39           .         Интервалы перфорации (м)      : 
OTHER_4            .         Категория                     : 
OTHER_40           .         Направление, диаметр (мм)     : 
OTHER_41           .         Направление, глубина (м)      : 
OTHER_42           .         Кондуктор, диаметр (мм)       : 
OTHER_43           .         Кондуктор, глубина (м)        : 
OTHER_44           .         Техническая колонна, диаметр (мм): 
OTHER_45           .         Техническая колонна, глубина (м): 
OTHER_46           .         Эксплуатационная колонна, диаметр (мм): 
OTHER_47           .         Эксплуатационная колонна, глубина (м): 
OTHER_48           .         Программа Кедр-02 версия 3.4  : 
OTHER_49           .         Операционная система Windows NT 5.1 build 2600 Service Pack 2: 
OTHER_5            .         Назначение исследований       : 
OTHER_50           .         Программное обеспечение станции MONITOR-386EX 25/12/99 15_08_10   BGF V54 20/09/05 15_32_17   3.3__BGF_9030071: 
OTHER_51           .         Kedr.exe версия 3.4.2.74      : 
OTHER_52           .         KedrData.dll версия 3.4.2.29  : 
OTHER_53           .         Мнемоники версия 3.18 S       : 
OTHER_54           .         Драйвер версия 2.1.1.4        : 
OTHER_55           .         LasInf.dll 4.3.0.35           : 
OTHER_56           .         Прибор_ КСА-Т4                : 
OTHER_57           .         Номер прибора_ 160            : 
OTHER_58           .         Режим_ КСА-Т4                 : 
OTHER_59           .         Форма_ С.А.Б.                 : 
OTHER_6            .         Альтитуда стола ротора        : 
OTHER_60           .         Тарировки_                    : 
OTHER_61           .         <_techsia_sc_> Дата тарировки температуры 25.05.2010: 
OTHER_62           .         Ручной ввод коэффициентов     : 
OTHER_63           .         TM.DEGC = 0.00402*RTM.E.ACP + -0.994: 
OTHER_64           .         <_techsia_sc_> Дата тарировки давления 25.05.2010: 
OTHER_65           .         Ручной ввод коэффициентов     : 
OTHER_66           .         MN.ATM = (2.27521e-006*TM.DEGC + 0.02078)*(RMN.E.ACP + 6.2*TM.DEGC + -1688): 
OTHER_67           .         <_techsia_sc_> Дата тарировки ГК 25.05.2010: 
OTHER_68           .         Ручной ввод коэффициентов     : 
OTHER_69           .         GR.UR/H = RGR.IMP/MIN / 45.5144: 
OTHER_7            .         Вид исследований 3  6         : 
OTHER_70           .         GK.FLT = 0.1*GR.UR/H[-1] + (1-0.1)*GR.UR/H[0]: 
OTHER_8            .         Начало бурения интервала каротажа: 
OTHER_9            .         Окончание бурения интервала каротажа: 
PROJECT_UPGRADE_TIME .         2021-03-18T21_24_50           : 
TLFamily_CCLC      .                                       : 
TLFamily_DEPT      .         Measured Depth                : 
TLFamily_GK        .         Gamma Ray                     : 
TLFamily_GR        .         Gamma Ray                     : 
TLFamily_METKA     .                                       : 
TLFamily_MN        .                                       : 
TLFamily_RCOR      .                                       : 
TLFamily_RGR       .                                       : 
TLFamily_RMN       .                                       : 
TLFamily_RTEN      .                                       : 
TLFamily_RTM       .                                       : 
TLFamily_SPEE      .         Cable Speed                   : 
TLFamily_TIME      .         Time                          : 
TLFamily_TM        .         Temperature                   : 
group              .         prim                          : 
~Curve Information
#_______________________________________________________________________________
#
#LOGNAME           .UNIT     LOG_ID                        : DESCRIPTION
#_______________________________________________________________________________
DEPT               .M                                      : 1 Глубина, м -    0.0 см 
CCLC               .E.ACP                                  : 9 Локатор муфт,  -   20.0 см 
GK                 .FLT                                    : 14 Гамма-активность фильтрованная, мкр./ч -  110.0 см 
GR                 .UR/H                                   : 13 Гамма-активность, мкр./ч -  110.0 см 
METKA              .CU                                     : 3 Метки,  -    0.0 см 
MN                 .ATM                                    : 12 Давление, атм. -  160.0 см 
RCOR               .CM/KM                                  : 5 Коррекция по ролику, см/км -    0.0 см 
RGR                .IMP/MIN                                : 10 Гамма-активность, усл.ед. -  110.0 см 
RMN                .E.ACP                                  : 8 Давление, усл.ед. -  160.0 см 
RTEN               .T                                      : 6 Натяжение кабеля, т -    0.0 см 
RTM                .E.ACP                                  : 7 Температура, усл.ед. -  170.0 см 
SPEE               .M/H                                    : 2 Скорость, м/час -    0.0 см 
TIME               .S                                      : 4 Время, сек -    0.0 см 
TM                 .DEGC                                   : 11 Температура, °C -  170.0 см 
~Ascii
# ...
2666.2     137        7.98       7.98       0          364.412    -1107      363        18700      0.19       16341      626        130.89     64.697    
2666.4     213        7.32       7.32       0          364.5      -1107      333        18704      0.19       16342      627        132.03     64.701    
2666.6     294        7.05       7.05       0          364.577    -1107      321        18708      0.19       16343      627        133.19     64.705    
2666.8     4676       7.05       7.05       0          364.584    -1107      321        18708      0.19       16345      628        134.34     64.712    
2667       2026       6.37       6.37       0          364.62     -1107      290        18710      0.19       16346      629        135.5      64.716    
2667.2     583        6.03       6.03       0          364.66     -1107      275        18712      0.19       16346      629        136.6      64.717    
2667.4     160        5.58       5.58       0          364.73     -1107      254        18715      0.19       16348      630        137.74     64.724    
2667.6     156        5.58       5.58       0          364.728    -1107      254        18715      0.19       16349      631        138.95     64.728    
2667.8     178        6.24       6.24       0          364.791    -1107      284        18718      0.19       16349      631        140.04     64.729    
2668       234        6.24       6.24       0          364.854    -1107      284        18721      0.19       16350      633        141.15     64.733    
2668.2     309        6.55       6.55       0          364.918    -1107      298        18724      0.19       16351      634        142.28     64.739    
2668.4     244        6.55       6.55       0          364.94     -1107      298        18725      0.19       16353      635        143.49     64.745    
2668.6     69         6.48       6.48       0          364.941    -1107      295        18725      0.19       16354      635        144.59     64.749    
2668.8     85         6.48       6.48       0          364.997    -1107      295        18728      0.19       16355      635        145.74     64.753    
2669       95         7.4        7.4        0          365.088    -1107      337        18732      0.19       16356      636        146.89     64.757    
2669.2     112        7.4        7.4        0          365.088    -1107      337        18732      0.19       16356      636        147.98     64.757    
2669.4     260        7.29       7.29       0          365.205    -1107      332        18738      0.19       16356      636        149.17     64.757    
2669.6     261        7.05       7.05       0          365.377    -1107      321        18746      0.19       16357      636        150.29     64.761    
2669.8     221        6.87       6.87       0          365.466    -1107      313        18750      0.19       16358      637        151.43     64.765    
2670       121        5.93       5.93       0          365.395    -1107      270        18747      0.19       16359      637        152.53     64.771    
2670.2     79         5.93       5.93       0          365.288    -1107      270        18741      0.19       16360      637        153.73     64.774    
2670.4     72         5.82       5.82       0          365.231    -1107      265        18739      0.19       16360      638        154.82     64.774    
2670.6     87         5.82       5.82       0          365.288    -1107      265        18741      0.19       16360      638        155.97     64.773    
2670.8     120        6.11       6.11       0          365.492    -1107      278        18751      0.19       16361      639        157.08     64.777    
2671       159        6.11       6.11       0          365.497    -1107      278        18751      0.19       16362      640        158.24     64.782    
2671.2     126        6.55       6.55       0          365.342    -1107      298        18744      0.19       16365      640        159.37     64.793    
2671.4     210        6.55       6.55       0          365.337    -1107      298        18744      0.19       16366      639        160.52     64.797    
2671.6     209        7.31       7.31       0          365.486    -1107      333        18751      0.19       16366      640        161.62     64.797    
2671.8     142        7.32       7.32       0          365.546    -1107      333        18754      0.19       16366      640        162.7      64.797    
2672       53         7.32       7.32       0          365.504    -1107      333        18752      0.19       16367      640        163.92     64.801    
2672.2     69         7.25       7.25       0          365.574    -1107      330        18755      0.19       16366      641        165.02     64.797    
2672.4     82         7.25       7.25       0          365.72     -1107      330        18762      0.19       16367      640        166.16     64.801    
2672.6     74         7.01       7.01       0          365.738    -1107      319        18763      0.19       16367      640        167.26     64.801    
2672.8     185        7.01       7.01       0          365.688    -1107      319        18760      0.19       16368      641        168.4      64.805    
2673       161        7.01       7.01       0          365.794    -1107      319        18765      0.19       16370      640        169.55     64.812    
2673.2     107        7.01       7.01       0          365.806    -1107      319        18766      0.19       16371      642        170.7      64.816    
2673.4     263        6.47       6.47       0          365.706    -1107      294        18761      0.19       16371      642        171.8      64.817    
2673.6     191        6.06       6.06       0          365.559    -1107      276        18754      0.19       16373      641        172.9      64.824    
2673.8     148        5.86       5.86       0          365.56     -1107      267        18754      0.19       16373      642        174.08     64.824    
2674       166        5.45       5.45       0          365.561    -1107      248        18754      0.19       16375      642        175.19     64.832    
2674.2     122        5.45       5.45       0          365.619    -1107      248        18757      0.19       16376      643        176.29     64.838    
2674.4     92         5.54       5.54       0          365.606    -1107      252        18756      0.19       16376      642        177.44     64.836    
2674.6     263        5.54       5.54       0          365.683    -1107      252        18760      0.19       16374      643        178.55     64.829    
2674.8     332        5.12       5.12       0          365.669    -1107      233        18759      0.2        16374      642        179.72     64.829    
2675       247        5.12       5.12       0          365.615    -1107      233        18757      0.19       16374      642        180.83     64.829    
2675.2     398        4.59       4.59       0          365.583    -1107      209        18755      0.19       16376      642        181.93     64.838    
2675.4     482        4.59       4.59       0          365.597    -1107      209        18756      0.19       16376      643        183.02     64.838    
2675.6     382        5.27       5.27       0          365.637    -1107      240        18758      0.19       16377      643        184.23     64.842    
2675.8     244        5.38       5.38       0          365.663    -1107      245        18759      0.19       16376      643        185.33     64.838    
2676       132        5.38       5.38       2          365.696    -1105      245        18760      0.19       16376      644        186.28     64.838    
2676.2     93         5.62       5.62       0          365.73     -1102      256        18762      0.19       16377      644        187.29     64.841    
2676.4     228        5.62       5.62       0          365.71     -1102      256        18761      0.19       16378      644        188.39     64.846    
