~Version
 VERS              .         2.0                           : CWLS LOG ASCII STANDARD - VERSION 2.0
 WRAP              .         NO                            : ONE LINE PER DEPTH STEP
 DLM               .         SPACE                         : DELIMITING CHARACTER(SPACE TAB OR COMMA)
~Well Information
#_______________________________________________________________________________
#
#PARAMETER_NAME    .UNIT     VALUE                         : DESCRIPTION
#_______________________________________________________________________________
STRT               .M        2699.4                        : First reference value
STOP               .M        2769                          : Last reference value
STEP               .M        0.2000003                     : Step increment
NULL               .         -9999                         : Missing value
COMP               .                                       : Company
WELL               .         616                           : Well name
FLD                .                                       : Field
LOC                .                                       : Location
CNTY               .                                       : County
STAT               .                                       : State
CTRY               .                                       : Country
SRVC               .                                       : Service Company
DATE               .                                       : Date
API                .                                       : API number
PROJECT_UPGRADE_TIME .         2021-03-18T21_24_50           : 
group              .         Good                          : 
~Parameter Information Block
#_______________________________________________________________________________
#
#PARAMETER_NAME    .UNIT     VALUE                         : DESCRIPTION
#_______________________________________________________________________________
SET                .         D1167_D                       : 
OTHER              .         Программное обеспечение станции MONITOR-386EX 25/12/99 15_08_10   BGF V52 22/08/01 16_56_30   3.2_BGF_N_3070031: 
OTHER_10           .         Тарировки_                    : 
OTHER_11           .         RGD.M3/SUT = 0.603482 * RGD.UE + 9.9644: 
OTHER_2            .         Kedr.exe версия 3.4.2.51      : 
OTHER_3            .         KedrData.dll версия 3.4.2.24  : 
OTHER_4            .         Драйвер версия 2.1.0.2        : 
OTHER_5            .         Мнемоники версия 3.3 S        : 
OTHER_6            .         Прибор_ Гранат                : 
OTHER_7            .         Номер прибора_ 257            : 
OTHER_8            .         Режим_ КСА_Гранат             : 
OTHER_9            .         Форма_ РАСХОД                 : 
PROJECT_UPGRADE_TIME .         2021-03-18T21_24_49           : 
TLFamily_DEPT      .         Measured Depth                : 
TLFamily_METKA     .                                       : 
TLFamily_RCOR      .                                       : 
TLFamily_RGD       .                                       : 
TLFamily_RGD_2     .                                       : 
TLFamily_SPID      .         Spontaneous Potential         : 
TLFamily_TENS      .         Cable Tension                 : 
TLFamily_TIME      .         Time                          : 
group              .         prim                          : 
~Curve Information
#_______________________________________________________________________________
#
#LOGNAME           .UNIT     LOG_ID                        : DESCRIPTION
#_______________________________________________________________________________
DEPT               .M                                      : 1 Глубина, м -    0.0 см 
METKA              .                                       : 3 Метки,  -    0.0 см 
RCOR               .CM/KM                                  : 5 Коррекция по ролику, см/км -    0.0 см 
RGD                .UE                                     : 7 Расход, имп/мин -  232.0 см 
RGD_2              .M3/SUT                                 : 8 Расход, м3/сут -  232.0 см 
SPID               .M/H                                    : 2 Скорость, м/час -    0.0 см 
TENS               .T                                      : 6 Натяжение кабеля, т -    0.0 см 
TIME               .S                                      : 4 Время, сек -    0.0 см 
~Ascii
# ...
2735.8     0          -1400      52         41.63      -145       0          23390.21  
2736       0          -1400      58         45.1       -143       0          23385.41  
2736.2     0          -1400      68         51.01      -161       0          23380.42  
2736.4     0          -1400      72         53.38      -151       0          23375.72  
2736.6     0          -1400      68         50.81      -163       0          23370.92  
2736.8     0          -1400      66         49.57      -146       0          23366.04  
2737       0          -1400      63         48         -149       0          23361.24  
2737.2     0          -1400      62         47.4       -139       0          23356.54  
2737.4     0          -1400      59         45.53      -137       0          23351.76  
2737.6     0          -1400      57         44.26      -154       0          23346.76  
2737.8     0          -1400      54         42.73      -149       0          23342.07  
2738       0          -1400      64         48.44      -168       0          23337.38  
2738.2     0          -1400      59         45.81      -147       0          23332.38  
2738.4     0          -1400      61         47.08      -142       0          23327.69  
2738.6     0          -1400      61         46.87      -139       0          23322.89  
2738.8     0          -1400      58         45.01      -136       0          23318.2   
2739       0          -1400      71         53.06      -161       0          23313.21  
2739.2     0          -1400      68         50.94      -146       0          23308.42  
2739.4     0          -1400      74         54.42      -165       0          23303.62  
2739.6     0          -1400      85         61.21      -145       0          23298.73  
2739.8     0          -1400      60         46.33      -161       0          23294.04  
2740       2          -1400      60         46.47      -141       0          23289.24  
2740.2     0          -1400      59         45.6       -141       0          23283.95  
2740.4     0          -1400      73         53.8       -152       0          23278.96  
2740.6     0          -1400      70         52.03      -161       0          23274.17  
2740.8     0          -1400      65         49.46      -150       0          23269.47  
2741       0          -1400      59         45.39      -160       0          23264.47  
2741.2     0          -1400      65         49.08      -161       0          23259.69  
2741.4     0          -1400      65         48.92      -158       0          23254.89  
2741.6     0          -1400      69         51.69      -151       0          23250.09  
2741.8     0          -1400      73         54.14      -149       0          23245.11  
2742       0          -1400      69         51.44      -168       0          23240.41  
2742.2     0          -1400      61         46.93      -153       0          23235.61  
2742.4     0          -1400      59         45.31      -154       0          23230.63  
2742.6     0          -1400      62         47.47      -147       0          23225.93  
2742.8     0          -1400      58         45.03      -163       0          23221.13  
2743       0          -1400      74         54.46      -132       0          23216.34  
2743.2     0          -1400      65         49.41      -153       0          23211.35  
2743.4     0          -1400      60         46.3       -144       0          23206.56  
2743.6     0          -1400      66         50.06      -157       0          23201.86  
2743.8     0          -1400      65         48.93      -152       0          23196.97  
2744       0          -1400      69         51.31      -158       0          23192.18  
2744.2     0          -1400      74         54.34      -145       0          23187.38  
2744.4     0          -1400      68         51.23      -141       0          23182.6   
2744.6     0          -1400      79         57.66      -153       0          23177.6   
2744.8     0          -1400      64         48.77      -147       0          23172.8   
2745       0          -1400      62         47.36      -152       0          23168     
2745.2     0          -1400      66         49.73      -136       0          23162.92  
2745.4     0          -1400      72         53.51      -145       0          23158.02  
2745.6     0          -1400      68         51.05      -136       0          23153.03  
2745.8     0          -1400      57         44.32      -139       0          23148.14  
2746       0          -1400      68         50.76      -144       0          23142.94  
2746.2     0          -1400      53         42.19      -154       0          23138.05  
2746.4     0          -1400      63         48.08      -146       0          23133.05  
2746.6     0          -1400      64         48.4       -143       0          23128.17  
2746.8     0          -1400      62         47.23      -140       0          23123.17  
2747       0          -1400      66         49.69      -146       0          23118.17  
2747.2     0          -1400      69         51.42      -137       0          23113.29  
2747.4     0          -1400      62         47.5       -142       0          23107.99  
2747.6     0          -1400      53         41.68      -149       0          23103.2   
2747.8     0          -1400      62         47.27      -143       0          23098.3   
2748       0          -1400      61         46.57      -113       0          23093.41  
2748.2     0          -1400      58         45.2       -157       0          23088.22  
2748.4     0          -1400      60         45.89      -146       0          23083.42  
2748.6     0          -1400      56         43.49      -138       0          23078.52  
2748.8     0          -1400      68         50.93      -147       0          23073.34  
2749       0          -1400      56         44.04      -145       0          23068.44  
2749.2     0          -1400      54         42.42      -155       0          23063.55  
2749.4     0          -1400      51         40.48      -137       0          23058.56  
2749.6     0          -1400      58         45.17      -154       0          23053.56  
2749.8     0          -1400      59         45.27      -141       0          23048.67  
2750       2          -1400      60         46.13      -155       0          23043.68  
2750.2     0          -1400      60         46.01      -152       0          23037.99  
2750.4     0          -1400      55         43.21      -140       0          23033.09  
2750.6     0          -1400      64         48.29      -152       0          23028.3   
2750.8     0          -1400      61         46.69      -113       0          23023.41  
2751       0          -1400      59         45.46      -151       0          23018.21  
2751.2     0          -1400      47         38.14      -139       0          23013.32  
2751.4     0          -1400      50         40.15      -144       0          23008.32  
2751.6     0          -1400      58         45.12      -136       0          23003.13  
2751.8     0          -1400      57         44.55      -140       0          22998.24  
2752       0          -1400      55         43.01      -160       0          22993.34  
2752.2     0          -1400      63         48.27      -132       0          22988.36  
2752.4     0          -1400      52         41.22      -136       0          22983.26  
2752.6     0          -1400      66         49.62      -143       0          22978.37  
2752.8     0          -1400      66         49.88      -154       0          22973.47  
2753       0          -1400      66         49.89      -143       0          22968.18  
2753.2     0          -1400      53         42.16      -151       0          22963.29  
2753.4     0          -1400      67         50.59      -140       0          22958.39  
2753.6     0          -1400      69         51.39      -139       0          22953.5   
2753.8     0          -1400      56         43.54      -148       0          22948.41  
