~Version
 VERS              .         2.0                           : CWLS LOG ASCII STANDARD - VERSION 2.0
 WRAP              .         NO                            : ONE LINE PER DEPTH STEP
 DLM               .         SPACE                         : DELIMITING CHARACTER(SPACE TAB OR COMMA)
~Well Information
#_______________________________________________________________________________
#
#PARAMETER_NAME    .UNIT     VALUE                         : DESCRIPTION
#_______________________________________________________________________________
STRT               .M        749.69                        : First reference value
STOP               .M        1410.72                       : Last reference value
STEP               .M        0                             : Step increment
NULL               .         -9999                         : Missing value
COMP               .                                       : Company
WELL               .         616                           : Well name
FLD                .                                       : Field
LOC                .                                       : Location
CNTY               .                                       : County
STAT               .                                       : State
CTRY               .                                       : Country
SRVC               .                                       : Service Company
DATE               .                                       : Date
API                .                                       : API number
PROJECT_UPGRADE_TIME .         2021-03-18T21_24_50           : 
group              .         Good                          : 
~Parameter Information Block
#_______________________________________________________________________________
#
#PARAMETER_NAME    .UNIT     VALUE                         : DESCRIPTION
#_______________________________________________________________________________
SET                .         D0928                         : 
NPR                .         210404                        : ЗАВ НОМЕР ПРИБОРА
NPRT               .         Каштанов                      : НАЧ ПАРТИИ
PROJECT_UPGRADE_TIME .         2021-03-18T21_24_49           : 
TLFamily_AZIMUTH   .         True Dip Azimuth              : 
TLFamily_DEPTH     .         Measured Depth                : 
TLFamily_DRILL     .                                       : 
TLFamily_METKA     .                                       : 
TLFamily_ZENIT     .                                       : 
group              .         prim                          : 
~Curve Information
#_______________________________________________________________________________
#
#LOGNAME           .UNIT     LOG_ID                        : DESCRIPTION
#_______________________________________________________________________________
DEPTH              .M                                      : 1 ГЛУБИНА 
AZIMUTH            .ГРАД                                   : 4 АЗИМУТ 
DRILL              .ГРАД                                   : 2 ПОВОРОТ 
METKA              .                                       : 5 МАГН МЕТКА 
ZENIT              .ГРАД                                   : 3 ЗЕНИТ 
~Ascii
# ...
832.86     33.46      154.95     0          31.32     
832.9      33.99      157.05     0          31.36     
832.94     35.22      158.54     0          31.59     
832.95     35.64      157.12     0          31.7      
832.96     36.02      155.35     0          31.81     
832.96     36.41      153.48     0          31.92     
832.96     36.15      151.82     0          32.04     
832.97     54.41      139.97     0          32.13     
832.99     56.52      139.4      0          32.14     
833.02     58.25      138.85     0          32.15     
833.06     59.57      138.24     0          32.14     
833.1      60.54      137.22     0          32.02     
833.15     61.5       136.25     0          31.9      
833.2      60.49      134.69     0          31.91     
833.26     58.34      132.91     0          32.03     
833.33     56.82      131.01     0          31.99     
833.41     57.21      131.12     0          31.75     
833.5      56.84      133.46     0          31.62     
833.61     52.56      135.26     0          31.5      
833.73     48.67      137.03     0          31.38     
833.85     46.3       138.44     0          31.26     
833.98     43.86      139.56     0          31.28     
834.12     39.68      140.48     0          31.32     
834.26     37.01      140.85     0          31.44     
834.4      33.29      140.89     0          31.38     
834.54     28.22      140.92     0          31.41     
834.68     23.17      140.95     0          31.41     
834.83     17.61      140.95     0          31.42     
834.98     11.49      140.94     0          31.43     
835.14     4.77       140.96     0          31.43     
835.3      357.51     140.99     0          31.43     
835.48     349.81     141.02     0          31.43     
835.65     341.89     141.08     0          31.43     
835.84     335.02     141.15     0          31.44     
836.23     327.67     143.17     0          31.43     
836.62     319.7      145.3      0          31.46     
837.02     315.03     147.43     0          31.42     
837.41     308.2      149.52     0          31.41     
837.8      302.69     151.13     0          31.38     
838.2      297.6      151.67     0          31.38     
838.59     292.82     150.88     0          31.39     
838.99     288.13     148.81     0          31.42     
839.38     284.06     145.78     0          31.44     
839.78     280.38     142.24     0          31.43     
840.17     276.71     138.59     0          31.42     
840.57     273.04     135.32     0          31.4      
840.96     273.99     132.7      0          31.38     
841.35     273.93     130.66     0          31.38     
841.75     270.82     129.1      0          31.38     
842.14     267.95     127.87     0          31.38     
842.54     265.27     126.93     0          31.36     
842.93     262.77     126.29     0          31.36     
843.33     260.54     125.88     0          31.34     
843.72     258.57     125.58     0          31.33     
844.11     256.96     125.27     0          31.32     
844.51     255.62     125.07     0          31.32     
844.9      254.46     124.98     0          31.31     
845.3      253.5      124.94     0          31.3      
845.69     252.77     124.87     0          31.3      
846.09     252.15     124.68     0          31.3      
846.48     251.6      124.48     0          31.3      
846.87     251.16     124.35     0          31.3      
847.27     250.71     124.23     0          31.31     
847.66     250.4      124.09     0          31.32     
847.86     250.42     121.75     0          31.32     
848.05     250.52     120.08     0          31.32     
848.25     250.67     119.19     0          31.34     
848.64     250.82     119.1      0          31.36     
849.03     250.85     119.99     0          31.36     
849.43     250.91     121.88     0          31.38     
849.82     250.93     124.3      0          31.36     
850.22     251.02     126.88     0          31.34     
850.61     251.07     129.34     0          31.31     
851.01     251.21     131.58     0          31.31     
851.4      251.43     133.53     0          31.31     
851.8      251.76     135.09     0          31.33     
852.19     251.68     136.23     0          31.32     
852.59     251.73     137.06     0          31.33     
852.98     251.66     137.61     0          31.32     
853.38     251.69     137.97     0          31.33     
853.77     251.56     138.23     0          31.32     
854.16     251.58     138.41     0          31.32     
854.56     251.52     138.53     0          31.31     
854.95     251.53     138.61     0          31.31     
855.35     251.48     138.68     0          31.3      
855.74     251.46     138.72     0          31.28     
856.14     251.35     138.76     0          31.28     
856.53     251.38     138.81     0          31.28     
856.93     251.48     138.89     0          31.3      
857.32     251.45     138.99     0          31.29     
857.72     251.46     139.05     0          31.3      
858.11     251.46     139.03     0          31.29     
858.51     251.39     138.98     0          31.28     
858.9      251.35     138.97     0          31.27     
859.3      251.32     138.98     0          31.26     
859.69     251.3      138.98     0          31.26     
860.09     251.23     139        0          31.25     
860.48     251.06     139.01     0          31.23     
860.87     251.05     139.13     0          31.22     
861.27     251.01     139.29     0          31.19     
861.66     250.92     139.45     0          31.18     
862.06     251.02     139.57     0          31.18     
862.45     250.92     139.66     0          31.17     
862.85     250.97     139.71     0          31.17     
863.24     250.87     139.77     0          31.16     
863.63     250.79     139.83     0          31.14     
864.03     250.82     139.91     0          31.14     
864.42     250.75     140.06     0          31.12     
864.82     250.8      140.26     0          31.13     
865.21     250.67     140.48     0          31.1      
865.61     250.79     140.67     0          31.11     
866        250.7      140.81     0          31.08     
866.4      250.71     140.94     0          31.08     
866.79     250.69     141.06     0          31.07     
867.19     250.72     141.17     0          31.07     
867.58     250.67     141.25     0          31.06     
867.97     250.8      141.28     0          31.05     
868.37     250.81     141.32     0          31.05     
868.76     250.66     141.34     0          31.01     
869.16     250.63     141.4      0          31        
869.55     250.66     141.51     0          30.99     
869.95     250.61     141.66     0          30.98     
870.34     250.63     141.82     0          30.98     
870.73     250.57     141.93     0          30.96     
871.13     250.66     142.04     0          30.96     
871.52     250.6      142.19     0          30.94     
871.92     250.55     142.42     0          30.93     
872.11     250.57     142.93     0          30.94     
872.31     250.7      143.65     0          30.96     
872.5      250.72     144.52     0          30.96     
872.7      250.71     145.5      0          30.96     
872.89     250.62     146.53     0          30.95     
873.28     250.7      146.49     0          30.95     
873.68     250.64     146.47     0          30.94     
874.07     250.75     146.32     0          30.91     
874.47     250.92     146.19     0          30.92     
874.86     250.86     146.12     0          30.9      
875.26     250.87     146.04     0          30.9      
875.65     250.86     145.97     0          30.89     
876.05     250.9      145.92     0          30.89     
876.44     250.92     145.88     0          30.89     
876.83     250.83     145.84     0          30.87     
877.23     250.95     145.78     0          30.88     
877.62     250.85     145.69     0          30.86     
878.02     250.84     145.62     0          30.85     
878.41     250.91     145.54     0          30.85     
