~Version
 VERS              .         2.0                           : CWLS LOG ASCII STANDARD - VERSION 2.0
 WRAP              .         NO                            : ONE LINE PER DEPTH STEP
 DLM               .         SPACE                         : DELIMITING CHARACTER(SPACE TAB OR COMMA)
~Well Information
#_______________________________________________________________________________
#
#PARAMETER_NAME    .UNIT     VALUE                         : DESCRIPTION
#_______________________________________________________________________________
STRT               .M        2665.8                        : First reference value
STOP               .M        2774.199892                   : Last reference value
STEP               .M        0.1999998                     : Step increment
NULL               .         -9999                         : Missing value
COMP               .                                       : Company
WELL               .         616                           : Well name
FLD                .                                       : Field
LOC                .                                       : Location
CNTY               .                                       : County
STAT               .                                       : State
CTRY               .                                       : Country
SRVC               .                                       : Service Company
DATE               .                                       : Date
API                .                                       : API number
PROJECT_UPGRADE_TIME .         2021-03-18T21_24_50           : 
group              .         Good                          : 
~Parameter Information Block
#_______________________________________________________________________________
#
#PARAMETER_NAME    .UNIT     VALUE                         : DESCRIPTION
#_______________________________________________________________________________
SET                .         D1801_D_2                     : 
NPR                .                                       : 
OTHER              .         Программное обеспечение станции MONITOR-386EX 25/12/99 15_08_10   BGF V52 22/08/01 16_56_30   3.1_SNGF___BGF_N_092049: 
OTHER_10           .         Тарировки_                    : 
OTHER_11           .         TM.GRD = 0.00403*TM$.UE + -1.07: 
OTHER_12           .         MN.ATM = (9.34907e-006*TM.GRD + 0.02171)*(MN$.UE + -7.93*TM.GRD + -1787): 
OTHER_13           .         GK.MKR/H = LM. / 42.4676      : 
OTHER_14           .         GK.FLT = 0.1*GK.MKR/H[-1] + (1-0.1)*GK.MKR/H[0]: 
OTHER_2            .         Kedr.exe версия 3.4.2.51      : 
OTHER_3            .         KedrData.dll версия 3.4.2.24  : 
OTHER_4            .         Драйвер версия 2.1.1.3        : 
OTHER_5            .         Мнемоники версия 3.3 S        : 
OTHER_6            .         Прибор_ КСА-Т4                : 
OTHER_7            .         Номер прибора_ 03             : 
OTHER_8            .         Режим_ КСА-Т4                 : 
OTHER_9            .         Форма_ КВА.                   : 
PR                 .                                       : 
PROJECT_UPGRADE_TIME .         2021-03-18T21_24_49           : 
PRTY               .         ПП-603-1                      : N партии
SRV                .                                       : 
SRVC               .         Карпов                        : Начальник партии
TLFamily_DEPT      .         Measured Depth                : 
TLFamily_LM        .         Casing Collar locator         : 
TLFamily_MN        .                                       : 
TLFamily_TM        .         Temperature                   : 
group              .         second                        : 
~Curve Information
#_______________________________________________________________________________
#
#LOGNAME           .UNIT     LOG_ID                        : DESCRIPTION
#_______________________________________________________________________________
DEPT               .M                                      : Depth curve 
LM                 .е.ацп                                  : Локатор муфт,е.ацп 
MN                 .атм                                    : Манометрия, атм 
TM                 .град.C                                 : Термограмма по стволу скважины,град.C 
~Ascii
# ...
2737.399928 231.986    251.051    44.922    
2737.599928 174        251.078    44.953    
2737.799928 172.991    251.09     44.985    
2737.999928 138.011    251.118    45.025    
2738.199928 183.001    251.133    45.061    
2738.399927 188.003    251.155    45.11     
2738.599927 198.998    251.151    45.163    
2738.799927 189.99     251.167    45.235    
2738.999927 148.998    251.183    45.322    
2739.199927 140.996    251.211    45.42     
2739.399926 122.997    251.214    45.518    
2739.599926 110.007    251.229    45.625    
2739.799926 140.002    251.244    45.714    
2739.999926 148.012    251.253    45.82     
2740.199926 196.998    251.274    45.941    
2740.399925 188.006    251.29     46.025    
2740.599925 210.991    251.307    46.101    
2740.799925 175.003    251.332    46.181    
2740.999925 188.998    251.331    46.278    
2741.199925 182.003    251.332    46.375    
2741.399924 193.991    251.348    46.46     
2741.599924 158.003    251.364    46.54     
2741.799924 171.001    251.381    46.633    
2741.999924 175.011    251.405    46.705    
2742.199924 220.989    251.427    46.77     
2742.399923 178.007    251.43     46.828    
2742.599923 206.004    251.431    46.874    
2742.799923 222.999    251.456    46.935    
2742.999923 216.997    251.474    47        
2743.199923 202.998    251.506    47.06     
2743.399922 196.001    251.503    47.121    
2743.599922 200.003    251.522    47.171    
2743.799922 212.002    251.541    47.211    
2743.999922 219.007    251.56     47.25     
2744.199922 248.991    251.578    47.314    
2744.399921 214.004    251.596    47.375    
2744.599921 230.988    251.615    47.424    
2744.799921 184.016    251.617    47.454    
2744.999921 246.997    251.637    47.512    
2745.199921 235.003    251.669    47.583    
2745.39992 244.989    251.671    47.65     
2745.59992 201        251.682    47.714    
2745.79992 200.999    251.7      47.788    
2745.99992 197.993    251.717    47.85     
2746.19992 172.009    251.734    47.925    
2746.399919 207.347    251.733    47.999    
2746.599919 5588.159   251.769    48.066    
2746.799919 2226.592   251.771    48.135    
2746.999919 597.897    251.796    48.197    
2747.199919 186.997    251.799    48.265    
2747.399918 174.993    251.817    48.364    
2747.599918 146.996    251.828    48.469    
2747.799918 130.008    251.843    48.569    
2747.999918 159.998    251.88     48.677    
2748.199918 153.99     251.88     48.778    
2748.399917 115.006    251.878    48.898    
2748.599917 137.989    251.878    49.031    
2748.799917 93.004     251.914    49.14     
2748.999917 106.999    251.929    49.243    
2749.199917 103.996    251.935    49.371    
2749.399916 88.006     251.935    49.484    
2749.599916 109.992    251.972    49.578    
2749.799916 80.001     251.966    49.703    
2749.999916 81.999     251.974    49.854    
2750.199916 79.002     252.006    50.04     
2750.399915 85.004     252.012    50.148    
2750.599915 100.004    252.038    22.705    
2750.799915 114.002    252.051    50.347    
2750.999915 122.992    252.053    50.506    
2751.199915 89.998     252.053    50.683    
2751.399914 84.009     252.085    50.814    
2751.599914 120.994    252.085    50.943    
2751.799914 96.007     252.09     51.054    
2751.999914 123.997    252.1      51.215    
2752.199914 110.998    252.11     51.378    
2752.399913 103.001    252.142    51.582    
2752.599913 105.998    252.153    51.757    
2752.799913 100.006    252.169    51.86     
2752.999913 121.996    252.173    51.961    
2753.199913 108.001    252.172    52.075    
2753.399912 113.008    252.182    52.297    
2753.599912 143.993    252.185    52.528    
2753.799912 116.989    252.193    52.734    
2753.999912 75.007     252.207    52.909    
2754.199912 101.996    252.224    53.066    
2754.399911 84.996     252.227    53.214    
2754.599911 69.996     252.261    53.367    
2754.799911 54.001     252.251    53.515    
2754.999911 59.005     252.257    53.71     
2755.199911 79.005     252.279    53.947    
2755.39991 98         252.272    54.165    
2755.59991 97.02      252.301    54.357    
2755.79991 174.99     252.303    54.578    
2755.99991 134.996    252.282    54.81     
2756.19991 120.992    252.304    54.964    
2756.399909 89.02      252.308    55.185    
2756.599909 168.993    252.312    55.433    
2756.799909 143.018    252.321    55.686    
2756.999909 216.003    252.345    55.938    
2757.199909 225.981    252.33     56.163    
2757.399908 149.997    252.361    56.371    
2757.599908 138.471    252.37     56.549    
2757.799908 5998.096   252.377    56.715    
2757.999908 2397.559   252.373    56.849    
2758.199908 641.896    252.387    57.04     
2758.399907 228.987    252.395    57.272    
2758.599907 178.998    252.409    57.549    
2758.799907 170.985    252.412    57.812    
2758.999907 110.003    252.418    58.063    
2759.199907 123.001    252.419    58.281    
2759.399906 128.004    252.437    58.47     
2759.599906 143.003    252.445    58.649    
2759.799906 154.987    252.455    58.824    
2759.999906 104.997    252.462    59.021    
2760.199906 93.007     252.488    59.31     
2760.399905 118.996    252.5      59.474    
2760.599905 104.004    252.45     59.634    
2760.799905 119.999    252.521    59.806    
2760.999905 117.003    252.534    59.941    
2761.199905 129.002    252.553    60.086    
2761.399904 137.998    252.558    60.226    
2761.599904 130.998    252.571    60.366    
2761.799904 125        252.584    60.49     
2761.999904 126.008    252.599    60.608    
2762.199904 157.995    252.629    60.742    
2762.399903 136.997    252.649    60.862    
2762.599903 127.004    252.671    60.948    
2762.799903 143.005    252.682    61.036    
2762.999903 161.001    252.698    61.108    
2763.199903 165.995    252.714    61.202    
2763.399902 145.997    252.739    61.298    
2763.599902 136.006    252.768    61.383    
2763.799902 160.997    252.785    61.476    
2763.999902 149.006    252.807    61.533    
2764.199902 172.001    252.82     61.593    
2764.399901 174.999    252.837    61.677    
2764.599901 172.015    252.876    61.756    
2764.799901 231.998    252.893    61.831    
2764.999901 223.993    252.911    61.907    
2765.199901 197.005    252.928    61.964    
2765.3999  214.993    252.943    62.054    
2765.5999  187.002    252.972    62.141    
2765.7999  195.006    253.002    62.201    
2765.9999  216.998    253.022    62.239    
2766.1999  209        253.063    62.274    
2766.399899 210.008    253.073    62.314    
2766.599899 240.015    253.102    62.352    
2766.799899 297.98     253.122    62.392    
2766.999899 217.002    253.14     62.443    
2767.199899 224.998    253.16     62.491    
2767.399898 218.996    253.179    62.535    
2767.599898 205        253.222    62.565    
2767.799898 205        253.252    62.594    
2767.999898 204.002    253.276    62.647    
2768.199898 212.992    253.301    62.7      
2768.399897 182.015    253.319    62.749    
2768.599897 240.726    253.337    62.814    
2768.799897 3123.529   253.357    62.863    
2768.999897 1251.786   253.397    62.892    
2769.199897 401.949    253.4      62.978    
2769.399896 200.997    253.428    63.084    
2769.599896 187.999    253.466    63.178    
2769.799896 183.016    253.486    63.264    
2769.999896 247.996    253.507    63.36     
2770.199896 231.993    253.53     63.521    
2770.399895 204.995    253.546    63.621    
2770.599895 186.008    253.576    63.724    
2770.799895 218.992    253.577    63.814    
2770.999895 188.001    253.616    63.9      
2771.199895 190.02     253.641    64.008    
2771.399894 270.991    253.662    64.095    
2771.599894 235.011    253.682    64.181    
2771.799894 277        253.7      64.274    
2771.999894 277.962    253.714    64.401    
2772.199894 128.982    253.752    64.499    
2772.399893 57.996     253.769    64.576    
2772.599893 41.999     253.785    64.666    
2772.799893 -9999      253.802    64.748    
2772.999893 -9999      253.82     64.82     
