~Version
 VERS              .         2.0                           : CWLS LOG ASCII STANDARD - VERSION 2.0
 WRAP              .         NO                            : ONE LINE PER DEPTH STEP
 DLM               .         SPACE                         : DELIMITING CHARACTER(SPACE TAB OR COMMA)
~Well Information
#_______________________________________________________________________________
#
#PARAMETER_NAME    .UNIT     VALUE                         : DESCRIPTION
#_______________________________________________________________________________
STRT               .M        2669.2                        : First reference value
STOP               .M        2776.2                        : Last reference value
STEP               .M        0.2                           : Step increment
NULL               .         -9999                         : Missing value
COMP               .                                       : Company
WELL               .         616                           : Well name
FLD                .                                       : Field
LOC                .                                       : Location
CNTY               .                                       : County
STAT               .                                       : State
CTRY               .                                       : Country
SRVC               .                                       : Service Company
DATE               .                                       : Date
API                .                                       : API number
PROJECT_UPGRADE_TIME .         2021-03-18T21_24_50           : 
group              .         Good                          : 
~Parameter Information Block
#_______________________________________________________________________________
#
#PARAMETER_NAME    .UNIT     VALUE                         : DESCRIPTION
#_______________________________________________________________________________
SET                .         D1809_D                       : 
OTHER              .         Программное обеспечение станции MONITOR-386EX 25/12/99 15_08_10   BGF V52 22/08/01 16_56_30   3.1_SNGF___BGF_N_092049: 
OTHER_10           .         Тарировки_                    : 
OTHER_11           .         TM.GRD = 0.00403*TM$.UE + -1.07: 
OTHER_12           .         MN.ATM = (9.34907e-006*TM.GRD + 0.02171)*(MN$.UE + -7.93*TM.GRD + -1787): 
OTHER_13           .         GK.MKR/H = LM. / 42.4676      : 
OTHER_14           .         GK.FLT = 0.1*GK.MKR/H[-1] + (1-0.1)*GK.MKR/H[0]: 
OTHER_2            .         Kedr.exe версия 3.4.2.51      : 
OTHER_3            .         KedrData.dll версия 3.4.2.24  : 
OTHER_4            .         Драйвер версия 2.1.1.3        : 
OTHER_5            .         Мнемоники версия 3.3 S        : 
OTHER_6            .         Прибор_ КСА-Т4                : 
OTHER_7            .         Номер прибора_ 03             : 
OTHER_8            .         Режим_ КСА-Т4                 : 
OTHER_9            .         Форма_ КВА.                   : 
PROJECT_UPGRADE_TIME .         2021-03-18T21_24_49           : 
TLFamily_DEPT      .         Measured Depth                : 
TLFamily_GK        .         Gamma Ray                     : 
TLFamily_GK$       .                                       : 
TLFamily_GK_2      .         Gamma Ray                     : 
TLFamily_LM        .         Casing Collar locator         : 
TLFamily_METKA     .                                       : 
TLFamily_MN        .                                       : 
TLFamily_MN$       .                                       : 
TLFamily_RCOR      .                                       : 
TLFamily_SPID      .         Spontaneous Potential         : 
TLFamily_TENS      .         Cable Tension                 : 
TLFamily_TIME      .         Time                          : 
TLFamily_TM        .         Temperature                   : 
TLFamily_TM$       .         Temperature                   : 
group              .         prim                          : 
~Curve Information
#_______________________________________________________________________________
#
#LOGNAME           .UNIT     LOG_ID                        : DESCRIPTION
#_______________________________________________________________________________
DEPT               .M                                      : 1 Глубина, м -    0.0 см 
GK                 .MKR/H                                  : 13 Гамма-активность, мкр./ч -  110.0 см 
GK$                .UE                                     : 10 Гамма-активность, усл.ед. -  110.0 см 
GK_2               .FLT                                    : 14 Гамма-активность фильтрованная, мкр./ч -  110.0 см 
LM                 .                                       : 9 Локатор муфт,  -   20.0 см 
METKA              .                                       : 3 Метки,  -    0.0 см 
MN                 .ATM                                    : 12 Давление, атм. -  160.0 см 
MN$                .UE                                     : 8 Давление, усл.ед. -  160.0 см 
RCOR               .CM/KM                                  : 5 Коррекция по ролику, см/км -    0.0 см 
SPID               .M/H                                    : 2 Скорость, м/час -    0.0 см 
TENS               .T                                      : 6 Натяжение кабеля, т -    0.0 см 
TIME               .S                                      : 4 Время, сек -    0.0 см 
TM                 .GRD                                    : 11 Температура, °C -  170.0 см 
TM$                .UE                                     : 7 Температура, усл.ед. -  170.0 см 
~Ascii
# ...
2752.4     12.08      513        12.08      114        0          253.866    13633      -678       575        0.05       6790.44    50.756     12860     
2752.6     11.99      509        11.99      123        0          253.858    13633      -678       577        0.07       6791.63    50.859     12885     
2752.8     11.99      509        11.99      82         0          253.874    13634      -678       578        0.07       6792.89    50.957     12910     
2753       11.09      471        11.17      77         0          253.889    13635      -678       588        0.07       6794.12    51.044     12931     
2753.2     11.09      471        11.09      63         0          253.892    13635      -678       593        0.07       6795.39    51.14      12955     
2753.4     10.27      436        10.37      70         0          253.915    13637      -678       581        0.07       6796.64    51.231     12978     
2753.6     10.27      436        10.27      65         0          253.908    13637      -678       583        0.07       6797.89    51.384     13016     
2753.8     10.03      426        10.05      115        0          253.92     13638      -678       591        0.07       6799.14    51.539     13054     
2754       10.03      426        10.03      89         0          253.926    13639      -678       588        0.07       6800.39    51.7       13094     
2754.2     10.81      459        10.73      90         0          253.919    13639      -678       585        0.07       6801.64    51.887     13141     
2754.4     10.81      459        10.81      92         0          253.932    13640      -678       584        0.07       6802.84    52.033     13177     
2754.6     11.14      473        11.09      73         0          253.948    13641      -678       583        0.07       6804.08    52.134     13202     
2754.8     11.14      473        11.14      82         0          253.938    13641      -678       566        0.07       6805.39    52.258     13233     
2755       11.14      473        11.14      93         0          253.947    13642      -678       558        0.07       6806.64    52.414     13271     
2755.2     11.14      473        11.14      88         0          253.956    13643      -678       570        0.07       6807.84    52.614     13321     
2755.4     11.37      483        11.35      117        0          253.968    13644      -678       580        0.05       6809.09    52.788     13364     
2755.6     11.37      483        11.37      105        0          253.979    13645      -678       582        0.05       6810.34    52.935     13401     
2755.8     10.41      442        10.54      103        0          253.99     13646      -678       581        0.07       6811.59    53.097     13441     
2756       10.41      442        10.41      130        0          253.977    13646      -678       581        0.07       6812.81    53.271     13484     
2756.2     10.57      449        10.56      86         0          253.986    13647      -678       575        0.07       6814.09    53.464     13532     
2756.4     10.57      449        10.57      89         0          253.981    13647      -678       580        0.07       6815.34    53.661     13581     
2756.6     11.26      478        11.17      84         0          254.005    13649      -678       572        0.07       6816.57    53.824     13621     
2756.8     11.26      478        11.25      121        0          253.993    13649      -678       571        0.07       6817.78    54.011     13668     
2757       9.96       423        10.19      144        0          254.002    13650      -678       574        0.07       6819.05    54.2       13715     
2757.2     9.96       423        9.97       125        0          254.012    13651      -678       576        0.07       6820.28    54.36      13754     
2757.4     9          382        9.08       200        0          254.003    13651      -678       577        0.07       6821.54    54.552     13802     
2757.6     9          382        9          107        0          254.007    13652      -678       578        0.07       6822.8     54.762     13854     
2757.8     9.77       415        9.68       97         0          254.016    13653      -678       566        0.07       6824.05    54.951     13901     
2758       9.77       415        9.77       88         0          254.001    13653      -678       576        0.07       6825.3     55.169     13955     
2758.2     10.6       450        10.42      93         0          254        13654      -678       579        0.07       6826.56    55.468     14029     
2758.4     10.6       450        10.59      107        0          254.009    13655      -678       589        0.07       6827.75    55.716     14091     
2758.6     9.51       404        9.63       140        0          254.023    13656      -678       586        0.07       6829.02    55.854     14125     
2758.8     9.51       404        9.52       139        0          254.038    13657      -678       585        0.07       6830.24    55.951     14149     
2759       7.65       325        7.9        176        0          254.024    13657      -678       583        0.07       6831.47    56.12      14191     
2759.2     7.65       325        7.66       126        0          254.029    13658      -678       576        0.07       6832.78    56.314     14239     
2759.4     7.68       326        7.67       3404       0          254.031    13659      -678       581        0.07       6834.01    56.622     14316     
2759.6     7.68       326        7.68       2148       0          254.028    13660      -678       587        0.07       6835.27    56.889     14382     
2759.8     8.81       374        8.67       421        0          254.046    13661      -678       591        0.07       6836.51    57.085     14430     
2760       63.79      2709       53.2       156        2          254.035    13661      -678       594        0.07       6837.73    57.242     14470     
2760.2     9.73       413        11.29      154        0          254.033    13662      -684       591        0.04       6839.3     57.435     14517     
2760.4     9.73       413        9.77       137        0          254.046    13663      -684       588        0.05       6840.56    57.609     14560     
2760.6     9.87       419        9.85       120        0          254.039    13663      -684       579        0.05       6841.89    57.832     14616     
2760.8     9.87       419        9.87       115        0          254.057    13664      -684       579        0.05       6843.1     58.009     14660     
2761       9.98       424        9.96       127        0          254.057    13665      -684       579        0.05       6844.34    58.199     14707     
2761.2     9.98       424        9.98       116        0          254.066    13666      -684       581        0.05       6845.59    58.379     14752     
2761.4     9.61       408        9.65       111        0          254.074    13667      -684       586        0.05       6846.8     58.578     14801     
2761.6     9.61       408        9.61       97         0          254.038    13666      -684       590        0.05       6848.06    58.792     14854     
2761.8     9.7        412        9.7        119        0          254.081    13669      -684       593        0.05       6849.25    59.034     14914     
2762       9.7        412        9.7        112        0          254.077    13669      -684       579        0.07       6850.58    59.2       14955     
2762.2     10.08      428        10.05      109        0          254.088    13670      -684       576        0.07       6851.84    59.363     14996     
2762.4     10.08      428        10.08      118        0          254.097    13671      -684       577        0.07       6853.03    59.555     15043     
2762.6     9.07       385        9.11       16516      0          254.108    13672      -684       578        0.07       6854.3     59.723     15085     
