~Version
 VERS              .         2.0                           : CWLS LOG ASCII STANDARD - VERSION 2.0
 WRAP              .         NO                            : ONE LINE PER DEPTH STEP
 DLM               .         SPACE                         : DELIMITING CHARACTER(SPACE TAB OR COMMA)
~Well Information
#_______________________________________________________________________________
#
#PARAMETER_NAME    .UNIT     VALUE                         : DESCRIPTION
#_______________________________________________________________________________
STRT               .M        2648.8                        : First reference value
STOP               .M        2755.39984                    : Last reference value
STEP               .M        0.1999997                     : Step increment
NULL               .         -9999                         : Missing value
COMP               .                                       : Company
WELL               .         616                           : Well name
FLD                .                                       : Field
LOC                .                                       : Location
CNTY               .                                       : County
STAT               .                                       : State
CTRY               .                                       : Country
SRVC               .                                       : Service Company
DATE               .                                       : Date
API                .                                       : API number
PROJECT_UPGRADE_TIME .         2021-03-18T21_24_50           : 
group              .         Good                          : 
~Parameter Information Block
#_______________________________________________________________________________
#
#PARAMETER_NAME    .UNIT     VALUE                         : DESCRIPTION
#_______________________________________________________________________________
SET                .         D7023_D                       : 
OTHER              .         Kedr.exe версия 2.1.2.32      : 
OTHER_10           .         TM.GRD = 0.00404*TM$.UE + 0.07: 
OTHER_11           .         MN.ATM = (6.33279e-006*TM.GRD + 0.02401)*(MN$.UE + 2.72*TM.GRD + -2018): 
OTHER_12           .         GK.MKR/H = GK$.UE / 43.5489 + 0: 
OTHER_13           .         RES.SM = 0.00476*CRES.UE - 1.51709: 
OTHER_14           .         PL.GSM3 = 0 + 0 * (PL.UE / 1) +  0 * (PL.UE / 1)^2: 
OTHER_15           .         Постоянная времени ГГП = 6 сек: 
OTHER_16           .         Постоянная времени ГК = 6 сек : 
OTHER_2            .         KedrData.dll версия 3.2.2.14  : 
OTHER_3            .         LasInf.dll версия 3.2.0.13    : 
OTHER_4            .         Драйвер версия 1.2.0.5        : 
OTHER_5            .         Прибор_ КСА-M1                : 
OTHER_6            .         Номер прибора_ 155+р204       : 
OTHER_7            .         Режим_ КСА-М1 + ГГП + Резистивиметр: 
OTHER_8            .         Форма_ 223\2                  : 
OTHER_9            .         Тарировки_                    : 
PROJECT_UPGRADE_TIME .         2021-03-18T21_24_50           : 
TLFamily_CRES      .                                       : 
TLFamily_DEPT      .         Measured Depth                : 
TLFamily_GK        .         Gamma Ray                     : 
TLFamily_GK$       .                                       : 
TLFamily_LM        .         Casing Collar locator         : 
TLFamily_METKA     .                                       : 
TLFamily_MN        .                                       : 
TLFamily_MN$       .                                       : 
TLFamily_PL        .                                       : 
TLFamily_PL_2      .                                       : 
TLFamily_RCOR      .                                       : 
TLFamily_RES       .         Mud Resistivity               : 
TLFamily_SPID      .         Spontaneous Potential         : 
TLFamily_STD       .                                       : 
TLFamily_TIME      .         Time                          : 
TLFamily_TM        .         Temperature                   : 
TLFamily_TM$       .         Temperature                   : 
TLFamily_VGD       .         Gas Volume                    : 
group              .         prim                          : 
~Curve Information
#_______________________________________________________________________________
#
#LOGNAME           .UNIT     LOG_ID                        : DESCRIPTION
#_______________________________________________________________________________
DEPT               .M                                      : 1 Глубина, м -    0.0 см 
CRES               .UE                                     : 9 Проводимость, усл.ед. -  222.0 см 
GK                 .MKR/H                                  : 16 Гамма-активность, мкр./ч -  106.0 см 
GK$                .UE                                     : 13 Гамма-активность, усл.ед. -  106.0 см 
LM                 .                                       : 11 Локатор муфт,  -   16.0 см 
METKA              .                                       : 3 Метки,  -    0.0 см 
MN                 .ATM                                    : 15 Давление, атм. -  160.0 см 
MN$                .UE                                     : 7 Давление, усл.ед. -  160.0 см 
PL                 .UE                                     : 10 Плотность, усл.ед. -  270.0 см 
PL_2               .GSM3                                   : 18 Плотность, г./см3 -  270.0 см 
RCOR               .CM/KM                                  : 5 Коррекция по ролику, см/км -    0.0 см 
RES                .SM                                     : 17 Проводимость,  -  222.0 см 
SPID               .M/H                                    : 2 Скорость, м/час -    0.0 см 
STD                .                                       : 12 Приток,  -  170.0 см 
TIME               .S                                      : 4 Время, сек -    0.0 см 
TM                 .GRD                                    : 14 Температура, °C -  180.0 см 
TM$                .UE                                     : 6 Температура, усл.ед. -  180.0 см 
VGD                .                                       : 8 Влагомер,  -  170.0 см 
~Ascii
# ...
2714.399902 1199       7.37       324        1066       0          364.216    16838      14         0          0          4.1901     580        10263      15129.72   52.4       12953      6702      
2714.599901 1199       7.39       323        288        0          365.162    16877      14         0          0          4.1885     580        10262      15131.01   52.383     12949      6705      
2714.799901 1198       7.41       323        358        0          363.74     16819      15         0          0          4.1854     522        10261      15132.32   52.368     12945      6705      
2714.999901 1199       7.63       346        254        0          362.996    16788      14         0          0          4.1901     580        10262      15133.59   52.352     12941      6698      
2715.1999  1199       7.79       346        292        0          364.397    16846      14         0          0          4.1901     580        10260      15134.86   52.335     12937      6697      
2715.3999  1198       8.06       363        153        0          365.211    16879      13         0          0          4.1874     580        10260      15136.17   52.327     12935      6702      
2715.5999  1199       8.21       366        92         0          366.511    16933      14         0          0          4.1886     533        10259      15137.44   52.321     12933      6694      
2715.7999  1198       8.34       369        68         0          366.924    16950      14         0          0          4.1862     580        10259      15138.71   52.306     12930      6700      
2715.999899 1198       8.4        369        93         0          367.688    16981      14         0          0          4.1854     580        10255      15139.98   52.295     12927      6692      
2716.199899 1198       8.19       347        53         0          366.767    16944      14         0          0          4.1854     580        10252      15141.32   52.295     12927      6689      
2716.399899 1198       8.02       333        63         0          367.55     16976      15         0          0          4.1854     557        10251      15142.63   52.295     12927      6693      
2716.599898 1197       7.68       319        89         0          367.43     16971      14         0          0          4.1806     520        10252      15143.91   52.291     12926      6694      
2716.799898 1198       7.45       305        72         0          367.512    16974      14         0          0          4.1862     522        10253      15145.24   52.291     12926      6704      
2716.999898 1197       7.21       303        65         0          366.464    16931      13         0          0          4.183      557        10250      15146.5    52.275     12922      6703      
2717.199897 1197       7.41       362        87         0          366.024    16913      14         0          0          4.1806     580        10247      15147.82   52.265     12920      6701      
2717.399897 1197       7.86       362        63         0          365.436    16889      14         0          0          4.1806     510        10245      15149.1    52.252     12916      6703      
2717.599897 1196       8.55       468        63         0          364.915    16868      13         0          0          4.1759     568        10241      15150.42   52.243     12914      6701      
2717.799897 1196       9.61       468        63         0          365.262    16882      14         0          0          4.1759     580        10240      15151.69   52.222     12909      6700      
2717.999896 1196       10.21      476        56         0          364.481    16850      14         0          0          4.1735     580        10238      15153.03   52.216     12907      6690      
2718.199896 1195       10.57      476        48         0          364.378    16846      13         0          0          4.1711     580        10239      15154.34   52.208     12905      6703      
2718.399896 1194       10.79      481        43         0          364.637    16857      14         0          0          4.1663     510        10240      15155.61   52.194     12902      6686      
2718.599895 1193       10.91      481        148        0          365.286    16884      14         0          0          4.1632     510        10239      15156.88   52.177     12898      6688      
2718.799895 1193       11         485        254        0          365.964    16911      14         0          0          4.1616     580        10237      15158.19   52.168     12896      6695      
2718.999895 1192       11.07      485        525        0          366.041    16915      13         0          0          4.1568     568        10235      15159.46   52.151     12891      6697      
2719.199894 1192       10.31      384        428        0          367.708    16984      14         0          0          4.1568     580        10233      15160.73   52.127     12885      6700      
2719.399894 1192       9.59       384        346        0          365.856    16907      14         0          0          4.1552     533        10231      15162.07   52.092     12877      6696      
2719.599894 1192       8.57       310        451        0          367.703    16983      13         0          0          4.1568     557        10223      15163.38   52.084     12875      6696      
2719.799894 1191       7.84       310        335        0          368.581    17020      14         0          0          4.1521     522        10212      15164.65   52.068     12871      6692      
2719.999893 1191       7.38       299        432        0          367.884    16991      14         0          0          4.1521     580        10203      15165.92   52.037     12863      6695      
2720.199893 1188       7.13       299        440        1          367.639    16982      14         0          0          4.1358     580        10192      15167.85   52.006     12855      6697      
2720.399893 1186       7.14       315        979        0          367.209    16964      14         0          0          4.1283     580        10185      15169.17   51.965     12845      6693      
2720.599892 1186       7.19       315        615        0          367.494    16976      14         0          0          4.1275     580        10182      15170.42   51.945     12840      6697      
2720.799892 1182       7.35       329        192        0          367.329    16970      15         0          0          4.1091     545        10173      15171.71   51.917     12833      6699      
2720.999892 1173       7.43       324        127        0          367.038    16959      14         0          0          4.0648     580        10150      15173.04   51.81      12807      6702      
2721.199891 1171       6.96       291        179        0          365.702    16906      14         0          0          4.0569     580        10119      15174.29   51.677     12774      6701      
2721.399891 1168       6.74       281        125        0          365.488    16898      14         0          0          4.0442     580        10072      15175.63   51.41      12708      6712      
2721.599891 1167       6.6        281        85         0          365.217    16889      14         0          0          4.0378     550        10023      15176.92   51.226     12662      6709      
2721.799891 1164       6.76       319        82         0          368.327    17020      14         0          0          4.022      568        9953       15178.23   50.905     12583      6711      
2721.99989 1163       7.04       319        89         0          368.093    17012      14         0          0          4.0164     522        9896       15179.54   50.489     12480      6713      
2722.19989 1162       7.23       326        121        0          367.6      16993      13         0          0          4.014      580        9844       15180.81   50.249     12421      6714      
2722.39989 1160       7.36       326        110        0          367.203    16978      13         0          0          4.0021     557        9802       15182.15   50.065     12375      6717      
