~Version
 VERS              .         2.0                           : CWLS LOG ASCII STANDARD - VERSION 2.0
 WRAP              .         NO                            : ONE LINE PER DEPTH STEP
 DLM               .         SPACE                         : DELIMITING CHARACTER(SPACE TAB OR COMMA)
~Well Information
#_______________________________________________________________________________
#
#PARAMETER_NAME    .UNIT     VALUE                         : DESCRIPTION
#_______________________________________________________________________________
STRT               .M        2659.6                        : First reference value
STOP               .M        2768.6                        : Last reference value
STEP               .M        0.2                           : Step increment
NULL               .         -9999                         : Missing value
COMP               .                                       : Company
WELL               .         616                           : Well name
FLD                .                                       : Field
LOC                .                                       : Location
CNTY               .                                       : County
STAT               .                                       : State
CTRY               .                                       : Country
SRVC               .                                       : Service Company
DATE               .                                       : Date
API                .                                       : API number
PROJECT_UPGRADE_TIME .         2021-03-18T21_24_50           : 
group              .         Good                          : 
~Parameter Information Block
#_______________________________________________________________________________
#
#PARAMETER_NAME    .UNIT     VALUE                         : DESCRIPTION
#_______________________________________________________________________________
SET                .         D1166_D                       : 
OTHER              .         Программное обеспечение станции MONITOR-386EX 25/12/99 15_08_10   BGF V52 22/08/01 16_56_30   3.2_BGF_N_3070031: 
OTHER_10           .         Тарировки_                    : 
OTHER_11           .         TM.GRD = 0.00403*TM$.UE + -1.19: 
OTHER_12           .         MN.ATM = (7.1e-006*TM.GRD + 0.02017)*(MN$.UE + -3.03*TM.GRD + -1833): 
OTHER_13           .         Id error                      : 
OTHER_2            .         Kedr.exe версия 3.4.2.51      : 
OTHER_3            .         KedrData.dll версия 3.4.2.24  : 
OTHER_4            .         Драйвер версия 2.1.1.8        : 
OTHER_5            .         Мнемоники версия 3.3 S        : 
OTHER_6            .         Прибор_ КСА-М1                : 
OTHER_7            .         Номер прибора_ 265            : 
OTHER_8            .         Режим_ КСА-М1                 : 
OTHER_9            .         Форма_ ТЕРМОМЕТР              : 
PROJECT_UPGRADE_TIME .         2021-03-18T21_24_49           : 
TLFamily_DEPT      .         Measured Depth                : 
TLFamily_GK        .         Gamma Ray                     : 
TLFamily_GK$       .                                       : 
TLFamily_LM        .         Casing Collar locator         : 
TLFamily_METKA     .                                       : 
TLFamily_MN        .                                       : 
TLFamily_MN$       .                                       : 
TLFamily_RCOR      .                                       : 
TLFamily_SPID      .         Spontaneous Potential         : 
TLFamily_STD       .                                       : 
TLFamily_TENS      .         Cable Tension                 : 
TLFamily_TIME      .         Time                          : 
TLFamily_TM        .         Temperature                   : 
TLFamily_TM$       .         Temperature                   : 
TLFamily_VGD       .         Gas Volume                    : 
group              .         prim                          : 
~Curve Information
#_______________________________________________________________________________
#
#LOGNAME           .UNIT     LOG_ID                        : DESCRIPTION
#_______________________________________________________________________________
DEPT               .M                                      : 1 Глубина, м -    0.0 см 
GK                 .MKR/H                                  : 15 Гамма-активность, мкр./ч -  110.0 см 
GK$                .UE                                     : 12 Гамма-активность, усл.ед. -  110.0 см 
LM                 .                                       : 10 Локатор муфт,  -   20.0 см 
METKA              .                                       : 3 Метки,  -    0.0 см 
MN                 .ATM                                    : 14 Давление, атм. -  160.0 см 
MN$                .UE                                     : 8 Давление, усл.ед. -  160.0 см 
RCOR               .CM/KM                                  : 5 Коррекция по ролику, см/км -    0.0 см 
SPID               .M/H                                    : 2 Скорость, м/час -    0.0 см 
STD                .                                       : 11 Приток,  -  170.0 см 
TENS               .T                                      : 6 Натяжение кабеля, т -    0.0 см 
TIME               .S                                      : 4 Время, сек -    0.0 см 
TM                 .GRD                                    : 13 Температура, °C -  180.0 см 
TM$                .UE                                     : 7 Температура, усл.ед. -  180.0 см 
VGD                .                                       : 9 Влагомер,  -  170.0 см 
~Ascii
# ...
2708.6     7.23       313        1          0          359.862    19411      -1400      597        31557      0          22186.26   86.055     21649      6564      
2708.8     7.44       322        1          1          361.115    19471      -1400      593        31552      0          22187.54   86.064     21651      6564      
2709       7.5        322        1          0          358.376    19339      -1400      590        31556      0          22188.75   86.064     21651      6564      
2709.2     7.43       316        1          0          359.858    19410      -1400      593        31559      0          22189.95   86.064     21651      6564      
2709.4     7.43       319        1          0          360.318    19433      -1400      594        31564      0          22191.16   86.068     21652      6563      
2709.6     7.48       321        1          0          359.039    19371      -1400      589        31563      0          22192.42   86.068     21652      6563      
2709.8     7.5        321        1          0          359.691    19402      -1400      594        31566      0          22193.62   86.076     21654      6563      
2710       7.39       314        1          2          359.833    19409      -1400      602        31565      0          22194.78   86.078     21655      6563      
2710.2     7.36       314        1          0          359.449    19391      -1400      596        31569      0          22196.14   86.084     21656      6564      
2710.4     7.11       298        1          0          359.624    19399      -1400      592        31570      0          22197.35   86.092     21658      6563      
2710.6     7.07       305        1          0          360.003    19417      -1400      594        31569      0          22198.53   86.096     21659      6563      
2710.8     7.7        341        1          0          359.994    19417      -1400      596        31573      0          22199.72   86.096     21659      6563      
2711       7.89       341        1          0          358.921    19365      -1400      580        31579      0          22201.02   86.1       21660      6562      
2711.2     7.84       334        1          0          359.32     19384      -1400      584        31584      0          22202.17   86.103     21661      6562      
2711.4     7.82       334        1          0          360.93     19462      -1400      589        31586      0          22203.4    86.104     21661      6563      
2711.6     7.76       330        1          0          359.582    19397      -1400      595        31593      0          22204.64   86.109     21662      6562      
2711.8     7.73       330        1          0          360.036    19419      -1400      589        31593      0          22205.86   86.112     21663      6563      
2712       8.25       373        1          1          361.533    19491      -1400      591        31596      0          22207.05   86.112     21663      6563      
2712.2     8.57       373        1          0          359.337    19385      -1400      593        31594      0          22208.29   86.116     21664      6562      
2712.4     8.77       380        1          0          360.256    19429      -1400      587        31599      0          22209.51   86.124     21666      6562      
2712.6     8.85       380        1          0          361.572    19493      -1400      587        31603      0          22210.72   86.125     21666      6562      
2712.8     8.83       376        1          0          359.442    19390      -1400      591        31607      0          22211.92   86.129     21667      6561      
2713       8.81       376        1          0          360.416    19437      -1400      599        31604      0          22213.19   86.136     21669      6562      
2713.2     8.14       310        1          1          361.545    19491      -1400      593        31599      0          22214.38   86.143     21671      6561      
2713.4     7.52       310        1          0          358.706    19355      -1400      599        31598      0          22215.56   86.152     21673      6562      
2713.6     6.38       238        1          0          360.229    19428      -1400      597        31600      0          22216.76   86.152     21673      6561      
2713.8     5.84       238        1          0          361.116    19471      -1400      593        31603      0          22218.01   86.156     21674      6562      
2714       5.48       221        1          0          359.327    19385      -1400      589        31601      0          22219.22   86.156     21674      6562      
2714.2     5.26       221        1          0          359.95     19415      -1400      595        31602      0          22220.42   86.156     21674      6561      
2714.4     4.9        186        1886       0          359.903    19412      -1400      599        31600      0          22221.65   86.158     21674      6561      
2714.6     4.53       186        580        0          359.627    19399      -1400      594        31604      0          22222.84   86.16      21675      6562      
2714.8     4.39       185        1          0          360.049    19419      -1400      596        31605      0          22224.09   86.168     21677      6561      
2715       4.35       185        1          0          360.346    19434      -1400      596        31607      0          22225.28   86.168     21677      6561      
2715.2     4.75       232        1          0          360.953    19463      -1400      589        31607      0          22226.54   86.172     21678      6561      
2715.4     5.21       232        1          0          359.92     19413      -1400      595        31611      0          22227.72   86.177     21679      6561      
2715.6     5.55       256        1          0          360.505    19441      -1400      602        31610      0          22228.91   86.18      21680      6561      
2715.8     6.08       270        1          0          361.455    19487      -1400      598        31608      0          22230.14   86.18      21680      6561      
2716       6.25       272        1          0          359.871    19411      -1400      602        31609      0          22231.33   86.186     21682      6560      
2716.2     6.51       283        1          0          360.847    19458      -1400      602        31607      0          22232.55   86.19      21682      6561      
2716.4     6.56       280        1          0          362.257    19525      -1400      597        31611      0          22233.75   86.193     21683      6561      
2716.6     6.54       279        1          0          359.814    19408      -1400      586        31614      0          22235      86.2       21685      6561      
2716.8     6.53       279        1          0          360.802    19455      -1400      589        31617      0          22236.21   86.201     21685      6560      
2717       6.53       279        33         0          362.09     19517      -1400      598        31612      0          22237.42   86.202     21685      6561      
2717.2     6.53       279        1          0          359.729    19404      -1400      599        31615      0          22238.62   86.209     21687      6561      
2717.4     6.82       298        1          0          360.851    19458      -1400      597        31617      0          22239.83   86.212     21688      6561      
2717.6     6.94       300        1          0          361.409    19485      -1400      594        31617      0          22241.06   86.217     21689      6561      
2717.8     7.06       304        1          0          359.694    19402      -1400      596        31615      0          22242.26   86.221     21690      6561      
2718       7.09       304        1          0          360.777    19454      -1400      592        31620      0          22243.51   86.229     21692      6561      
2718.2     7.67       341        1          0          361.38     19483      -1400      594        31624      0          22244.7    86.233     21693      6560      
