~Version
 VERS              .         2.0                           : CWLS LOG ASCII STANDARD - VERSION 2.0
 WRAP              .         NO                            : ONE LINE PER DEPTH STEP
 DLM               .         SPACE                         : DELIMITING CHARACTER(SPACE TAB OR COMMA)
~Well Information
#_______________________________________________________________________________
#
#PARAMETER_NAME    .UNIT     VALUE                         : DESCRIPTION
#_______________________________________________________________________________
STRT               .M        10.2                          : First reference value
STOP               .M        2757.4                        : Last reference value
STEP               .M        0.2                           : Step increment
NULL               .         -9999                         : Missing value
COMP               .                                       : Company
WELL               .         616                           : Well name
FLD                .                                       : Field
LOC                .                                       : Location
CNTY               .                                       : County
STAT               .                                       : State
CTRY               .                                       : Country
SRVC               .                                       : Service Company
DATE               .                                       : Date
API                .                                       : API number
PROJECT_UPGRADE_TIME .         2021-03-18T21_24_50           : 
group              .         Good                          : 
~Parameter Information Block
#_______________________________________________________________________________
#
#PARAMETER_NAME    .UNIT     VALUE                         : DESCRIPTION
#_______________________________________________________________________________
SET                .         D7016_D                       : 
OTHER              .         Kedr.exe версия 2.1.2.32      : 
OTHER_10           .         TM.GRD = 0.00404*TM$.UE + 0.07: 
OTHER_11           .         MN.ATM = (6.33279e-006*TM.GRD + 0.02401)*(MN$.UE + 2.72*TM.GRD + -2018): 
OTHER_12           .         GK.MKR/H = GK$.UE / 43.5489 + 0: 
OTHER_13           .         RES.SM = 0.00476*CRES.UE - 1.51709: 
OTHER_14           .         PL.GSM3 = 0 + 0 * (PL.UE / 1) +  0 * (PL.UE / 1)^2: 
OTHER_15           .         Постоянная времени ГГП = 6 сек: 
OTHER_16           .         Постоянная времени ГК = 6 сек : 
OTHER_2            .         KedrData.dll версия 3.2.2.14  : 
OTHER_3            .         LasInf.dll версия 3.2.0.13    : 
OTHER_4            .         Драйвер версия 1.2.0.5        : 
OTHER_5            .         Прибор_ КСА-M1                : 
OTHER_6            .         Номер прибора_ 155+р204       : 
OTHER_7            .         Режим_ КСА-М1 + ГГП + Резистивиметр: 
OTHER_8            .         Форма_ 223\2                  : 
OTHER_9            .         Тарировки_                    : 
PROJECT_UPGRADE_TIME .         2021-03-18T21_24_50           : 
TLFamily_CRES      .                                       : 
TLFamily_DEPT      .         Measured Depth                : 
TLFamily_GK        .         Gamma Ray                     : 
TLFamily_GK$       .                                       : 
TLFamily_LM        .         Casing Collar locator         : 
TLFamily_METKA     .                                       : 
TLFamily_MN        .                                       : 
TLFamily_MN$       .                                       : 
TLFamily_PL        .                                       : 
TLFamily_PL_2      .                                       : 
TLFamily_RCOR      .                                       : 
TLFamily_RES       .         Mud Resistivity               : 
TLFamily_SPID      .         Spontaneous Potential         : 
TLFamily_STD       .                                       : 
TLFamily_TIME      .         Time                          : 
TLFamily_TM        .         Temperature                   : 
TLFamily_TM$       .         Temperature                   : 
TLFamily_VGD       .         Gas Volume                    : 
group              .         prim                          : 
~Curve Information
#_______________________________________________________________________________
#
#LOGNAME           .UNIT     LOG_ID                        : DESCRIPTION
#_______________________________________________________________________________
DEPT               .M                                      : 1 Глубина, м -    0.0 см 
CRES               .UE                                     : 9 Проводимость, усл.ед. -  270.0 см 
GK                 .MKR/H                                  : 16 Гамма-активность, мкр./ч -  106.0 см 
GK$                .UE                                     : 13 Гамма-активность, усл.ед. -  106.0 см 
LM                 .                                       : 11 Локатор муфт,  -   16.0 см 
METKA              .                                       : 3 Метки,  -    0.0 см 
MN                 .ATM                                    : 15 Давление, атм. -  160.0 см 
MN$                .UE                                     : 7 Давление, усл.ед. -  160.0 см 
PL                 .UE                                     : 10 Плотность, усл.ед. -  270.0 см 
PL_2               .GSM3                                   : 18 Плотность, г./см3 -  270.0 см 
RCOR               .CM/KM                                  : 5 Коррекция по ролику, см/км -    0.0 см 
RES                .SM                                     : 17 Проводимость,  -  270.0 см 
SPID               .M/H                                    : 2 Скорость, м/час -    0.0 см 
STD                .                                       : 12 Приток,  -  170.0 см 
TIME               .S                                      : 4 Время, сек -    0.0 см 
TM                 .GRD                                    : 14 Температура, °C -  180.0 см 
TM$                .UE                                     : 6 Температура, усл.ед. -  180.0 см 
VGD                .                                       : 8 Влагомер,  -  170.0 см 
~Ascii
# ...
2019.2     1407       5.81       251        168        0          181.229    9295       13         0          0          5.1789     1660       11309      6026.11    57.846     14301      6630      
2019.4     1406       5.81       252        151        0          181.247    9296       14         0          0          5.1737     1660       11309      6026.55    57.847     14301      6635      
2019.6     1405       5.82       255        4892       0          181.259    9296       14         0          0          5.1728     1660       11309      6026.99    57.853     14303      6628      
2019.8     1405       5.83       255        3007       0          181.272    9297       14         0          0          5.1728     1660       11309      6027.41    57.858     14304      6627      
2020       1406       5.83       255        1875       0          181.289    9298       14         0          0          5.1739     1713       11311      6027.99    57.861     14305      6632      
2020.2     1406       5.84       255        1191       1          181.316    9299       14         0          0          5.1755     1730       11312      6028.47    57.862     14305      6638      
2020.4     1408       5.84       255        523        0          181.344    9300       14         0          0          5.1839     1723       11314      6028.91    57.865     14306      6637      
2020.6     1408       5.9        269        368        0          181.347    9300       14         0          0          5.185      1660       11315      6029.33    57.87      14307      6634      
2020.8     1408       5.96       270        296        0          181.371    9301       14         0          0          5.185      1660       11314      6029.76    57.874     14308      6637      
2021       1406       6.01       270        238        0          181.396    9302       13         0          0          5.1755     1660       11314      6030.2     57.874     14308      6634      
2021.2     1406       6.06       270        199        0          181.384    9301       13         0          0          5.1744     1660       11316      6030.64    57.875     14308      6626      
2021.4     1405       6.09       270        188        0          181.377    9301       14         0          0          5.1707     1660       11318      6031.08    57.879     14309      6627      
2021.6     1405       6.3        314        194        0          181.464    9305       14         0          0          5.1707     1660       11317      6031.52    57.884     14310      6629      
2021.8     1405       6.53       322        198        0          181.495    9306       14         0          0          5.173      1660       11318      6031.95    57.883     14310      6632      
2022       1406       6.71       322        233        0          181.495    9306       14         0          0          5.1755     1660       11320      6032.39    57.886     14311      6634      
2022.2     1406       6.85       322        248        0          181.5      9306       14         0          0          5.1755     1609       11319      6032.86    57.891     14312      6633      
2022.4     1406       6.96       322        248        0          181.527    9307       14         0          0          5.1755     1660       11320      6033.28    57.895     14313      6631      
2022.6     1405       7.05       322        215        0          181.545    9308       13         0          0          5.1717     1637       11323      6033.74    57.896     14313      6634      
2022.8     1406       7.25       350        185        0          181.571    9309       13         0          0          5.1734     1600       11322      6034.19    57.9       14314      6625      
2023       1406       7.53       376        187        0          181.594    9310       14         0          0          5.1734     1637       11322      6034.62    57.903     14315      6626      
2023.2     1405       7.77       376        155        0          181.613    9311       14         0          0          5.1695     1660       11325      6035.07    57.905     14316      6629      
2023.4     1405       7.95       376        294        0          181.619    9311       14         0          0          5.1728     1607       11324      6035.51    57.907     14316      6629      
2023.6     1407       8.09       376        280        0          181.643    9312       13         0          0          5.1794     1657       11324      6035.94    57.91      14317      6639      
2023.8     1407       8.18       368        297        0          181.672    9313       14         0          0          5.1802     1660       11325      6036.36    57.914     14318      6639      
2024       1405       8.1        339        241        0          181.693    9314       14         0          0          5.1712     1660       11326      6036.82    57.915     14318      6631      
2024.2     1406       8.03       339        194        0          181.703    9314       14         0          0          5.1746     1660       11326      6037.25    57.92      14319      6629      
2024.4     1405       7.98       339        166        0          181.731    9316       14         0          0          5.1722     1660       11328      6037.7     57.923     14320      6632      
2024.6     1406       7.94       339        142        0          181.743    9316       14         0          0          5.1755     1628       11327      6038.13    57.925     14321      6629      
2024.8     1407       7.91       339        171        0          181.762    9317       13         0          0          5.1782     1600       11328      6038.57    57.927     14321      6631      
2025       1406       7.78       314        173        0          181.789    9318       13         0          0          5.1737     1647       11330      6039.01    57.927     14321      6633      
2025.2     1407       7.65       311        227        0          181.816    9319       14         0          0          5.1781     1660       11331      6039.46    57.93      14322      6634      
2025.4     1408       7.54       311        225        1          181.817    9319       14         0          0          5.185      1600       11331      6039.88    57.935     14323      6627      
2025.6     1407       7.46       311        189        0          181.828    9319       14         0          0          5.18       1607       11332      6040.33    57.935     14323      6632      
2025.8     1406       7.39       311        201        0          181.874    9321       14         0          0          5.1746     1646       11332      6040.78    57.939     14324      6633      
2026       1405       7.34       311        247        0          181.891    9322       14         0          0          5.1707     1600       11334      6041.22    57.94      14324      6637      
2026.2     1406       7.35       323        269        0          181.892    9322       13         0          0          5.1747     1628       11334      6041.66    57.945     14325      6642      
2026.4     1406       7.41       333        241        0          181.908    9323       14         0          0          5.1778     1625       11334      6042.09    57.947     14326      6632      
2026.6     1407       7.46       333        175        0          181.935    9324       13         0          0          5.1786     1600       11334      6042.54    57.95      14327      6627      
2026.8     1406       7.5        333        161        0          181.941    9324       13         0          0          5.1732     1647       11335      6042.97    57.951     14327      6628      
2027       1407       7.53       333        186        0          181.99     9326       13         0          0          5.1791     1660       11336      6043.41    57.955     14328      6629      
2027.2     1407       7.57       337        178        0          181.99     9326       14         0          0          5.1802     1660       11337      6043.85    57.959     14329      6636      
