~Version
 VERS              .         2.0                           : CWLS LOG ASCII STANDARD - VERSION 2.0
 WRAP              .         NO                            : ONE LINE PER DEPTH STEP
 DLM               .         SPACE                         : DELIMITING CHARACTER(SPACE TAB OR COMMA)
~Well Information
#_______________________________________________________________________________
#
#PARAMETER_NAME    .UNIT     VALUE                         : DESCRIPTION
#_______________________________________________________________________________
STRT               .M        47.8                          : First reference value
STOP               .M        2693.8                        : Last reference value
STEP               .M        0.2                           : Step increment
NULL               .         -9999                         : Missing value
COMP               .                                       : Company
WELL               .         616                           : Well name
FLD                .                                       : Field
LOC                .                                       : Location
CNTY               .                                       : County
STAT               .                                       : State
CTRY               .                                       : Country
SRVC               .                                       : Service Company
DATE               .                                       : Date
API                .                                       : API number
PROJECT_UPGRADE_TIME .         2021-03-18T21_24_50           : 
group              .         Good                          : 
~Parameter Information Block
#_______________________________________________________________________________
#
#PARAMETER_NAME    .UNIT     VALUE                         : DESCRIPTION
#_______________________________________________________________________________
SET                .         D1172_D                       : 
OTHER              .         Программное обеспечение станции MONITOR-386EX 25/12/99 15_08_10   BGF V52 22/08/01 16_56_30   3.2_BGF_N_3070031: 
OTHER_10           .         Тарировки_                    : 
OTHER_11           .         TM.GRD = 0.00403*TM$.UE + -1.19: 
OTHER_12           .         MN.ATM = (7.1e-006*TM.GRD + 0.02017)*(MN$.UE + -3.03*TM.GRD + -1833): 
OTHER_13           .         Id error                      : 
OTHER_2            .         Kedr.exe версия 3.4.2.51      : 
OTHER_3            .         KedrData.dll версия 3.4.2.24  : 
OTHER_4            .         Драйвер версия 2.1.1.8        : 
OTHER_5            .         Мнемоники версия 3.3 S        : 
OTHER_6            .         Прибор_ КСА-М1                : 
OTHER_7            .         Номер прибора_ 265            : 
OTHER_8            .         Режим_ КСА-М1                 : 
OTHER_9            .         Форма_ ТЕРМОМЕТР              : 
PROJECT_UPGRADE_TIME .         2021-03-18T21_24_49           : 
TLFamily_DEPT      .         Measured Depth                : 
TLFamily_GK        .         Gamma Ray                     : 
TLFamily_GK$       .                                       : 
TLFamily_LM        .         Casing Collar locator         : 
TLFamily_METKA     .                                       : 
TLFamily_MN        .                                       : 
TLFamily_MN$       .                                       : 
TLFamily_RCOR      .                                       : 
TLFamily_SPID      .         Spontaneous Potential         : 
TLFamily_STD       .                                       : 
TLFamily_TENS      .         Cable Tension                 : 
TLFamily_TIME      .         Time                          : 
TLFamily_TM        .         Temperature                   : 
TLFamily_TM$       .         Temperature                   : 
TLFamily_VGD       .         Gas Volume                    : 
group              .         prim                          : 
~Curve Information
#_______________________________________________________________________________
#
#LOGNAME           .UNIT     LOG_ID                        : DESCRIPTION
#_______________________________________________________________________________
DEPT               .M                                      : 1 Глубина, м -    0.0 см 
GK                 .MKR/H                                  : 15 Гамма-активность, мкр./ч -  110.0 см 
GK$                .UE                                     : 12 Гамма-активность, усл.ед. -  110.0 см 
LM                 .                                       : 10 Локатор муфт,  -   20.0 см 
METKA              .                                       : 3 Метки,  -    0.0 см 
MN                 .ATM                                    : 14 Давление, атм. -  160.0 см 
MN$                .UE                                     : 8 Давление, усл.ед. -  160.0 см 
RCOR               .CM/KM                                  : 5 Коррекция по ролику, см/км -    0.0 см 
SPID               .M/H                                    : 2 Скорость, м/час -    0.0 см 
STD                .                                       : 11 Приток,  -  170.0 см 
TENS               .T                                      : 6 Натяжение кабеля, т -    0.0 см 
TIME               .S                                      : 4 Время, сек -    0.0 см 
TM                 .GRD                                    : 13 Температура, °C -  180.0 см 
TM$                .UE                                     : 7 Температура, усл.ед. -  180.0 см 
VGD                .                                       : 9 Влагомер,  -  170.0 см 
~Ascii
# ...
224.2      3.1        133        2965       0          19.554     2834       -1400      -1891      490        0          33887.43   11.569     3166       6630      
224.4      3.1        133        234        0          19.575     2835       -1400      -1889      486        0          33887.09   11.563     3164       6630      
224.6      3.09       133        33         0          19.597     2836       -1400      -1891      483        0          33886.7    11.556     3163       6630      
224.8      3.08       133        66         0          19.619     2837       -1400      -1888      482        0          33886.3    11.55      3161       6630      
225        3.06       132        64         0          19.639     2838       -1400      -1884      479        0          33885.95   11.543     3160       6630      
225.2      3.04       131        75         0          19.66      2839       -1400      -1887      475        0          33885.55   11.538     3158       6629      
225.4      3.02       131        80         0          19.682     2840       -1400      -1883      472        0          33885.16   11.531     3157       6629      
225.6      3          131        94         0          19.704     2841       -1400      -1880      470        0          33884.77   11.522     3154       6630      
225.8      2.97       131        101        0          19.727     2842       -1400      -1881      466        0          33884.39   11.514     3152       6630      
226        2.92       131        131        0          19.746     2843       -1400      -1876      464        0          33884.04   11.509     3151       6630      
226.2      2.84       131        81         0          19.768     2844       -1400      -1871      462        0          33883.66   11.498     3148       6632      
226.4      2.72       121        91         0          19.79      2845       -1400      -1870      458        0          33883.28   11.493     3147       6631      
226.6      2.66       114        76         0          19.811     2846       -1400      -1879      455        0          33882.9    11.484     3145       6632      
226.8      2.66       114        75         0          19.832     2847       -1400      -1884      454        0          33882.51   11.476     3143       6633      
227        2.66       114        93         0          19.855     2848       -1400      -1883      451        0          33882.13   11.468     3141       6633      
227.2      2.66       114        67         0          19.872     2849       -1400      -1885      446        0          33881.74   11.463     3140       6633      
227.4      2.65       114        79         0          19.878     2849       -1400      -1885      444        0          33881.37   11.454     3138       6633      
227.6      2.65       114        61         0          19.898     2850       -1400      -1884      443        0          33880.99   11.446     3136       6633      
227.8      2.63       113        65         0          19.919     2851       -1400      -1887      440        0          33880.62   11.439     3134       6633      
228        2.63       113        69         0          19.941     2852       -1400      -1886      437        0          33880.23   11.434     3132       6632      
228.2      2.62       113        68         0          19.962     2853       -1400      -1882      434        0          33879.84   11.426     3130       6630      
228.4      2.61       113        72         0          19.985     2854       -1400      -1878      431        0          33879.46   11.417     3128       6632      
228.6      2.59       113        52         0          20.006     2855       -1400      -1878      427        0          33879.1    11.41      3127       6630      
228.8      2.56       113        46         0          20.028     2857       -1400      -1880      424        0          33878.72   11.404     3125       6630      
229        2.51       112        44         0          20.049     2858       -1400      -1883      422        0          33878.34   11.395     3123       6630      
229.2      2.45       106        51         0          20.07      2859       -1400      -1885      422        0          33877.95   11.389     3121       6630      
229.4      2.44       106        66         0          20.079     2859       -1400      -1888      419        0          33877.57   11.383     3120       6631      
229.6      2.42       106        81         0          20.107     2860       -1400      -1885      416        0          33877.16   11.375     3118       6630      
229.8      2.39       106        72         0          20.135     2862       -1400      -1888      415        0          33876.8    11.369     3116       6630      
230        2.34       106        62         2          20.156     2863       -1400      -1891      413        0          33876.42   11.362     3115       6631      
230.2      2.27       106        67         0          20.162     2863       -1400      -1893      410        0          33876.04   11.356     3113       6630      
230.4      2.15       99         77         0          20.178     2864       -1400      -1890      407        0          33875.65   11.349     3111       6630      
230.6      2.06       89         90         0          20.2       2865       -1400      -1889      407        0          33875.27   11.344     3110       6631      
230.8      2.06       89         96         0          20.239     2867       -1400      -1890      406        0          33874.9    11.34      3109       6631      
231        2.04       89         79         0          20.244     2867       -1400      -1886      402        0          33874.5    11.336     3108       6630      
231.2      2.02       89         77         0          20.265     2868       -1400      -1885      399        0          33874.11   11.331     3107       6630      
231.4      1.99       89         84         0          20.286     2869       -1400      -1885      399        0          33873.74   11.327     3106       6630      
231.6      1.93       83         89         0          20.307     2870       -1400      -1881      397        0          33873.37   11.323     3105       6630      
231.8      1.93       81         102        0          20.329     2871       -1400      -1877      393        0          33873      11.318     3104       6630      
232        1.95       81         133        0          20.351     2872       -1400      -1879      391        0          33872.61   11.31      3102       6630      
232.2      1.98       81         98         0          20.372     2873       -1400      -1890      390        0          33872.23   11.307     3101       6630      
232.4      2.02       81         90         0          20.393     2874       -1400      -1892      388        0          33871.84   11.305     3100       6630      
232.6      2.09       81         89         0          20.415     2875       -1400      -1889      385        0          33871.45   11.299     3099       6631      
232.8      2.19       81         115        0          20.437     2876       -1400      -1890      385        0          33871.08   11.296     3098       6630      
233        2.35       99         94         0          20.458     2877       -1400      -1889      384        0          33870.71   11.289     3097       6631      
233.2      2.37       99         82         0          20.478     2878       -1400      -1885      382        0          33870.33   11.285     3096       6631      
233.4      2.4        99         112        0          20.489     2879       -1400      -1881      379        0          33869.95   11.283     3095       6631      
233.6      2.45       99         151        0          20.5       2880       -1400      -1882      378        0          33869.58   11.281     3095       6632      
233.8      2.52       99         206        0          20.522     2881       -1400      -1885      377        0          33869.18   11.275     3093       6631      
