~Version
 VERS              .         2.0                           : CWLS LOG ASCII STANDARD - VERSION 2.0
 WRAP              .         NO                            : ONE LINE PER DEPTH STEP
 DLM               .         SPACE                         : DELIMITING CHARACTER(SPACE TAB OR COMMA)
~Well Information
#_______________________________________________________________________________
#
#PARAMETER_NAME    .UNIT     VALUE                         : DESCRIPTION
#_______________________________________________________________________________
STRT               .M        2645.4                        : First reference value
STOP               .M        2753.4                        : Last reference value
STEP               .M        0.2                           : Step increment
NULL               .         -9999                         : Missing value
COMP               .                                       : Company
WELL               .         616                           : Well name
FLD                .                                       : Field
LOC                .                                       : Location
CNTY               .                                       : County
STAT               .                                       : State
CTRY               .                                       : Country
SRVC               .                                       : Service Company
DATE               .                                       : Date
API                .                                       : API number
PROJECT_UPGRADE_TIME .         2021-03-18T21_24_50           : 
group              .         Good                          : 
~Parameter Information Block
#_______________________________________________________________________________
#
#PARAMETER_NAME    .UNIT     VALUE                         : DESCRIPTION
#_______________________________________________________________________________
SET                .         D4410_D                       : 
OTHER              .         Запись производится в присутствии: 
OTHER_10           .         Максимальная температура      : 
OTHER_11           .         Тип промывочной жидкости      : 
OTHER_12           .         Сопротивление ПЖ (Ом*м) при 20°C: 
OTHER_13           .         Плотность ПЖ(г/см3)           : 
OTHER_14           .         Вязкость ПЖ(с)                : 
OTHER_15           .         Водоотдача ПЖ(см3/30мин)      : 
OTHER_16           .         Уровень ПЖ                    : 
OTHER_17           .         Нефть ПЖ (%)                  : 
OTHER_18           .         Барит ПЖ (%)                  : 
OTHER_19           .         Гематит ПЖ (%)                : 
OTHER_2            .         Заказчик ННСН  ЦДНГ-1         : 
OTHER_20           .         КМЦ ПЖ (%)                    : 
OTHER_21           .         Разгазирование ПЖ (да,нет)    : 
OTHER_22           .         Подъемник                     : 
OTHER_23           .         Лаборатория                   : 
OTHER_24           .         Тип кабеля                    : 
OTHER_25           .         Длина кабеля (м)              : 
OTHER_26           .         Цена последней метки          : 
OTHER_27           .         Цена контрольной метки        : 
OTHER_28           .         Диаметр долота (мм)           : 
OTHER_29           .         Глубина бурения (м)           : 
OTHER_3            .         Площадь                       : 
OTHER_30           .         Искусственный забой (м)       : 
OTHER_31           .         Диаметр колонны (мм)          : 
OTHER_32           .         Толщина колонны (мм)          : 
OTHER_33           .         Башмак колонны (м)            : 
OTHER_34           .         Диаметр НКТ (мм)              : 
OTHER_35           .         Толщина НКТ (мм)              : 
OTHER_36           .         Воронка НКТ (м)               : 
OTHER_37           .         Дата цементожа                : 
OTHER_38           .         Тип, количество(т) и плотность цемента: 
OTHER_39           .         Интервалы перфорации (м)      : 
OTHER_4            .         Категория                     : 
OTHER_40           .         Направление, диаметр (мм)     : 
OTHER_41           .         Направление, глубина (м)      : 
OTHER_42           .         Кондуктор, диаметр (мм)       : 
OTHER_43           .         Кондуктор, глубина (м)        : 
OTHER_44           .         Техническая колонна, диаметр (мм): 
OTHER_45           .         Техническая колонна, глубина (м): 
OTHER_46           .         Эксплуатационная колонна, диаметр (мм): 
OTHER_47           .         Эксплуатационная колонна, глубина (м): 
OTHER_48           .         Программа Кедр-02 версия 3.4  : 
OTHER_49           .         Операционная система Windows NT 5.1 build 2600 Service Pack 2: 
OTHER_5            .         Назначение исследований       : 
OTHER_50           .         Программное обеспечение станции MONITOR-386EX 25/12/99 15_08_10   BGF V54 20/09/05 15_32_17   3.3__BGF_9030071: 
OTHER_51           .         Kedr.exe версия 3.4.2.74      : 
OTHER_52           .         KedrData.dll версия 3.4.2.29  : 
OTHER_53           .         Мнемоники версия 3.18 S       : 
OTHER_54           .         Драйвер версия 2.1.1.4        : 
OTHER_55           .         LasInf.dll 4.3.0.35           : 
OTHER_56           .         Прибор_ КСА-Т4                : 
OTHER_57           .         Номер прибора_ 160            : 
OTHER_58           .         Режим_ КСА-Т4                 : 
OTHER_59           .         Форма_ С.А.Б.                 : 
OTHER_6            .         Альтитуда стола ротора        : 
OTHER_60           .         Тарировки_                    : 
OTHER_61           .         <_techsia_sc_> Дата тарировки температуры 25.05.2010: 
OTHER_62           .         Ручной ввод коэффициентов     : 
OTHER_63           .         TM.DEGC = 0.00402*RTM.E.ACP + -0.994: 
OTHER_64           .         <_techsia_sc_> Дата тарировки давления 25.05.2010: 
OTHER_65           .         Ручной ввод коэффициентов     : 
OTHER_66           .         MN.ATM = (2.27521e-006*TM.DEGC + 0.02078)*(RMN.E.ACP + 6.2*TM.DEGC + -1688): 
OTHER_67           .         <_techsia_sc_> Дата тарировки ГК 25.05.2010: 
OTHER_68           .         Ручной ввод коэффициентов     : 
OTHER_69           .         GR.UR/H = RGR.IMP/MIN / 45.5144: 
OTHER_7            .         Вид исследований 3  6         : 
OTHER_70           .         GK.FLT = 0.1*GR.UR/H[-1] + (1-0.1)*GR.UR/H[0]: 
OTHER_8            .         Начало бурения интервала каротажа: 
OTHER_9            .         Окончание бурения интервала каротажа: 
PROJECT_UPGRADE_TIME .         2021-03-18T21_24_50           : 
TLFamily_CCLC      .                                       : 
TLFamily_DEPT      .         Measured Depth                : 
TLFamily_GK        .         Gamma Ray                     : 
TLFamily_GR        .         Gamma Ray                     : 
TLFamily_METKA     .                                       : 
TLFamily_MN        .                                       : 
TLFamily_RCOR      .                                       : 
TLFamily_RGR       .                                       : 
TLFamily_RMN       .                                       : 
TLFamily_RTEN      .                                       : 
TLFamily_RTM       .                                       : 
TLFamily_SPEE      .         Cable Speed                   : 
TLFamily_TIME      .         Time                          : 
TLFamily_TM        .         Temperature                   : 
group              .         prim                          : 
~Curve Information
#_______________________________________________________________________________
#
#LOGNAME           .UNIT     LOG_ID                        : DESCRIPTION
#_______________________________________________________________________________
DEPT               .M                                      : 1 Глубина, м -    0.0 см 
CCLC               .E.ACP                                  : 9 Локатор муфт,  -   20.0 см 
GK                 .FLT                                    : 14 Гамма-активность фильтрованная, мкр./ч -  110.0 см 
GR                 .UR/H                                   : 13 Гамма-активность, мкр./ч -  110.0 см 
METKA              .CU                                     : 3 Метки,  -    0.0 см 
MN                 .ATM                                    : 12 Давление, атм. -  160.0 см 
RCOR               .CM/KM                                  : 5 Коррекция по ролику, см/км -    0.0 см 
RGR                .IMP/MIN                                : 10 Гамма-активность, усл.ед. -  110.0 см 
RMN                .E.ACP                                  : 8 Давление, усл.ед. -  160.0 см 
RTEN               .T                                      : 6 Натяжение кабеля, т -    0.0 см 
RTM                .E.ACP                                  : 7 Температура, усл.ед. -  170.0 см 
SPEE               .M/H                                    : 2 Скорость, м/час -    0.0 см 
TIME               .S                                      : 4 Время, сек -    0.0 см 
TM                 .DEGC                                   : 11 Температура, °C -  170.0 см 
~Ascii
# ...
2707.8     76         9.97       9.97       0          369.712    -1105      454        18952      0.2        16386      639        364.54     64.878    
2708       108        9.97       9.97       0          369.742    -1105      454        18953      0.2        16386      637        365.71     64.878    
2708.2     95         10.68      10.68      0          370.107    -1105      486        18971      0.2        16386      637        366.84     64.878    
2708.4     126        10.68      10.68      0          370.025    -1105      486        18967      0.2        16385      635        367.98     64.874    
2708.6     110        10.68      10.68      0          369.952    -1105      486        18964      0.2        16383      634        369.13     64.865    
2708.8     122        11.42      11.42      0          369.834    -1105      520        18958      0.2        16381      633        370.32     64.858    
2709       82         11.42      11.42      0          369.929    -1105      520        18963      0.2        16380      634        371.41     64.853    
2709.2     66         10.94      10.94      0          369.982    -1105      498        18965      0.2        16378      633        372.56     64.846    
2709.4     87         10.94      10.94      0          370.041    -1105      498        18968      0.2        16378      632        373.71     64.846    
2709.6     58         10.74      10.74      0          370.215    -1105      489        18976      0.2        16376      632        374.91     64.838    
2709.8     48         10.74      10.74      0          370.164    -1105      489        18974      0.2        16373      631        376.07     64.825    
2710       104        10.79      10.79      0          370.205    -1105      491        18976      0.2        16372      633        377.16     64.821    
2710.2     83         10.79      10.79      0          369.962    -1105      491        18964      0.2        16371      633        378.31     64.817    
2710.4     73         11.51      11.51      0          369.923    -1105      524        18963      0.2        16368      634        379.46     64.805    
2710.6     87         11.51      11.51      0          369.966    -1105      524        18965      0.2        16367      634        380.61     64.801    
2710.8     49         11.56      11.56      0          370.148    -1105      526        18974      0.2        16362      635        381.72     64.781    
2711       70         11.56      11.56      0          370.273    -1105      526        18980      0.2        16358      634        382.87     64.765    
2711.2     70         11.56      11.56      0          370.281    -1105      526        18980      0.2        16358      635        384        64.765    
2711.4     34         10.96      10.96      0          370.037    -1105      499        18969      0.2        16356      635        385.15     64.757    
2711.6     74         10.96      10.96      0          370.015    -1105      499        18968      0.2        16352      636        386.3      64.741    
2711.8     90         10.66      10.66      0          370.095    -1105      485        18971      0.2        16352      635        387.45     64.741    
2712       53         10.66      10.66      0          370.25     -1105      485        18979      0.2        16351      636        388.54     64.737    
2712.2     54         11.62      11.62      0          370.107    -1105      529        18972      0.2        16352      635        389.71     64.741    
2712.4     115        11.62      11.62      0          370.161    -1105      529        18975      0.2        16350      634        390.9      64.734    
2712.6     86         13.67      13.67      0          370.314    -1105      622        18982      0.2        16348      634        392        64.725    
2712.8     49         13.67      13.67      0          370.199    -1105      622        18977      0.2        16347      633        393.15     64.721    
2713       77         13.01      13.01      0          370.163    -1105      592        18975      0.2        16344      634        394.24     64.71     
2713.2     151        12.74      12.74      0          370.148    -1105      580        18974      0.2        16341      634        395.45     64.697    
2713.4     132        11.93      11.93      0          370.259    -1105      543        18980      0.2        16340      635        396.6      64.693    
2713.6     156        11.6       11.6       0          370.212    -1105      528        18978      0.2        16335      635        397.69     64.674    
2713.8     65         11.6       11.6       0          370.398    -1105      528        18986      0.2        16333      635        398.84     64.665    
2714       925        11.8       11.8       0          370.498    -1105      537        18991      0.2        16330      635        400        64.654    
2714.2     2156       11.8       11.8       0          370.422    -1105      537        18988      0.2        16328      635        401.16     64.645    
2714.4     616        8.94       8.94       0          370.364    -1105      407        18985      0.2        16326      635        402.24     64.638    
2714.6     198        8.94       8.94       0          370.381    -1105      407        18986      0.2        16324      635        403.4      64.628    
2714.8     128        6.9        6.9        0          370.519    -1105      314        18993      0.2        16321      636        404.54     64.618    
2715       130        6.9        6.9        0          370.439    -1105      314        18989      0.2        16320      636        405.69     64.614    
2715.2     53         7.71       7.71       0          370.733    -1105      351        19003      0.19       16318      635        406.84     64.606    
2715.4     36         7.71       7.71       0          370.482    -1105      351        18991      0.19       16318      636        407.99     64.604    
2715.6     35         8.6        8.6        0          370.479    -1105      392        18991      0.19       16317      634        409.09     64.599    
2715.8     52         9.8        9.8        0          370.436    -1105      446        18989      0.19       16313      635        410.22     64.586    
2716       57         10.91      10.91      2          370.59     -1099      497        18996      0.2        16311      635        411.06     64.574    
2716.2     133        13.12      13.12      0          370.62     -1098      597        18998      0.2        16308      634        412.15     64.562    
2716.4     130        13.12      13.12      0          370.671    -1098      597        19000      0.2        16306      635        413.25     64.556    
2716.6     182        13.14      13.14      0          370.581    -1098      598        18996      0.2        16305      636        414.4      64.552    
2716.8     122        13.14      13.14      0          370.656    -1098      598        19000      0.2        16305      636        415.52     64.553    
2717       85         10.52      10.52      0          370.667    -1098      479        19000      0.2        16306      637        416.7      64.555    
2717.2     76         10.52      10.52      0          370.759    -1098      479        19005      0.2        16304      635        417.85     64.548    
2717.4     73         10.33      10.33      0          370.758    -1098      470        19005      0.2        16304      636        418.94     64.548    
2717.6     98         9.14       9.14       0          370.701    -1098      416        19002      0.2        16303      635        420.09     64.543    
2717.8     102        9.14       9.14       0          370.741    -1098      416        19004      0.2        16300      635        421.27     64.534    
2718       146        9.6        9.6        0          370.736    -1098      437        19004      0.2        16296      634        422.4      64.515    
