~Version
 VERS              .         2.0                           : CWLS LOG ASCII STANDARD - VERSION 2.0
 WRAP              .         NO                            : ONE LINE PER DEPTH STEP
 DLM               .         SPACE                         : DELIMITING CHARACTER(SPACE TAB OR COMMA)
~Well Information
#_______________________________________________________________________________
#
#PARAMETER_NAME    .UNIT     VALUE                         : DESCRIPTION
#_______________________________________________________________________________
STRT               .M        549.2                         : First reference value
STOP               .M        805.2                         : Last reference value
STEP               .M        0.2                           : Step increment
NULL               .         -9999                         : Missing value
COMP               .                                       : Company
WELL               .         616                           : Well name
FLD                .                                       : Field
LOC                .                                       : Location
CNTY               .                                       : County
STAT               .                                       : State
CTRY               .                                       : Country
SRVC               .                                       : Service Company
DATE               .                                       : Date
API                .                                       : API number
PROJECT_UPGRADE_TIME .         2021-03-18T21_24_50           : 
group              .         Good                          : 
~Parameter Information Block
#_______________________________________________________________________________
#
#PARAMETER_NAME    .UNIT     VALUE                         : DESCRIPTION
#_______________________________________________________________________________
SET                .         616_4                         : 
CONF               .         00                            : 
END                .         0                             : 
ERR                .         0                             : 
GS00               .M        0803.23                       : 
GS01               .M        0546.74                       : 
MM00               .M        0120.00                       : 
NOKG               .         0                             : 
NPR                .         980402                        : 
PART               .         Палагутин                     : 
PROJECT_UPGRADE_TIME .         2021-03-18T21_24_49           : 
PRZK               .         Шакиров                       : 
TLFamily_AZIMUTH   .         True Dip Azimuth              : 
TLFamily_DEPTH     .         Measured Depth                : 
TLFamily_METKA     .                                       : 
TLFamily_ROLL      .                                       : 
TLFamily_SPEED     .         Spontaneous Potential         : 
TLFamily_ZENIT     .                                       : 
VPRG               .         310                           : 
WAY                .         UP                            : 
group              .         prim                          : 
~Curve Information
#_______________________________________________________________________________
#
#LOGNAME           .UNIT     LOG_ID                        : DESCRIPTION
#_______________________________________________________________________________
DEPTH              .M                                      :  
AZIMUTH            .DEG                                    :  
METKA              .                                       :  
ROLL               .DEG                                    :  
SPEED              .M/H                                    :  
ZENIT              .DEG                                    :  
~Ascii
549.2      265.49     0          37.3       504        26.52     
549.4      261.99     0          38.67      468        26.32     
549.6      262.3      0          40.94      612        26.32     
549.8      260.82     0          41.66      648        26.26     
550        260.06     0          39.95      684        26.14     
550.2      260.4      0          38.4       648        26.15     
550.4      260.27     0          37.53      648        26.2      
550.6      260.93     0          37.18      648        26.3      
550.8      260.23     0          37.57      612        26.24     
551        260.5      0          39.88      648        26.14     
551.2      260.55     0          42.13      684        26.14     
551.4      260.35     0          43.25      648        26.06     
551.6      260.31     0          43.49      684        26.13     
551.8      260.4      0          43.3       612        26.2      
552        258.96     1          43.42      684        25.89     
552.2      260.44     0          43.85      648        26.17     
552.4      259.93     0          44.08      648        26.21     
552.6      259.57     0          44.1       648        26.12     
552.8      259.9      0          43.98      684        26.19     
553        259.63     0          44.01      612        26.17     
553.2      259.93     0          44.41      684        26.25     
553.4      260.25     0          44.5       612        26.31     
553.6      260.09     0          44.42      648        26.32     
553.8      259.75     0          44.26      684        26.38     
554        259.32     0          43.81      648        26.27     
554.2      259.77     0          43.43      648        26.37     
554.4      259.64     0          43.25      648        26.33     
554.6      259.23     0          43.1       648        26.24     
554.8      259.69     0          43.01      648        26.36     
555        259.22     0          42.9       684        26.31     
555.2      259        0          42.73      612        26.3      
555.4      260.1      0          42.91      648        26.49     
555.6      258.92     0          43.09      684        26.28     
555.8      259.88     0          43.54      648        26.45     
556        259.94     0          43.99      684        26.51     
556.2      259.45     0          44.01      612        26.46     
556.4      259.59     0          43.73      684        26.48     
556.6      259.65     0          43.4       648        26.51     
556.8      259.99     0          43.12      684        26.59     
557        259.48     0          43         684        26.5      
557.2      259.32     0          42.9       648        26.48     
557.4      259.75     0          42.78      648        26.56     
557.6      258.87     0          42.71      684        26.38     
557.8      259.25     0          42.83      648        26.45     
558        259.47     0          43.24      684        26.51     
558.2      259.14     0          43.79      648        26.42     
558.4      259.86     0          44.25      648        26.55     
558.6      260.06     0          44.05      648        26.58     
558.8      260.35     0          43.44      648        26.65     
559        260.16     0          42.99      684        26.62     
559.2      260.12     0          42.67      684        26.54     
559.4      261.54     0          42.31      648        26.77     
559.6      261.82     0          42.1       612        26.63     
559.8      265.21     0          42.43      648        26.74     
560        273.56     0          42.63      684        26.78     
560.2      301.17     0          42.65      648        26.71     
560.4      261.11     0          42.57      648        26.78     
560.6      208        0          42.52      648        26.71     
560.8      322.75     0          42.52      648        26.78     
561        309.51     0          41.67      648        27        
561.2      274.06     0          39.54      684        26.93     
561.4      265.34     0          38.08      648        26.91     
561.6      261.93     0          38.97      684        26.71     
561.8      260.09     0          42.12      648        26.54     
562        261.58     0          46.73      648        26.69     
562.2      259.6      1          49.45      684        26.55     
562.4      259.54     0          53.92      612        26.7      
562.6      258.88     0          62.53      648        26.36     
562.8      261.31     0          71.48      648        26.9      
563        259.06     0          79.19      648        26.57     
563.2      256.99     0          84.68      612        26.19     
563.4      259.55     0          89.88      648        26.69     
563.6      257.97     0          94.32      648        26.45     
563.8      257.6      0          98.14      684        26.38     
564        258.64     0          102.95     648        26.79     
564.2      259.2      0          110.1      684        27        
564.4      260.57     0          117.88     648        27.22     
564.6      259.54     0          125.56     648        27.22     
564.8      258.28     0          134.68     648        26.97     
565        259.37     0          142.49     648        27.03     
565.2      259.31     0          145.98     576        26.79     
565.4      258.55     0          146.81     648        26.7      
565.6      259.41     0          147.1      684        26.92     
565.8      258.23     0          147.99     648        26.73     
566        258.35     0          149.49     684        26.79     
566.2      259.66     0          151.12     612        27.02     
566.4      259.74     0          152.22     684        27.02     
566.6      259.44     0          153.65     684        27.03     
566.8      257.22     0          158.9      648        27.21     
567        260.89     0          171.2      684        27.12     
567.2      256.86     0          186.69     612        26.62     
567.4      259.86     0          202.28     612        26.65     
567.6      260.04     0          213.13     648        26.81     
567.8      259.19     0          218.18     684        26.77     
568        259.82     0          220.65     684        26.96     
568.2      259.51     0          221.76     648        26.88     
568.4      259.26     0          221.82     648        26.82     
568.6      259.28     0          222.3      648        26.92     
568.8      258.73     0          223.56     648        26.8      
569        259.07     0          225.04     684        26.86     
569.2      259.8      0          226.54     612        26.93     
569.4      259.38     0          227.72     648        26.87     
569.6      259.8      0          228.81     612        27.03     
569.8      259.01     0          230.57     648        26.92     
570        258.93     0          233.08     684        26.89     
570.2      258.09     0          236.55     648        26.73     
570.4      259.26     0          244.79     648        26.83     
570.6      257.94     0          255.92     648        26.84     
570.8      257.69     0          265.76     684        26.64     
571        259.41     0          274.1      648        27.14     
571.2      258.46     0          282.7      612        27.01     
571.4      257.86     0          291.39     684        26.95     
571.6      260.01     0          299.16     684        27.28     
571.8      260.73     0          308.73     648        27.46     
572        263.65     0          321.66     648        27.44     
572.2      273.14     1          332.96     684        27.25     
572.4      311.06     0          340.44     576        27.12     
572.6      335.51     0          345.54     684        27.62     
572.8      167.12     0          353.78     648        27.64     
573        146.26     0          5.82       648        26.94     
573.2      344.58     0          16.23      648        27.18     
573.4      279.74     0          24.32      648        26.95     
