~Version
 VERS              .         2.0                           : CWLS LOG ASCII STANDARD - VERSION 2.0
 WRAP              .         NO                            : ONE LINE PER DEPTH STEP
 DLM               .         SPACE                         : DELIMITING CHARACTER(SPACE TAB OR COMMA)
~Well Information
#_______________________________________________________________________________
#
#PARAMETER_NAME    .UNIT     VALUE                         : DESCRIPTION
#_______________________________________________________________________________
STRT               .M        2670                          : First reference value
STOP               .M        2776                          : Last reference value
STEP               .M        0.2                           : Step increment
NULL               .         -9999                         : Missing value
COMP               .                                       : Company
WELL               .         616                           : Well name
FLD                .                                       : Field
LOC                .                                       : Location
CNTY               .                                       : County
STAT               .                                       : State
CTRY               .                                       : Country
SRVC               .                                       : Service Company
DATE               .                                       : Date
API                .                                       : API number
PROJECT_UPGRADE_TIME .         2021-03-18T21_24_50           : 
group              .         Good                          : 
~Parameter Information Block
#_______________________________________________________________________________
#
#PARAMETER_NAME    .UNIT     VALUE                         : DESCRIPTION
#_______________________________________________________________________________
SET                .         D1803_D                       : 
OTHER              .         Программное обеспечение станции MONITOR-386EX 25/12/99 15_08_10   BGF V52 22/08/01 16_56_30   3.1_SNGF___BGF_N_092049: 
OTHER_10           .         Тарировки_                    : 
OTHER_11           .         TM.GRD = 0.00403*TM$.UE + -1.07: 
OTHER_12           .         MN.ATM = (9.34907e-006*TM.GRD + 0.02171)*(MN$.UE + -7.93*TM.GRD + -1787): 
OTHER_13           .         GK.MKR/H = LM. / 42.4676      : 
OTHER_14           .         GK.FLT = 0.1*GK.MKR/H[-1] + (1-0.1)*GK.MKR/H[0]: 
OTHER_2            .         Kedr.exe версия 3.4.2.51      : 
OTHER_3            .         KedrData.dll версия 3.4.2.24  : 
OTHER_4            .         Драйвер версия 2.1.1.3        : 
OTHER_5            .         Мнемоники версия 3.3 S        : 
OTHER_6            .         Прибор_ КСА-Т4                : 
OTHER_7            .         Номер прибора_ 03             : 
OTHER_8            .         Режим_ КСА-Т4                 : 
OTHER_9            .         Форма_ КВА.                   : 
PROJECT_UPGRADE_TIME .         2021-03-18T21_24_49           : 
TLFamily_DEPT      .         Measured Depth                : 
TLFamily_GK        .         Gamma Ray                     : 
TLFamily_GK$       .                                       : 
TLFamily_GK_2      .         Gamma Ray                     : 
TLFamily_LM        .         Casing Collar locator         : 
TLFamily_METKA     .                                       : 
TLFamily_MN        .                                       : 
TLFamily_MN$       .                                       : 
TLFamily_RCOR      .                                       : 
TLFamily_SPID      .         Spontaneous Potential         : 
TLFamily_TENS      .         Cable Tension                 : 
TLFamily_TIME      .         Time                          : 
TLFamily_TM        .         Temperature                   : 
TLFamily_TM$       .         Temperature                   : 
group              .         prim                          : 
~Curve Information
#_______________________________________________________________________________
#
#LOGNAME           .UNIT     LOG_ID                        : DESCRIPTION
#_______________________________________________________________________________
DEPT               .M                                      : 1 Глубина, м -    0.0 см 
GK                 .MKR/H                                  : 13 Гамма-активность, мкр./ч -  110.0 см 
GK$                .UE                                     : 10 Гамма-активность, усл.ед. -  110.0 см 
GK_2               .FLT                                    : 14 Гамма-активность фильтрованная, мкр./ч -  110.0 см 
LM                 .                                       : 9 Локатор муфт,  -   20.0 см 
METKA              .                                       : 3 Метки,  -    0.0 см 
MN                 .ATM                                    : 12 Давление, атм. -  160.0 см 
MN$                .UE                                     : 8 Давление, усл.ед. -  160.0 см 
RCOR               .CM/KM                                  : 5 Коррекция по ролику, см/км -    0.0 см 
SPID               .M/H                                    : 2 Скорость, м/час -    0.0 см 
TENS               .T                                      : 6 Натяжение кабеля, т -    0.0 см 
TIME               .S                                      : 4 Время, сек -    0.0 см 
TM                 .GRD                                    : 11 Температура, °C -  170.0 см 
TM$                .UE                                     : 7 Температура, усл.ед. -  170.0 см 
~Ascii
# ...
2722       10.46      444        10.45      248        0          329.097    17023      -654       577        0.03       1852.64    50.204     12723     
2722.2     10.34      439        10.35      293        0          328.783    17009      -654       578        0.03       1853.84    50.204     12723     
2722.4     10.34      439        10.34      205        0          328.987    17018      -654       579        0.03       1855.16    50.2       12722     
2722.6     10.05      427        10.07      248        0          328.645    17003      -654       585        0.03       1856.42    50.196     12721     
2722.8     10.05      427        10.06      225        0          329.192    17027      -654       583        0.03       1857.62    50.204     12723     
2723       10.81      459        10.73      281        0          328.312    16988      -654       582        0.03       1858.85    50.208     12724     
2723.2     10.81      459        10.8       238        0          329.007    17019      -654       582        0.03       1860.08    50.212     12725     
2723.4     11.82      502        11.68      308        0          328.686    17005      -654       581        0.03       1861.33    50.208     12724     
2723.6     11.82      502        11.82      277        0          328.054    16976      -654       590        0.03       1862.59    50.204     12723     
2723.8     11.21      476        11.26      244        0          328.482    16995      -654       585        0.03       1863.86    50.204     12723     
2724       11.21      476        11.21      257        0          328.651    17003      -654       591        0.03       1865.07    50.208     12724     
2724.2     10.88      462        10.92      250        0          327.899    16969      -654       587        0.03       1866.32    50.2       12722     
2724.4     10.88      462        10.88      258        0          328.68     17004      -654       585        0.02       1867.58    50.201     12722     
2724.6     9.47       402        9.58       256        0          328.77     17008      -654       584        0.03       1868.83    50.2       12722     
2724.8     9.47       402        9.47       326        0          327.759    16963      -654       583        0.01       1870.03    50.2       12722     
2725       7.37       313        7.59       377        0          329.005    17019      -654       578        0.03       1871.28    50.2       12722     
2725.2     7.37       313        7.38       663        0          328.229    16984      -654       576        0.03       1872.49    50.2       12722     
2725.4     7.28       309        7.29       469        0          328.681    17004      -654       578        0.03       1873.83    50.204     12723     
2725.6     7.28       309        7.28       1403       0          328.574    17000      -654       579        0.03       1875.02    50.204     12723     
2725.8     6.99       297        7.02       946        0          329.136    17025      -654       579        0.03       1876.29    50.202     12723     
2726       6.99       297        6.99       505        0          327.733    16962      -654       579        0.01       1877.48    50.207     12724     
2726.2     6.83       290        6.85       347        0          329.14     17025      -654       580        0.03       1878.75    50.204     12723     
2726.4     6.83       290        6.83       371        0          327.611    16956      -654       582        0.01       1880       50.201     12722     
2726.6     8.08       343        7.97       376        0          329.145    17025      -654       575        0.03       1881.23    50.2       12722     
2726.8     8.08       343        8.07       335        0          328.231    16984      -654       571        0.03       1882.47    50.204     12723     
2727       9.02       383        8.9        298        0          329.359    17035      -654       563        0.03       1883.72    50.204     12723     
2727.2     9.02       383        9.01       299        0          327.382    16946      -654       568        0.02       1884.98    50.21      12725     
2727.4     8.69       369        8.76       504        0          328.995    17018      -654       572        0.05       1886.25    50.208     12724     
2727.6     8.69       369        8.69       361        0          327.399    16947      -654       574        0.03       1887.49    50.208     12724     
2727.8     7.61       323        7.74       277        0          328.43     16993      -654       579        0.03       1888.7     50.212     12725     
2728       7.61       323        7.61       299        0          328.111    16979      -654       572        0.03       1889.9     50.209     12724     
2728.2     7.44       316        7.47       313        0          329.199    17028      -654       571        0.03       1891.16    50.204     12723     
2728.4     7.44       316        7.44       366        0          327.899    16969      -654       565        0.03       1892.48    50.208     12724     
2728.6     7.86       334        7.83       345        0          329.047    17021      -654       565        0.03       1893.69    50.205     12723     
2728.8     7.86       334        7.86       437        0          327.872    16968      -654       570        0.03       1894.94    50.2       12722     
2729       9.42       400        9.21       372        0          328.58     17000      -654       584        0.03       1896.14    50.195     12721     
2729.2     9.42       400        9.41       356        0          328.374    16990      -654       586        0.01       1897.41    50.192     12720     
2729.4     11.3       480        10.83      369        0          329.103    17023      -654       587        0.03       1898.67    50.196     12721     
2729.6     11.3       480        11.29      354        0          328.329    16988      -654       593        0.03       1899.86    50.2       12722     
2729.8     11.56      491        11.53      281        0          329.156    17026      -654       589        0.03       1901.12    50.2       12722     
2730       11.56      491        11.56      364        2          328.413    16992      -654       574        0.03       1902.39    50.202     12723     
2730.2     10.38      441        10.63      371        0          328.951    17017      -660       581        0.01       1904.03    50.208     12724     
2730.4     10.38      441        10.39      426        0          328.753    17008      -660       580        0.03       1905.28    50.204     12723     
2730.6     8.1        344        8.35       348        0          329.294    17032      -660       588        0.03       1906.47    50.204     12723     
2730.8     8.1        344        8.11       373        0          328.386    16991      -660       592        0.01       1907.73    50.2       12722     
2731       6.73       286        6.92       457        0          329.178    17027      -660       595        0.03       1908.95    50.204     12723     
2731.2     6.73       286        6.74       512        0          328.702    17005      -660       591        0.01       1910.21    50.203     12723     
2731.4     6.52       277        6.54       473        0          328.364    16990      -660       584        0.03       1911.5     50.202     12722     
2731.6     6.52       277        6.52       451        0          328.663    17004      -660       580        0.03       1912.73    50.204     12723     
2731.8     6.52       277        6.52       1104       0          329.187    17027      -660       592        0.03       1913.94    50.2       12722     
2732       6.52       277        6.52       840        0          328.738    17007      -660       591        0.02       1915.22    50.19      12719     
2732.2     6.29       267        6.31       541        0          329.335    17034      -660       591        0.02       1916.44    50.143     12708     
