~Version
 VERS              .         2.0                           : CWLS LOG ASCII STANDARD - VERSION 2.0
 WRAP              .         NO                            : ONE LINE PER DEPTH STEP
 DLM               .         SPACE                         : DELIMITING CHARACTER(SPACE TAB OR COMMA)
~Well Information
#_______________________________________________________________________________
#
#PARAMETER_NAME    .UNIT     VALUE                         : DESCRIPTION
#_______________________________________________________________________________
STRT               .M        2670                          : First reference value
STOP               .M        2776                          : Last reference value
STEP               .M        0.2                           : Step increment
NULL               .         -9999                         : Missing value
COMP               .                                       : Company
WELL               .         616                           : Well name
FLD                .                                       : Field
LOC                .                                       : Location
CNTY               .                                       : County
STAT               .                                       : State
CTRY               .                                       : Country
SRVC               .                                       : Service Company
DATE               .                                       : Date
API                .                                       : API number
PROJECT_UPGRADE_TIME .         2021-03-18T21_24_50           : 
group              .         Good                          : 
~Parameter Information Block
#_______________________________________________________________________________
#
#PARAMETER_NAME    .UNIT     VALUE                         : DESCRIPTION
#_______________________________________________________________________________
SET                .         D1803_D                       : 
OTHER              .         Программное обеспечение станции MONITOR-386EX 25/12/99 15_08_10   BGF V52 22/08/01 16_56_30   3.1_SNGF___BGF_N_092049: 
OTHER_10           .         Тарировки_                    : 
OTHER_11           .         TM.GRD = 0.00403*TM$.UE + -1.07: 
OTHER_12           .         MN.ATM = (9.34907e-006*TM.GRD + 0.02171)*(MN$.UE + -7.93*TM.GRD + -1787): 
OTHER_13           .         GK.MKR/H = LM. / 42.4676      : 
OTHER_14           .         GK.FLT = 0.1*GK.MKR/H[-1] + (1-0.1)*GK.MKR/H[0]: 
OTHER_2            .         Kedr.exe версия 3.4.2.51      : 
OTHER_3            .         KedrData.dll версия 3.4.2.24  : 
OTHER_4            .         Драйвер версия 2.1.1.3        : 
OTHER_5            .         Мнемоники версия 3.3 S        : 
OTHER_6            .         Прибор_ КСА-Т4                : 
OTHER_7            .         Номер прибора_ 03             : 
OTHER_8            .         Режим_ КСА-Т4                 : 
OTHER_9            .         Форма_ КВА.                   : 
PROJECT_UPGRADE_TIME .         2021-03-18T21_24_49           : 
TLFamily_DEPT      .         Measured Depth                : 
TLFamily_GK        .         Gamma Ray                     : 
TLFamily_GK$       .                                       : 
TLFamily_GK_2      .         Gamma Ray                     : 
TLFamily_LM        .         Casing Collar locator         : 
TLFamily_METKA     .                                       : 
TLFamily_MN        .                                       : 
TLFamily_MN$       .                                       : 
TLFamily_RCOR      .                                       : 
TLFamily_SPID      .         Spontaneous Potential         : 
TLFamily_TENS      .         Cable Tension                 : 
TLFamily_TIME      .         Time                          : 
TLFamily_TM        .         Temperature                   : 
TLFamily_TM$       .         Temperature                   : 
group              .         prim                          : 
~Curve Information
#_______________________________________________________________________________
#
#LOGNAME           .UNIT     LOG_ID                        : DESCRIPTION
#_______________________________________________________________________________
DEPT               .M                                      : 1 Глубина, м -    0.0 см 
GK                 .MKR/H                                  : 13 Гамма-активность, мкр./ч -  110.0 см 
GK$                .UE                                     : 10 Гамма-активность, усл.ед. -  110.0 см 
GK_2               .FLT                                    : 14 Гамма-активность фильтрованная, мкр./ч -  110.0 см 
LM                 .                                       : 9 Локатор муфт,  -   20.0 см 
METKA              .                                       : 3 Метки,  -    0.0 см 
MN                 .ATM                                    : 12 Давление, атм. -  160.0 см 
MN$                .UE                                     : 8 Давление, усл.ед. -  160.0 см 
RCOR               .CM/KM                                  : 5 Коррекция по ролику, см/км -    0.0 см 
SPID               .M/H                                    : 2 Скорость, м/час -    0.0 см 
TENS               .T                                      : 6 Натяжение кабеля, т -    0.0 см 
TIME               .S                                      : 4 Время, сек -    0.0 см 
TM                 .GRD                                    : 11 Температура, °C -  170.0 см 
TM$                .UE                                     : 7 Температура, усл.ед. -  170.0 см 
~Ascii
2670.0     -9999      -9999      -9999      -9999      -9999      -9999      -9999      -9999      -9999      -9999      -9999      -9999      -9999     
2670.2     -9999      -9999      -9999      -9999      2          -9999      -9999      -600       38         0.06       1525.31    -9999      -9999     
2670.4     -9999      -9999      -9999      160        0          -9999      -9999      -600       174        0.05       1526.83    -9999      -9999     
2670.6     -9999      -9999      -9999      3020       0          -9999      -9999      -600       285        0.05       1528.05    -9999      -9999     
2670.8     -9999      -9999      -9999      1916       0          -9999      -9999      -600       364        0.05       1529.37    -9999      -9999     
2671       -9999      -9999      -9999      509        0          -9999      -9999      -600       410        0.05       1530.68    -9999      -9999     
2671.2     -9999      -9999      -9999      445        0          -9999      -9999      -600       463        0.05       1531.99    -9999      -9999     
2671.4     7.46       317        7.47       505        0          -9999      -9999      -600       490        0.05       1533.23    -9999      -9999     
2671.6     7.89       335        7.87       528        0          -9999      -9999      -600       517        0.05       1534.53    -9999      -9999     
2671.8     8.38       356        8.2        320        0          295.931    15524      -600       528        0.05       1535.78    -9999      -9999     
2672       8.88       377        8.86       290        0          296.916    15569      -600       534        0.05       1537.05    48.784     12371     
2672.2     8.97       381        8.94       322        0          295.704    15514      -600       537        0.05       1538.31    48.797     12374     
2672.4     9.16       389        9.15       298        0          297.009    15573      -600       549        0.05       1539.55    48.809     12377     
2672.6     9.24       393        9.21       324        0          295.747    15516      -600       554        0.05       1540.87    48.813     12378     
2672.8     9.65       410        9.64       337        0          296.837    15565      -600       554        0.05       1542.09    48.821     12380     
2673       9.92       421        9.82       354        0          296.863    15567      -600       553        0.05       1543.34    48.825     12381     
2673.2     10.03      426        10.02      303        0          297.497    15595      -600       552        0.05       1544.61    48.825     12381     
2673.4     9.69       411        9.81       317        0          297.059    15575      -600       566        0.05       1545.86    48.827     12381     
2673.6     9.23       392        9.25       276        0          296.462    15549      -600       559        0.05       1547.06    48.833     12383     
2673.8     9.17       389        9.19       302        0          297.952    15616      -600       565        0.05       1548.33    48.833     12383     
2674       8.92       379        8.93       237        0          297.019    15574      -600       569        0.05       1549.58    48.839     12384     
2674.2     8.04       341        8.37       284        0          297.668    15603      -600       565        0.05       1550.91    48.842     12385     
2674.4     7.86       334        7.88       238        0          297.661    15603      -600       565        0.05       1552.17    48.846     12386     
2674.6     7.35       312        7.54       273        0          297.415    15592      -600       569        0.05       1553.42    48.846     12386     
2674.8     6.59       280        6.63       249        0          298.321    15632      -600       572        0.05       1554.63    48.846     12386     
2675       6.66       283        6.64       251        0          297.333    15588      -600       575        0.05       1555.88    48.85      12387     
2675.2     6.66       283        6.66       344        0          298.311    15632      -600       576        0.05       1557.1     48.854     12388     
2675.4     6.08       258        6.29       279        0          297.728    15606      -600       577        0.05       1558.41    48.858     12389     
2675.6     5.96       253        5.97       215        0          298.341    15633      -600       578        0.05       1559.6     48.862     12390     
2675.8     5.83       247        5.88       281        0          298.2      15627      -600       579        0.05       1560.9     48.862     12390     
2676       5.7        242        5.71       345        0          298.423    15637      -600       567        0.05       1562.19    48.866     12391     
2676.2     6.36       270        6.12       266        0          298.597    15645      -600       571        0.05       1563.44    48.866     12391     
2676.4     6.36       270        6.35       280        0          298.177    15626      -600       573        0.05       1564.64    48.872     12392     
2676.6     6.63       281        6.53       237        0          298.74     15651      -600       575        0.05       1565.9     48.878     12394     
2676.8     6.81       289        6.79       221        0          298.553    15643      -600       577        0.05       1567.09    48.882     12395     
2677       6.83       290        6.82       263        0          299.085    15667      -600       578        0.05       1568.36    48.881     12395     
2677.2     6.83       290        6.83       255        0          298.824    15655      -600       578        0.05       1569.62    48.879     12394     
2677.4     7.07       300        6.98       200        0          298.651    15647      -600       579        0.05       1570.88    48.882     12395     
2677.6     7.11       302        7.11       199        0          300.192    15717      -600       573        0.05       1572.2     48.886     12396     
2677.8     7.12       302        7.12       222        0          298.355    15634      -600       575        0.05       1573.45    48.887     12396     
2678       7.13       303        7.13       229        0          299.629    15692      -600       577        0.05       1574.66    48.886     12396     
2678.2     6.9        293        6.99       187        0          299.37     15680      -600       580        0.05       1575.92    48.887     12396     
2678.4     6.9        293        6.9        169        0          299.925    15705      -600       570        0.05       1577.11    48.894     12398     
2678.6     7.18       305        7.08       239        0          299.91     15704      -600       578        0.05       1578.38    48.898     12399     
2678.8     7.25       308        7.25       240        0          299.232    15674      -600       572        0.05       1579.64    48.902     12400     
2679       7.49       318        7.42       250        0          300.48     15730      -600       566        0.05       1580.89    48.903     12400     
2679.2     7.49       318        7.49       201        0          299.449    15683      -600       556        0.05       1582.16    48.906     12401     
2679.4     7.29       309        7.36       214        0          299.72     15696      -600       549        0.05       1583.42    48.907     12401     
2679.6     7.25       308        7.26       214        0          299.992    15708      -600       558        0.05       1584.64    48.911     12402     
2679.8     7.06       300        7.13       267        0          299.794    15699      -600       565        0.05       1585.88    48.914     12403     
2680       6.88       292        6.88       226        2          300.633    15737      -600       569        0.05       1587.13    48.914     12403     
2680.2     6.73       286        6.79       212        0          299.926    15705      -629       575        0.05       1590.16    48.912     12403     
