~Version
 VERS              .         2.0                           : CWLS LOG ASCII STANDARD - VERSION 2.0
 WRAP              .         NO                            : ONE LINE PER DEPTH STEP
 DLM               .         SPACE                         : DELIMITING CHARACTER(SPACE TAB OR COMMA)
~Well Information
#_______________________________________________________________________________
#
#PARAMETER_NAME    .UNIT     VALUE                         : DESCRIPTION
#_______________________________________________________________________________
STRT               .M        2648.8                        : First reference value
STOP               .M        2753.600052                   : Last reference value
STEP               .M        0.2000001                     : Step increment
NULL               .         -9999                         : Missing value
COMP               .                                       : Company
WELL               .         616                           : Well name
FLD                .                                       : Field
LOC                .                                       : Location
CNTY               .                                       : County
STAT               .                                       : State
CTRY               .                                       : Country
SRVC               .                                       : Service Company
DATE               .                                       : Date
API                .                                       : API number
PROJECT_UPGRADE_TIME .         2021-03-18T21_24_50           : 
group              .         Good                          : 
~Parameter Information Block
#_______________________________________________________________________________
#
#PARAMETER_NAME    .UNIT     VALUE                         : DESCRIPTION
#_______________________________________________________________________________
SET                .         D7027_D                       : 
OTHER              .         Kedr.exe версия 2.1.2.32      : 
OTHER_10           .         TM.GRD = 0.00404*TM$.UE + 0.07: 
OTHER_11           .         MN.ATM = (6.33279e-006*TM.GRD + 0.02401)*(MN$.UE + 2.72*TM.GRD + -2018): 
OTHER_12           .         GK.MKR/H = GK$.UE / 43.5489 + 0: 
OTHER_13           .         RES.SM = 0.00476*CRES.UE - 1.51709: 
OTHER_14           .         PL.GSM3 = 0 + 0 * (PL.UE / 1) +  0 * (PL.UE / 1)^2: 
OTHER_15           .         Постоянная времени ГГП = 6 сек: 
OTHER_16           .         Постоянная времени ГК = 6 сек : 
OTHER_2            .         KedrData.dll версия 3.2.2.14  : 
OTHER_3            .         LasInf.dll версия 3.2.0.13    : 
OTHER_4            .         Драйвер версия 1.2.0.5        : 
OTHER_5            .         Прибор_ КСА-M1                : 
OTHER_6            .         Номер прибора_ 155+р204       : 
OTHER_7            .         Режим_ КСА-М1 + ГГП + Резистивиметр: 
OTHER_8            .         Форма_ 223\2                  : 
OTHER_9            .         Тарировки_                    : 
PROJECT_UPGRADE_TIME .         2021-03-18T21_24_50           : 
TLFamily_CRES      .                                       : 
TLFamily_DEPT      .         Measured Depth                : 
TLFamily_GK        .         Gamma Ray                     : 
TLFamily_GK$       .                                       : 
TLFamily_LM        .         Casing Collar locator         : 
TLFamily_METKA     .                                       : 
TLFamily_MN        .                                       : 
TLFamily_MN$       .                                       : 
TLFamily_PL        .                                       : 
TLFamily_PL_2      .                                       : 
TLFamily_RCOR      .                                       : 
TLFamily_RES       .         Mud Resistivity               : 
TLFamily_SPID      .         Spontaneous Potential         : 
TLFamily_STD       .                                       : 
TLFamily_TIME      .         Time                          : 
TLFamily_TM        .         Temperature                   : 
TLFamily_TM$       .         Temperature                   : 
TLFamily_VGD       .         Gas Volume                    : 
group              .         prim                          : 
~Curve Information
#_______________________________________________________________________________
#
#LOGNAME           .UNIT     LOG_ID                        : DESCRIPTION
#_______________________________________________________________________________
DEPT               .M                                      : 1 Глубина, м -    0.0 см 
CRES               .UE                                     : 9 Проводимость, усл.ед. -  222.0 см 
GK                 .MKR/H                                  : 16 Гамма-активность, мкр./ч -  106.0 см 
GK$                .UE                                     : 13 Гамма-активность, усл.ед. -  106.0 см 
LM                 .                                       : 11 Локатор муфт,  -   16.0 см 
METKA              .                                       : 3 Метки,  -    0.0 см 
MN                 .ATM                                    : 15 Давление, атм. -  160.0 см 
MN$                .UE                                     : 7 Давление, усл.ед. -  160.0 см 
PL                 .UE                                     : 10 Плотность, усл.ед. -  270.0 см 
PL_2               .GSM3                                   : 18 Плотность, г./см3 -  270.0 см 
RCOR               .CM/KM                                  : 5 Коррекция по ролику, см/км -    0.0 см 
RES                .SM                                     : 17 Проводимость,  -  222.0 см 
SPID               .M/H                                    : 2 Скорость, м/час -    0.0 см 
STD                .                                       : 12 Приток,  -  170.0 см 
TIME               .S                                      : 4 Время, сек -    0.0 см 
TM                 .GRD                                    : 14 Температура, °C -  180.0 см 
TM$                .UE                                     : 6 Температура, усл.ед. -  180.0 см 
VGD                .                                       : 8 Влагомер,  -  170.0 см 
~Ascii
# ...
2673.400012 1184       8.78       382        75         0          245.798    11954      14         0          0          4.1188     580        10968      18157.83   56.008     13846      6616      
2673.600012 1181       8.81       389        75         0          245.819    11955      14         0          0          4.1021     580        10966      18159.15   55.996     13843      6617      
2673.800013 1183       8.87       389        127        0          245.858    11957      14         0          0          4.1116     580        10960      18160.41   55.973     13837      6616      
2674.000013 1183       9.01       414        94         0          245.863    11957      14         0          0          4.114      580        10953      18161.73   55.957     13833      6616      
2674.200013 1180       9.41       427        81         0          245.884    11958      14         0          0          4.0997     510        10944      18162.99   55.936     13828      6619      
2674.400013 1184       9.72       448        81         0          245.892    11958      14         0          0          4.1188     580        10937      18164.31   55.914     13823      6622      
2674.600013 1183       10         448        97         0          245.905    11959      14         0          0          4.114      569        10934      18165.63   55.893     13818      6622      
2674.800013 1181       10.01      429        116        0          245.927    11960      14         0          0          4.1052     510        10931      18166.93   55.884     13815      6622      
2675.000013 1183       9.93       429        101        0          245.949    11961      14         0          0          4.1133     580        10931      18168.21   55.862     13810      6622      
2675.200013 1182       9.75       403        111        0          245.958    11962      14         0          0          4.1076     580        10931      18169.52   55.846     13806      6622      
2675.400013 1181       9.51       403        92         0          245.984    11963      14         0          0          4.1061     520        10933      18170.78   55.824     13800      6624      
2675.600013 1181       9.44       411        78         0          245.989    11963      14         0          0          4.1045     510        10931      18172.11   55.807     13796      6623      
2675.800014 1181       9.44       411        47         0          246.014    11964      14         0          0          4.1045     580        10921      18173.42   55.782     13790      6623      
2676.000014 1181       9.59       428        52         0          246.032    11965      14         0          0          4.1045     568        10913      18174.74   55.753     13783      6625      
2676.200014 1181       9.71       428        88         0          246.054    11966      14         0          0          4.1045     510        10904      18176.01   55.735     13778      6625      
2676.400014 1181       9.74       425        82         0          246.074    11967      14         0          0          4.1052     540        10897      18177.36   55.722     13775      6624      
2676.600014 1182       9.75       425        232        0          246.096    11968      14         0          0          4.1084     557        10891      18178.64   55.684     13766      6626      
2676.800014 1180       9.62       411        75         0          246.093    11968      14         0          0          4.0997     510        10884      18179.95   55.67      13762      6625      
2677.000014 1181       9.53       411        72         0          246.136    11970      14         0          0          4.1035     560        10887      18181.27   55.643     13756      6629      
2677.200014 1179       9.41       404        87         0          246.136    11970      14         0          0          4.095      580        10884      18182.54   55.629     13752      6627      
2677.400014 1180       9.33       402        140        0          246.158    11971      14         0          0          4.0997     580        10884      18183.86   55.603     13746      6627      
2677.600014 1178       9.24       398        131        0          246.18     11972      14         0          0          4.0922     580        10882      18185.12   55.58      13740      6627      
2677.800015 1179       9.19       398        131        0          246.202    11973      14         0          0          4.0949     533        10882      18186.44   55.564     13736      6625      
2678.000015 1178       9.24       405        64         0          246.211    11973      14         0          0          4.0902     533        10881      18187.76   55.547     13732      6626      
2678.200015 1177       9.29       411        105        0          246.221    11974      14         0          0          4.0854     580        10873      18189.02   55.533     13729      6629      
2678.400015 1177       9.42       416        78         0          246.243    11975      14         0          0          4.0838     580        10863      18190.33   55.503     13721      6626      
2678.600015 1177       9.53       426        62         0          246.263    11976      14         0          0          4.0861     545        10854      18191.65   55.487     13717      6625      
2678.800015 1178       9.66       426        123        0          246.286    11977      14         0          0          4.0886     533        10847      18192.92   55.456     13709      6623      
2679.000015 1178       9.81       447        95         0          246.302    11978      14         0          0          4.0902     580        10841      18194.23   55.44      13705      6625      
2679.200015 1177       10.15      458        63         0          246.303    11978      14         0          0          4.0854     533        10835      18195.55   55.411     13698      6624      
2679.400015 1176       10.6       513        69         0          246.323    11979      14         0          0          4.0815     580        10832      18196.82   55.386     13692      6624      
2679.600015 1177       11.19      513        56         0          246.344    11980      14         0          0          4.0854     569        10828      18198.13   55.355     13684      6625      
2679.800015 1176       11.34      493        116        0          246.366    11981      14         0          0          4.0791     522        10828      18199.45   55.328     13678      6626      
2680.000016 1176       11.33      493        121        0          246.389    11982      14         0          0          4.0807     533        10827      18200.71   55.31      13673      6627      
2680.200016 1176       10.96      451        67         1          246.399    11983      14         0          0          4.0807     580        10829      18202.56   55.296     13670      6626      
2680.400016 1174       10.67      451        48         0          246.411    11983      14         0          0          4.0711     550        10830      18203.92   55.285     13667      6627      
2680.600016 1174       10.42      439        46         0          246.432    11984      14         0          0          4.0711     580        10825      18205.2    55.278     13665      6628      
2680.800016 1173       10.25      439        50         0          246.453    11985      14         0          0          4.0672     570        10817      18206.47   55.252     13659      6628      
2681.000016 1173       10.21      444        60         0          246.474    11986      14         0          0          4.068      530        10807      18207.83   55.225     13652      6627      
2681.200016 1172       10.32      468        40         0          246.492    11987      14         0          0          4.0632     545        10801      18209.09   55.202     13646      6627      
2681.400016 1173       10.53      468        56         0          246.515    11988      14         0          0          4.0664     580        10794      18210.41   55.184     13642      6627      
