~Version
 VERS              .         2.0                           : CWLS LOG ASCII STANDARD - VERSION 2.0
 WRAP              .         NO                            : ONE LINE PER DEPTH STEP
 DLM               .         SPACE                         : DELIMITING CHARACTER(SPACE TAB OR COMMA)
~Well Information
#_______________________________________________________________________________
#
#PARAMETER_NAME    .UNIT     VALUE                         : DESCRIPTION
#_______________________________________________________________________________
STRT               .M        2667.4                        : First reference value
STOP               .M        2776.000109                   : Last reference value
STEP               .M        0.2000002                     : Step increment
NULL               .         -9999                         : Missing value
COMP               .                                       : Company
WELL               .         616                           : Well name
FLD                .                                       : Field
LOC                .                                       : Location
CNTY               .                                       : County
STAT               .                                       : State
CTRY               .                                       : Country
SRVC               .                                       : Service Company
DATE               .                                       : Date
API                .                                       : API number
PROJECT_UPGRADE_TIME .         2021-03-18T21_24_50           : 
group              .         Good                          : 
~Parameter Information Block
#_______________________________________________________________________________
#
#PARAMETER_NAME    .UNIT     VALUE                         : DESCRIPTION
#_______________________________________________________________________________
SET                .         D1801_D                       : 
OTHER              .         Программное обеспечение станции MONITOR-386EX 25/12/99 15_08_10   BGF V52 22/08/01 16_56_30   3.1_SNGF___BGF_N_092049: 
OTHER_10           .         Тарировки_                    : 
OTHER_11           .         TM.GRD = 0.00403*TM$.UE + -1.07: 
OTHER_12           .         MN.ATM = (9.34907e-006*TM.GRD + 0.02171)*(MN$.UE + -7.93*TM.GRD + -1787): 
OTHER_13           .         GK.MKR/H = LM. / 42.4676      : 
OTHER_14           .         GK.FLT = 0.1*GK.MKR/H[-1] + (1-0.1)*GK.MKR/H[0]: 
OTHER_2            .         Kedr.exe версия 3.4.2.51      : 
OTHER_3            .         KedrData.dll версия 3.4.2.24  : 
OTHER_4            .         Драйвер версия 2.1.1.3        : 
OTHER_5            .         Мнемоники версия 3.3 S        : 
OTHER_6            .         Прибор_ КСА-Т4                : 
OTHER_7            .         Номер прибора_ 03             : 
OTHER_8            .         Режим_ КСА-Т4                 : 
OTHER_9            .         Форма_ КВА.                   : 
PROJECT_UPGRADE_TIME .         2021-03-18T21_24_49           : 
TLFamily_DEPT      .         Measured Depth                : 
TLFamily_GK        .         Gamma Ray                     : 
TLFamily_GK$       .                                       : 
TLFamily_GK_2      .         Gamma Ray                     : 
TLFamily_LM        .         Casing Collar locator         : 
TLFamily_METKA     .                                       : 
TLFamily_MN        .                                       : 
TLFamily_MN$       .                                       : 
TLFamily_RCOR      .                                       : 
TLFamily_SPID      .         Spontaneous Potential         : 
TLFamily_TENS      .         Cable Tension                 : 
TLFamily_TIME      .         Time                          : 
TLFamily_TM        .         Temperature                   : 
TLFamily_TM$       .         Temperature                   : 
group              .         prim                          : 
~Curve Information
#_______________________________________________________________________________
#
#LOGNAME           .UNIT     LOG_ID                        : DESCRIPTION
#_______________________________________________________________________________
DEPT               .M                                      : 1 Глубина, м -    0.0 см 
GK                 .MKR/H                                  : 13 Гамма-активность, мкр./ч -  110.0 см 
GK$                .UE                                     : 10 Гамма-активность, усл.ед. -  110.0 см 
GK_2               .FLT                                    : 14 Гамма-активность фильтрованная, мкр./ч -  110.0 см 
LM                 .                                       : 9 Локатор муфт,  -   20.0 см 
METKA              .                                       : 3 Метки,  -    0.0 см 
MN                 .ATM                                    : 12 Давление, атм. -  160.0 см 
MN$                .UE                                     : 8 Давление, усл.ед. -  160.0 см 
RCOR               .CM/KM                                  : 5 Коррекция по ролику, см/км -    0.0 см 
SPID               .M/H                                    : 2 Скорость, м/час -    0.0 см 
TENS               .T                                      : 6 Натяжение кабеля, т -    0.0 см 
TIME               .S                                      : 4 Время, сек -    0.0 см 
TM                 .GRD                                    : 11 Температура, °C -  170.0 см 
TM$                .UE                                     : 7 Температура, усл.ед. -  170.0 см 
~Ascii
2667.3999023 -9999      -9999      -9999      -9999      0          -9999      -9999      -9999      -9999      -9999      -9999      -9999      -9999     
2667.6     -9999      -9999      -9999      44         0          -9999      -9999      -600       72         0.09       7736.77    -9999      -9999     
2667.8     -9999      -9999      -9999      44         0          -9999      -9999      -600       206        0.07       7738.38    -9999      -9999     
2668.000001 -9999      -9999      -9999      86         0          -9999      -9999      -600       299        0.07       7739.78    -9999      -9999     
2668.200001 -9999      -9999      -9999      297        0          -9999      -9999      -600       373        0.07       7741.17    -9999      -9999     
2668.400001 -9999      -9999      -9999      270        0          -9999      -9999      -600       417        0.07       7742.53    -9999      -9999     
2668.600001 9.14       388        9.14       280        0          -9999      -9999      -600       462        0.07       7743.84    -9999      -9999     
2668.800001 8.97       381        8.98       339        0          -9999      -9999      -600       490        0.07       7745.09    -9999      -9999     
2669.000002 9.63       409        9.51       568        0          -9999      -9999      -600       517        0.07       7746.34    -9999      -9999     
2669.200002 9.63       409        9.63       399        0          244.117    13180      -600       533        0.07       7747.66    46.657     11843     
2669.400002 9.77       415        9.75       369        0          244.116    13180      -600       538        0.07       7748.91    46.681     11849     
2669.600002 9.77       415        9.77       311        0          244.125    13180      -600       541        0.07       7750.16    46.7       11854     
2669.800002 8.83       375        8.96       819        0          244.138    13181      -600       548        0.07       7751.38    46.723     11859     
2670.000003 8.83       375        8.84       1282       2          244.172    13183      -600       552        0.07       7751.94    46.754     11867     
2670.200003 8.78       373        8.79       512        0          244.175    13183      -600       560        0.05       7753.11    46.778     11873     
2670.400003 8.78       373        8.78       2025       0          244.189    13184      -600       563        0.05       7754.42    46.794     11877     
2670.600003 8.57       364        8.59       3347       0          244.219    13185      -600       559        0.05       7755.69    46.786     11875     
2670.800003 8.57       364        8.57       657        0          244.251    13186      -600       565        0.05       7756.94    46.793     11877     
2671.000004 7.86       334        8.06       361        0          244.266    13187      -600       565        0.05       7758.19    46.814     11882     
2671.200004 7.86       334        7.89       359        0          244.267    13187      -600       559        0.05       7759.44    46.802     11879     
2671.400004 8.08       343        8          358        0          244.294    13188      -600       556        0.05       7760.63    46.786     11875     
2671.600004 8.17       347        8.17       349        0          244.287    13188      -600       557        0.05       7761.88    46.792     11876     
2671.800004 8.38       356        8.3        361        0          244.329    13190      -600       567        0.05       7763.13    46.8       11878     
2672.000005 8.59       365        8.58       321        0          244.352    13191      -600       571        0.05       7764.38    46.802     11879     
2672.200005 8.71       370        8.67       312        0          244.372    13192      -600       562        0.05       7765.63    46.782     11874     
2672.400005 9.28       394        9.25       320        0          244.398    13193      -600       567        0.05       7766.88    46.762     11869     
2672.600005 9.18       390        9.22       309        0          244.41     13193      -600       571        0.05       7768.13    46.758     11868     
2672.800005 9.14       388        9.14       427        0          244.439    13195      -600       574        0.05       7769.37    46.755     11867     
2673.000006 9.2        391        9.17       305        0          244.421    13194      -600       585        0.05       7770.64    46.752     11867     
2673.200006 9.35       397        9.34       325        0          244.466    13196      -600       591        0.05       7771.89    46.746     11865     
2673.400006 8.53       362        8.83       253        0          244.489    13197      -600       588        0.05       7773.08    46.738     11863     
2673.600006 8.52       362        8.54       295        0          244.512    13198      -600       585        0.07       7774.33    46.73      11861     
2673.800006 7.99       339        8.19       265        0          244.535    13199      -600       570        0.07       7775.64    46.716     11858     
2674.000007 7.72       328        7.74       275        0          244.551    13200      -600       573        0.07       7776.83    46.706     11855     
2674.200007 7.6        323        7.64       292        0          244.559    13200      -600       575        0.07       7778.08    46.683     11849     
2674.400007 7.09       301        7.11       234        0          244.589    13201      -600       577        0.07       7779.33    46.675     11847     
2674.600007 6.54       278        6.74       254        0          244.619    13203      -600       579        0.07       7780.58    13.686     3662      
2674.800007 6.43       273        6.44       271        0          244.627    13203      -600       584        0.07       7781.79    46.661     11844     
2675.000008 6.65       283        6.57       231        0          244.65     13204      -600       589        0.05       7783.06    46.651     11841     
2675.200008 6.88       292        6.87       202        0          244.662    13204      -600       592        0.05       7784.28    46.638     11838     
2675.400008 6.81       289        6.84       244        0          244.719    13207      -600       579        0.05       7785.56    46.616     11833     
2675.600008 6.5        276        6.51       248        0          244.718    13207      -600       576        0.05       7786.78    46.621     11834     
2675.800008 6.56       278        6.54       195        0          244.741    13208      -600       577        0.05       7788.03    46.622     11834     
2676.000009 6.57       279        6.57       205        0          244.765    13209      -600       580        0.05       7789.28    46.6       11829     
2676.200009 6.54       278        6.55       284        0          244.769    13209      -600       575        0.07       7790.53    46.583     11825     
2676.400009 6.48       275        6.48       235        0          244.796    13210      -600       578        0.07       7791.78    46.584     11825     
2676.600009 6.48       275        6.48       197        0          244.833    13212      -600       578        0.05       7793.01    46.584     11825     
2676.800009 5.82       247        5.84       167        0          244.855    13213      -600       579        0.05       7794.22    46.567     11821     
2677.00001 6.43       273        6.21       230        0          244.856    13213      -600       573        0.07       7795.47    46.566     11820     
2677.20001 6.73       286        6.72       237        0          244.895    13215      -600       569        0.07       7796.72    46.532     11812     
2677.40001 6.79       289        6.77       183        0          244.902    13215      -600       581        0.07       7797.97    46.518     11808     
2677.60001 6.95       295        6.94       195        0          244.924    13216      -600       588        0.05       7799.23    46.531     11812     
