~Version
 VERS              .         2.0                           : CWLS LOG ASCII STANDARD - VERSION 2.0
 WRAP              .         NO                            : ONE LINE PER DEPTH STEP
 DLM               .         SPACE                         : DELIMITING CHARACTER(SPACE TAB OR COMMA)
~Well Information
#_______________________________________________________________________________
#
#PARAMETER_NAME    .UNIT     VALUE                         : DESCRIPTION
#_______________________________________________________________________________
STRT               .M        2656.6                        : First reference value
STOP               .M        2765.2                        : Last reference value
STEP               .M        0.1999997                     : Step increment
NULL               .         -9999                         : Missing value
COMP               .                                       : Company
WELL               .         616                           : Well name
FLD                .                                       : Field
LOC                .                                       : Location
CNTY               .                                       : County
STAT               .                                       : State
CTRY               .                                       : Country
SRVC               .                                       : Service Company
DATE               .                                       : Date
API                .                                       : API number
PROJECT_UPGRADE_TIME .         2021-03-18T21_24_50           : 
group              .         Good                          : 
~Parameter Information Block
#_______________________________________________________________________________
#
#PARAMETER_NAME    .UNIT     VALUE                         : DESCRIPTION
#_______________________________________________________________________________
SET                .         D8102_D                       : 
OTHER              .         Программное обеспечение станции MONITOR-386EX 25/12/99 15_08_10   BGF V52 22/08/01 16_56_30   4_SNGF_BGF_N_011645: 
OTHER_10           .         Тарировки_                    : 
OTHER_11           .         TM.GRD = 0.00412*TM$.UE + -2.13: 
OTHER_12           .         MN.ATM = (5.87652e-006*TM.GRD + 0.01993)*(MN$.UE + -2.72*TM.GRD + -1925): 
OTHER_13           .         GK.MKR/H = GK$.UE / 57.4657   : 
OTHER_2            .         Kedr.exe версия 3.4.2.51      : 
OTHER_3            .         KedrData.dll версия 3.4.2.24  : 
OTHER_4            .         Драйвер версия 2.1.0.2        : 
OTHER_5            .         Мнемоники версия 3.3 S        : 
OTHER_6            .         Прибор_ АКП4-90               : 
OTHER_7            .         Номер прибора_ 53             : 
OTHER_8            .         Режим_ АКП4_90                : 
OTHER_9            .         Форма_ ПК-53ое                : 
PROJECT_UPGRADE_TIME .         2021-03-18T21_24_50           : 
TLFamily_DEPT      .         Measured Depth                : 
TLFamily_GK        .         Gamma Ray                     : 
TLFamily_GK$       .                                       : 
TLFamily_LM        .         Casing Collar locator         : 
TLFamily_METKA     .                                       : 
TLFamily_METKA_1   .                                       : 
TLFamily_MN        .                                       : 
TLFamily_MN$       .                                       : 
TLFamily_RCOR      .                                       : 
TLFamily_SPID      .         Spontaneous Potential         : 
TLFamily_TENS      .         Cable Tension                 : 
TLFamily_TIME      .         Time                          : 
TLFamily_TM        .         Temperature                   : 
TLFamily_TM$       .         Temperature                   : 
group              .         prim                          : 
~Curve Information
#_______________________________________________________________________________
#
#LOGNAME           .UNIT     LOG_ID                        : DESCRIPTION
#_______________________________________________________________________________
DEPT               .M                                      : 1 Глубина, м -    0.0 см 
GK                 .MKR/H                                  : 13 Гамма-активность, мкр./ч -   65.0 см 
GK$                .UE                                     : 10 Гамма-активность, усл.ед. -   65.0 см 
LM                 .                                       : 9 Локатор муфт,  -   30.0 см 
METKA              .                                       : 3 Метки,  -    0.0 см 
METKA_1            .                                       : 14 Маркеры - 65 см 
MN                 .ATM                                    : 12 Давление, атм. -  140.0 см 
MN$                .UE                                     : 8 Давление, усл.ед. -  140.0 см 
RCOR               .CM/KM                                  : 5 Коррекция по ролику, см/км -    0.0 см 
SPID               .M/H                                    : 2 Скорость, м/час -    0.0 см 
TENS               .T                                      : 6 Натяжение кабеля, т -    0.0 см 
TIME               .S                                      : 4 Время, сек -    0.0 см 
TM                 .GRD                                    : 11 Температура, °C -  145.0 см 
TM$                .UE                                     : 7 Температура, усл.ед. -  145.0 см 
~Ascii
2656.6000977 -9999      -9999      -9999      -9999      0          -9999      -9999      -9999      -9999      -9999      -9999      -9999      -9999     
2656.8     -9999      -9999      -9999      0          0          -9999      -9999      -23        -304       0.74       1982.05    -9999      -9999     
2657       -9999      -9999      -9999      0          0          -9999      -9999      -23        -303       0.73       1979.72    -9999      -9999     
2657.2     -9999      -9999      155        0          0          -9999      -9999      -23        -302       0.75       1977.33    -9999      -9999     
2657.4     5.57       320        220        0          0          -9999      -9999      -23        -304       0.75       1974.93    -9999      -9999     
2657.6     4.54       261        23         0          0          -9999      -9999      -23        -304       0.75       1972.54    -9999      -9999     
2657.8     4.18       240        21         0          0          -9999      -9999      -23        -303       0.75       1970.14    -9999      -9999     
2658       5.03       289        42         0          0          -9999      -9999      -23        -304       0.75       1967.88    -9999      -9999     
2658.2     5.58       320        77         0          0          243.006    14118      -23        -300       0.74       1965.48    66.007     16538     
2658.4     5.06       291        106        0          0          243.02     14119      -23        -300       0.73       1963.09    66.015     16540     
2658.6     4.32       248        215        0          0          243.026    14119      -23        -307       0.75       1960.69    66.023     16542     
2658.8     4.91       282        75         0          0          243.046    14120      -23        -302       0.75       1958.3     66.03      16544     
2659       5.38       309        70         0          0          243.093    14122      -23        -311       0.75       1955.91    66.04      16546     
2659.2     6.01       345        194        0          0          243.126    14124      -23        -306       0.75       1953.64    66.045     16547     
2659.4     6.49       373        95         0          0          243.126    14124      -23        -302       0.73       1951.25    66.052     16549     
2659.6     5.71       328        146        0          0          243.146    14125      -23        -305       0.75       1948.97    66.056     16550     
2659.8     5.88       338        220        0          0          243.186    14127      -23        -298       0.75       1946.52    66.06      16551     
2660       6.21       357        550        0          0          243.226    14129      -23        -303       0.75       1944.18    66.068     16553     
2660.2     6.01       345        348        0          0          243.219    14129      -23        -306       0.73       1941.79    66.077     16555     
2660.4     5.9        339        109        0          0          243.232    14129      -23        -308       0.41       1939.39    66.089     16558     
2660.6     5.26       302        199        2          0          243.252    14130      -21        -296       0.73       1936.87    66.093     16559     
2660.8     4.69       269        2304       0          0          243.305    14133      -21        -298       0.75       1934.42    66.101     16561     
2661       4.45       256        21553      0          0          243.306    14133      -21        -300       0.75       1932.07    66.104     16562     
2661.2     5.07       291        5043       0          0          243.335    14135      -21        -298       0.75       1929.74    66.105     16562     
2661.4     5.22       300        143        0          0          243.345    14135      -21        -306       0.75       1927.34    66.114     16564     
2661.6     5.44       313        191        0          0          243.385    14137      -21        -309       0.74       1924.95    66.118     16565     
2661.8     6          345        287        0          0          243.392    14137      -21        -308       0.75       1922.61    66.118     16565     
2662       6.13       352        422        0          0          243.425    14139      -21        -306       0.75       1920.16    66.118     16565     
2662.2     5.79       333        89         0          0          243.425    14139      -21        -303       0.75       1917.95    66.127     16567     
2662.4     6.2        356        166        0          0          243.445    14140      -21        -306       0.75       1915.5     66.134     16569     
2662.6     6.4        368        230        0          0          243.485    14142      -21        -303       0.75       1913.28    66.137     16570     
2662.8     6.77       389        243        0          0          243.505    14143      -21        -303       0.75       1910.8     66.132     16568     
2663       6.75       388        220        0          0          243.505    14143      -21        -308       0.75       1908.44    66.132     16568     
2663.2     6.42       369        741        0          0          243.525    14144      -21        -305       0.75       1906.04    66.138     16570     
2663.4     6.75       388        1520       0          0          243.545    14145      -21        -299       0.73       1903.64    66.134     16569     
2663.6     6.02       346        226        0          0          243.565    14146      -21        -304       0.75       1901.25    66.132     16568     
2663.8     5.48       315        221        0          0          243.591    14147      -21        -302       0.75       1898.98    66.134     16569     
2664       4.96       285        91         0          0          243.605    14148      -21        -305       0.73       1896.53    66.13      16568     
2664.2     4.4        253        138        0          0          243.624    14149      -21        -305       0.75       1894.19    66.134     16569     
2664.4     4.5        259        92         0          0          243.644    14150      -21        -306       0.75       1891.8     66.137     16570     
2664.6     4.44       255        194        0          0          243.684    14152      -21        -300       0.75       1889.4     66.126     16567     
2664.8     4.14       238        85         0          0          243.697    14153      -21        -307       0.75       1887.01    66.126     16567     
2665       3.86       222        129        0          0          243.704    14153      -21        -307       0.75       1884.62    66.125     16567     
2665.2     3.79       218        93         0          0          243.744    14155      -21        -309       0.75       1882.35    66.118     16565     
2665.4     3.94       227        137        0          0          243.774    14157      -21        -301       0.75       1879.96    66.101     16561     
2665.6     4.01       231        107        0          0          243.777    14157      -21        -305       0.75       1877.62    66.093     16559     
2665.8     4.14       238        76         0          0          243.804    14158      -21        -300       0.75       1875.17    66.083     16557     
2666       4.31       247        148        0          0          243.824    14159      -21        -310       0.75       1872.77    66.077     16555     
2666.2     4.5        258        91         0          0          243.863    14161      -21        -305       0.75       1870.44    66.068     16553     
2666.4     4.92       283        89         0          0          243.883    14162      -21        -297       0.75       1868.1     66.044     16547     
2666.6     4.76       274        153        0          0          243.883    14162      -21        -302       0.75       1865.71    66.03      16544     
2666.8     4.47       257        184        0          0          243.89     14162      -21        -302       0.75       1863.4     66.021     16541     
