~Version
 VERS              .         2.0                           : CWLS LOG ASCII STANDARD - VERSION 2.0
 WRAP              .         NO                            : ONE LINE PER DEPTH STEP
 DLM               .         SPACE                         : DELIMITING CHARACTER(SPACE TAB OR COMMA)
~Well Information
#_______________________________________________________________________________
#
#PARAMETER_NAME    .UNIT     VALUE                         : DESCRIPTION
#_______________________________________________________________________________
STRT               .M        2298.8                        : First reference value
STOP               .M        2799.8                        : Last reference value
STEP               .M        0.2                           : Step increment
NULL               .         -9999                         : Missing value
COMP               .                                       : Company
WELL               .         616                           : Well name
FLD                .                                       : Field
LOC                .                                       : Location
CNTY               .                                       : County
STAT               .                                       : State
CTRY               .                                       : Country
SRVC               .                                       : Service Company
DATE               .                                       : Date
API                .                                       : API number
PROJECT_UPGRADE_TIME .         2021-03-18T21_24_50           : 
group              .         Good                          : 
~Parameter Information Block
#_______________________________________________________________________________
#
#PARAMETER_NAME    .UNIT     VALUE                         : DESCRIPTION
#_______________________________________________________________________________
SET                .         D2659_D                       : 
OTHER              .         Программное обеспечение станции MONITOR-386EX 25/12/99 15_08_10   BGF V50 26/12/00 07_26_01   3.1_SNGF___BGF_N_092085: 
OTHER_10           .         Тарировки_                    : 
OTHER_11           .         <_techsia_sc_> Постоянная времени фильтра ПС  0.5 сек, kf=0.139292: 
OTHER_2            .         Kedr.exe версия 3.3.2.32      : 
OTHER_3            .         KedrData.dll версия 3.3.2.17  : 
OTHER_4            .         Драйвер версия 2.1.0.7        : 
OTHER_5            .         Мнемоники версия 3.3 S        : 
OTHER_6            .         Прибор_ К1a-723м              : 
OTHER_7            .         Номер прибора_ 348/72         : 
OTHER_8            .         Режим_ K1A-723M               : 
OTHER_9            .         Форма_ БКЗ                    : 
PROJECT_UPGRADE_TIME .         2021-03-18T21_24_49           : 
TLFamily_BK        .         Lateral Log Resistivity       : 
TLFamily_DEPT      .         Measured Depth                : 
TLFamily_GZ1       .         Extra Shallow Resistivity     : 
TLFamily_GZ2       .         Shallow Resistivity           : 
TLFamily_GZ3       .         Medium Resistivity            : 
TLFamily_GZ4       .         Deep Resistivity              : 
TLFamily_GZ5       .         Extra Deep Resistivity        : 
TLFamily_GZ6       .         Medium Resistivity Inverted   : 
TLFamily_IBK       .                                       : 
TLFamily_IK        .         Conductivity                  : 
TLFamily_IPR       .                                       : 
TLFamily_METKA     .                                       : 
TLFamily_PS        .         Spontaneous Potential         : 
TLFamily_PZ        .         Potential Resistivity         : 
TLFamily_RCOR      .                                       : 
TLFamily_RES       .         Mud Resistivity               : 
TLFamily_SPID      .         Spontaneous Potential         : 
TLFamily_TENS      .         Cable Tension                 : 
TLFamily_TIME      .         Time                          : 
TLFamily_UBK       .         Uranium Concentration         : 
group              .         prim                          : 
~Curve Information
#_______________________________________________________________________________
#
#LOGNAME           .UNIT     LOG_ID                        : DESCRIPTION
#_______________________________________________________________________________
DEPT               .M                                      : 1 Глубина, м -    0.0 см 
BK                 .OHMM                                   : 20 БК, Ом*м - 1768.0 см 
GZ1                .OHMM                                   : 12 A0.4M0.1N, Ом*м - 1295.0 см 
GZ2                .OHMM                                   : 11 A1.0M0.1N, Ом*м - 1355.0 см 
GZ3                .OHMM                                   : 9 A2.0M0.5N, Ом*м - 1475.0 см 
GZ4                .OHMM                                   : 8 A4.0M0.5N, Ом*м - 1025.0 см 
GZ5                .OHMM                                   : 7 A8.0M1.0N, Ом*м - 1450.0 см 
GZ6                .OHMM                                   : 10 N0.5M2.0A, Ом*м - 1025.0 см 
IBK                .A                                      : 18 Ток БК, А - 1768.0 см 
IK                 .MSM/M                                  : 14 ИК, мСм/м - 1961.0 см 
IPR                .MA                                     : 17 Ток прибора, мA -    0.0 см 
METKA              .                                       : 3 Метки,  -    0.0 см 
PS                 .mV                                     : 16 ПС, мВ - 1210.0 см 
PZ                 .OHMM                                   : 13 N11M0.5A, Ом*м - 1225.0 см 
RCOR               .CM/KM                                  : 5 Коррекция по ролику, см/км -    0.0 см 
RES                .OHMM                                   : 15 Резистивиметр, Ом*м -  600.0 см 
SPID               .M/H                                    : 2 Скорость, м/час -    0.0 см 
TENS               .T                                      : 6 Натяжение кабеля, т -    0.0 см 
TIME               .S                                      : 4 Время, сек -    0.0 см 
UBK                .V                                      : 19 Напр. БК, В - 1768.0 см 
~Ascii
# ...
2469       6.14       6.5        4.3        3.8        4.9        4.7        7.3        0.023      157.6      430.667    0          548.33     7.7        -353       2.754      -1826      0          29089.17   0.592     
2469.2     7.09       6.7        4.8        3.9        4.9        4.9        7.2        0.02       153        430        0          547.33     7.3        -353       2.757      -1798      0          29088.76   0.612     
2469.4     6.63       7.8        6          4.2        5          4.8        7.5        0.023      148.8      428.667    0          548.12     7.1        -353       2.756      -1792      0          29088.37   0.64      
2469.6     6          8.3        6.8        4.4        5.1        4.8        7.9        0.026      147.6      428.01     0          549.93     7          -353       2.755      -1794      0          29087.97   0.652     
2469.8     5.69       7.7        7.1        4.6        5.1        4.9        8.4        0.028      145.8      431.196    1          550.56     7.1        -353       2.757      -1797      0          29087.58   0.665     
2470       5.63       7.2        7.2        4.8        5          5.1        8.9        0.028      144.5      431.333    0          551.25     7.5        -351       2.761      -1802      0          29087.15   0.676     
2470.2     5.29       6.9        6.9        5          4.9        5.1        9.3        0.031      143.6      430        0          551.32     8.1        -351       2.758      -1812      0          29086.8    0.683     
2470.4     5.92       6.4        6.2        5.1        4.6        4.9        9.3        0.028      141.8      429        0          552.41     8.7        -351       2.756      -1818      0          29086.35   0.688     
2470.6     5.76       6.5        6.1        5.3        4.4        4.8        8.9        0.028      138.3      430        0          548.17     9          -351       2.758      -1785      0          29085.96   0.689     
2470.8     6.83       6.5        5.7        5.1        4.3        4.8        8.5        0.024      133.2      429.328    0          547.64     9          -351       2.753      -1769      0          29085.6    0.697     
2471       7.12       7.4        6.1        5.4        4.2        4.6        8.2        0.024      128.1      428        0          546.95     9.2        -351       2.756      -1765      0          29085.19   0.71      
2471.2     7.08       8.3        6.6        5.5        4.5        4.6        8.1        0.024      124.5      430        0          547.04     9.3        -351       2.755      -1793      0          29084.79   0.723     
2471.4     7.02       8.3        7.1        5.7        4.5        4.6        7.9        0.025      121.8      430        0          546.22     9.5        -351       2.756      -1804      0          29084.42   0.734     
2471.6     7.01       8.3        7.6        5.7        4.5        4.7        7.7        0.025      121.3      432        0          546.09     9.6        -351       2.76       -1816      0          29083.96   0.743     
2471.8     7.05       8.2        7.9        5.8        4.5        4.7        7.6        0.025      121.6      430        0          546.11     9.3        -351       2.759      -1828      0          29083.58   0.751     
2472       7.09       8.1        7.9        6          4.8        4.8        7.6        0.025      121.2      428.667    0          545.78     8.8        -351       2.755      -1801      0          29083.17   0.754     
2472.2     7.23       8.4        8.4        6.5        5.1        4.8        7.6        0.025      121.8      431        0          545.41     8.6        -351       2.754      -1794      0          29082.81   0.749     
2472.4     7.23       9          9.1        7.2        5.6        5.1        8.1        0.024      123.3      430        0          545.13     8.6        -351       2.756      -1798      0          29082.38   0.746     
2472.6     6.24       9          9.6        8          5.9        5.3        8.4        0.028      126.1      431.59     0          545.45     8.7        -351       2.755      -1804      0          29081.98   0.744     
2472.8     6.17       8          9.1        8.4        6.1        5.4        8.7        0.029      126.7      432        0          543.67     8.9        -351       2.758      -1814      0          29081.6    0.743     
2473       8.14       8.1        8.9        8.4        6.1        5.3        8.5        0.022      127.1      428        0          541.26     9          -351       2.759      -1831      0          29081.22   0.754     
2473.2     6.69       9          8.5        8.1        6.2        5.3        8          0.027      125.1      430        0          541.63     9.2        -351       2.752      -1859      0          29080.82   0.776     
2473.4     6.08       8.7        7.4        7.7        6          5.1        7.8        0.031      124.5      430        0          542.92     10.2       -351       2.755      -1810      0          29080.42   0.797     
2473.6     6.15       8          7.1        7.4        5.9        5.2        7.7        0.032      123.8      431.317    0          541.4      11.6       -351       2.758      -1781      0          29080.07   0.821     
2473.8     6.11       7.8        7.4        7.3        6.1        5.4        7.9        0.033      122.1      429.5      0          536.35     13.7       -351       2.758      -1775      0          29079.64   0.853     
2474       6.76       7.5        7.6        7.3        6.4        5.6        8.1        0.031      122.2      429.333    0          526.47     15.4       -351       2.755      -1762      0          29079.24   0.882     
2474.2     11.23      9          8.4        7.5        6.7        5.6        8          0.019      120.2      430        0          513.24     15.6       -351       2.757      -1782      0          29078.83   0.883     
2474.4     12.25      11.7       9.2        7.7        7.1        5.5        7.6        0.017      117.1      432        0          506.62     15         -351       2.76       -1804      0          29078.43   0.873     
2474.6     12.97      15.5       10.4       7.7        7.1        5.4        7.2        0.016      115.5      431.984    0          504.44     13.2       -351       2.755      -1815      0          29078.04   0.89      
2474.8     11.62      16.9       11.5       7.8        7.3        5.1        6.9        0.018      116.6      429.333    0          504.79     11.1       -351       2.756      -1835      0          29077.64   0.9       
2475       11.37      17.4       13.4       8.2        7.5        4.8        6.8        0.019      119.1      430        0          508.99     10.2       -351       2.757      -1832      0          29077.32   0.903     
2475.2     10.48      18.1       16.1       8.5        7.7        4.9        6.7        0.021      120.1      430        0          517.06     9.5        -351       2.758      -1810      0          29076.85   0.914     
2475.4     6.24       16.8       16.3       8.6        7.7        4.9        6.9        0.034      124.3      428        0          527.23     9.5        -351       2.76       -1772      0          29076.46   0.883     
2475.6     6.88       11         12.6       8.4        7.7        5          6.8        0.03       129        428.988    0          530.64     9.2        -351       2.754      -1781      0          29076.1    0.871     
2475.8     8.16       10.5       12         8          7.6        5.4        6.8        0.025      131.7      428        0          530.86     8.7        -351       2.754      -1799      0          29075.67   0.855     
2476       6.91       11.1       11         8.1        7.4        5.5        6.6        0.028      133.3      432        0          536.1      8.9        -351       2.753      -1807      0          29075.27   0.827     
2476.2     6.29       10         9.2        7.9        7.3        5.5        6.8        0.031      134.5      428        0          537.83     9.4        -351       2.756      -1819      0          29074.88   0.812     
