~Version
 VERS              .         2.0                           : CWLS LOG ASCII STANDARD - VERSION 2.0
 WRAP              .         NO                            : ONE LINE PER DEPTH STEP
 DLM               .         SPACE                         : DELIMITING CHARACTER(SPACE TAB OR COMMA)
~Well Information
#_______________________________________________________________________________
#
#PARAMETER_NAME    .UNIT     VALUE                         : DESCRIPTION
#_______________________________________________________________________________
STRT               .M        3.8                           : First reference value
STOP               .M        216                           : Last reference value
STEP               .M        0.2                           : Step increment
NULL               .         -9999                         : Missing value
COMP               .                                       : Company
WELL               .         616                           : Well name
FLD                .                                       : Field
LOC                .                                       : Location
CNTY               .                                       : County
STAT               .                                       : State
CTRY               .                                       : Country
SRVC               .                                       : Service Company
DATE               .                                       : Date
API                .                                       : API number
PROJECT_UPGRADE_TIME .         2021-03-18T21_24_50           : 
group              .         Good                          : 
~Parameter Information Block
#_______________________________________________________________________________
#
#PARAMETER_NAME    .UNIT     VALUE                         : DESCRIPTION
#_______________________________________________________________________________
SET                .         D1350_D                       : 
OTHER              .         Программное обеспечение станции MONITOR-386EX 25/12/99 15_08_10   BGF V52 22/08/01 16_56_30   3.1_SNGF__BGF_								111238: 
OTHER_10           .         Тарировки_                    : 
OTHER_11           .         <_techsia_sc_> Постоянная времени фильтра  0.5 сек, kf=0.181269: 
OTHER_12           .         TM.GRD = 0.00428968*TM$.UE + -0.3284: 
OTHER_13           .         GK.MKR/H = GK$.UE / 40.16     : 
OTHER_14           .         NKT. = NKT$.UE / 1            : 
OTHER_2            .         Kedr.exe версия 3.3.2.43      : 
OTHER_3            .         KedrData.dll версия 3.3.2.22  : 
OTHER_4            .         Драйвер версия 2.1.1.3        : 
OTHER_5            .         Мнемоники версия 3.3 S        : 
OTHER_6            .         Прибор_ РК4-38                : 
OTHER_7            .         Номер прибора_ 35с            : 
OTHER_8            .         Режим_ РК4-38                 : 
OTHER_9            .         Форма_ 3                      : 
PROJECT_UPGRADE_TIME .         2021-03-18T21_24_49           : 
TLFamily_DEPT      .         Measured Depth                : 
TLFamily_GK        .         Gamma Ray                     : 
TLFamily_GK$       .                                       : 
TLFamily_LM        .         Casing Collar locator         : 
TLFamily_METKA     .                                       : 
TLFamily_NKT       .         Neutron Far                   : 
TLFamily_NKT$      .         Neutron Far                   : 
TLFamily_RCOR      .                                       : 
TLFamily_SPID      .         Spontaneous Potential         : 
TLFamily_TENS      .         Cable Tension                 : 
TLFamily_TIME      .         Time                          : 
TLFamily_TM        .         Temperature                   : 
TLFamily_TM$       .         Temperature                   : 
group              .         prim                          : 
~Curve Information
#_______________________________________________________________________________
#
#LOGNAME           .UNIT     LOG_ID                        : DESCRIPTION
#_______________________________________________________________________________
DEPT               .M                                      : 1 Глубина, м -    0.0 см 
GK                 .MKR/H                                  : 12 Гамма-активность, мкр./ч -   23.0 см 
GK$                .UE                                     : 10 Гамма-активность, усл.ед. -   23.0 см 
LM                 .                                       : 8 Локатор муфт,  -  180.0 см 
METKA              .                                       : 3 Метки,  -    0.0 см 
NKT                .                                       : 13 НКТ, прив. -  160.0 см 
NKT$               .UE                                     : 9 НКТ, усл.ед. -  160.0 см 
RCOR               .CM/KM                                  : 5 Коррекция по ролику, см/км -    0.0 см 
SPID               .M/H                                    : 2 Скорость, м/час -    0.0 см 
TENS               .T                                      : 6 Натяжение кабеля, т -    0.0 см 
TIME               .S                                      : 4 Время, сек -    0.0 см 
TM                 .GRD                                    : 11 Температура, °C -  193.0 см 
TM$                .UE                                     : 7 Температура, усл.ед. -  193.0 см 
~Ascii
# ...
59.8       4.46       177        47         0          0          0          7013       -323       0          3482.57    8.37       2028      
60         4.57       180        49         2          0          0          7013       -324       0          3480.3     8.345      2022      
60.2       4.72       192        29         0          0          0          7013       -312       0          3478.17    8.341      2021      
60.4       4.57       187        33         0          0          0          7013       -323       0          3477.28    8.335      2020      
60.6       4.52       187        40         0          0          0          7013       -317       0          3474.87    8.328      2018      
60.8       4.38       173        51         0          0          0          7013       -319       0          3472.65    8.367      2027      
61         4.5        180        59         0          0          0          7013       -321       0          3470.44    8.356      2024      
61.2       4.52       184        141        0          0          0          7013       -324       0          3468.23    8.38       2030      
61.4       4.36       177        523        0          0          0          7013       -313       0          3465.91    8.388      2032      
61.6       4.19       170        40         0          0          0          7013       -314       0          3463.7     8.371      2028      
61.8       4.06       162        45         0          0          0          7013       -328       0          3461.43    8.325      2017      
62         4.14       162        64         0          0          0          7013       -326       0          3459.16    8.328      2018      
62.2       4.52       162        86         0          0          0          7013       -319       0          3457.05    8.318      2016      
62.4       4.72       192        50         0          0          0          7013       -318       0          3454.74    8.315      2015      
62.6       4.62       189        52         0          0          0          7013       -316       0          3452.52    8.362      2026      
62.8       4.56       178        43         0          0          0          7013       -323       0          3450.21    8.315      2015      
63         4.74       195        35         0          0          0          7013       -327       0          3448       8.358      2025      
63.2       4.53       180        69         0          0          0          7013       -312       0          3445.73    8.315      2015      
63.4       4.65       185        55         0          0          0          7013       -320       0          3443.46    8.311      2014      
63.6       4.79       193        48         0          0          0          7013       -326       0          3441.2     8.315      2015      
63.8       4.72       190        45         0          0          0          7013       -328       0          3438.86    8.313      2015      
64         4.94       186        35         0          0          0          7013       -324       0          3436.62    8.309      2013      
64.2       5.02       201        37         0          0          0          7013       -324       0          3434.51    8.311      2014      
64.4       4.86       206        34         0          0          0          7013       -317       0          3432.31    8.349      2023      
64.6       4.5        189        44         0          0          0          7013       -321       0          3430.08    8.311      2014      
64.8       4.25       170        37         0          0          0          7013       -318       0          3427.84    8.311      2014      
65         4.31       170        31         0          0          0          7013       -326       0          3425.66    8.311      2014      
65.2       4.48       183        33         0          0          0          7013       -315       0          3423.44    8.311      2014      
65.4       4.22       174        26         0          0          0          7013       -313       0          3421.23    8.308      2013      
65.6       3.83       160        29         0          0          0          7013       -328       0          3419.02    8.307      2013      
65.8       3.78       153        31         0          0          0          7013       -329       0          3416.7     8.307      2013      
66         3.91       148        26         0          0          0          7013       -326       0          3414.41    8.307      2013      
66.2       4          164        26         0          0          0          7013       -339       0          3412.27    8.307      2013      
66.4       3.91       159        27         0          0          0          7013       -333       0          3410.05    8.317      2016      
66.6       3.91       153        26         0          0          0          7013       -325       0          3407.94    8.307      2013      
66.8       4.13       163        33         0          0.001      0          7013       -328       0          3405.77    8.302      2012      
67         4.31       172        45         0          0.006      0          7013       -337       0          3403.56    8.307      2013      
67.2       4.4        174        28         0          0.027      0          7013       -336       0          3401.29    8.35       2023      
67.4       4.61       178        29         0          0.124      0          7013       -336       0          3399.18    8.355      2024      
67.6       4.63       187        65         0          0.565      0          7013       -333       0          3397.06    8.337      2020      
67.8       4.21       196        251        0          0.411      1          7013       -337       0          3394.9     8.345      2022      
68         3.59       140        1904       0          0          0          7013       -333       0          3392.76    8.354      2024      
68.2       3.84       145        12499      0          0          0          7013       -344       0          3390.58    8.354      2024      
68.4       4.24       171        146        0          0          0          7013       -344       0          3388.36    8.345      2022      
68.6       4.17       167        104        0          0          0          7013       -334       0          3386.35    8.35       2023      
68.8       4.22       168        104        0          0          0          7013       -330       0          3384.24    8.301      2012      
69         4.28       169        45         0          0          0          7013       -336       0          3382.02    8.326      2017      
69.2       4.36       172        37         0          0          0          7013       -334       0          3379.85    8.33       2018      
69.4       4.34       180        28         0          0          0          7013       -334       0          3377.79    8.302      2012      
69.6       4.18       164        28         0          0          0          7013       -343       0          3375.63    8.309      2014      
69.8       4.42       170        50         0          0          0          7013       -335       0          3373.52    8.332      2019      
70         4.96       199        38         2          0          0          7013       -334       0          3371.4     8.326      2018      
70.2       4.97       199        39         0          0          0          7013       -334       0          3369.42    8.328      2018      
70.4       4.74       204        43         0          0          0          7013       -326       0          3368.98    8.307      2013      
70.6       4.64       204        33         0          0          0          7013       -334       0          3366.82    8.301      2012      
70.8       4.39       185        28         0          0          0          7013       -331       0          3364.71    8.297      2011      
