~Version
 VERS              .         2.0                           : CWLS LOG ASCII STANDARD - VERSION 2.0
 WRAP              .         NO                            : ONE LINE PER DEPTH STEP
 DLM               .         SPACE                         : DELIMITING CHARACTER(SPACE TAB OR COMMA)
~Well Information
#_______________________________________________________________________________
#
#PARAMETER_NAME    .UNIT     VALUE                         : DESCRIPTION
#_______________________________________________________________________________
STRT               .M        2654.8                        : First reference value
STOP               .M        2761.6                        : Last reference value
STEP               .M        0.2000001                     : Step increment
NULL               .         -9999                         : Missing value
COMP               .                                       : Company
WELL               .         616                           : Well name
FLD                .                                       : Field
LOC                .                                       : Location
CNTY               .                                       : County
STAT               .                                       : State
CTRY               .                                       : Country
SRVC               .                                       : Service Company
DATE               .                                       : Date
API                .                                       : API number
PROJECT_UPGRADE_TIME .         2021-03-18T21_24_50           : 
group              .         Good                          : 
~Parameter Information Block
#_______________________________________________________________________________
#
#PARAMETER_NAME    .UNIT     VALUE                         : DESCRIPTION
#_______________________________________________________________________________
SET                .         D8107_D                       : 
OTHER              .         Программное обеспечение станции MONITOR-386EX 25/12/99 15_08_10   BGF V52 22/08/01 16_56_30   4_SNGF_BGF_N_011645: 
OTHER_10           .         Тарировки_                    : 
OTHER_11           .         TM.GRD = 0.00412*TM$.UE + -2.13: 
OTHER_12           .         MN.ATM = (5.87652e-006*TM.GRD + 0.01993)*(MN$.UE + -2.72*TM.GRD + -1925): 
OTHER_13           .         GK.MKR/H = GK$.UE / 57.4657   : 
OTHER_2            .         Kedr.exe версия 3.4.2.51      : 
OTHER_3            .         KedrData.dll версия 3.4.2.24  : 
OTHER_4            .         Драйвер версия 2.1.0.2        : 
OTHER_5            .         Мнемоники версия 3.3 S        : 
OTHER_6            .         Прибор_ АКП4-90               : 
OTHER_7            .         Номер прибора_ 53             : 
OTHER_8            .         Режим_ АКП4_90                : 
OTHER_9            .         Форма_ ПК-53ое                : 
PROJECT_UPGRADE_TIME .         2021-03-18T21_24_50           : 
TLFamily_DEPT      .         Measured Depth                : 
TLFamily_GK        .         Gamma Ray                     : 
TLFamily_GK$       .                                       : 
TLFamily_LM        .         Casing Collar locator         : 
TLFamily_METKA     .                                       : 
TLFamily_METKA_1   .                                       : 
TLFamily_MN        .                                       : 
TLFamily_MN$       .                                       : 
TLFamily_RCOR      .                                       : 
TLFamily_SPID      .         Spontaneous Potential         : 
TLFamily_TENS      .         Cable Tension                 : 
TLFamily_TIME      .         Time                          : 
TLFamily_TM        .         Temperature                   : 
TLFamily_TM$       .         Temperature                   : 
group              .         prim                          : 
~Curve Information
#_______________________________________________________________________________
#
#LOGNAME           .UNIT     LOG_ID                        : DESCRIPTION
#_______________________________________________________________________________
DEPT               .M                                      : 1 Глубина, м -    0.0 см 
GK                 .MKR/H                                  : 13 Гамма-активность, мкр./ч -   65.0 см 
GK$                .UE                                     : 10 Гамма-активность, усл.ед. -   65.0 см 
LM                 .                                       : 9 Локатор муфт,  -   30.0 см 
METKA              .                                       : 3 Метки,  -    0.0 см 
METKA_1            .                                       : 14 Маркеры - 65 см 
MN                 .ATM                                    : 12 Давление, атм. -  140.0 см 
MN$                .UE                                     : 8 Давление, усл.ед. -  140.0 см 
RCOR               .CM/KM                                  : 5 Коррекция по ролику, см/км -    0.0 см 
SPID               .M/H                                    : 2 Скорость, м/час -    0.0 см 
TENS               .T                                      : 6 Натяжение кабеля, т -    0.0 см 
TIME               .S                                      : 4 Время, сек -    0.0 см 
TM                 .GRD                                    : 11 Температура, °C -  145.0 см 
TM$                .UE                                     : 7 Температура, усл.ед. -  145.0 см 
~Ascii
# ...
2696.4     6.93       398        345        0          0          247.092    14323      -16        -619       1.03       15570.89   50.709     12825     
2696.6     6.91       397        401        0          0          247.075    14322      -16        -625       1.03       15569.75   50.618     12803     
2696.8     6.6        379        291        0          0          247.109    14324      -16        -621       1.03       15568.62   50.527     12781     
2697       6.36       366        518        0          0          247.112    14324      -16        -621       1.03       15567.48   50.447     12762     
2697.2     6.21       357        352        0          0          247.112    14324      -16        -628       1.04       15566.25   50.381     12745     
2697.4     5.61       323        372        0          0          247.112    14324      -16        -623       1.05       15565.14   50.287     12723     
2697.6     5.81       334        722        0          0          247.132    14325      -16        -619       1.05       15564.02   50.204     12702     
2697.8     6.41       368        113        0          0          247.138    14325      -16        -627       1.05       15562.82   50.102     12678     
2698       6.49       373        180        0          0          247.218    14329      -16        -626       1.05       15561.69   50.022     12658     
2698.2     7.19       413        145        0          0          247.252    14331      -16        -621       1.04       15560.55   49.964     12644     
2698.4     7.2        414        92         0          0          247.252    14331      -16        -622       1.04       15559.39   49.871     12621     
2698.6     7.43       427        213        0          0          247.309    14334      -16        -616       1.04       15558.26   49.789     12602     
2698.8     7.48       430        138        0          0          247.311    14334      -16        -614       1.04       15557.07   49.73      12587     
2699       7.48       430        115        0          0          247.318    14334      -16        -616       1.05       15555.94   49.661     12571     
2699.2     7.48       430        240        0          0          247.371    14337      -16        -614       1.05       15554.8    49.602     12556     
2699.4     7.46       429        257        0          0          247.331    14335      -16        -619       1.05       15553.62   49.538     12541     
2699.6     7.44       428        102        0          0          247.371    14337      -16        -612       1.05       15552.49   49.449     12519     
2699.8     7.7        443        171        2          0          247.431    14340      -16        -615       1.03       15551.36   49.358     12497     
2700       8.16       469        53         0          0          247.397    14338      -13        -628       1.05       15550      49.267     12475     
2700.2     8.13       467        152        0          0          247.465    14342      -13        -624       1.05       15548.86   49.201     12459     
2700.4     7.92       455        179        0          0          247.491    14343      -13        -627       1.04       15547.72   49.156     12448     
2700.6     7.83       450        89         0          0          247.476    14342      -13        -627       1.05       15546.54   49.065     12426     
2700.8     7.08       407        166        0          0          247.544    14346      -13        -630       1.05       15545.41   48.991     12408     
2701       7.02       403        153        0          0          247.531    14345      -13        -627       1.05       15544.23   48.946     12397     
2701.2     6.51       374        503        0          0          247.564    14347      -13        -622       1.05       15543.09   48.876     12380     
2701.4     6.56       377        1129       0          0          247.59     14348      -13        -623       1.05       15541.95   48.786     12358     
2701.6     7.59       436        1602       0          0          247.582    14348      -13        -624       1.03       15540.8    48.705     12339     
2701.8     7.71       443        171        0          0          247.608    14349      -13        -618       1.05       15539.63   48.644     12324     
2702       8.12       467        213        0          0          247.65     14351      -13        -622       1.05       15538.48   48.582     12309     
2702.2     8.15       468        122        0          0          247.61     14349      -13        -630       1.05       15537.34   48.52      12294     
2702.4     7.93       456        411        0          0          247.683    14353      -13        -628       1.05       15536.21   48.446     12276     
2702.6     7.54       433        1229       0          0          247.683    14353      -13        -623       1.03       15535.07   48.353     12253     
2702.8     7.64       439        1780       0          0          247.683    14353      -13        -625       1.03       15533.89   48.281     12236     
2703       8.16       469        222        0          0          247.719    14354      -13        -626       1.03       15532.75   48.229     12223     
2703.2     8.07       464        390        0          0          247.713    14354      -13        -629       1.05       15531.61   48.175     12210     
2703.4     7.62       438        983        0          0          247.73     14355      -13        -624       1.05       15530.47   48.115     12195     
2703.6     7.51       432        2054       0          0          247.787    14358      -13        -626       1.05       15529.34   48.052     12180     
2703.8     5.88       338        419        0          0          247.753    14356      -13        -628       1.03       15528.15   47.974     12161     
2704       5.84       336        1057       0          0          247.807    14359      -13        -623       1.03       15527.01   47.904     12144     
2704.2     5.34       307        3487       0          0          247.849    14361      -13        -617       1.05       15525.86   47.83      12126     
2704.4     5.34       307        13461      0          0          247.81     14359      -13        -616       1.03       15524.74   47.754     12108     
2704.6     5.28       303        6981       0          0          247.889    14363      -13        -623       1.05       15523.6    47.677     12089     
2704.8     5.28       304        5697       0          0          247.889    14363      -13        -618       1.05       15522.42   47.604     12071     
2705       6.01       346        211        0          0          247.889    14363      -13        -624       1.05       15521.23   47.53      12053     
2705.2     6.67       383        393        0          0          247.932    14365      -13        -619       1.05       15520.09   47.46      12036     
2705.4     7.2        414        134        0          0          247.929    14365      -13        -625       1.03       15518.96   47.409     12024     
2705.6     9.22       530        287        0          0          247.952    14366      -13        -619       1.04       15517.81   47.336     12006     
2705.8     9.12       524        495        0          0          248.009    14369      -13        -621       1.04       15516.67   47.276     11992     
2706       8.1        465        1105       0          0          248.009    14369      -13        -627       1.05       15515.5    47.211     11976     
2706.2     7.91       455        276        0          0          248.066    14372      -13        -622       1.06       15514.33   47.151     11961     
2706.4     6.11       351        417        0          0          248.089    14373      -13        -618       1.05       15513.22   47.083     11945     
2706.6     6.11       351        134        0          0          248.069    14372      -13        -626       1.05       15512.04   47.024     11930     
