~Version
 VERS              .         2.0                           : CWLS LOG ASCII STANDARD - VERSION 2.0
 WRAP              .         NO                            : ONE LINE PER DEPTH STEP
 DLM               .         SPACE                         : DELIMITING CHARACTER(SPACE TAB OR COMMA)
~Well Information
#_______________________________________________________________________________
#
#PARAMETER_NAME    .UNIT     VALUE                         : DESCRIPTION
#_______________________________________________________________________________
STRT               .M        2670                          : First reference value
STOP               .M        2776                          : Last reference value
STEP               .M        0.2                           : Step increment
NULL               .         -9999                         : Missing value
COMP               .                                       : Company
WELL               .         616                           : Well name
FLD                .                                       : Field
LOC                .                                       : Location
CNTY               .                                       : County
STAT               .                                       : State
CTRY               .                                       : Country
SRVC               .                                       : Service Company
DATE               .                                       : Date
API                .                                       : API number
PROJECT_UPGRADE_TIME .         2021-03-18T21_24_50           : 
group              .         Good                          : 
~Parameter Information Block
#_______________________________________________________________________________
#
#PARAMETER_NAME    .UNIT     VALUE                         : DESCRIPTION
#_______________________________________________________________________________
SET                .         D1803_D                       : 
OTHER              .         Программное обеспечение станции MONITOR-386EX 25/12/99 15_08_10   BGF V52 22/08/01 16_56_30   3.1_SNGF___BGF_N_092049: 
OTHER_10           .         Тарировки_                    : 
OTHER_11           .         TM.GRD = 0.00403*TM$.UE + -1.07: 
OTHER_12           .         MN.ATM = (9.34907e-006*TM.GRD + 0.02171)*(MN$.UE + -7.93*TM.GRD + -1787): 
OTHER_13           .         GK.MKR/H = LM. / 42.4676      : 
OTHER_14           .         GK.FLT = 0.1*GK.MKR/H[-1] + (1-0.1)*GK.MKR/H[0]: 
OTHER_2            .         Kedr.exe версия 3.4.2.51      : 
OTHER_3            .         KedrData.dll версия 3.4.2.24  : 
OTHER_4            .         Драйвер версия 2.1.1.3        : 
OTHER_5            .         Мнемоники версия 3.3 S        : 
OTHER_6            .         Прибор_ КСА-Т4                : 
OTHER_7            .         Номер прибора_ 03             : 
OTHER_8            .         Режим_ КСА-Т4                 : 
OTHER_9            .         Форма_ КВА.                   : 
PROJECT_UPGRADE_TIME .         2021-03-18T21_24_49           : 
TLFamily_DEPT      .         Measured Depth                : 
TLFamily_GK        .         Gamma Ray                     : 
TLFamily_GK$       .                                       : 
TLFamily_GK_2      .         Gamma Ray                     : 
TLFamily_LM        .         Casing Collar locator         : 
TLFamily_METKA     .                                       : 
TLFamily_MN        .                                       : 
TLFamily_MN$       .                                       : 
TLFamily_RCOR      .                                       : 
TLFamily_SPID      .         Spontaneous Potential         : 
TLFamily_TENS      .         Cable Tension                 : 
TLFamily_TIME      .         Time                          : 
TLFamily_TM        .         Temperature                   : 
TLFamily_TM$       .         Temperature                   : 
group              .         prim                          : 
~Curve Information
#_______________________________________________________________________________
#
#LOGNAME           .UNIT     LOG_ID                        : DESCRIPTION
#_______________________________________________________________________________
DEPT               .M                                      : 1 Глубина, м -    0.0 см 
GK                 .MKR/H                                  : 13 Гамма-активность, мкр./ч -  110.0 см 
GK$                .UE                                     : 10 Гамма-активность, усл.ед. -  110.0 см 
GK_2               .FLT                                    : 14 Гамма-активность фильтрованная, мкр./ч -  110.0 см 
LM                 .                                       : 9 Локатор муфт,  -   20.0 см 
METKA              .                                       : 3 Метки,  -    0.0 см 
MN                 .ATM                                    : 12 Давление, атм. -  160.0 см 
MN$                .UE                                     : 8 Давление, усл.ед. -  160.0 см 
RCOR               .CM/KM                                  : 5 Коррекция по ролику, см/км -    0.0 см 
SPID               .M/H                                    : 2 Скорость, м/час -    0.0 см 
TENS               .T                                      : 6 Натяжение кабеля, т -    0.0 см 
TIME               .S                                      : 4 Время, сек -    0.0 см 
TM                 .GRD                                    : 11 Температура, °C -  170.0 см 
TM$                .UE                                     : 7 Температура, усл.ед. -  170.0 см 
~Ascii
# ...
2732.4     6.29       267        6.29       398        0          328.679    17004      -660       596        0.03       1917.68    50.006     12674     
2732.6     6.57       279        6.56       316        0          329.504    17040      -660       591        0.03       1918.89    49.601     12573     
2732.8     6.57       279        6.57       300        0          328.815    17008      -660       585        0.03       1920.18    49.093     12447     
2733       7.28       309        7.22       359        0          329.241    17026      -660       575        0.03       1921.42    48.378     12270     
2733.2     7.28       309        7.27       375        0          329.171    17022      -660       575        0.03       1922.67    47.817     12131     
2733.4     7.42       315        7.4        387        0          329.805    17050      -660       570        0.01       1923.88    47.302     12003     
2733.6     7.42       315        7.42       334        0          329.581    17039      -660       578        0.01       1925.15    46.981     11923     
2733.8     7.75       329        7.72       271        0          329.619    17041      -660       586        0.01       1926.41    46.762     11869     
2734       7.75       329        7.75       307        0          329.35     17028      -660       584        0.03       1927.63    46.581     11824     
2734.2     8.01       340        7.98       301        0          329.667    17042      -660       583        0.01       1928.83    46.298     11754     
2734.4     8.01       340        8          289        0          329.397    17030      -660       571        0.01       1930.16    46.046     11691     
2734.6     7.79       331        7.81       306        0          329.499    17034      -660       572        0.01       1931.37    45.897     11654     
2734.8     7.79       331        7.79       400        0          329.403    17030      -660       567        0.03       1932.63    46.039     11690     
2735       8.05       342        8.03       358        0          330.202    17066      -660       564        0.02       1933.83    46.113     11708     
2735.2     8.05       342        8.05       391        0          329.963    17055      -660       572        0.03       1935.1     46.106     11706     
2735.4     8.12       345        8.12       353        0          329.684    17043      -660       574        0.01       1936.32    46.122     11710     
2735.6     8.12       345        8.12       335        0          330.885    17097      -660       576        0.03       1937.58    46.057     11694     
2735.8     8.31       353        8.29       284        0          330.308    17071      -660       577        0.03       1938.81    46.094     11703     
2736       8.31       353        8.31       338        0          330.298    17071      -660       571        0.03       1940.11    46.133     11713     
2736.2     8.71       370        8.66       360        0          330.661    17087      -660       568        0.01       1941.31    46.119     11709     
2736.4     8.71       370        8.71       372        0          331.43     17122      -660       566        0.03       1942.53    46.083     11701     
2736.6     8.57       364        8.58       332        0          329.723    17044      -660       570        0.03       1943.8     46.063     11696     
2736.8     8.57       364        8.57       2098       0          331.361    17118      -660       573        0.03       1945.06    46.037     11689     
2737       7.61       323        7.72       1334       0          330.851    17095      -660       575        0.03       1946.28    46         11680     
2737.2     7.61       323        7.61       515        0          331.744    17136      -660       576        0.03       1947.48    45.974     11674     
2737.4     7.16       304        7.19       323        0          330.773    17092      -660       573        0.02       1948.81    45.971     11673     
2737.6     7.16       304        7.16       321        0          331.989    17147      -660       573        0.03       1950.02    45.985     11676     
2737.8     7.58       322        7.53       298        0          329.652    17041      -660       575        0.03       1951.27    45.992     11678     
2738       7.58       322        7.58       290        0          331.624    17130      -660       576        0.03       1952.49    45.976     11674     
2738.2     7.06       300        7.11       288        0          331.254    17113      -660       577        0.01       1953.77    45.989     11677     
2738.4     7.06       300        7.07       265        0          332.526    17171      -660       578        0.03       1954.97    45.979     11675     
2738.6     7.32       311        7.29       219        0          330.822    17094      -660       579        0.03       1956.23    46.022     11685     
2738.8     7.32       311        7.32       211        0          332.244    17158      -660       575        0.02       1957.46    46.024     11686     
2739       8.57       364        8.31       248        0          330.885    17097      -660       561        0.01       1958.73    46.127     11711     
2739.2     8.57       364        8.56       312        0          332.068    17151      -660       570        0.01       1959.98    46.276     11748     
2739.4     8.97       381        8.93       355        0          331.743    17136      -660       573        0.03       1961.19    46.361     11769     
2739.6     8.97       381        8.97       316        0          332.702    17180      -660       575        0.01       1962.45    46.407     11781     
2739.8     8.62       366        8.69       351        0          331.591    17130      -660       576        0.02       1963.67    46.488     11801     
2740       8.62       366        8.62       387        2          332.552    17173      -660       578        0.01       1964.92    46.544     11815     
2740.2     8.92       379        8.89       404        0          332.171    17156      -667       593        -0         1966.58    46.59      11826     
2740.4     8.92       379        8.92       389        0          332.509    17171      -667       589        0.01       1967.86    46.612     11832     
2740.6     11.11      472        10.73      333        0          332.227    17158      -667       586        0.01       1969.11    46.621     11834     
2740.8     11.11      472        11.1       322        0          333.08     17197      -667       584        0.03       1970.32    46.611     11832     
2741       12.83      545        12.65      369        0          332.249    17159      -667       583        0.03       1971.59    46.622     11834     
2741.2     12.83      545        12.83      377        0          332.484    17170      -667       582        0.03       1972.81    46.648     11841     
2741.4     14.29      607        14.23      352        0          332.514    17171      -667       580        0.01       1974.06    46.649     11841     
2741.6     14.29      607        14.29      370        0          332.97     17192      -667       572        0.03       1975.27    46.625     11835     
2741.8     16.29      692        16.12      302        0          332.253    17160      -667       564        0.01       1976.59    46.583     11825     
2742       16.29      692        16.29      382        0          333.037    17195      -667       566        0.03       1977.82    46.56      11819     
2742.2     16.37      695        16.36      353        0          332.55     17173      -667       570        0.03       1979.07    46.566     11820     
2742.4     16.37      695        16.37      315        0          333.644    17222      -667       573        0.04       1980.28    46.618     11833     
2742.6     15.09      641        15.2       381        0          332.466    17169      -667       569        0.04       1981.55    46.678     11848     
