~Version
 VERS              .         2.0                           : CWLS LOG ASCII STANDARD - VERSION 2.0
 WRAP              .         NO                            : ONE LINE PER DEPTH STEP
 DLM               .         SPACE                         : DELIMITING CHARACTER(SPACE TAB OR COMMA)
~Well Information
#_______________________________________________________________________________
#
#PARAMETER_NAME    .UNIT     VALUE                         : DESCRIPTION
#_______________________________________________________________________________
STRT               .M        10.2                          : First reference value
STOP               .M        2774.8                        : Last reference value
STEP               .M        0.2                           : Step increment
NULL               .         -9999                         : Missing value
COMP               .                                       : Company
WELL               .         616                           : Well name
FLD                .                                       : Field
LOC                .                                       : Location
CNTY               .                                       : County
STAT               .                                       : State
CTRY               .                                       : Country
SRVC               .                                       : Service Company
DATE               .                                       : Date
API                .                                       : API number
PROJECT_UPGRADE_TIME .         2021-03-18T21_24_50           : 
group              .         Good                          : 
~Parameter Information Block
#_______________________________________________________________________________
#
#PARAMETER_NAME    .UNIT     VALUE                         : DESCRIPTION
#_______________________________________________________________________________
SET                .         D1813_D_2                     : 
NPR                .                                       : 
OTHER              .         Программное обеспечение станции MONITOR-386EX 25/12/99 15_08_10   BGF V52 22/08/01 16_56_30   3.1_SNGF___BGF_N_092049: 
OTHER_10           .         Тарировки_                    : 
OTHER_11           .         TM.GRD = 0.00403*TM$.UE + -1.07: 
OTHER_12           .         MN.ATM = (9.34907e-006*TM.GRD + 0.02171)*(MN$.UE + -7.93*TM.GRD + -1787): 
OTHER_13           .         GK.MKR/H = LM. / 42.4676      : 
OTHER_14           .         GK.FLT = 0.1*GK.MKR/H[-1] + (1-0.1)*GK.MKR/H[0]: 
OTHER_2            .         Kedr.exe версия 3.4.2.51      : 
OTHER_3            .         KedrData.dll версия 3.4.2.24  : 
OTHER_4            .         Драйвер версия 2.1.1.3        : 
OTHER_5            .         Мнемоники версия 3.3 S        : 
OTHER_6            .         Прибор_ КСА-Т4                : 
OTHER_7            .         Номер прибора_ 03             : 
OTHER_8            .         Режим_ КСА-Т4                 : 
OTHER_9            .         Форма_ КВА.                   : 
PR                 .                                       : 
PROJECT_UPGRADE_TIME .         2021-03-18T21_24_49           : 
PRTY               .         ПП-603-1                      : N партии
SRV                .                                       : 
SRVC               .         Карпов                        : Начальник партии
TLFamily_DEPT      .         Measured Depth                : 
TLFamily_LM        .         Casing Collar locator         : 
TLFamily_MN        .                                       : 
TLFamily_TM        .         Temperature                   : 
group              .         second                        : 
~Curve Information
#_______________________________________________________________________________
#
#LOGNAME           .UNIT     LOG_ID                        : DESCRIPTION
#_______________________________________________________________________________
DEPT               .M                                      : Depth curve 
LM                 .е.ацп                                  : Локатор муфт,е.ацп 
MN                 .атм                                    : Манометрия, атм 
TM                 .град.C                                 : Термограмма по стволу скважины,град.C 
~Ascii
# ...
1830.2     1168.012   163.155    51.07     
1830.4     1256.018   163.173    51.07     
1830.6     1390       163.189    51.073    
1830.8     1390.028   163.209    51.078    
1831       1597.025   163.227    51.084    
1831.2     1782.999   163.244    51.086    
1831.4     1778.062   163.261    51.086    
1831.6     2235       163.279    51.092    
1831.8     2235.086   163.295    51.096    
1832       2874.071   163.313    51.1      
1832.2     3400.866   163.33     51.103    
1832.4     2409.121   163.348    51.106    
1832.6     3304.949   163.367    51.11     
1832.8     2925       163.384    51.113    
1833       2924.961   163.4      51.116    
1833.2     2638.146   163.43     51.117    
1833.4     3722.191   163.458    51.111    
1833.6     5140       163.471    51.126    
1833.8     5140.19    163.471    51.133    
1834       6550.712   163.503    51.136    
1834.2     4412.945   163.527    51.139    
1834.4     4004.832   163.544    51.143    
1834.6     2757       163.561    51.146    
1834.8     2756.936   163.579    51.149    
1835       2285.908   163.596    51.152    
1835.2     1607.022   163.613    51.155    
1835.4     1768.987   163.631    51.159    
1835.6     1675       163.648    51.162    
1835.8     1674.981   163.665    51.165    
1836       1532.056   163.683    51.167    
1836.2     1949.1     163.701    51.168    
1836.4     2687.195   163.725    51.175    
1836.6     4130       163.754    51.178    
1836.8     4129.779   163.754    51.181    
1837       2493.807   163.785    51.183    
1837.2     1065.001   163.798    51.184    
1837.4     1074.032   163.811    51.19     
1837.6     1314       163.843    51.194    
1837.8     1314.009   163.862    51.195    
1838       1379.019   163.878    51.198    
1838.2     1515.993   163.896    51.203    
1838.4     1465.035   163.913    51.203    
1838.6     1725       163.929    51.209    
1838.8     1725.07    163.948    51.213    
1839       2244.093   163.965    51.216    
1839.2     2931.155   163.993    51.22     
1839.4     4076.21    164.016    51.223    
1839.6     5625       164.016    51.226    
1839.8     5624.415   164.034    51.229    
1840       1301.003   164.053    51.231    
1840.2     1324.987   164.081    51.232    
1840.4     1232.01    164.11     51.235    
1840.6     1302.971   164.129    51.238    
1840.8     1092       164.146    51.244    
1841       1091.998   164.164    51.249    
1841.2     1076.997   164.181    51.251    
1841.4     1053.004   164.199    51.251    
1841.6     1081       164.217    51.255    
1841.8     1081.008   164.234    51.258    
1842       1142.993   164.251    51.261    
1842.2     1090.994   164.269    51.264    
1842.4     1045.982   164.295    51.268    
1842.6     910        164.321    51.274    
1842.8     910.007    164.321    51.276    
1843       961.998    164.356    51.277    
1843.2     945.007    164.365    51.28     
1843.4     995.016    164.381    51.284    
1843.6     1114.021   164.412    51.287    
1843.8     1271       164.428    51.29     
1844       1271.029   164.447    51.293    
1844.2     1484.055   164.464    51.296    
1844.4     1888.008   164.481    51.296    
1844.6     1950       164.499    51.302    
1844.8     1949.998   164.515    51.306    
1845       1937.103   164.533    51.309    
1845.2     2698.202   164.552    51.313    
1845.4     4182.826   164.569    51.316    
1845.6     2902       164.59     51.316    
1845.8     2901.813   164.626    51.321    
1846       1526.033   164.626    51.326    
1846.2     1767.975   164.65     51.329    
1846.4     1584.962   164.677    51.332    
1846.6     1307       164.695    51.335    
1846.8     1306.991   164.714    51.336    
1847       1242.011   164.73     51.339    
1847.2     1320.985   164.747    51.344    
1847.4     1213.997   164.765    51.344    
1847.6     1195       164.782    51.347    
1847.8     1195.001   164.8      51.35     
1848       1200.994   164.817    51.354    
1848.2     1155.009   164.834    51.357    
1848.4     1221.015   164.851    51.36     
1848.6     1334       164.869    51.363    
1848.8     1334.023   164.886    51.366    
1849       1500.019   164.903    51.37     
1849.2     1640.979   164.921    51.373    
1849.4     1483.053   164.939    51.376    
1849.6     1872.07    164.956    51.379    
1849.8     2389       164.973    51.385    
1850       2389.122   164.99     51.39     
1850.2     3282.147   165.008    51.393    
1850.4     4365.301   165.033    51.396    
1850.6     6576.408   165.066    51.4      
1850.8     2228       165.085    51.403    
1851       2228.045   165.104    51.407    
1851.2     2557.975   165.061    51.409    
1851.4     2378.032   165.089    51.409    
1851.6     2609.991   165.155    51.416    
1851.8     2547       165.172    51.419    
1852       2547.026   165.191    51.421    
1852.2     2740.956   165.207    51.423    
1852.4     2419.894   165.224    51.429    
1852.6     1638.996   165.247    51.429    
1852.8     1609       165.28     51.431    
1853       1608.969   165.28     51.435    
1853.2     1384.008   165.294    51.438    
1853.4     1445.014   165.32     51.441    
1853.6     1548.984   165.351    51.444    
1853.8     1430       165.368    51.447    
1854       1429.977   165.386    51.451    
1854.2     1260.018   165.403    51.454    
1854.4     1395.035   165.42     51.457    
1854.6     1651.043   165.437    51.46     
1854.8     1969       165.456    51.466    
1855       1969.023   165.473    51.469    
1855.2     2139.111   165.49     51.471    
1855.4     2952.054   165.507    51.477    
1855.6     3345.693   165.525    51.481    
1855.8     1096       165.545    51.481    
1856       1095.998   165.577    51.485    
1856.2     1083.022   165.599    51.49     
1856.4     1241.019   165.607    51.493    
1856.6     1378.014   165.611    51.497    
1856.8     1481       165.63     51.5      
1857       1480.99    165.664    51.501    
1857.2     1409.001   165.686    51.503    
1857.4     1414.017   165.704    51.509    
1857.6     1542.005   165.722    51.509    
1857.8     1578.974   165.738    51.515    
1858       1390       165.757    51.517    
1858.2     1390.021   165.775    51.519    
1858.4     1544.987   165.792    51.522    
1858.6     1447.005   165.81     51.525    
1858.8     1484.005   165.829    51.528    
1859       1524       165.865    51.532    
1859.2     1523.992   165.869    51.534    
1859.4     1466.002   165.881    51.534    
1859.6     1484       165.899    51.538    
1859.8     1482.031   165.916    51.544    
1860       1711.055   165.935    51.548    
1860.2     2114       165.952    51.55     
1860.4     2113.992   165.969    51.551    
1860.6     2057.006   165.987    51.558    
1860.8     2102.106   166.005    51.558    
1861       2873.174   166.03     51.561    
1861.2     4147       166.063    51.569    
1861.4     4147.292   166.082    51.572    
1861.6     6281.395   166.101    51.571    
1861.8     1866.974   166.119    51.574    
1862       1676.981   166.136    51.577    
1862.2     1537       166.154    51.581    
1862.4     1537.002   166.171    51.584    
1862.6     1554.992   166.19     51.587    
1862.8     1496.002   166.208    51.59     
1863       1508.988   166.225    51.59     
1863.2     1419.011   166.246    51.596    
1863.4     1500       166.28     51.6      
1863.6     1499.999   166.3      51.604    
1863.8     1490.992   166.305    51.607    
1864       1436.044   166.288    51.61     
1864.2     1757.108   166.283    51.613    
1864.4     2547       166.372    51.614    
1864.6     2546.999   166.39     51.618    
1864.8     2540.786   166.406    51.623    
1865       978.046    166.424    51.626    
1865.2     1313.025   166.442    51.63     
1865.4     1492.025   166.461    51.63     
1865.6     1675       166.478    51.635    
1865.8     1674.98    166.496    51.638    
1866       1527.993   166.513    51.639    
1866.2     1474.99    166.531    51.642    
1866.4     1402.014   166.549    51.646    
