~Version
 VERS              .         2.0                           : CWLS LOG ASCII STANDARD - VERSION 2.0
 WRAP              .         NO                            : ONE LINE PER DEPTH STEP
 DLM               .         SPACE                         : DELIMITING CHARACTER(SPACE TAB OR COMMA)
~Well Information
#_______________________________________________________________________________
#
#PARAMETER_NAME    .UNIT     VALUE                         : DESCRIPTION
#_______________________________________________________________________________
STRT               .M        3.8                           : First reference value
STOP               .M        216                           : Last reference value
STEP               .M        0.2                           : Step increment
NULL               .         -9999                         : Missing value
COMP               .                                       : Company
WELL               .         616                           : Well name
FLD                .                                       : Field
LOC                .                                       : Location
CNTY               .                                       : County
STAT               .                                       : State
CTRY               .                                       : Country
SRVC               .                                       : Service Company
DATE               .                                       : Date
API                .                                       : API number
PROJECT_UPGRADE_TIME .         2021-03-18T21_24_50           : 
group              .         Good                          : 
~Parameter Information Block
#_______________________________________________________________________________
#
#PARAMETER_NAME    .UNIT     VALUE                         : DESCRIPTION
#_______________________________________________________________________________
SET                .         D1350_D                       : 
OTHER              .         Программное обеспечение станции MONITOR-386EX 25/12/99 15_08_10   BGF V52 22/08/01 16_56_30   3.1_SNGF__BGF_								111238: 
OTHER_10           .         Тарировки_                    : 
OTHER_11           .         <_techsia_sc_> Постоянная времени фильтра  0.5 сек, kf=0.181269: 
OTHER_12           .         TM.GRD = 0.00428968*TM$.UE + -0.3284: 
OTHER_13           .         GK.MKR/H = GK$.UE / 40.16     : 
OTHER_14           .         NKT. = NKT$.UE / 1            : 
OTHER_2            .         Kedr.exe версия 3.3.2.43      : 
OTHER_3            .         KedrData.dll версия 3.3.2.22  : 
OTHER_4            .         Драйвер версия 2.1.1.3        : 
OTHER_5            .         Мнемоники версия 3.3 S        : 
OTHER_6            .         Прибор_ РК4-38                : 
OTHER_7            .         Номер прибора_ 35с            : 
OTHER_8            .         Режим_ РК4-38                 : 
OTHER_9            .         Форма_ 3                      : 
PROJECT_UPGRADE_TIME .         2021-03-18T21_24_49           : 
TLFamily_DEPT      .         Measured Depth                : 
TLFamily_GK        .         Gamma Ray                     : 
TLFamily_GK$       .                                       : 
TLFamily_LM        .         Casing Collar locator         : 
TLFamily_METKA     .                                       : 
TLFamily_NKT       .         Neutron Far                   : 
TLFamily_NKT$      .         Neutron Far                   : 
TLFamily_RCOR      .                                       : 
TLFamily_SPID      .         Spontaneous Potential         : 
TLFamily_TENS      .         Cable Tension                 : 
TLFamily_TIME      .         Time                          : 
TLFamily_TM        .         Temperature                   : 
TLFamily_TM$       .         Temperature                   : 
group              .         prim                          : 
~Curve Information
#_______________________________________________________________________________
#
#LOGNAME           .UNIT     LOG_ID                        : DESCRIPTION
#_______________________________________________________________________________
DEPT               .M                                      : 1 Глубина, м -    0.0 см 
GK                 .MKR/H                                  : 12 Гамма-активность, мкр./ч -   23.0 см 
GK$                .UE                                     : 10 Гамма-активность, усл.ед. -   23.0 см 
LM                 .                                       : 8 Локатор муфт,  -  180.0 см 
METKA              .                                       : 3 Метки,  -    0.0 см 
NKT                .                                       : 13 НКТ, прив. -  160.0 см 
NKT$               .UE                                     : 9 НКТ, усл.ед. -  160.0 см 
RCOR               .CM/KM                                  : 5 Коррекция по ролику, см/км -    0.0 см 
SPID               .M/H                                    : 2 Скорость, м/час -    0.0 см 
TENS               .T                                      : 6 Натяжение кабеля, т -    0.0 см 
TIME               .S                                      : 4 Время, сек -    0.0 см 
TM                 .GRD                                    : 11 Температура, °C -  193.0 см 
TM$                .UE                                     : 7 Температура, усл.ед. -  193.0 см 
~Ascii
# ...
205.4      3.19       132        347        0          0          0          7013       -310       0          1878.48    -0.015     73        
205.6      3          120        348        0          0          0          7013       -311       0          1876.09    -0.035     68        
205.8      3.05       122        311        0          0          0          7013       -306       0          1873.79    -0.041     67        
206        3.06       127        321        0          0          0          7013       -306       0          1871.59    -0.028     70        
206.2      2.73       110        308        0          0          0          7013       -310       0          1869.1     -0.041     67        
206.4      2.68       110        324        0          0          0          7013       -307       0          1866.88    -0.043     66        
206.6      3.14       101        374        0          0          0          7013       -305       0          1864.51    -0.05      65        
206.8      3.71       125        354        0          0          0          7013       -309       0          1862.17    -0.06      63        
207        3.91       157        336        0          0          0          7013       -307       0          1859.77    -0.054     64        
207.2      3.4        167        336        0          0          0          7013       -308       0          1857.53    -0.062     62        
207.4      2.48       127        334        0          0          0          7013       -311       0          1855.14    -0.067     61        
207.6      2          75         335        0          0          0          7013       -306       0          1852.74    -0.069     61        
207.8      2.28       83         353        0          0          0          7013       -303       0          1850.5     -0.075     59        
208        2.71       98         338        0          0          0          7013       -311       0          1848.1     -0.08      58        
208.2      3.15       125        318        0          0          0          7013       -307       0          1845.76    -0.084     57        
208.4      3.2        132        321        0          0          0          7013       -300       0          1843.46    -0.084     57        
208.6      2.99       120        280        0          0          0          7013       -295       0          1841.22    -0.077     58        
208.8      3          120        289        0          0          0          7013       -275       0          1838.67    -0.075     59        
209        3.05       122        293        0          0          0          7013       -274       0          1836.28    -0.067     61        
209.2      3.1        124        301        0          0          0          7013       -296       0          1833.44    -0.075     59        
209.4      3.13       126        338        0          0          0          7013       -298       0          1830.89    -0.078     58        
209.6      3.09       126        298        0          0          0          7013       -304       0          1828.4     -0.087     56        
209.8      2.97       119        289        0          0          0          7013       -301       0          1826.1     -0.082     58        
210        2.99       119        281        2          0          0          7013       -298       0          1823.71    -0.088     56        
210.2      3.09       120        265        0          0          0          7013       -311       0          1821.22    -0.084     57        
210.4      3.4        133        279        0          0          0          7013       -315       0          1819.55    -0.08      58        
210.6      3.58       133        275        0          0          0          7013       -308       0          1817.35    -0.085     57        
210.8      3.53       150        259        0          0          0          7013       -315       0          1815.06    -0.099     54        
211        3.17       140        292        0          0          0          7013       -309       0          1812.72    -0.101     53        
211.2      2.69       120        302        0          0          0          7013       -325       0          1810.47    -0.11      51        
211.4      2.3        97         307        1          0          0          7013       -326       0          1808.23    -0.097     54        
211.6      2.17       80         1609       0          0          0          7013       -330       0          1805.99    -0.11      51        
211.8      2.6        101        12678      0          0          0          7013       -325       0          1803.79    -0.097     54        
212        2.86       116        929        0          0          0          7013       -314       0          1801.65    -0.101     53        
212.2      2.78       115        287        0          0          0          7013       -322       0          1799.3     -0.092     55        
212.4      2.7        112        387        0          0          0          7013       -319       0          1796.93    -0.084     57        
212.6      2.64       108        330        0          0          0          7013       -317       0          1794.76    -0.092     55        
212.8      2.5        107        277        0          0          0          7013       -314       0          1792.52    -0.082     57        
213        2.28       99         244        0          0          0          7013       -308       0          1790.22    -0.097     54        
213.2      2.17       84         292        0          0          0          7013       -307       0          1788.03    -0.101     53        
213.4      2.35       89         234        0          0          0          7013       -286       0          1785.63    -0.1       53        
213.6      2.58       102        245        0          0          0          7013       -241       0          1783.44    -0.101     53        
213.8      2.67       106        283        0          0          0          7013       -127       0          1781.52    -0.104     52        
214        2.75       112        331        0          0          0          7013       111        0          1779.55    -0.105     52        
214.2      2.65       112        411        -9999      0          0          -9999      -9999      -9999      -9999      -0.11      51        
214.4      2.5        106        270        -9999      0          0          -9999      -9999      -9999      -9999      -0.116     49        
214.6      -9999      -9999      262        -9999      0          0          -9999      -9999      -9999      -9999      -0.118     49        
214.8      -9999      -9999      270        -9999      0          0          -9999      -9999      -9999      -9999      -0.118     49        
215        -9999      -9999      275        -9999      0          0          -9999      -9999      -9999      -9999      -0.118     49        
215.2      -9999      -9999      201        -9999      0          0          -9999      -9999      -9999      -9999      -0.122     48        
215.4      -9999      -9999      241        -9999      0          0          -9999      -9999      -9999      -9999      -0.131     46        
215.6      -9999      -9999      317        -9999      0          0          -9999      -9999      -9999      -9999      -0.142     44        
215.8      -9999      -9999      456        -9999      -9999      -9999      -9999      -9999      -9999      -9999      -0.148     42        
216        -9999      -9999      -9999      -9999      -9999      -9999      -9999      -9999      -9999      -9999      -0.14      44        
