~Version
 VERS              .         2.0                           : CWLS LOG ASCII STANDARD - VERSION 2.0
 WRAP              .         NO                            : ONE LINE PER DEPTH STEP
 DLM               .         SPACE                         : DELIMITING CHARACTER(SPACE TAB OR COMMA)
~Well Information
#_______________________________________________________________________________
#
#PARAMETER_NAME    .UNIT     VALUE                         : DESCRIPTION
#_______________________________________________________________________________
STRT               .M        2667.4                        : First reference value
STOP               .M        2776.000109                   : Last reference value
STEP               .M        0.2000002                     : Step increment
NULL               .         -9999                         : Missing value
COMP               .                                       : Company
WELL               .         616                           : Well name
FLD                .                                       : Field
LOC                .                                       : Location
CNTY               .                                       : County
STAT               .                                       : State
CTRY               .                                       : Country
SRVC               .                                       : Service Company
DATE               .                                       : Date
API                .                                       : API number
PROJECT_UPGRADE_TIME .         2021-03-18T21_24_50           : 
group              .         Good                          : 
~Parameter Information Block
#_______________________________________________________________________________
#
#PARAMETER_NAME    .UNIT     VALUE                         : DESCRIPTION
#_______________________________________________________________________________
SET                .         D1801_D                       : 
OTHER              .         Программное обеспечение станции MONITOR-386EX 25/12/99 15_08_10   BGF V52 22/08/01 16_56_30   3.1_SNGF___BGF_N_092049: 
OTHER_10           .         Тарировки_                    : 
OTHER_11           .         TM.GRD = 0.00403*TM$.UE + -1.07: 
OTHER_12           .         MN.ATM = (9.34907e-006*TM.GRD + 0.02171)*(MN$.UE + -7.93*TM.GRD + -1787): 
OTHER_13           .         GK.MKR/H = LM. / 42.4676      : 
OTHER_14           .         GK.FLT = 0.1*GK.MKR/H[-1] + (1-0.1)*GK.MKR/H[0]: 
OTHER_2            .         Kedr.exe версия 3.4.2.51      : 
OTHER_3            .         KedrData.dll версия 3.4.2.24  : 
OTHER_4            .         Драйвер версия 2.1.1.3        : 
OTHER_5            .         Мнемоники версия 3.3 S        : 
OTHER_6            .         Прибор_ КСА-Т4                : 
OTHER_7            .         Номер прибора_ 03             : 
OTHER_8            .         Режим_ КСА-Т4                 : 
OTHER_9            .         Форма_ КВА.                   : 
PROJECT_UPGRADE_TIME .         2021-03-18T21_24_49           : 
TLFamily_DEPT      .         Measured Depth                : 
TLFamily_GK        .         Gamma Ray                     : 
TLFamily_GK$       .                                       : 
TLFamily_GK_2      .         Gamma Ray                     : 
TLFamily_LM        .         Casing Collar locator         : 
TLFamily_METKA     .                                       : 
TLFamily_MN        .                                       : 
TLFamily_MN$       .                                       : 
TLFamily_RCOR      .                                       : 
TLFamily_SPID      .         Spontaneous Potential         : 
TLFamily_TENS      .         Cable Tension                 : 
TLFamily_TIME      .         Time                          : 
TLFamily_TM        .         Temperature                   : 
TLFamily_TM$       .         Temperature                   : 
group              .         prim                          : 
~Curve Information
#_______________________________________________________________________________
#
#LOGNAME           .UNIT     LOG_ID                        : DESCRIPTION
#_______________________________________________________________________________
DEPT               .M                                      : 1 Глубина, м -    0.0 см 
GK                 .MKR/H                                  : 13 Гамма-активность, мкр./ч -  110.0 см 
GK$                .UE                                     : 10 Гамма-активность, усл.ед. -  110.0 см 
GK_2               .FLT                                    : 14 Гамма-активность фильтрованная, мкр./ч -  110.0 см 
LM                 .                                       : 9 Локатор муфт,  -   20.0 см 
METKA              .                                       : 3 Метки,  -    0.0 см 
MN                 .ATM                                    : 12 Давление, атм. -  160.0 см 
MN$                .UE                                     : 8 Давление, усл.ед. -  160.0 см 
RCOR               .CM/KM                                  : 5 Коррекция по ролику, см/км -    0.0 см 
SPID               .M/H                                    : 2 Скорость, м/час -    0.0 см 
TENS               .T                                      : 6 Натяжение кабеля, т -    0.0 см 
TIME               .S                                      : 4 Время, сек -    0.0 см 
TM                 .GRD                                    : 11 Температура, °C -  170.0 см 
TM$                .UE                                     : 7 Температура, усл.ед. -  170.0 см 
~Ascii
# ...
2677.80001 6.95       295        6.95       236        0          244.948    13217      -600       592        0.05       7800.47    46.52      11809     
2678.000011 6.26       266        6.29       293        0          244.972    13218      -600       588        0.05       7801.71    46.495     11803     
2678.200011 6.69       284        6.54       230        0          244.993    13219      -600       586        0.05       7802.92    46.488     11801     
2678.400011 7.02       298        7          182        0          245.016    13220      -600       584        0.05       7804.17    46.489     11801     
2678.600011 7.09       301        7.06       146        0          245.04     13221      -600       583        0.07       7805.39    46.475     11798     
2678.800011 7.46       317        7.45       116        0          245.04     13221      -600       577        0.07       7806.67    46.458     11793     
2679.000012 7.46       317        7.46       243        0          245.063    13222      -600       580        0.05       7807.92    46.448     11791     
2679.200012 7.77       330        7.76       220        0          245.084    13223      -600       590        0.07       7809.17    46.46      11794     
2679.400012 7.74       329        7.75       212        0          245.111    13224      -600       587        0.06       7810.42    46.454     11793     
2679.600012 7.63       324        7.63       153        0          245.131    13225      -600       585        0.05       7811.62    46.437     11788     
2679.800012 7.63       324        7.63       195        0          245.154    13226      -600       583        0.05       7812.85    46.415     11783     
2680.000013 6.52       277        6.57       221        2          245.177    13227      -600       579        0.05       7814.05    46.407     11781     
2680.200013 6.52       277        6.52       214        0          245.199    13228      -607       596        0.05       7815.75    46.407     11781     
2680.400013 7.16       304        7.13       201        0          245.215    13229      -607       580        0.05       7817.06    46.395     11778     
2680.600013 7.25       308        7.22       126        0          245.224    13229      -607       580        0.05       7818.31    46.382     11775     
2680.800013 7.63       324        7.61       171        0          245.254    13230      -607       580        0.05       7819.51    46.362     11770     
2681.000014 7.63       324        7.63       118        0          245.27     13231      -607       587        0.05       7820.75    46.347     11766     
2681.200014 7.49       318        7.49       194        0          245.291    13232      -607       591        0.05       7821.97    46.351     11767     
2681.400014 8.04       341        7.84       255        0          245.314    13233      -607       591        0.05       7823.19    46.345     11766     
2681.600014 8.31       353        8.3        1208       0          245.336    13234      -607       587        0.05       7824.45    46.335     11763     
2681.800014 7.82       332        7.98       2151       0          245.359    13235      -607       585        0.05       7825.7     46.346     11766     
2682.000015 7.82       332        7.82       591        0          245.383    13236      -607       571        0.07       7827.02    46.319     11759     
2682.200015 7.8        331        7.81       204        0          245.406    13237      -607       579        0.05       7828.26    46.307     11756     
2682.400015 7.79       331        7.79       136        0          245.428    13238      -607       572        0.07       7829.45    46.299     11754     
2682.600015 8.24       350        8.07       107        0          245.455    13239      -607       570        0.07       7830.67    46.296     11753     
2682.800015 9.14       388        9.1        187        0          245.475    13240      -607       573        0.05       7831.89    46.275     11748     
2683.000016 9.32       396        9.26       172        0          245.498    13241      -607       575        0.05       7833.14    46.258     11744     
2683.200016 9.32       396        9.32       121        0          245.499    13241      -607       577        0.06       7834.4     46.245     11741     
2683.400016 8.92       379        9.07       187        0          245.521    13242      -607       577        0.05       7835.64    46.234     11738     
2683.600016 8.71       370        8.72       159        0          245.544    13243      -607       564        0.05       7836.91    46.237     11739     
2683.800016 8.74       371        8.73       138        0          245.569    13244      -607       569        0.05       7838.15    46.233     11738     
2684.000017 8.88       377        8.87       140        0          245.59     13245      -607       572        0.05       7839.41    46.217     11734     
2684.200017 9.56       406        9.31       156        0          245.613    13246      -607       574        0.05       7840.59    46.186     11726     
2684.400017 9.7        412        9.69       147        0          245.635    13247      -607       576        0.05       7841.84    46.195     11728     
2684.600017 9.43       401        9.53       130        0          245.68     13249      -607       583        0.05       7843.09    46.184     11726     
2684.800017 9.16       389        9.17       237        0          245.681    13249      -607       585        0.05       7844.29    46.175     11723     
2685.000018 9.22       392        9.2        210        0          245.699    13250      -607       593        0.05       7845.54    46.173     11723     
2685.200018 9.51       404        9.5        185        0          245.726    13251      -607       582        0.05       7846.84    46.166     11721     
2685.400018 10.27      436        9.99       177        0          245.694    13250      -607       582        0.05       7848.03    46.15      11717     
2685.600018 10.64      452        10.62      156        0          245.769    13253      -607       581        0.05       7849.28    46.133     11713     
2685.800018 10.4       442        10.49      159        0          245.773    13253      -607       576        0.05       7850.54    46.121     11710     
2686.000019 9.91       421        9.93       127        0          245.796    13254      -607       579        0.05       7851.79    46.107     11706     
2686.200019 9.49       403        9.65       153        0          245.819    13255      -607       579        0.05       7853.04    46.101     11705     
2686.400019 9.42       400        9.43       89         0          245.838    13256      -607       580        0.05       7854.23    46.102     11705     
2686.600019 9.36       398        9.38       136        0          245.864    13257      -607       580        0.05       7855.48    46.097     11704     
2686.800019 9.3        395        9.3        123        0          245.888    13258      -607       580        0.05       7856.73    46.07      11697     
2687.00002 9.4        399        9.36       162        0          245.911    13259      -607       575        0.05       7857.98    46.049     11692     
2687.20002 9.87       419        9.85       179        0          245.933    13260      -607       585        0.05       7859.23    46.055     11693     
2687.40002 10.24      435        10.1       159        0          245.944    13261      -607       583        0.05       7860.48    46.057     11694     
2687.60002 10.34      439        10.33      170        0          245.957    13261      -607       582        0.05       7861.73    46.039     11690     
2687.80002 10.03      426        10.14      206        0          245.981    13262      -607       582        0.05       7862.95    46.008     11682     
2688.000021 9.42       400        9.44       201        0          246.004    13263      -607       581        0.05       7864.17    45.989     11677     
