~Version
 VERS              .         2.0                           : CWLS LOG ASCII STANDARD - VERSION 2.0
 WRAP              .         NO                            : ONE LINE PER DEPTH STEP
 DLM               .         SPACE                         : DELIMITING CHARACTER(SPACE TAB OR COMMA)
~Well Information
#_______________________________________________________________________________
#
#PARAMETER_NAME    .UNIT     VALUE                         : DESCRIPTION
#_______________________________________________________________________________
STRT               .M        3.8                           : First reference value
STOP               .M        216                           : Last reference value
STEP               .M        0.2                           : Step increment
NULL               .         -9999                         : Missing value
COMP               .                                       : Company
WELL               .         616                           : Well name
FLD                .                                       : Field
LOC                .                                       : Location
CNTY               .                                       : County
STAT               .                                       : State
CTRY               .                                       : Country
SRVC               .                                       : Service Company
DATE               .                                       : Date
API                .                                       : API number
PROJECT_UPGRADE_TIME .         2021-03-18T21_24_50           : 
group              .         Good                          : 
~Parameter Information Block
#_______________________________________________________________________________
#
#PARAMETER_NAME    .UNIT     VALUE                         : DESCRIPTION
#_______________________________________________________________________________
SET                .         D1350_D                       : 
OTHER              .         Программное обеспечение станции MONITOR-386EX 25/12/99 15_08_10   BGF V52 22/08/01 16_56_30   3.1_SNGF__BGF_								111238: 
OTHER_10           .         Тарировки_                    : 
OTHER_11           .         <_techsia_sc_> Постоянная времени фильтра  0.5 сек, kf=0.181269: 
OTHER_12           .         TM.GRD = 0.00428968*TM$.UE + -0.3284: 
OTHER_13           .         GK.MKR/H = GK$.UE / 40.16     : 
OTHER_14           .         NKT. = NKT$.UE / 1            : 
OTHER_2            .         Kedr.exe версия 3.3.2.43      : 
OTHER_3            .         KedrData.dll версия 3.3.2.22  : 
OTHER_4            .         Драйвер версия 2.1.1.3        : 
OTHER_5            .         Мнемоники версия 3.3 S        : 
OTHER_6            .         Прибор_ РК4-38                : 
OTHER_7            .         Номер прибора_ 35с            : 
OTHER_8            .         Режим_ РК4-38                 : 
OTHER_9            .         Форма_ 3                      : 
PROJECT_UPGRADE_TIME .         2021-03-18T21_24_49           : 
TLFamily_DEPT      .         Measured Depth                : 
TLFamily_GK        .         Gamma Ray                     : 
TLFamily_GK$       .                                       : 
TLFamily_LM        .         Casing Collar locator         : 
TLFamily_METKA     .                                       : 
TLFamily_NKT       .         Neutron Far                   : 
TLFamily_NKT$      .         Neutron Far                   : 
TLFamily_RCOR      .                                       : 
TLFamily_SPID      .         Spontaneous Potential         : 
TLFamily_TENS      .         Cable Tension                 : 
TLFamily_TIME      .         Time                          : 
TLFamily_TM        .         Temperature                   : 
TLFamily_TM$       .         Temperature                   : 
group              .         prim                          : 
~Curve Information
#_______________________________________________________________________________
#
#LOGNAME           .UNIT     LOG_ID                        : DESCRIPTION
#_______________________________________________________________________________
DEPT               .M                                      : 1 Глубина, м -    0.0 см 
GK                 .MKR/H                                  : 12 Гамма-активность, мкр./ч -   23.0 см 
GK$                .UE                                     : 10 Гамма-активность, усл.ед. -   23.0 см 
LM                 .                                       : 8 Локатор муфт,  -  180.0 см 
METKA              .                                       : 3 Метки,  -    0.0 см 
NKT                .                                       : 13 НКТ, прив. -  160.0 см 
NKT$               .UE                                     : 9 НКТ, усл.ед. -  160.0 см 
RCOR               .CM/KM                                  : 5 Коррекция по ролику, см/км -    0.0 см 
SPID               .M/H                                    : 2 Скорость, м/час -    0.0 см 
TENS               .T                                      : 6 Натяжение кабеля, т -    0.0 см 
TIME               .S                                      : 4 Время, сек -    0.0 см 
TM                 .GRD                                    : 11 Температура, °C -  193.0 см 
TM$                .UE                                     : 7 Температура, усл.ед. -  193.0 см 
~Ascii
# ...
71         4.22       172        31         0          0          0          7013       -333       0          3362.6     8.3        2011      
71.2       4.12       168        27         0          0          0          7013       -330       0          3360.38    8.302      2012      
71.4       3.98       163        29         0          0          0          7013       -331       0          3358.37    8.302      2012      
71.6       3.81       150        39         0          0          0          7013       -332       0          3356.16    8.307      2013      
71.8       4.05       159        35         0          0          0          7013       -337       0          3354.04    8.328      2018      
72         4.29       159        39         0          0          0          7013       -339       0          3352       8.298      2011      
72.2       4.48       180        45         0          0          0          7013       -336       0          3349.82    8.314      2015      
72.4       4.39       183        28         0          0          0          7013       -334       0          3347.6     8.294      2010      
72.6       4.17       169        35         0          0          0          7013       -332       0          3345.59    8.298      2011      
72.8       4.1        164        41         0          0          0          7013       -342       0          3343.37    8.302      2012      
73         4.14       169        34         0          0          0          7013       -341       0          3341.21    8.299      2011      
73.2       3.92       163        43         0          0          0          7013       -325       0          3339.1     8.308      2013      
73.4       4.28       150        39         0          0          0          7013       -332       0          3336.94    8.313      2014      
73.6       4.63       175        45         0          0          0          7013       -345       0          3334.73    8.302      2012      
73.8       4.58       199        35         0          0          0          7013       -342       0          3332.6     8.305      2013      
74         4.02       166        51         0          0          0          7013       -333       0          3330.59    8.3        2012      
74.2       3.86       150        40         0          0          0          7013       -327       0          3328.39    8.311      2014      
74.4       4.16       164        136        0          0          0          7013       -327       0          3326.27    8.317      2015      
74.6       4.43       164        724        0          0          0          7013       -327       0          3324.15    8.291      2009      
74.8       4.39       183        25         0          0          0          7013       -339       0          3322.04    8.298      2011      
75         4.39       172        26         0          0          0          7013       -329       0          3319.77    8.285      2008      
75.2       4.66       175        25         0          0          0          7013       -321       0          3317.72    8.285      2008      
75.4       4.92       203        25         0          0          0          7013       -325       0          3315.55    8.285      2008      
75.6       4.62       190        28         0          0          0          7013       -330       0          3313.36    8.285      2008      
75.8       4.32       172        30         0          0          0          7013       -334       0          3311.25    8.284      2008      
76         4.44       177        32         0          0          0          7013       -331       0          3309.06    8.3        2011      
76.2       4.53       177        32         0          0          0          7013       -323       0          3306.84    8.277      2006      
76.4       4.66       183        30         0          0          0          7013       -325       0          3304.89    8.283      2008      
76.6       4.94       185        27         0          0          0          7013       -328       0          3302.72    8.292      2010      
76.8       5.33       214        26         0          0          0          7013       -341       0          3300.46    8.311      2014      
77         5.25       219        28         0          0          0          7013       -336       0          3298.34    8.285      2008      
77.2       4.66       191        33         0          0          0          7013       -331       0          3296.27    8.302      2012      
77.4       4.37       183        48         0          0          0          7013       -340       0          3294.1     8.311      2014      
77.6       4.27       175        50         0          0          0          7013       -330       0          3291.89    8.311      2014      
77.8       4.23       170        80         0          0          0          7013       -330       0          3289.75    8.287      2009      
78         4.24       169        129        0          0          0          7013       -344       0          3287.66    8.281      2007      
78.2       4.27       173        60         0          0          0          7013       -334       0          3285.44    8.29       2009      
78.4       4.17       171        68         0          0          0          7013       -342       0          3283.33    8.282      2007      
78.6       3.97       161        126        0          0          0          7013       -338       0          3281.22    8.305      2013      
78.8       3.86       154        350        0          0          0          7013       -336       0          3279.1     8.304      2012      
79         3.93       154        4045       0          0          0          7013       -336       0          3276.89    8.272      2005      
79.2       4.19       155        12592      0          0          0          7013       -337       0          3274.78    8.29       2009      
79.4       4.44       177        122        0          0          0          7013       -345       0          3272.67    8.294      2010      
79.6       4.49       180        232        0          0          0          7013       -334       0          3270.53    8.298      2011      
79.8       4.54       179        175        0          0          0          7013       -322       0          3268.42    8.275      2006      
80         4.76       193        294        2          0          0          7013       -317       0          3266.21    8.294      2010      
80.2       4.61       190        25         0          0          0          7013       -323       0          3264.24    8.308      2013      
80.4       4.39       187        26         0          0          0          7013       -339       0          3263.24    8.249      2000      
80.6       4.34       172        33         0          0          0          7013       -337       0          3261.13    8.247      1999      
80.8       4.51       175        89         0          0          0          7013       -329       0          3259.01    8.242      1998      
81         4.59       182        785        0          0          0          7013       -334       0          3256.84    8.242      1998      
81.2       4.43       188        4163       0          0          0          7013       -344       0          3254.63    8.238      1997      
81.4       4.38       170        25         0          0          0          7013       -339       0          3252.52    8.238      1997      
81.6       4.53       181        33         0          0          0          7013       -333       0          3250.41    8.238      1997      
81.8       4.47       191        29         0          0          0          7013       -332       0          3248.29    8.238      1997      
82         3.87       155        25         0          0          0          7013       -321       0          3246.08    8.235      1996      
