~Version
 VERS              .         2.0                           : CWLS LOG ASCII STANDARD - VERSION 2.0
 WRAP              .         NO                            : ONE LINE PER DEPTH STEP
 DLM               .         SPACE                         : DELIMITING CHARACTER(SPACE TAB OR COMMA)
~Well Information
#_______________________________________________________________________________
#
#PARAMETER_NAME    .UNIT     VALUE                         : DESCRIPTION
#_______________________________________________________________________________
STRT               .M        2645.6                        : First reference value
STOP               .M        2754.199837                   : Last reference value
STEP               .M        0.1999997                     : Step increment
NULL               .         -9999                         : Missing value
COMP               .                                       : Company
WELL               .         616                           : Well name
FLD                .                                       : Field
LOC                .                                       : Location
CNTY               .                                       : County
STAT               .                                       : State
CTRY               .                                       : Country
SRVC               .                                       : Service Company
DATE               .                                       : Date
API                .                                       : API number
PROJECT_UPGRADE_TIME .         2021-03-18T21_24_50           : 
group              .         Good                          : 
~Parameter Information Block
#_______________________________________________________________________________
#
#PARAMETER_NAME    .UNIT     VALUE                         : DESCRIPTION
#_______________________________________________________________________________
SET                .         D7026_D                       : 
OTHER              .         Kedr.exe версия 2.1.2.32      : 
OTHER_10           .         TM.GRD = 0.00404*TM$.UE + 0.07: 
OTHER_11           .         MN.ATM = (6.33279e-006*TM.GRD + 0.02401)*(MN$.UE + 2.72*TM.GRD + -2018): 
OTHER_12           .         GK.MKR/H = GK$.UE / 43.5489 + 0: 
OTHER_13           .         RES.SM = 0.00476*CRES.UE - 1.51709: 
OTHER_14           .         PL.GSM3 = 0 + 0 * (PL.UE / 1) +  0 * (PL.UE / 1)^2: 
OTHER_15           .         Постоянная времени ГГП = 6 сек: 
OTHER_16           .         Постоянная времени ГК = 6 сек : 
OTHER_2            .         KedrData.dll версия 3.2.2.14  : 
OTHER_3            .         LasInf.dll версия 3.2.0.13    : 
OTHER_4            .         Драйвер версия 1.2.0.5        : 
OTHER_5            .         Прибор_ КСА-M1                : 
OTHER_6            .         Номер прибора_ 155+р204       : 
OTHER_7            .         Режим_ КСА-М1 + ГГП + Резистивиметр: 
OTHER_8            .         Форма_ 223\2                  : 
OTHER_9            .         Тарировки_                    : 
PROJECT_UPGRADE_TIME .         2021-03-18T21_24_50           : 
TLFamily_CRES      .                                       : 
TLFamily_DEPT      .         Measured Depth                : 
TLFamily_GK        .         Gamma Ray                     : 
TLFamily_GK$       .                                       : 
TLFamily_LM        .         Casing Collar locator         : 
TLFamily_METKA     .                                       : 
TLFamily_MN        .                                       : 
TLFamily_MN$       .                                       : 
TLFamily_PL        .                                       : 
TLFamily_PL_2      .                                       : 
TLFamily_RCOR      .                                       : 
TLFamily_RES       .         Mud Resistivity               : 
TLFamily_SPID      .         Spontaneous Potential         : 
TLFamily_STD       .                                       : 
TLFamily_TIME      .         Time                          : 
TLFamily_TM        .         Temperature                   : 
TLFamily_TM$       .         Temperature                   : 
TLFamily_VGD       .         Gas Volume                    : 
group              .         prim                          : 
~Curve Information
#_______________________________________________________________________________
#
#LOGNAME           .UNIT     LOG_ID                        : DESCRIPTION
#_______________________________________________________________________________
DEPT               .M                                      : 1 Глубина, м -    0.0 см 
CRES               .UE                                     : 9 Проводимость, усл.ед. -  222.0 см 
GK                 .MKR/H                                  : 16 Гамма-активность, мкр./ч -  106.0 см 
GK$                .UE                                     : 13 Гамма-активность, усл.ед. -  106.0 см 
LM                 .                                       : 11 Локатор муфт,  -   16.0 см 
METKA              .                                       : 3 Метки,  -    0.0 см 
MN                 .ATM                                    : 15 Давление, атм. -  160.0 см 
MN$                .UE                                     : 7 Давление, усл.ед. -  160.0 см 
PL                 .UE                                     : 10 Плотность, усл.ед. -  270.0 см 
PL_2               .GSM3                                   : 18 Плотность, г./см3 -  270.0 см 
RCOR               .CM/KM                                  : 5 Коррекция по ролику, см/км -    0.0 см 
RES                .SM                                     : 17 Проводимость,  -  222.0 см 
SPID               .M/H                                    : 2 Скорость, м/час -    0.0 см 
STD                .                                       : 12 Приток,  -  170.0 см 
TIME               .S                                      : 4 Время, сек -    0.0 см 
TM                 .GRD                                    : 14 Температура, °C -  180.0 см 
TM$                .UE                                     : 6 Температура, усл.ед. -  180.0 см 
VGD                .                                       : 8 Влагомер,  -  170.0 см 
~Ascii
# ...
2719.399889 1159       10.59      394        491        0          250.32     12158      14         0          0          3.9998     580        10301      17632.24   52.6       13002      6681      
2719.599889 1162       9.84       394        453        0          250.342    12159      14         0          0          4.014      580        10294      17633.49   52.587     12999      6675      
2719.799889 1161       8.92       331        466        0          250.366    12160      14         0          0          4.0069     545        10289      17634.82   52.566     12994      6675      
2719.999888 1163       8.28       331        694        0          250.38     12161      14         0          0          4.0172     510        10288      17636.14   52.562     12993      6675      
2720.199888 1161       7.7        306        670        1          250.41     12162      14         0          0          4.0109     545        10284      17637.99   52.551     12990      6675      
2720.399888 1162       7.36       306        842        0          250.414    12162      14         0          0          4.014      580        10284      17639.31   52.557     12992      6675      
2720.599888 1163       6.96       277        415        0          250.44     12163      14         0          0          4.0204     580        10282      17640.58   52.562     12993      6673      
2720.799887 1152       6.66       277        954        0          250.467    12164      14         0          0          3.9665     557        10283      17641.89   52.571     12995      6667      
2720.999887 1166       6.34       260        317        0          250.496    12165      14         0          0          4.0323     580        10282      17643.21   52.594     13001      6671      
2721.199887 1173       6.24       282        115        0          250.523    12166      14         0          0          4.0664     568        10285      17644.47   52.626     13009      6672      
2721.399886 1174       6.36       282        167        0          250.553    12167      14         0          0          4.0727     568        10293      17645.79   52.649     13015      6673      
2721.599886 1176       6.55       314        130        0          250.582    12168      14         0          0          4.0807     580        10299      17647.04   52.689     13025      6672      
2721.799886 1176       6.88       314        88         0          250.609    12169      14         0          0          4.0807     557        10311      17648.38   52.726     13034      6673      
2721.999885 1176       7.07       318        56         0          250.631    12170      14         0          0          4.0815     510        10316      17649.69   52.75      13039      6674      
2722.199885 1177       7.18       318        67         0          250.653    12171      14         0          0          4.0831     580        10314      17650.94   52.733     13035      6673      
2722.399885 1176       7.48       346        91         0          250.674    12172      14         0          0          4.0807     545        10310      17652.26   52.711     13030      6674      
2722.599884 1176       7.71       346        81         0          250.693    12173      14         0          0          4.083      521        10304      17653.59   52.687     13024      6674      
2722.799884 1176       8.06       381        122        0          250.706    12174      14         0          0          4.0807     580        10297      17654.84   52.644     13013      6675      
2722.999884 1176       8.4        381        137        0          250.709    12174      14         0          0          4.0807     580        10289      17656.15   52.593     13001      6673      
2723.199884 1176       8.43       364        169        0          250.725    12175      14         0          0          4.0807     580        10281      17657.49   52.552     12991      6674      
2723.399883 1175       8.39       364        113        0          250.745    12176      14         0          0          4.0759     510        10275      17658.75   52.519     12982      6674      
2723.599883 1175       8.06       333        92         0          250.766    12177      14         0          0          4.0759     560        10268      17660.1    52.489     12975      6673      
2723.799883 1175       7.85       332        93         0          250.785    12178      14         0          0          4.0759     580        10261      17661.39   52.457     12967      6673      
2723.999882 1174       7.65       324        149        0          250.801    12179      14         0          0          4.0711     580        10254      17662.7    52.422     12958      6673      
2724.199882 1173       7.55       324        157        0          250.794    12179      14         0          0          4.068      520        10243      17664.01   52.358     12942      6673      
2724.399882 1172       7.94       366        86         0          250.838    12181      14         0          0          4.0623     580        10233      17665.28   52.306     12930      6673      
2724.599881 1173       8.2        374        289        0          250.837    12181      14         0          0          4.0664     580        10220      17666.6    52.267     12920      6672      
2724.799881 1173       8.75       405        173        0          250.861    12183      14         0          0          4.0664     580        10209      17667.92   52.194     12902      6673      
2724.999881 1172       8.93       383        110        0          250.863    12183      14         0          0          4.0616     580        10196      17669.18   52.132     12887      6675      
2725.199881 1171       8.82       379        109        0          250.884    12184      14         0          0          4.0569     580        10190      17670.47   52.084     12875      6674      
2725.39988 1170       8.72       370        102        0          250.907    12186      14         0          0          4.0521     580        10181      17671.75   52.006     12855      6674      
2725.59988 1169       8.4        352        4670       0          250.913    12186      14         0          0          4.0494     569        10173      17673.04   51.962     12844      6674      
2725.79988 1169       8.11       319        6763       0          250.93     12187      14         0          0          4.0473     580        10166      17674.35   51.914     12833      6675      
2725.999879 1168       7.66       314        1655       0          250.954    12188      14         0          0          4.0426     580        10158      17675.68   51.852     12817      6676      
2726.199879 1167       7.32       295        428        0          250.961    12189      14         0          0          4.0402     533        10152      17676.94   51.794     12803      6675      
2726.399879 1165       7.06       295        101        0          250.972    12190      14         0          0          4.0293     580        10139      17678.25   51.723     12785      6674      
2726.599878 1164       7.1        337        66         0          250.983    12191      14         0          0          4.0235     580        10123      17679.53   51.616     12759      6674      
2726.799878 1163       7.5        344        47         0          250.983    12191      14         0          0          4.0188     545        10105      17680.83   51.519     12735      6676      
2726.999878 1162       7.98       391        43         0          251        12193      14         0          0          4.0159     522        10088      17682.15   51.439     12715      6676      
2727.199878 1161       8.47       391        57         0          250.993    12193      14         0          0          4.0101     524        10071      17683.48   51.342     12691      6675      
2727.399877 1159       8.69       387        56         0          251.008    12194      14         0          0          3.9991     545        10051      17684.8    51.226     12662      6675      
