~Version
 VERS              .         2.0                           : CWLS LOG ASCII STANDARD - VERSION 2.0
 WRAP              .         NO                            : ONE LINE PER DEPTH STEP
 DLM               .         SPACE                         : DELIMITING CHARACTER(SPACE TAB OR COMMA)
~Well Information
#_______________________________________________________________________________
#
#PARAMETER_NAME    .UNIT     VALUE                         : DESCRIPTION
#_______________________________________________________________________________
STRT               .M        1549.2                        : First reference value
STOP               .M        2296.2                        : Last reference value
STEP               .M        0.2                           : Step increment
NULL               .         -9999                         : Missing value
COMP               .                                       : Company
WELL               .         616                           : Well name
FLD                .                                       : Field
LOC                .                                       : Location
CNTY               .                                       : County
STAT               .                                       : State
CTRY               .                                       : Country
SRVC               .                                       : Service Company
DATE               .                                       : Date
API                .                                       : API number
PROJECT_UPGRADE_TIME .         2021-03-18T21_24_50           : 
group              .         Good                          : 
~Parameter Information Block
#_______________________________________________________________________________
#
#PARAMETER_NAME    .UNIT     VALUE                         : DESCRIPTION
#_______________________________________________________________________________
SET                .         616_10                        : 
CONF               .         00                            : 
END                .         0                             : 
ERR                .         2                             : 
GS00               .M        2294.21                       : 
GS01               .M        1546.72                       : 
MM00               .M        2240.00                       : 
NOKG               .         0                             : 
NPR                .         980119                        : 
PART               .         Палагутин                     : 
PROJECT_UPGRADE_TIME .         2021-03-18T21_24_49           : 
PRZK               .         Якименко                      : 
TLFamily_AZIMUTH   .         True Dip Azimuth              : 
TLFamily_DEPTH     .         Measured Depth                : 
TLFamily_METKA     .                                       : 
TLFamily_ROLL      .                                       : 
TLFamily_SPEED     .         Spontaneous Potential         : 
TLFamily_ZENIT     .                                       : 
VPRG               .         310                           : 
WAY                .         UP                            : 
group              .         prim                          : 
~Curve Information
#_______________________________________________________________________________
#
#LOGNAME           .UNIT     LOG_ID                        : DESCRIPTION
#_______________________________________________________________________________
DEPTH              .M                                      :  
AZIMUTH            .DEG                                    :  
METKA              .                                       :  
ROLL               .DEG                                    :  
SPEED              .M/H                                    :  
ZENIT              .DEG                                    :  
~Ascii
# ...
2232.4     324.08     0          174.62     612        5.74      
2232.6     265.93     0          174.76     612        5.77      
2232.8     257.71     0          175.47     612        5.77      
2233       256.55     0          175.92     648        5.83      
2233.2     255.24     0          176.41     576        5.77      
2233.4     255.8      0          175.41     576        5.63      
2233.6     254.77     0          173.16     504        5.53      
2233.8     254.62     0          173.85     576        5.39      
2234       255.72     0          175.79     576        5.26      
2234.2     256.8      0          177.38     540        5.22      
2234.4     257.53     0          177.36     576        5.22      
2234.6     256.63     0          177.56     576        5.29      
2234.8     256.03     0          178.59     612        5.35      
2235       255.61     0          178.82     576        5.21      
2235.2     256.19     0          179.2      576        5.15      
2235.4     257.55     0          179.81     576        5.09      
2235.6     259.25     0          179.97     576        5.11      
2235.8     259.5      0          179.11     576        5.11      
2236       258.94     0          179.23     612        5.17      
2236.2     258.66     0          179.4      540        5.19      
2236.4     258.28     0          178.89     540        5.16      
2236.6     258.07     0          178.8      540        5.18      
2236.8     258.19     0          178.58     540        5.15      
2237       258.18     0          176.72     612        5.18      
2237.2     258.04     0          175.2      576        5.14      
2237.4     258.18     0          175.04     576        5.16      
2237.6     258.95     0          174.68     576        5.14      
2237.8     259.28     0          169.46     576        5.1       
2238       259.92     0          162.82     576        5.05      
2238.2     261.26     0          152.12     576        4.97      
2238.4     262.55     0          134.29     576        4.97      
2238.6     261.99     0          115.72     540        5.05      
2238.8     266.06     0          98.51      540        5.08      
2239       264.3      0          75.39      576        5.1       
2239.2     261.91     0          59.91      612        5.01      
2239.4     262.41     0          53.94      576        5.02      
2239.6     264.42     0          48.15      540        5.06      
2239.8     265.38     0          36.16      576        5.05      
2240       265.1      0          21.02      576        5.03      
2240.2     266.19     0          7.02       612        5         
2240.4     266.04     0          350.79     576        4.97      
2240.6     265.88     0          333.32     504        4.92      
2240.8     265.92     0          318.85     576        4.89      
2241       265.99     0          307.15     576        4.94      
2241.2     265.83     0          297.64     576        4.97      
2241.4     265.11     0          289.81     576        4.91      
2241.6     265.31     0          282.18     504        4.96      
2241.8     264.76     0          274.17     576        5.02      
2242       266.34     0          265.04     576        5.03      
2242.2     264.43     1          252.41     576        5.08      
2242.4     263.04     0          243.16     576        5.1       
2242.6     262.81     0          237.92     504        5.08      
2242.8     262.55     0          234.31     576        5.11      
2243       263.92     0          228.32     576        5.17      
2243.2     263.81     0          214.98     576        5.16      
2243.4     263.78     0          202.12     576        5.11      
2243.6     266.41     0          194.57     576        5.15      
2243.8     284.44     0          191.71     576        5.12      
2244       225.78     0          190.69     612        5.14      
2244.2     174.18     0          190.78     576        5.21      
2244.4     307.33     0          191.43     540        5.16      
2244.6     248.65     0          192.71     576        5.18      
2244.8     259.23     0          195        540        5.22      
2245       259.04     0          196.52     576        5.26      
2245.2     258.44     0          195.98     612        5.24      
2245.4     257.4      0          194.64     540        5.15      
2245.6     257.75     0          193.66     504        5.11      
2245.8     258.55     0          192.98     576        5.04      
2246       258.03     0          192.55     612        4.95      
2246.2     259.15     0          192.63     576        4.89      
2246.4     261.91     0          192.22     576        5.39      
2246.6     258.87     0          189.59     576        4.84      
2246.8     257.24     0          188.42     576        4.9       
2247       257.46     0          188.34     576        4.93      
2247.2     257.58     0          188.74     252        4.93      
2247.4     257.83     0          190.69     396        4.8       
2247.6     259.28     0          192.22     396        4.74      
2247.8     260.84     0          190.78     432        4.77      
2248       261.42     0          188.37     396        4.7       
2248.2     261.47     0          187.9      396        4.91      
2248.4     260.31     0          187.18     396        4.87      
2248.6     260.72     0          185.88     360        4.91      
2248.8     261.01     0          184.99     432        4.91      
2249       260.84     0          182.84     396        4.91      
2249.2     260.94     0          180.96     432        4.93      
2249.4     260.56     0          180.12     396        4.93      
2249.6     260.45     0          179.51     396        4.92      
2249.8     260.49     0          178.74     432        4.94      
2250       260.49     0          177.91     396        4.93      
2250.2     260.71     0          175.6      432        4.92      
2250.4     260.89     0          171.02     396        4.92      
2250.6     261.15     0          163.5      396        4.9       
2250.8     260.73     0          155.94     396        4.91      
2251       261.14     0          149.53     396        4.97      
2251.2     262.45     0          141.13     432        4.91      
2251.4     262.82     0          127.44     396        4.89      
2251.6     263.34     0          113.58     396        4.89      
2251.8     267.23     0          86.16      396        4.87      
2252       264.24     0          60.78      360        4.88      
2252.2     264.84     1          50.74      396        4.85      
2252.4     268.23     0          36.42      396        4.94      
2252.6     267.92     0          18         396        4.81      
2252.8     269.37     0          1.9        396        4.85      
2253       269.97     0          345.53     432        4.78      
2253.2     270.3      0          325.76     432        4.76      
2253.4     269        0          313.41     396        4.78      
2253.6     268.91     0          306.87     396        4.78      
2253.8     268.16     0          299.48     432        4.79      
2254       267.98     0          291.86     396        4.77      
2254.2     267.87     0          284.51     396        4.88      
2254.4     268.48     0          272.72     360        4.85      
2254.6     267.62     0          258.47     396        4.91      
2254.8     266.06     0          248.86     432        4.9       
2255       265.67     0          243.24     396        4.93      
2255.2     265.32     0          237.84     396        4.97      
2255.4     265.95     0          232.61     396        4.95      
2255.6     267.63     0          220.54     432        5.06      
2255.8     267.88     0          201.09     432        4.98      
2256       272.08     0          189.21     396        5.06      
2256.2     295.17     0          182.13     396        4.96      
2256.4     221.72     0          177.73     360        5.03      
2256.6     232.64     0          176.34     396        5.1       
