~Version
 VERS              .         2.0                           : CWLS LOG ASCII STANDARD - VERSION 2.0
 WRAP              .         NO                            : ONE LINE PER DEPTH STEP
 DLM               .         SPACE                         : DELIMITING CHARACTER(SPACE TAB OR COMMA)
~Well Information
#_______________________________________________________________________________
#
#PARAMETER_NAME    .UNIT     VALUE                         : DESCRIPTION
#_______________________________________________________________________________
STRT               .M        2671                          : First reference value
STOP               .M        2773.4                        : Last reference value
STEP               .M        0.1999998                     : Step increment
NULL               .         -9999                         : Missing value
COMP               .                                       : Company
WELL               .         616                           : Well name
FLD                .                                       : Field
LOC                .                                       : Location
CNTY               .                                       : County
STAT               .                                       : State
CTRY               .                                       : Country
SRVC               .                                       : Service Company
DATE               .                                       : Date
API                .                                       : API number
PROJECT_UPGRADE_TIME .         2021-03-18T21_24_50           : 
group              .         Good                          : 
~Parameter Information Block
#_______________________________________________________________________________
#
#PARAMETER_NAME    .UNIT     VALUE                         : DESCRIPTION
#_______________________________________________________________________________
SET                .         D0402_D                       : 
OTHER              .         Kedr.exe версия 2.1.2.32      : 
OTHER_10           .         TM.GRD = 0.00379*TM$.UE + 7.11: 
OTHER_11           .         MN.ATM = (8e-006*TM.GRD + 0.02)*(MN$.UE + -8*TM.GRD + -1800): 
OTHER_12           .         GK.MKR/H = GK$.UE / 57.17 + 0 : 
OTHER_2            .         KedrData.dll версия 3.2.2.14  : 
OTHER_3            .         LasInf.dll версия 3.2.0.13    : 
OTHER_4            .         Драйвер версия 1.2.0.4        : 
OTHER_5            .         Прибор_ АКП4_90               : 
OTHER_6            .         Номер прибора_ 56             : 
OTHER_7            .         Режим_ АКП4_90 - все каналы   : 
OTHER_8            .         Форма_ Г-1                    : 
OTHER_9            .         Тарировки_                    : 
PROJECT_UPGRADE_TIME .         2021-03-18T21_24_49           : 
TLFamily_DEPT      .         Measured Depth                : 
TLFamily_GK        .         Gamma Ray                     : 
TLFamily_GK$       .                                       : 
TLFamily_LM        .         Casing Collar locator         : 
TLFamily_METKA     .                                       : 
TLFamily_METKA_1   .                                       : 
TLFamily_MN        .                                       : 
TLFamily_MN$       .                                       : 
TLFamily_RCOR      .                                       : 
TLFamily_SPID      .         Spontaneous Potential         : 
TLFamily_TIME      .         Time                          : 
TLFamily_TM        .         Temperature                   : 
TLFamily_TM$       .         Temperature                   : 
group              .         second                        : 
~Curve Information
#_______________________________________________________________________________
#
#LOGNAME           .UNIT     LOG_ID                        : DESCRIPTION
#_______________________________________________________________________________
DEPT               .M                                      : 1 Глубина, м -    0.0 см 
GK                 .MKR/H                                  : 12 Гамма-активность, мкр./ч -   65.0 см 
GK$                .UE                                     : 9 Гамма-активность, усл.ед. -   65.0 см 
LM                 .                                       : 8 Локатор муфт,  -   30.0 см 
METKA              .                                       : 3 Метки,  -    0.0 см 
METKA_1            .                                       : 13 Маркеры - 65 см 
MN                 .ATM                                    : 11 Давление, атм. -  140.0 см 
MN$                .UE                                     : 7 Давление, усл.ед. -  140.0 см 
RCOR               .CM/KM                                  : 5 Коррекция по ролику, см/км -    0.0 см 
SPID               .M/H                                    : 2 Скорость, м/час -    0.0 см 
TIME               .S                                      : 4 Время, сек -    0.0 см 
TM                 .GRD                                    : 10 Температура, °C -  145.0 см 
TM$                .UE                                     : 6 Температура, усл.ед. -  145.0 см 
~Ascii
# ...
2760.6     6.58       401        526        0          0          268.241    15453      0          -280       7231.57    85.654     20724     
2760.8     6.09       379        648        0          0          268.227    15452      0          -260       7228.94    85.662     20726     
2761       6          341        589        0          0          268.281    15455      0          -300       7226.3     85.667     20727     
2761.2     6.14       332        480        0          0          268.206    15451      0          -260       7223.73    85.673     20729     
2761.4     6.42       337        645        0          0          268.343    15458      0          -260       7221.01    85.677     20730     
2761.6     6.98       370        519        0          0          268.384    15460      0          -300       7218.45    85.684     20732     
2761.8     7.24       407        619        0          0          268.342    15458      0          -280       7215.76    85.692     20734     
2762       7.37       422        515        0          0          268.404    15461      0          -260       7213.17    85.699     20736     
2762.2     7.34       433        352        0          0          268.373    15459      0          -260       7210.48    85.703     20737     
2762.4     7.11       422        648        0          0          268.3      15456      0          -260       7207.89    85.707     20738     
2762.6     6.81       426        896        0          0          268.382    15460      0          -260       7205.2     85.712     20739     
2762.8     6.26       381        671        0          0          268.362    15459      0          -280       7202.62    85.716     20740     
2763       6.21       307        2067       0          0          268.396    15461      0          -260       7200.03    85.718     20741     
2763.2     7.11       312        7929       0          0          268.568    15469      0          -300       7197.32    85.722     20742     
2763.4     8.04       426        1302       0          0          268.54     15468      0          -260       7194.74    85.728     20744     
2763.6     8.13       516        1457       0          0          268.526    15467      0          -260       7192.02    85.731     20744     
2763.8     7.62       462        986        0          0          268.65     15473      0          -260       7189.45    85.737     20746     
2764       7.39       425        1139       0          0          268.525    15467      0          -300       7186.87    85.742     20747     
2764.2     7.3        429        733        0          0          268.511    15466      0          -260       7184.17    85.749     20749     
2764.4     7.27       409        1595       0          0          268.635    15472      0          -260       7181.47    85.755     20751     
2764.6     7.31       416        728        0          0          268.566    15469      0          -320       7178.88    85.756     20751     
2764.8     7.41       411        811        0          0          268.669    15474      0          -320       7176.19    85.764     20753     
2765       7.53       425        829        0          0          268.834    15482      0          -260       7173.62    85.768     20754     
2765.2     7.57       428        919        0          0          268.682    15475      0          -280       7171.04    85.771     20755     
2765.4     7.72       440        659        0          0          268.751    15478      0          -260       7168.35    85.775     20756     
2765.6     7.75       443        672        0          0          268.785    15480      0          -280       7165.63    85.783     20758     
2765.8     7.75       440        680        0          0          268.578    15470      0          -320       7162.94    85.787     20759     
2766       7.8        455        838        0          0          268.709    15476      0          -260       7160.38    85.792     20760     
2766.2     7.6        463        744        0          0          268.853    15483      0          -260       7157.79    85.798     20762     
2766.4     7.14       433        743        0          0          268.715    15476      0          -300       7155.09    85.802     20763     
2766.6     6.82       408        912        0          0          268.929    15487      0          -260       7152.38    85.806     20764     
2766.8     6.58       388        861        0          0          268.955    15488      0          -300       7149.82    85.808     20765     
2767       6.39       383        570        0          0          268.762    15479      0          -260       7147.24    85.811     20765     
2767.2     6.18       364        842        0          0          268.983    15489      0          -320       7144.54    85.817     20767     
2767.4     6.28       330        1028       0          0          268.893    15485      0          -260       7141.96    85.823     20769     
2767.6     6.61       354        654        0          0          268.755    15478      0          -260       7139.32    85.825     20769     
2767.8     6.8        380        1260       0          0          269.1      15495      0          -260       7136.67    85.825     20769     
2768       6.84       395        2377       0          0          269.024    15491      0          -260       7134.1     85.825     20769     
2768.2     6.67       402        1260       0          0          268.982    15489      0          -260       7131.38    85.828     20770     
2768.4     6.37       397        707        0          0          269.326    15506      0          -260       7128.82    85.83      20770     
2768.6     6.15       356        691        0          0          269.119    15496      0          -320       7126.12    85.836     20772     
2768.8     6.46       329        1584       0          0          269.044    15492      0          -260       7123.47    85.84      20773     
2769       6.91       383        1367       0          0          269.367    15508      0          -260       7120.95    85.843     20774     
2769.2     7.14       390        2350       0          0          269.023    15491      0          -260       7118.24    85.841     20773     
2769.4     7.43       420        3403       0          0          269.057    15493      0          -260       7115.64    85.845     20774     
2769.6     7.49       443        1198       0          0          269.429    15511      0          -300       7112.94    85.847     20775     
2769.8     7.28       422        962        1          0          269.008    15491      0          -260       7110.36    85.843     20774     
2770       7.14       430        735        0          0          269.168    15498      0          -260       7107.8     85.84      20773     
2770.2     6.83       406        421        0          0          269.482    15514      0          -260       7106.12    85.841     20773     
2770.4     6.66       374        667        0          0          269.037    15492      0          -260       7103.54    85.84      20773     
2770.6     6.79       373        785        0          0          269.264    15503      0          -320       7100.84    85.843     20774     
2770.8     6.94       372        628        0          0          269.484    15514      0          -260       7098.27    85.84      20773     
2771       7.36       428        762        0          0          268.947    15488      0          -260       7095.64    85.836     20772     
2771.2     7.19       441        1008       0          0          269.361    15508      0          -260       7092.86    85.835     20772     
2771.4     6.73       406        736        0          0          269.492    15514      0          -260       7090.16    85.832     20771     
2771.6     6.41       384        652        0          0          269.201    15500      0          -191       7087.34    85.826     20769     
