~Version
 VERS              .         2.0                           : CWLS LOG ASCII STANDARD - VERSION 2.0
 WRAP              .         NO                            : ONE LINE PER DEPTH STEP
 DLM               .         SPACE                         : DELIMITING CHARACTER(SPACE TAB OR COMMA)
~Well Information
#_______________________________________________________________________________
#
#PARAMETER_NAME    .UNIT     VALUE                         : DESCRIPTION
#_______________________________________________________________________________
STRT               .M        2659.8                        : First reference value
STOP               .M        2768.999945                   : Last reference value
STEP               .M        0.1999999                     : Step increment
NULL               .         -9999                         : Missing value
COMP               .                                       : Company
WELL               .         616                           : Well name
FLD                .                                       : Field
LOC                .                                       : Location
CNTY               .                                       : County
STAT               .                                       : State
CTRY               .                                       : Country
SRVC               .                                       : Service Company
DATE               .                                       : Date
API                .                                       : API number
PROJECT_UPGRADE_TIME .         2021-03-18T21_24_50           : 
group              .         Good                          : 
~Parameter Information Block
#_______________________________________________________________________________
#
#PARAMETER_NAME    .UNIT     VALUE                         : DESCRIPTION
#_______________________________________________________________________________
SET                .         D1169_D                       : 
OTHER              .         Программное обеспечение станции MONITOR-386EX 25/12/99 15_08_10   BGF V52 22/08/01 16_56_30   3.2_BGF_N_3070031: 
OTHER_10           .         Тарировки_                    : 
OTHER_11           .         TM.GRD = 0.00403*TM$.UE + -1.19: 
OTHER_12           .         MN.ATM = (7.1e-006*TM.GRD + 0.02017)*(MN$.UE + -3.03*TM.GRD + -1833): 
OTHER_13           .         Id error                      : 
OTHER_2            .         Kedr.exe версия 3.4.2.51      : 
OTHER_3            .         KedrData.dll версия 3.4.2.24  : 
OTHER_4            .         Драйвер версия 2.1.1.8        : 
OTHER_5            .         Мнемоники версия 3.3 S        : 
OTHER_6            .         Прибор_ КСА-М1                : 
OTHER_7            .         Номер прибора_ 265            : 
OTHER_8            .         Режим_ КСА-М1                 : 
OTHER_9            .         Форма_ ТЕРМОМЕТР              : 
PROJECT_UPGRADE_TIME .         2021-03-18T21_24_49           : 
TLFamily_DEPT      .         Measured Depth                : 
TLFamily_GK        .         Gamma Ray                     : 
TLFamily_GK$       .                                       : 
TLFamily_LM        .         Casing Collar locator         : 
TLFamily_METKA     .                                       : 
TLFamily_MN        .                                       : 
TLFamily_MN$       .                                       : 
TLFamily_RCOR      .                                       : 
TLFamily_SPID      .         Spontaneous Potential         : 
TLFamily_STD       .                                       : 
TLFamily_TENS      .         Cable Tension                 : 
TLFamily_TIME      .         Time                          : 
TLFamily_TM        .         Temperature                   : 
TLFamily_TM$       .         Temperature                   : 
TLFamily_VGD       .         Gas Volume                    : 
group              .         prim                          : 
~Curve Information
#_______________________________________________________________________________
#
#LOGNAME           .UNIT     LOG_ID                        : DESCRIPTION
#_______________________________________________________________________________
DEPT               .M                                      : 1 Глубина, м -    0.0 см 
GK                 .MKR/H                                  : 15 Гамма-активность, мкр./ч -  110.0 см 
GK$                .UE                                     : 12 Гамма-активность, усл.ед. -  110.0 см 
LM                 .                                       : 10 Локатор муфт,  -   20.0 см 
METKA              .                                       : 3 Метки,  -    0.0 см 
MN                 .ATM                                    : 14 Давление, атм. -  160.0 см 
MN$                .UE                                     : 8 Давление, усл.ед. -  160.0 см 
RCOR               .CM/KM                                  : 5 Коррекция по ролику, см/км -    0.0 см 
SPID               .M/H                                    : 2 Скорость, м/час -    0.0 см 
STD                .                                       : 11 Приток,  -  170.0 см 
TENS               .T                                      : 6 Натяжение кабеля, т -    0.0 см 
TIME               .S                                      : 4 Время, сек -    0.0 см 
TM                 .GRD                                    : 13 Температура, °C -  180.0 см 
TM$                .UE                                     : 7 Температура, усл.ед. -  180.0 см 
VGD                .                                       : 9 Влагомер,  -  170.0 см 
~Ascii
# ...
2679.39999 9.18       396        1          0          257.018    14465      -1400      598        30360      0          25673.99   83.299     20965      6574      
2679.59999 9.24       396        1          0          257.039    14466      -1400      586        30363      0          25675.21   83.303     20966      6575      
2679.79999 9.22       394        1          0          257.06     14467      -1400      588        30367      0          25676.38   83.307     20967      6574      
2679.99999 9.22       394        1          2          257.081    14468      -1400      591        30373      0          25677.61   83.319     20970      6574      
2680.19999 9.12       387        1          0          257.102    14469      -1400      588        30375      0          25678.96   83.325     20971      6574      
2680.39999 9.07       387        1          0          257.123    14470      -1400      591        30380      0          25680.14   83.335     20974      6573      
2680.59999 9.48       421        1          0          257.123    14470      -1400      594        30383      0          25681.33   83.343     20976      6573      
2680.79999 9.73       421        1          0          257.156    14472      -1400      590        30385      0          25682.57   83.347     20977      6574      
2680.999989 9.52       393        1          0          257.165    14472      -1400      593        30389      0          25683.76   83.354     20979      6573      
2681.199989 9.28       393        1          0          257.186    14473      -1400      595        30392      0          25684.94   83.361     20980      6573      
2681.399989 9.36       403        1          0          257.207    14474      -1400      592        30393      0          25686.16   83.369     20982      6573      
2681.599989 9.41       403        1          0          257.228    14475      -1400      583        30396      0          25687.39   83.376     20984      6573      
2681.799989 9.66       422        1168       0          257.249    14476      -1400      588        30401      0          25688.62   83.383     20986      6574      
2681.999989 9.81       422        112        0          257.27     14477      -1400      589        30404      0          25689.78   83.388     20987      6574      
2682.199989 9.63       402        1          0          257.291    14478      -1400      592        30409      0          25691.01   83.395     20989      6574      
2682.399989 9.48       402        1          0          257.312    14479      -1400      589        30411      0          25692.24   83.404     20991      6573      
2682.599989 9.41       400        1          0          257.333    14480      -1400      597        30415      0          25693.41   83.412     20993      6574      
2682.799989 9.37       400        1          0          257.354    14481      -1400      599        30419      0          25694.62   83.417     20994      6574      
2682.999988 9.72       445        1          0          257.375    14482      -1400      594        30421      0          25695.86   83.427     20997      6574      
2683.199988 10.43      460        1          0          257.407    14484      -1400      602        30424      0          25697.04   83.435     20999      6573      
2683.399988 10.75      469        1          0          257.425    14484      -1400      601        30427      0          25698.23   83.444     21001      6573      
2683.599988 10.9       469        1          0          257.44     14485      -1400      602        30431      0          25699.44   83.448     21002      6573      
2683.799988 10.51      414        1          0          257.458    14486      -1400      604        30434      0          25700.67   83.457     21004      6573      
2683.999988 9.94       414        1          0          257.479    14487      -1400      607        30437      0          25701.83   83.464     21006      6573      
2684.199988 9.78       415        1          0          257.5      14488      -1400      606        30442      0          25703      83.472     21008      6574      
2684.399988 9.74       416        1          0          257.521    14489      -1400      587        30440      0          25704.29   83.479     21010      6573      
2684.599988 9.74       416        1          0          257.542    14490      -1400      589        30445      0          25705.46   83.484     21011      6574      
2684.799988 9.75       417        1          0          257.563    14491      -1400      600        30447      0          25706.63   83.489     21012      6574      
2684.999987 9.75       417        1          0          257.579    14492      -1400      589        30450      0          25707.9    83.496     21014      6573      
2685.199987 9.61       407        1          0          257.605    14493      -1400      593        30454      0          25709.04   83.503     21016      6574      
2685.399987 9.64       419        1          0          257.605    14493      -1400      590        30457      0          25710.32   83.511     21018      6573      
2685.599987 9.99       434        1          0          257.628    14494      -1400      592        30461      0          25711.51   83.514     21018      6574      
2685.799987 10.1       434        1          0          257.665    14496      -1400      589        30465      0          25712.78   83.521     21020      6574      
2685.999987 10.54      460        1          0          257.668    14496      -1400      598        30468      0          25713.95   83.529     21022      6574      
2686.199987 10.69      460        1          0          257.689    14497      -1400      600        30469      0          25715.18   83.536     21024      6573      
2686.399987 10.74      460        1          0          257.695    14497      -1400      598        30474      0          25716.46   83.541     21025      6574      
2686.599987 10.75      460        1          0          257.715    14498      -1400      587        30474      0          25717.64   83.546     21026      6573      
2686.799987 11.38      505        1          0          257.749    14500      -1400      592        30477      0          25718.81   83.554     21028      6574      
2686.999986 11.68      505        1          0          257.769    14501      -1400      591        30478      0          25720.04   83.56      21030      6574      
2687.199986 11.69      498        1          0          257.773    14501      -1400      578        30479      0          25721.27   83.568     21032      6574      
2687.399986 11.66      498        1          0          257.794    14502      -1400      584        30484      0          25722.5    83.576     21034      6574      
2687.599986 10.71      434        1          0          257.814    14503      -1400      583        30486      0          25723.73   83.583     21036      6573      
2687.799986 10.33      434        1          0          257.835    14504      -1400      587        30489      0          25724.95   83.589     21037      6573      
2687.999986 9.2        358        1          0          257.856    14505      -1400      585        30492      0          25726.15   83.594     21038      6573      
2688.199986 8.61       358        1          0          257.874    14506      -1400      590        30495      0          25727.36   83.598     21039      6574      
2688.399986 7.84       306        1          0          257.889    14507      -1400      587        30496      0          25728.59   83.605     21041      6574      
2688.599986 7.37       306        1          0          257.907    14507      -1400      584        30500      0          25729.87   83.612     21043      6574      
2688.799986 7.22       305        1          0          257.934    14509      -1400      589        30499      0          25731.05   83.617     21044      6573      
2688.999985 7.16       305        1          0          257.943    14509      -1400      597        30503      0          25732.23   83.623     21045      6573      
