~Version
 VERS              .         2.0                           : CWLS LOG ASCII STANDARD - VERSION 2.0
 WRAP              .         NO                            : ONE LINE PER DEPTH STEP
 DLM               .         SPACE                         : DELIMITING CHARACTER(SPACE TAB OR COMMA)
~Well Information
#_______________________________________________________________________________
#
#PARAMETER_NAME    .UNIT     VALUE                         : DESCRIPTION
#_______________________________________________________________________________
STRT               .M        2650.8                        : First reference value
STOP               .M        2752.199899                   : Last reference value
STEP               .M        0.1999998                     : Step increment
NULL               .         -9999                         : Missing value
COMP               .                                       : Company
WELL               .         616                           : Well name
FLD                .                                       : Field
LOC                .                                       : Location
CNTY               .                                       : County
STAT               .                                       : State
CTRY               .                                       : Country
SRVC               .                                       : Service Company
DATE               .                                       : Date
API                .                                       : API number
PROJECT_UPGRADE_TIME .         2021-03-18T21_24_50           : 
group              .         Good                          : 
~Parameter Information Block
#_______________________________________________________________________________
#
#PARAMETER_NAME    .UNIT     VALUE                         : DESCRIPTION
#_______________________________________________________________________________
SET                .         D4415_D                       : 
OTHER              .         Запись производится в присутствии: 
OTHER_10           .         Максимальная температура      : 
OTHER_11           .         Тип промывочной жидкости      : 
OTHER_12           .         Сопротивление ПЖ (Ом*м) при 20°C: 
OTHER_13           .         Плотность ПЖ(г/см3)           : 
OTHER_14           .         Вязкость ПЖ(с)                : 
OTHER_15           .         Водоотдача ПЖ(см3/30мин)      : 
OTHER_16           .         Уровень ПЖ                    : 
OTHER_17           .         Нефть ПЖ (%)                  : 
OTHER_18           .         Барит ПЖ (%)                  : 
OTHER_19           .         Гематит ПЖ (%)                : 
OTHER_2            .         Заказчик ННСН  ЦДНГ-1         : 
OTHER_20           .         КМЦ ПЖ (%)                    : 
OTHER_21           .         Разгазирование ПЖ (да,нет)    : 
OTHER_22           .         Подъемник                     : 
OTHER_23           .         Лаборатория                   : 
OTHER_24           .         Тип кабеля                    : 
OTHER_25           .         Длина кабеля (м)              : 
OTHER_26           .         Цена последней метки          : 
OTHER_27           .         Цена контрольной метки        : 
OTHER_28           .         Диаметр долота (мм)           : 
OTHER_29           .         Глубина бурения (м)           : 
OTHER_3            .         Площадь                       : 
OTHER_30           .         Искусственный забой (м)       : 
OTHER_31           .         Диаметр колонны (мм)          : 
OTHER_32           .         Толщина колонны (мм)          : 
OTHER_33           .         Башмак колонны (м)            : 
OTHER_34           .         Диаметр НКТ (мм)              : 
OTHER_35           .         Толщина НКТ (мм)              : 
OTHER_36           .         Воронка НКТ (м)               : 
OTHER_37           .         Дата цементожа                : 
OTHER_38           .         Тип, количество(т) и плотность цемента: 
OTHER_39           .         Интервалы перфорации (м)      : 
OTHER_4            .         Категория                     : 
OTHER_40           .         Направление, диаметр (мм)     : 
OTHER_41           .         Направление, глубина (м)      : 
OTHER_42           .         Кондуктор, диаметр (мм)       : 
OTHER_43           .         Кондуктор, глубина (м)        : 
OTHER_44           .         Техническая колонна, диаметр (мм): 
OTHER_45           .         Техническая колонна, глубина (м): 
OTHER_46           .         Эксплуатационная колонна, диаметр (мм): 
OTHER_47           .         Эксплуатационная колонна, глубина (м): 
OTHER_48           .         Программа Кедр-02 версия 3.4  : 
OTHER_49           .         Операционная система Windows NT 5.1 build 2600 Service Pack 2: 
OTHER_5            .         Назначение исследований       : 
OTHER_50           .         Программное обеспечение станции MONITOR-386EX 25/12/99 15_08_10   BGF V54 20/09/05 15_32_17   3.3__BGF_9030071: 
OTHER_51           .         Kedr.exe версия 3.4.2.74      : 
OTHER_52           .         KedrData.dll версия 3.4.2.29  : 
OTHER_53           .         Мнемоники версия 3.18 S       : 
OTHER_54           .         Драйвер версия 2.1.1.4        : 
OTHER_55           .         LasInf.dll 4.3.0.35           : 
OTHER_56           .         Прибор_ КСА-Т4                : 
OTHER_57           .         Номер прибора_ 160            : 
OTHER_58           .         Режим_ КСА-Т4                 : 
OTHER_59           .         Форма_ С.А.Б.                 : 
OTHER_6            .         Альтитуда стола ротора        : 
OTHER_60           .         Тарировки_                    : 
OTHER_61           .         <_techsia_sc_> Дата тарировки температуры 25.05.2010: 
OTHER_62           .         Ручной ввод коэффициентов     : 
OTHER_63           .         TM.DEGC = 0.00402*RTM.E.ACP + -0.994: 
OTHER_64           .         <_techsia_sc_> Дата тарировки давления 25.05.2010: 
OTHER_65           .         Ручной ввод коэффициентов     : 
OTHER_66           .         MN.ATM = (2.27521e-006*TM.DEGC + 0.02078)*(RMN.E.ACP + 6.2*TM.DEGC + -1688): 
OTHER_67           .         <_techsia_sc_> Дата тарировки ГК 25.05.2010: 
OTHER_68           .         Ручной ввод коэффициентов     : 
OTHER_69           .         GR.UR/H = RGR.IMP/MIN / 45.5144: 
OTHER_7            .         Вид исследований 3  6         : 
OTHER_70           .         GK.FLT = 0.1*GR.UR/H[-1] + (1-0.1)*GR.UR/H[0]: 
OTHER_8            .         Начало бурения интервала каротажа: 
OTHER_9            .         Окончание бурения интервала каротажа: 
PROJECT_UPGRADE_TIME .         2021-03-18T21_24_50           : 
TLFamily_CCLC      .                                       : 
TLFamily_DEPT      .         Measured Depth                : 
TLFamily_GK        .         Gamma Ray                     : 
TLFamily_GR        .         Gamma Ray                     : 
TLFamily_METKA     .                                       : 
TLFamily_MN        .                                       : 
TLFamily_RCOR      .                                       : 
TLFamily_RGR       .                                       : 
TLFamily_RMN       .                                       : 
TLFamily_RTEN      .                                       : 
TLFamily_RTM       .                                       : 
TLFamily_SPEE      .         Cable Speed                   : 
TLFamily_TIME      .         Time                          : 
TLFamily_TM        .         Temperature                   : 
group              .         prim                          : 
~Curve Information
#_______________________________________________________________________________
#
#LOGNAME           .UNIT     LOG_ID                        : DESCRIPTION
#_______________________________________________________________________________
DEPT               .M                                      : 1 Глубина, м -    0.0 см 
CCLC               .E.ACP                                  : 9 Локатор муфт,  -   20.0 см 
GK                 .FLT                                    : 14 Гамма-активность фильтрованная, мкр./ч -  110.0 см 
GR                 .UR/H                                   : 13 Гамма-активность, мкр./ч -  110.0 см 
METKA              .CU                                     : 3 Метки,  -    0.0 см 
MN                 .ATM                                    : 12 Давление, атм. -  160.0 см 
RCOR               .CM/KM                                  : 5 Коррекция по ролику, см/км -    0.0 см 
RGR                .IMP/MIN                                : 10 Гамма-активность, усл.ед. -  110.0 см 
RMN                .E.ACP                                  : 8 Давление, усл.ед. -  160.0 см 
RTEN               .T                                      : 6 Натяжение кабеля, т -    0.0 см 
RTM                .E.ACP                                  : 7 Температура, усл.ед. -  170.0 см 
SPEE               .M/H                                    : 2 Скорость, м/час -    0.0 см 
TIME               .S                                      : 4 Время, сек -    0.0 см 
TM                 .DEGC                                   : 11 Температура, °C -  170.0 см 
~Ascii
2650.8000488 -9999      -9999      -9999      0          -9999      -9999      -9999      -9999      -9999      -9999      -9999      -9999      -9999     
2651       26         -9999      -9999      0          -9999      -1091      -9999      -9999      0.29       -9999      299        1.08       -9999     
2651.2     27         -9999      -9999      0          -9999      -1091      -9999      -9999      0.27       -9999      378        2.27       -9999     
2651.399999 27         -9999      -9999      0          -9999      -1091      -9999      -9999      0.26       -9999      441        3.49       -9999     
2651.599999 436        -9999      -9999      0          -9999      -1091      -9999      -9999      0.25       -9999      478        4.8        -9999     
2651.799999 648        -9999      -9999      0          -9999      -1091      -9999      -9999      0.25       -9999      505        6.06       -9999     
2651.999999 759        8.13       8.13       0          -9999      -1091      370        -9999      0.25       -9999      530        7.3        -9999     
2652.199999 1116       8.31       8.31       0          -9999      -1091      378        -9999      0.25       -9999      548        8.53       -9999     
2652.399998 1504       8.31       8.31       0          -9999      -1091      378        -9999      0.25       -9999      561        9.74       -9999     
2652.599998 1819       7.95       7.95       0          238.874    -1091      362        12698      0.25       16454      569        10.88      65.151    
2652.799998 1618       7.95       7.95       0          238.894    -1091      362        12699      0.25       16454      578        12.14      65.153    
2652.999998 1408       8.13       8.13       0          238.916    -1091      370        12700      0.25       16455      583        13.35      65.154    
2653.199998 1215       8.13       8.13       0          238.958    -1091      370        12702      0.25       16455      588        14.56      65.155    
2653.399997 1394       8.28       8.28       0          238.921    -1091      377        12700      0.25       16456      590        15.76      65.159    
2653.599997 1493       8.28       8.28       0          238.99     -1091      377        12703      0.25       16458      593        16.97      65.167    
2653.799997 1366       8.5        8.5        0          238.967    -1091      387        12702      0.25       16458      594        18.23      65.167    
2653.999997 1151       8.5        8.5        0          238.999    -1091      387        12704      0.25       16459      595        19.38      65.171    
2654.199997 1118       8.48       8.48       0          239.027    -1091      386        12705      0.25       16459      598        20.58      65.171    
2654.399996 648        8.48       8.48       0          239.024    -1091      386        12705      0.25       16460      600        21.78      65.175    
2654.599996 1079       7.89       7.89       0          239.073    -1091      359        12707      0.25       16460      600        23.05      65.175    
2654.799996 1282       7.89       7.89       0          239.087    -1091      359        12708      0.25       16460      602        24.25      65.175    
2654.999996 670        7.8        7.8        0          239.087    -1091      355        12708      0.25       16461      601        25.43      65.179    
2655.199996 766        7.8        7.8        0          239.13     -1091      355        12710      0.25       16461      603        26.62      65.179    
2655.399995 816        7.6        7.6        0          239.133    -1091      346        12710      0.25       16462      603        27.77      65.181    
2655.599995 613        7.6        7.6        0          239.151    -1091      346        12711      0.25       16462      604        29.03      65.183    
2655.799995 692        8.04       8.04       0          239.179    -1091      366        12712      0.25       16462      605        30.19      65.183    
2655.999995 760        8.04       8.04       0          239.192    -1091      366        12713      0.25       16462      605        31.42      65.183    
2656.199995 690        8.29       8.29       0          239.214    -1091      377        12714      0.25       16463      606        32.56      65.187    
2656.399994 553        8.41       8.41       0          239.235    -1091      383        12715      0.25       16463      606        33.82      65.187    
2656.599994 596        8.46       8.46       0          239.256    -1091      385        12716      0.25       16463      602        35.04      65.187    
2656.799994 690        8.46       8.46       0          239.277    -1091      385        12717      0.25       16463      593        36.34      65.187    
2656.999994 707        8.58       8.58       0          239.298    -1091      391        12718      0.25       16463      587        37.54      65.187    
2657.199994 614        8.83       8.83       0          239.298    -1091      402        12718      0.25       16463      583        38.8       65.187    
2657.399993 4470       8.69       8.69       0          239.319    -1091      395        12719      0.25       16463      580        40.14      65.187    
2657.599993 1324       8.55       8.55       0          239.34     -1091      389        12720      0.25       16463      577        41.39      65.186    
2657.799993 704        8.19       8.19       0          239.361    -1091      373        12721      0.25       16463      576        42.66      65.187    
2657.999993 703        7.32       7.32       0          239.395    -1091      333        12723      0.25       16463      574        43.87      65.187    
2658.199993 650        7.32       7.32       0          239.444    -1091      333        12725      0.25       16463      574        45.21      65.187    
2658.399992 605        7.45       7.45       0          239.444    -1091      339        12725      0.26       16463      573        46.49      65.187    
2658.599992 608        7.74       7.74       0          239.469    -1091      352        12726      0.25       16462      573        47.69      65.183    
2658.799992 618        7.89       7.89       0          239.486    -1091      359        12727      0.25       16462      573        48.95      65.183    
2658.999992 664        7.64       7.64       0          239.506    -1091      348        12728      0.25       16462      574        50.22      65.185    
2659.199992 679        7.16       7.16       0          239.528    -1091      326        12729      0.25       16462      574        51.53      65.185    
2659.399991 632        6.57       6.57       0          239.548    -1091      299        12730      0.25       16463      573        52.8       65.187    
2659.599991 597        6.57       6.57       0          239.569    -1091      299        12731      0.25       16462      573        54.02      65.183    
2659.799991 459        6.44       6.44       0          239.59     -1091      293        12732      0.25       16462      574        55.25      65.183    
2659.999991 508        6.37       6.37       0          239.607    -1091      290        12733      0.25       16462      575        56.54      65.183    
2660.199991 505        6.96       6.96       0          239.61     -1091      317        12733      0.25       16461      576        57.83      65.179    
2660.39999 486        7.84       7.84       0          239.631    -1091      357        12734      0.25       16460      576        59.03      65.175    
2660.59999 346        7.98       7.98       0          239.652    -1091      363        12735      0.25       16460      576        60.3       65.175    
2660.79999 548        7.98       7.98       0          239.672    -1091      363        12736      0.25       16459      576        61.56      65.171    
2660.99999 529        7.39       7.39       0          239.682    -1091      336        12737      0.25       16459      577        62.87      65.171    
