~Version
 VERS              .         2.0                           : CWLS LOG ASCII STANDARD - VERSION 2.0
 WRAP              .         NO                            : ONE LINE PER DEPTH STEP
 DLM               .         SPACE                         : DELIMITING CHARACTER(SPACE TAB OR COMMA)
~Well Information
#_______________________________________________________________________________
#
#PARAMETER_NAME    .UNIT     VALUE                         : DESCRIPTION
#_______________________________________________________________________________
STRT               .M        47.8                          : First reference value
STOP               .M        2693.8                        : Last reference value
STEP               .M        0.2                           : Step increment
NULL               .         -9999                         : Missing value
COMP               .                                       : Company
WELL               .         616                           : Well name
FLD                .                                       : Field
LOC                .                                       : Location
CNTY               .                                       : County
STAT               .                                       : State
CTRY               .                                       : Country
SRVC               .                                       : Service Company
DATE               .                                       : Date
API                .                                       : API number
PROJECT_UPGRADE_TIME .         2021-03-18T21_24_50           : 
group              .         Good                          : 
~Parameter Information Block
#_______________________________________________________________________________
#
#PARAMETER_NAME    .UNIT     VALUE                         : DESCRIPTION
#_______________________________________________________________________________
SET                .         D1172_D                       : 
OTHER              .         Программное обеспечение станции MONITOR-386EX 25/12/99 15_08_10   BGF V52 22/08/01 16_56_30   3.2_BGF_N_3070031: 
OTHER_10           .         Тарировки_                    : 
OTHER_11           .         TM.GRD = 0.00403*TM$.UE + -1.19: 
OTHER_12           .         MN.ATM = (7.1e-006*TM.GRD + 0.02017)*(MN$.UE + -3.03*TM.GRD + -1833): 
OTHER_13           .         Id error                      : 
OTHER_2            .         Kedr.exe версия 3.4.2.51      : 
OTHER_3            .         KedrData.dll версия 3.4.2.24  : 
OTHER_4            .         Драйвер версия 2.1.1.8        : 
OTHER_5            .         Мнемоники версия 3.3 S        : 
OTHER_6            .         Прибор_ КСА-М1                : 
OTHER_7            .         Номер прибора_ 265            : 
OTHER_8            .         Режим_ КСА-М1                 : 
OTHER_9            .         Форма_ ТЕРМОМЕТР              : 
PROJECT_UPGRADE_TIME .         2021-03-18T21_24_49           : 
TLFamily_DEPT      .         Measured Depth                : 
TLFamily_GK        .         Gamma Ray                     : 
TLFamily_GK$       .                                       : 
TLFamily_LM        .         Casing Collar locator         : 
TLFamily_METKA     .                                       : 
TLFamily_MN        .                                       : 
TLFamily_MN$       .                                       : 
TLFamily_RCOR      .                                       : 
TLFamily_SPID      .         Spontaneous Potential         : 
TLFamily_STD       .                                       : 
TLFamily_TENS      .         Cable Tension                 : 
TLFamily_TIME      .         Time                          : 
TLFamily_TM        .         Temperature                   : 
TLFamily_TM$       .         Temperature                   : 
TLFamily_VGD       .         Gas Volume                    : 
group              .         prim                          : 
~Curve Information
#_______________________________________________________________________________
#
#LOGNAME           .UNIT     LOG_ID                        : DESCRIPTION
#_______________________________________________________________________________
DEPT               .M                                      : 1 Глубина, м -    0.0 см 
GK                 .MKR/H                                  : 15 Гамма-активность, мкр./ч -  110.0 см 
GK$                .UE                                     : 12 Гамма-активность, усл.ед. -  110.0 см 
LM                 .                                       : 10 Локатор муфт,  -   20.0 см 
METKA              .                                       : 3 Метки,  -    0.0 см 
MN                 .ATM                                    : 14 Давление, атм. -  160.0 см 
MN$                .UE                                     : 8 Давление, усл.ед. -  160.0 см 
RCOR               .CM/KM                                  : 5 Коррекция по ролику, см/км -    0.0 см 
SPID               .M/H                                    : 2 Скорость, м/час -    0.0 см 
STD                .                                       : 11 Приток,  -  170.0 см 
TENS               .T                                      : 6 Натяжение кабеля, т -    0.0 см 
TIME               .S                                      : 4 Время, сек -    0.0 см 
TM                 .GRD                                    : 13 Температура, °C -  180.0 см 
TM$                .UE                                     : 7 Температура, усл.ед. -  180.0 см 
VGD                .                                       : 9 Влагомер,  -  170.0 см 
~Ascii
# ...
1978.4     6.89       293        1          0          184.383    10967      -1400      -1834      22057      0          30600.45   63.098     15952      6569      
1978.6     6.91       293        1          0          184.396    10968      -1400      -1832      22059      0          30600.07   63.103     15954      6569      
1978.8     6.94       293        1          0          184.416    10969      -1400      -1829      22062      0          30599.67   63.11      15955      6569      
1979       6.98       299        1          0          184.435    10970      -1400      -1826      22068      0          30599.3    63.118     15957      6568      
1979.2     6.97       300        1          0          184.454    10970      -1400      -1830      22068      0          30598.91   63.125     15959      6568      
1979.4     6.95       300        1          0          184.482    10972      -1400      -1827      22073      0          30598.5    63.131     15960      6569      
1979.6     6.92       300        1          0          184.507    10973      -1400      -1830      22077      0          30598.13   63.136     15962      6569      
1979.8     6.87       300        1          2          184.519    10974      -1400      -1835      22078      0          30597.7    63.144     15964      6569      
1980       6.8        300        1          0          184.554    10975      -1400      -1840      22083      0          30597.29   63.151     15966      6569      
1980.2     6.71       300        1          0          184.573    10976      -1400      -1845      22083      0          30596.9    63.158     15967      6569      
1980.4     6.55       289        1          0          184.593    10977      -1400      -1845      22087      0          30596.51   63.163     15968      6569      
1980.6     6.44       278        1          0          184.611    10978      -1400      -1843      22090      0          30596.12   63.17      15970      6569      
1980.8     6.41       278        1          0          184.63     10979      -1400      -1841      22092      0          30595.72   63.174     15971      6569      
1981       6.36       278        1          0          184.63     10979      -1400      -1844      22095      0          30595.34   63.181     15973      6568      
1981.2     6.29       278        1          0          184.668    10981      -1400      -1845      22098      0          30594.92   63.185     15974      6568      
1981.4     6.19       278        1          0          184.672    10981      -1400      -1844      22100      0          30594.53   63.193     15976      6568      
1981.6     6.05       271        1          0          184.711    10983      -1400      -1846      22104      0          30594.14   63.201     15978      6568      
1981.8     5.89       254        1          0          184.731    10984      -1400      -1845      22106      0          30593.75   63.205     15979      6568      
1982       5.87       254        1          0          184.75     10985      -1400      -1840      22109      0          30593.37   63.212     15981      6569      
1982.2     5.83       254        1          0          184.77     10986      -1400      -1838      22113      0          30592.98   63.217     15982      6569      
1982.4     5.78       254        1          0          184.79     10987      -1400      -1838      22113      0          30592.6    63.221     15983      6569      
1982.6     5.7        254        1          0          184.809    10988      -1400      -1841      22116      0          30592.21   63.228     15985      6569      
1982.8     5.59       253        1          0          184.83     10989      -1400      -1839      22119      0          30591.79   63.232     15986      6568      
1983       5.42       229        1          0          184.85     10990      -1400      -1838      22121      0          30591.42   63.239     15987      6569      
1983.2     5.45       229        1          0          184.869    10991      -1400      -1843      22126      0          30591.04   63.247     15989      6569      
1983.4     5.49       229        1          0          184.889    10992      -1400      -1841      22126      0          30590.63   63.254     15991      6569      
1983.6     5.56       229        1          0          184.917    10993      -1400      -1839      22129      0          30590.28   63.262     15993      6569      
1983.8     5.66       229        1          0          184.94     10994      -1400      -1836      22134      0          30589.87   63.271     15995      6569      
1984       5.81       229        32         0          184.953    10995      -1400      -1841      22135      0          30589.46   63.279     15997      6569      
1984.2     6.03       249        106        0          184.986    10996      -1400      -1840      22140      0          30589.06   63.285     15999      6569      
1984.4     6.13       261        220        0          185.007    10997      -1400      -1838      22142      0          30588.68   63.292     16001      6569      
1984.6     6.14       261        396        0          185.022    10998      -1400      -1835      22144      0          30588.31   63.3       16003      6570      
1984.8     6.15       261        673        0          185.026    10998      -1400      -1833      22148      0          30587.91   63.307     16004      6569      
1985       6.17       261        1118       0          185.065    11000      -1400      -1830      22148      0          30587.52   63.311     16005      6569      
1985.2     6.21       261        1817       0          185.083    11001      -1400      -1831      22150      0          30587.14   63.319     16007      6570      
1985.4     6.25       264        2771       0          185.104    11002      -1400      -1835      22153      0          30586.75   63.322     16008      6570      
1985.6     6.29       270        1923       0          185.123    11003      -1400      -1837      22156      0          30586.35   63.326     16009      6569      
1985.8     6.28       270        1923       0          185.144    11004      -1400      -1837      22160      0          30585.96   63.334     16011      6570      
1986       6.27       270        1          0          185.163    11005      -1400      -1839      22162      0          30585.55   63.342     16013      6569      
1986.2     6.25       270        1          0          185.182    11006      -1400      -1837      22164      0          30585.17   63.346     16014      6568      
1986.4     6.21       270        1          0          185.202    11007      -1400      -1833      22168      0          30584.79   63.352     16015      6569      
1986.6     6.16       270        1          0          185.221    11008      -1400      -1827      22169      0          30584.4    63.36      16017      6569      
1986.8     6.09       259        1          0          185.24     11009      -1400      -1831      22172      0          30584.03   63.365     16019      6569      
1987       6.11       258        1          0          185.26     11010      -1400      -1834      22177      0          30583.61   63.371     16020      6569      
1987.2     6.14       258        1          0          185.289    11011      -1400      -1832      22180      0          30583.24   63.377     16022      6569      
1987.4     6.19       258        1          0          185.319    11012      -1400      -1836      22178      0          30582.83   63.382     16023      6569      
1987.6     6.27       258        1          0          185.332    11013      -1400      -1834      22183      0          30582.44   63.39      16025      6569      
1987.8     6.38       258        1          0          185.338    11013      -1400      -1831      22186      0          30582.06   63.398     16027      6569      
1988       6.55       270        1          0          185.362    11014      -1400      -1835      22188      0          30581.67   63.405     16029      6569      
