~Version
 VERS              .         2.0                           : CWLS LOG ASCII STANDARD - VERSION 2.0
 WRAP              .         NO                            : ONE LINE PER DEPTH STEP
 DLM               .         SPACE                         : DELIMITING CHARACTER(SPACE TAB OR COMMA)
~Well Information
#_______________________________________________________________________________
#
#PARAMETER_NAME    .UNIT     VALUE                         : DESCRIPTION
#_______________________________________________________________________________
STRT               .M        1549.2                        : First reference value
STOP               .M        2296.2                        : Last reference value
STEP               .M        0.2                           : Step increment
NULL               .         -9999                         : Missing value
COMP               .                                       : Company
WELL               .         616                           : Well name
FLD                .                                       : Field
LOC                .                                       : Location
CNTY               .                                       : County
STAT               .                                       : State
CTRY               .                                       : Country
SRVC               .                                       : Service Company
DATE               .                                       : Date
API                .                                       : API number
PROJECT_UPGRADE_TIME .         2021-03-18T21_24_50           : 
group              .         Good                          : 
~Parameter Information Block
#_______________________________________________________________________________
#
#PARAMETER_NAME    .UNIT     VALUE                         : DESCRIPTION
#_______________________________________________________________________________
SET                .         616_10                        : 
CONF               .         00                            : 
END                .         0                             : 
ERR                .         2                             : 
GS00               .M        2294.21                       : 
GS01               .M        1546.72                       : 
MM00               .M        2240.00                       : 
NOKG               .         0                             : 
NPR                .         980119                        : 
PART               .         Палагутин                     : 
PROJECT_UPGRADE_TIME .         2021-03-18T21_24_49           : 
PRZK               .         Якименко                      : 
TLFamily_AZIMUTH   .         True Dip Azimuth              : 
TLFamily_DEPTH     .         Measured Depth                : 
TLFamily_METKA     .                                       : 
TLFamily_ROLL      .                                       : 
TLFamily_SPEED     .         Spontaneous Potential         : 
TLFamily_ZENIT     .                                       : 
VPRG               .         310                           : 
WAY                .         UP                            : 
group              .         prim                          : 
~Curve Information
#_______________________________________________________________________________
#
#LOGNAME           .UNIT     LOG_ID                        : DESCRIPTION
#_______________________________________________________________________________
DEPTH              .M                                      :  
AZIMUTH            .DEG                                    :  
METKA              .                                       :  
ROLL               .DEG                                    :  
SPEED              .M/H                                    :  
ZENIT              .DEG                                    :  
~Ascii
# ...
2037.2     355.87     0          154.54     684        16.81     
2037.4     359.82     0          154.39     648        16.81     
2037.6     1.83       0          153.94     648        16.97     
2037.8     97.87      0          153.9      576        16.97     
2038       267.92     0          154.56     684        17.06     
2038.2     300.14     0          156.26     684        16.94     
2038.4     309.28     0          157.9      648        16.87     
2038.6     301.4      0          160.71     648        16.97     
2038.8     302.99     0          165.11     576        16.96     
2039       313.16     0          174.22     684        16.4      
2039.2     336.76     0          186.55     684        15.91     
2039.4     314.67     0          197.76     684        15.82     
2039.6     336.8      0          206.49     612        16.12     
2039.8     308.49     0          212.51     576        15.74     
2040       309.22     0          217.51     684        15.95     
2040.2     322.44     0          224.72     684        16.48     
2040.4     348.64     0          231.82     648        16.24     
2040.6     340.35     0          241.93     648        15.97     
2040.8     315.92     0          257.39     648        16.23     
2041       359.43     0          270.19     648        16.35     
2041.2     347.58     0          282.91     648        16.47     
2041.4     356.12     0          295.44     684        16.51     
2041.6     343.47     0          306.92     684        16.47     
2041.8     341.68     0          319.7      540        16.43     
2042       324.51     0          331.01     648        16.44     
2042.2     347.46     1          339.33     684        16.42     
2042.4     346.67     0          348.51     684        16.22     
2042.6     18.58      0          356.27     612        16.24     
2042.8     337.18     0          3.9        648        16.21     
2043       359.36     0          11.77      612        16.12     
2043.2     17.91      0          21.42      684        16.05     
2043.4     2.33       0          30.01      684        16.22     
2043.6     340.17     0          35.39      648        16.29     
2043.8     14.4       0          37.82      612        16.33     
2044       356.84     0          39.01      648        16.31     
2044.2     14.09      0          40.52      684        16.38     
2044.4     356.44     0          41.54      648        16.41     
2044.6     345.8      0          41.76      648        16.37     
2044.8     346.84     0          41.89      648        16.36     
2045       327.21     0          42.01      648        16.31     
2045.2     354.77     0          42.07      612        16.27     
2045.4     13.54      0          41.69      684        16.3      
2045.6     3.62       0          41.39      648        16.3      
2045.8     333.39     0          41.6       648        16.32     
2046       6.14       0          41.18      648        16.27     
2046.2     6.35       0          40.67      648        16.28     
2046.4     354.43     0          40.51      648        16.27     
2046.6     335.65     0          40.25      612        16.29     
2046.8     343.6      0          39.84      684        16.32     
2047       332.68     0          39.66      648        16.31     
2047.2     345.94     0          39.78      648        16.23     
2047.4     3.48       0          40.2       648        16.31     
2047.6     0.37       0          40.35      684        16.27     
2047.8     331.2      0          40.22      684        16.37     
2048       217.82     0          40.02      648        16.36     
2048.2     31.43      0          40.5       684        16.37     
2048.4     25.92      0          40.43      612        16.35     
2048.6     14.47      0          39.91      648        16.47     
2048.8     45.66      0          40.7       648        16.53     
2049       24.25      0          42.22      648        16.69     
2049.2     346.73     0          42.59      648        16.68     
2049.4     3.45       0          42.72      684        16.75     
2049.6     9.37       0          43.11      576        16.75     
2049.8     13.05      0          42.33      648        16.83     
2050       3.03       0          40.6       684        16.9      
2050.2     331.37     0          38.46      648        16.9      
2050.4     341.47     0          38.99      684        16.66     
2050.6     6.01       0          41.56      612        16.47     
2050.8     353.87     0          41.51      612        16.31     
2051       351.34     0          40.04      648        16.25     
2051.2     344.12     0          41.37      684        15.99     
2051.4     68.33      0          43.31      648        15.9      
2051.6     291.91     0          43.57      612        15.89     
2051.8     288.89     0          42.41      612        15.99     
2052       300.52     0          39.96      684        16.3      
2052.2     318.84     1          36.16      648        16.58     
2052.4     341.66     0          34.59      648        16.43     
2052.6     324.74     0          35.86      648        16.29     
2052.8     318.96     0          36.31      648        16.17     
2053       304.1      0          35.62      648        16.22     
2053.2     291.48     0          35         684        16.28     
2053.4     282.21     0          34.23      648        16.28     
2053.6     286.09     0          33.47      612        16.25     
2053.8     270.31     0          32.86      648        16.17     
2054       285.26     0          32.29      648        16.12     
2054.2     259.67     0          31.66      648        16.2      
2054.4     305.58     0          30.66      648        16.19     
2054.6     303.07     0          29.43      612        16.17     
2054.8     311.94     0          28.25      684        16.21     
2055       301.61     0          27.03      648        16.15     
2055.2     265.74     0          25.64      648        16.2      
2055.4     296.02     0          24.68      648        16.25     
2055.6     328.9      0          25.21      612        16.22     
2055.8     311.53     0          27.34      648        16.15     
2056       304.75     0          30.11      684        16.09     
2056.2     291.28     0          32.31      684        16.23     
2056.4     263.83     0          33.67      648        16.07     
2056.6     296.83     0          34.44      684        16.13     
2056.8     288.08     0          34.34      648        16.21     
2057       298.21     0          33.82      648        16.19     
2057.2     283.75     0          33.84      684        16.2      
2057.4     284.1      0          34.2       612        16.2      
2057.6     280.62     0          34.15      612        16.23     
2057.8     311.87     0          33.97      648        16.26     
2058       313.05     0          33.75      684        16.3      
2058.2     326.93     0          33.45      648        16.18     
2058.4     315.13     0          33.69      612        16.2      
2058.6     291.75     0          33.9       648        16.16     
2058.8     290.67     0          34.13      648        16.17     
2059       297.95     0          34.61      648        16.15     
2059.2     310.74     0          35.55      684        16.16     
2059.4     319.27     0          36.83      648        16.13     
2059.6     287.42     0          38.21      540        16.1      
2059.8     323.11     0          38.8       648        16.11     
2060       310.42     0          38.55      684        16.15     
2060.2     289.33     0          38.4       648        16.11     
2060.4     295.68     0          38.71      648        16.1      
2060.6     271.63     0          38.81      612        16.04     
2060.8     271.52     0          38.72      648        16.08     
2061       306.23     0          39.87      684        16.17     
2061.2     334.06     0          41.4       684        16.27     
2061.4     348.31     0          42.32      648        16.33     
