~Version
 VERS              .         2.0                           : CWLS LOG ASCII STANDARD - VERSION 2.0
 WRAP              .         NO                            : ONE LINE PER DEPTH STEP
 DLM               .         SPACE                         : DELIMITING CHARACTER(SPACE TAB OR COMMA)
~Well Information
#_______________________________________________________________________________
#
#PARAMETER_NAME    .UNIT     VALUE                         : DESCRIPTION
#_______________________________________________________________________________
STRT               .M        10.2                          : First reference value
STOP               .M        2757.4                        : Last reference value
STEP               .M        0.2                           : Step increment
NULL               .         -9999                         : Missing value
COMP               .                                       : Company
WELL               .         616                           : Well name
FLD                .                                       : Field
LOC                .                                       : Location
CNTY               .                                       : County
STAT               .                                       : State
CTRY               .                                       : Country
SRVC               .                                       : Service Company
DATE               .                                       : Date
API                .                                       : API number
PROJECT_UPGRADE_TIME .         2021-03-18T21_24_50           : 
group              .         Good                          : 
~Parameter Information Block
#_______________________________________________________________________________
#
#PARAMETER_NAME    .UNIT     VALUE                         : DESCRIPTION
#_______________________________________________________________________________
SET                .         D7016_D                       : 
OTHER              .         Kedr.exe версия 2.1.2.32      : 
OTHER_10           .         TM.GRD = 0.00404*TM$.UE + 0.07: 
OTHER_11           .         MN.ATM = (6.33279e-006*TM.GRD + 0.02401)*(MN$.UE + 2.72*TM.GRD + -2018): 
OTHER_12           .         GK.MKR/H = GK$.UE / 43.5489 + 0: 
OTHER_13           .         RES.SM = 0.00476*CRES.UE - 1.51709: 
OTHER_14           .         PL.GSM3 = 0 + 0 * (PL.UE / 1) +  0 * (PL.UE / 1)^2: 
OTHER_15           .         Постоянная времени ГГП = 6 сек: 
OTHER_16           .         Постоянная времени ГК = 6 сек : 
OTHER_2            .         KedrData.dll версия 3.2.2.14  : 
OTHER_3            .         LasInf.dll версия 3.2.0.13    : 
OTHER_4            .         Драйвер версия 1.2.0.5        : 
OTHER_5            .         Прибор_ КСА-M1                : 
OTHER_6            .         Номер прибора_ 155+р204       : 
OTHER_7            .         Режим_ КСА-М1 + ГГП + Резистивиметр: 
OTHER_8            .         Форма_ 223\2                  : 
OTHER_9            .         Тарировки_                    : 
PROJECT_UPGRADE_TIME .         2021-03-18T21_24_50           : 
TLFamily_CRES      .                                       : 
TLFamily_DEPT      .         Measured Depth                : 
TLFamily_GK        .         Gamma Ray                     : 
TLFamily_GK$       .                                       : 
TLFamily_LM        .         Casing Collar locator         : 
TLFamily_METKA     .                                       : 
TLFamily_MN        .                                       : 
TLFamily_MN$       .                                       : 
TLFamily_PL        .                                       : 
TLFamily_PL_2      .                                       : 
TLFamily_RCOR      .                                       : 
TLFamily_RES       .         Mud Resistivity               : 
TLFamily_SPID      .         Spontaneous Potential         : 
TLFamily_STD       .                                       : 
TLFamily_TIME      .         Time                          : 
TLFamily_TM        .         Temperature                   : 
TLFamily_TM$       .         Temperature                   : 
TLFamily_VGD       .         Gas Volume                    : 
group              .         prim                          : 
~Curve Information
#_______________________________________________________________________________
#
#LOGNAME           .UNIT     LOG_ID                        : DESCRIPTION
#_______________________________________________________________________________
DEPT               .M                                      : 1 Глубина, м -    0.0 см 
CRES               .UE                                     : 9 Проводимость, усл.ед. -  270.0 см 
GK                 .MKR/H                                  : 16 Гамма-активность, мкр./ч -  106.0 см 
GK$                .UE                                     : 13 Гамма-активность, усл.ед. -  106.0 см 
LM                 .                                       : 11 Локатор муфт,  -   16.0 см 
METKA              .                                       : 3 Метки,  -    0.0 см 
MN                 .ATM                                    : 15 Давление, атм. -  160.0 см 
MN$                .UE                                     : 7 Давление, усл.ед. -  160.0 см 
PL                 .UE                                     : 10 Плотность, усл.ед. -  270.0 см 
PL_2               .GSM3                                   : 18 Плотность, г./см3 -  270.0 см 
RCOR               .CM/KM                                  : 5 Коррекция по ролику, см/км -    0.0 см 
RES                .SM                                     : 17 Проводимость,  -  270.0 см 
SPID               .M/H                                    : 2 Скорость, м/час -    0.0 см 
STD                .                                       : 12 Приток,  -  170.0 см 
TIME               .S                                      : 4 Время, сек -    0.0 см 
TM                 .GRD                                    : 14 Температура, °C -  180.0 см 
TM$                .UE                                     : 6 Температура, усл.ед. -  180.0 см 
VGD                .                                       : 8 Влагомер,  -  170.0 см 
~Ascii
10.2       -9999      -9999      -9999      -9999      -9999      -9999      -9999      -9999      -9999      -9999      -9999      -9999      -9999      -9999      -9999      -9999      -9999     
10.4       -9999      -9999      -9999      -9999      0          -9999      -9999      -9999      -9999      0          -9999      2880       -9999      1642.37    -9999      -9999      -9999     
10.6       -9999      -9999      -9999      238        0          -9999      -9999      -9999      -9999      0          -9999      2896       -9999      1642.57    -9999      -9999      -9999     
10.8       -9999      -9999      -9999      237        0          -9999      -9999      -9999      -9999      0          -9999      3207       -9999      1642.73    -9999      -9999      -9999     
11         -9999      -9999      -9999      296        0          -9999      -9999      -9999      -9999      0          -9999      3518       -9999      1642.89    -9999      -9999      -9999     
11.2       -9999      -9999      -9999      296        0          -9999      -9999      -9999      -9999      0          -9999      3860       -9999      1643.06    -9999      -9999      -9999     
11.4       -9999      1.19       53         296        0          -9999      -9999      -9999      -9999      0          -9999      4210       -9999      1643.23    -9999      -9999      -9999     
11.6       -9999      1.19       53         304        0          -9999      -9999      -9999      -9999      0          -9999      4350       -9999      1643.45    -9999      -9999      -9999     
11.8       -9999      1.2        53         304        0          -9999      -9999      -9999      -9999      0          -9999      4284       -9999      1643.69    -9999      -9999      -9999     
12         -9999      1.2        53         245        0          -0.276     1966       -9999      -9999      0          -9999      3626       2916       1643.93    -9999      -9999      6632      
12.2       -9999      1.2        53         222        0          -0.261     1967       -9999      -9999      0          -9999      2978       2917       1644.24    14.743     3632       6632      
12.4       -9999      1.2        53         222        0          -0.239     1968       -9999      -9999      0          -9999      2690       2918       1644.64    14.752     3634       6632      
12.6       -9999      1.19       51         174        0          -0.217     1969       -9999      -9999      0          -9999      1853       2919       1645.08    14.759     3636       6632      
12.8       -9999      1.17       44         138        0          -0.204     1969       -9999      -9999      0          -9999      1660       2920       1645.53    14.766     3638       6632      
13         917        1.15       43         114        0          -0.192     1970       15         0          0          2.8486     1489       2921       1646.09    14.773     3639       6632      
13.2       918        1.12       43         86         0          -0.168     1971       15         0          0          2.8514     1397       2922       1646.56    14.781     3641       6632      
13.4       918        1.1        43         90         0          -0.137     1972       15         0          0          2.8526     1410       2924       1646.92    14.79      3644       6632      
13.6       918        1.07       43         315        0          -0.121     1973       15         0          0          2.8526     1810       2926       1647.23    14.801     3646       6631      
13.8       918        1.05       43         315        0          -0.099     1974       15         0          0          2.8532     2259       2927       1647.51    14.811     3649       6629      
14         919        1.06       49         245        0          -0.072     1975       15         0          0          2.8554     2620       2930       1647.76    14.829     3653       6633      
14.2       919        1.08       49         229        0          -0.041     1976       15         0          0          2.8573     2620       2932       1647.95    14.858     3660       6634      
14.4       919        1.09       49         506        0          -0.011     1977       15         0          0          2.8573     2690       2935       1648.14    14.885     3667       6633      
14.6       919        1.09       49         506        0          0.003      1978       15         0          0          2.8573     3158       2939       1648.31    14.909     3673       6630      
14.8       919        1.1        49         6247       0          0.015      1978       15         0          0          2.8576     3627       2942       1648.48    14.925     3677       6630      
15         920        1.1        49         6247       0          0.034      1979       14         0          0          2.8621     3982       2945       1648.63    14.936     3680       6630      
15.2       920        1.11       49         3897       0          0.054      1980       14         0          0          2.8612     4331       2946       1648.78    14.937     3680       6629      
15.4       920        1.11       49         3897       0          0.072      1980       14         0          0          2.8613     4540       2947       1648.93    14.935     3679       6629      
15.6       919        1.12       51         3897       0          0.088      1981       15         0          0          2.8589     4540       2947       1649.08    14.932     3679       6626      
15.8       921        1.12       52         2465       0          0.1        1982       15         0          0          2.8678     4540       2948       1649.23    14.929     3678       6625      
16         922        1.13       53         2465       0          0.114      1982       14         0          0          2.8701     4674       2949       1649.36    14.927     3677       6626      
16.2       921        1.14       53         1568       0          0.136      1983       15         0          0          2.8689     4809       2951       1649.49    14.925     3677       6627      
16.4       923        1.15       53         1568       0          0.158      1984       15         0          0          2.8762     4948       2953       1649.63    14.925     3677       6630      
16.6       922        1.15       53         1568       0          0.177      1985       15         0          0          2.8731     5130       2954       1649.76    14.925     3677       6630      
16.8       923        1.16       53         1061       0          0.196      1986       15         0          0          2.8744     5313       2953       1649.9     14.925     3677       6628      
17         924        1.16       53         1061       0          0.215      1986       14         0          0          2.8794     5440       2952       1650.04    14.925     3677       6626      
17.2       923        1.16       53         1061       0          0.235      1987       14         0          0          2.8783     5440       2951       1650.2     14.926     3677       6627      
17.4       923        1.17       53         726        0          0.256      1988       15         0          0          2.874      5440       2950       1650.35    14.927     3678       6628      
17.6       922        1.17       53         726        0          0.273      1989       15         0          0          2.8725     5148       2950       1650.5     14.929     3678       6629      
17.8       923        1.18       53         501        0          0.289      1989       15         0          0          2.8743     4857       2951       1650.65    14.933     3679       6629      
18         923        1.18       53         501        0          0.306      1990       15         0          0          2.8762     4769       2952       1650.8     14.937     3680       6629      
18.2       923        1.18       53         501        0          0.324      1991       15         0          0          2.8782     4817       2952       1650.96    14.942     3681       6628      
