~Version
 VERS              .         2.0                           : CWLS LOG ASCII STANDARD - VERSION 2.0
 WRAP              .         NO                            : ONE LINE PER DEPTH STEP
 DLM               .         SPACE                         : DELIMITING CHARACTER(SPACE TAB OR COMMA)
~Well Information
#_______________________________________________________________________________
#
#PARAMETER_NAME    .UNIT     VALUE                         : DESCRIPTION
#_______________________________________________________________________________
STRT               .M        1549.2                        : First reference value
STOP               .M        2296.2                        : Last reference value
STEP               .M        0.2                           : Step increment
NULL               .         -9999                         : Missing value
COMP               .                                       : Company
WELL               .         616                           : Well name
FLD                .                                       : Field
LOC                .                                       : Location
CNTY               .                                       : County
STAT               .                                       : State
CTRY               .                                       : Country
SRVC               .                                       : Service Company
DATE               .                                       : Date
API                .                                       : API number
PROJECT_UPGRADE_TIME .         2021-03-18T21_24_50           : 
group              .         Good                          : 
~Parameter Information Block
#_______________________________________________________________________________
#
#PARAMETER_NAME    .UNIT     VALUE                         : DESCRIPTION
#_______________________________________________________________________________
SET                .         616_10                        : 
CONF               .         00                            : 
END                .         0                             : 
ERR                .         2                             : 
GS00               .M        2294.21                       : 
GS01               .M        1546.72                       : 
MM00               .M        2240.00                       : 
NOKG               .         0                             : 
NPR                .         980119                        : 
PART               .         Палагутин                     : 
PROJECT_UPGRADE_TIME .         2021-03-18T21_24_49           : 
PRZK               .         Якименко                      : 
TLFamily_AZIMUTH   .         True Dip Azimuth              : 
TLFamily_DEPTH     .         Measured Depth                : 
TLFamily_METKA     .                                       : 
TLFamily_ROLL      .                                       : 
TLFamily_SPEED     .         Spontaneous Potential         : 
TLFamily_ZENIT     .                                       : 
VPRG               .         310                           : 
WAY                .         UP                            : 
group              .         prim                          : 
~Curve Information
#_______________________________________________________________________________
#
#LOGNAME           .UNIT     LOG_ID                        : DESCRIPTION
#_______________________________________________________________________________
DEPTH              .M                                      :  
AZIMUTH            .DEG                                    :  
METKA              .                                       :  
ROLL               .DEG                                    :  
SPEED              .M/H                                    :  
ZENIT              .DEG                                    :  
~Ascii
1549.2     268.07     0          224.82     648        31.07     
1549.4     282.68     0          226.48     612        31.02     
1549.6     322.89     0          227.27     648        31.14     
1549.8     218.55     0          228.11     540        31.16     
1550       206.61     0          229.48     612        31.05     
1550.2     340.76     0          231.97     648        31.13     
1550.4     295.07     0          237.48     684        31.09     
1550.6     269.04     0          249.03     612        30.83     
1550.8     263.93     0          265.32     576        31.32     
1551       261.96     0          285.81     576        31.94     
1551.2     261.21     0          310.84     648        31.83     
1551.4     255.83     0          336.25     648        31.18     
1551.6     258        0          359.96     612        30.54     
1551.8     260.46     0          18.47      576        30.61     
1552       259.81     0          27.24      576        30.59     
1552.2     259.72     1          29.61      648        30.9      
1552.4     259.17     0          31.32      576        30.66     
1552.6     259.22     0          32.55      648        30.63     
1552.8     258.96     0          34.87      576        30.48     
1553       260.08     0          36.06      576        30.59     
1553.2     259.11     0          36.01      648        30.47     
1553.4     258.98     0          35.88      648        30.45     
1553.6     257.02     0          36.99      612        30.04     
1553.8     260.4      0          39.65      648        30.85     
1554       259.68     0          39.57      612        30.81     
1554.2     259.38     0          38.68      612        30.7      
1554.4     259.18     0          37.93      648        30.59     
1554.6     259.17     0          37.83      612        30.55     
1554.8     259.78     0          37.9       612        30.59     
1555       258.5      0          38.05      684        30.39     
1555.2     259        0          38.18      576        30.48     
1555.4     258.97     0          37.93      648        30.54     
1555.6     258.65     0          37.59      612        30.47     
1555.8     258.9      0          37.64      576        30.53     
1556       259.49     0          37.98      612        30.56     
1556.2     257.74     0          38.22      612        30.34     
1556.4     259.15     0          40         612        30.44     
1556.6     259.46     0          41.37      648        30.54     
1556.8     258.86     0          41.01      540        30.47     
1557       258.86     0          40.39      648        30.46     
1557.2     258.9      0          40.31      648        30.47     
1557.4     258.51     0          40.55      648        30.38     
1557.6     258.73     0          40.55      612        30.41     
1557.8     259.57     0          40.38      648        30.62     
1558       257.93     0          40.12      612        30.3      
1558.2     258.24     0          40.04      648        30.33     
1558.4     258.87     0          39.93      648        30.49     
1558.6     258.4      0          39.58      648        30.44     
1558.8     257.6      0          39.38      576        30.29     
1559       258.61     0          39.34      612        30.49     
1559.2     258.29     0          39.24      648        30.4      
1559.4     258.44     0          39.25      648        30.41     
1559.6     258.53     0          38.71      612        30.46     
1559.8     259.64     0          37.68      612        30.6      
1560       258.9      0          36.64      612        30.46     
1560.2     258.26     0          34.91      612        30.35     
1560.4     259.26     0          33.39      684        30.42     
1560.6     258.89     0          33.48      612        30.17     
1560.8     259.54     0          35.97      576        30.19     
1561       261.61     0          37.68      576        30.33     
1561.2     262.03     0          37.84      648        30.24     
1561.4     264.76     0          37.49      648        30.18     
1561.6     278.74     0          37.73      576        30.39     
1561.8     319.22     0          38.51      612        30.33     
1562       230.01     0          39.1       612        30.29     
1562.2     177.99     1          39.54      648        30.43     
1562.4     0.67       0          39.78      648        30.37     
1562.6     287.71     0          39.22      612        30.4      
1562.8     267.97     0          37.97      576        30.57     
1563       263.07     0          37.86      648        30.48     
1563.2     260.78     0          37.8       648        30.24     
1563.4     259.22     0          37.9       612        30.13     
1563.6     260.3      0          38.59      576        30.08     
1563.8     259.51     0          38.57      612        29.95     
1564       259.36     0          38.36      648        30.01     
1564.2     259.24     0          38.37      612        29.98     
1564.4     260.07     0          38.53      648        30.12     
1564.6     259.49     0          37.17      612        30.06     
1564.8     258.74     0          35.43      612        29.96     
1565       260.2      0          37.65      684        29.79     
1565.2     260.01     0          39.27      576        29.8      
1565.4     259.5      0          39.53      648        29.77     
1565.6     259.44     0          39.52      576        29.77     
1565.8     258.99     0          39.64      612        29.76     
1566       262.43     0          39         648        30.16     
1566.2     258.88     0          38.43      648        29.91     
1566.4     259.34     0          39.38      612        29.85     
1566.6     259.89     0          40.4       612        30.03     
1566.8     259.17     0          40.61      576        29.9      
1567       258.96     0          40.44      648        29.85     
1567.2     259.32     0          39.98      648        30.01     
1567.4     259.9      0          39.83      612        30.13     
1567.6     259.24     0          39.78      540        29.9      
1567.8     259.49     0          39.52      648        30.01     
1568       259.39     0          39.56      612        29.96     
1568.2     259.48     0          39.65      648        29.98     
1568.4     259.41     0          39.8       684        29.97     
1568.6     259.94     0          40.23      540        30.04     
1568.8     258.94     0          40.69      648        29.89     
1569       259.67     0          40.64      612        30.1      
1569.2     259.71     0          39.81      648        30.12     
1569.4     258.59     0          38.6       648        29.84     
1569.6     258.84     0          38.18      576        29.78     
1569.8     258.65     0          38.45      612        29.83     
1570       258.85     0          39.87      648        29.71     
1570.2     258.81     0          40.77      648        29.74     
1570.4     259.43     0          41.24      612        29.81     
1570.6     258.79     0          41.24      648        29.76     
1570.8     257.9      0          40.82      576        29.67     
1571       259.23     0          40.89      612        29.91     
1571.2     258.66     0          41.11      648        29.77     
1571.4     258.44     0          41.23      612        29.74     
1571.6     259.25     0          41.3       612        29.92     
1571.8     259.14     0          41.16      612        29.83     
1572       258.75     0          40.55      612        29.86     
1572.2     259.57     1          39.74      612        29.95     
1572.4     259.77     0          38.95      648        29.94     
1572.6     259.77     0          38.4       540        29.88     
1572.8     260.04     0          37.93      648        29.89     
1573       260.93     0          37.88      612        29.93     
1573.2     260.6      0          38.06      648        29.66     
1573.4     263.43     0          38.59      612        29.89     
