~Version
 VERS              .         2.0                           : CWLS LOG ASCII STANDARD - VERSION 2.0
 WRAP              .         NO                            : ONE LINE PER DEPTH STEP
 DLM               .         SPACE                         : DELIMITING CHARACTER(SPACE TAB OR COMMA)
~Well Information
#_______________________________________________________________________________
#
#PARAMETER_NAME    .UNIT     VALUE                         : DESCRIPTION
#_______________________________________________________________________________
STRT               .M        2650.8                        : First reference value
STOP               .M        2752.199899                   : Last reference value
STEP               .M        0.1999998                     : Step increment
NULL               .         -9999                         : Missing value
COMP               .                                       : Company
WELL               .         616                           : Well name
FLD                .                                       : Field
LOC                .                                       : Location
CNTY               .                                       : County
STAT               .                                       : State
CTRY               .                                       : Country
SRVC               .                                       : Service Company
DATE               .                                       : Date
API                .                                       : API number
PROJECT_UPGRADE_TIME .         2021-03-18T21_24_50           : 
group              .         Good                          : 
~Parameter Information Block
#_______________________________________________________________________________
#
#PARAMETER_NAME    .UNIT     VALUE                         : DESCRIPTION
#_______________________________________________________________________________
SET                .         D4415_D                       : 
OTHER              .         Запись производится в присутствии: 
OTHER_10           .         Максимальная температура      : 
OTHER_11           .         Тип промывочной жидкости      : 
OTHER_12           .         Сопротивление ПЖ (Ом*м) при 20°C: 
OTHER_13           .         Плотность ПЖ(г/см3)           : 
OTHER_14           .         Вязкость ПЖ(с)                : 
OTHER_15           .         Водоотдача ПЖ(см3/30мин)      : 
OTHER_16           .         Уровень ПЖ                    : 
OTHER_17           .         Нефть ПЖ (%)                  : 
OTHER_18           .         Барит ПЖ (%)                  : 
OTHER_19           .         Гематит ПЖ (%)                : 
OTHER_2            .         Заказчик ННСН  ЦДНГ-1         : 
OTHER_20           .         КМЦ ПЖ (%)                    : 
OTHER_21           .         Разгазирование ПЖ (да,нет)    : 
OTHER_22           .         Подъемник                     : 
OTHER_23           .         Лаборатория                   : 
OTHER_24           .         Тип кабеля                    : 
OTHER_25           .         Длина кабеля (м)              : 
OTHER_26           .         Цена последней метки          : 
OTHER_27           .         Цена контрольной метки        : 
OTHER_28           .         Диаметр долота (мм)           : 
OTHER_29           .         Глубина бурения (м)           : 
OTHER_3            .         Площадь                       : 
OTHER_30           .         Искусственный забой (м)       : 
OTHER_31           .         Диаметр колонны (мм)          : 
OTHER_32           .         Толщина колонны (мм)          : 
OTHER_33           .         Башмак колонны (м)            : 
OTHER_34           .         Диаметр НКТ (мм)              : 
OTHER_35           .         Толщина НКТ (мм)              : 
OTHER_36           .         Воронка НКТ (м)               : 
OTHER_37           .         Дата цементожа                : 
OTHER_38           .         Тип, количество(т) и плотность цемента: 
OTHER_39           .         Интервалы перфорации (м)      : 
OTHER_4            .         Категория                     : 
OTHER_40           .         Направление, диаметр (мм)     : 
OTHER_41           .         Направление, глубина (м)      : 
OTHER_42           .         Кондуктор, диаметр (мм)       : 
OTHER_43           .         Кондуктор, глубина (м)        : 
OTHER_44           .         Техническая колонна, диаметр (мм): 
OTHER_45           .         Техническая колонна, глубина (м): 
OTHER_46           .         Эксплуатационная колонна, диаметр (мм): 
OTHER_47           .         Эксплуатационная колонна, глубина (м): 
OTHER_48           .         Программа Кедр-02 версия 3.4  : 
OTHER_49           .         Операционная система Windows NT 5.1 build 2600 Service Pack 2: 
OTHER_5            .         Назначение исследований       : 
OTHER_50           .         Программное обеспечение станции MONITOR-386EX 25/12/99 15_08_10   BGF V54 20/09/05 15_32_17   3.3__BGF_9030071: 
OTHER_51           .         Kedr.exe версия 3.4.2.74      : 
OTHER_52           .         KedrData.dll версия 3.4.2.29  : 
OTHER_53           .         Мнемоники версия 3.18 S       : 
OTHER_54           .         Драйвер версия 2.1.1.4        : 
OTHER_55           .         LasInf.dll 4.3.0.35           : 
OTHER_56           .         Прибор_ КСА-Т4                : 
OTHER_57           .         Номер прибора_ 160            : 
OTHER_58           .         Режим_ КСА-Т4                 : 
OTHER_59           .         Форма_ С.А.Б.                 : 
OTHER_6            .         Альтитуда стола ротора        : 
OTHER_60           .         Тарировки_                    : 
OTHER_61           .         <_techsia_sc_> Дата тарировки температуры 25.05.2010: 
OTHER_62           .         Ручной ввод коэффициентов     : 
OTHER_63           .         TM.DEGC = 0.00402*RTM.E.ACP + -0.994: 
OTHER_64           .         <_techsia_sc_> Дата тарировки давления 25.05.2010: 
OTHER_65           .         Ручной ввод коэффициентов     : 
OTHER_66           .         MN.ATM = (2.27521e-006*TM.DEGC + 0.02078)*(RMN.E.ACP + 6.2*TM.DEGC + -1688): 
OTHER_67           .         <_techsia_sc_> Дата тарировки ГК 25.05.2010: 
OTHER_68           .         Ручной ввод коэффициентов     : 
OTHER_69           .         GR.UR/H = RGR.IMP/MIN / 45.5144: 
OTHER_7            .         Вид исследований 3  6         : 
OTHER_70           .         GK.FLT = 0.1*GR.UR/H[-1] + (1-0.1)*GR.UR/H[0]: 
OTHER_8            .         Начало бурения интервала каротажа: 
OTHER_9            .         Окончание бурения интервала каротажа: 
PROJECT_UPGRADE_TIME .         2021-03-18T21_24_50           : 
TLFamily_CCLC      .                                       : 
TLFamily_DEPT      .         Measured Depth                : 
TLFamily_GK        .         Gamma Ray                     : 
TLFamily_GR        .         Gamma Ray                     : 
TLFamily_METKA     .                                       : 
TLFamily_MN        .                                       : 
TLFamily_RCOR      .                                       : 
TLFamily_RGR       .                                       : 
TLFamily_RMN       .                                       : 
TLFamily_RTEN      .                                       : 
TLFamily_RTM       .                                       : 
TLFamily_SPEE      .         Cable Speed                   : 
TLFamily_TIME      .         Time                          : 
TLFamily_TM        .         Temperature                   : 
group              .         prim                          : 
~Curve Information
#_______________________________________________________________________________
#
#LOGNAME           .UNIT     LOG_ID                        : DESCRIPTION
#_______________________________________________________________________________
DEPT               .M                                      : 1 Глубина, м -    0.0 см 
CCLC               .E.ACP                                  : 9 Локатор муфт,  -   20.0 см 
GK                 .FLT                                    : 14 Гамма-активность фильтрованная, мкр./ч -  110.0 см 
GR                 .UR/H                                   : 13 Гамма-активность, мкр./ч -  110.0 см 
METKA              .CU                                     : 3 Метки,  -    0.0 см 
MN                 .ATM                                    : 12 Давление, атм. -  160.0 см 
RCOR               .CM/KM                                  : 5 Коррекция по ролику, см/км -    0.0 см 
RGR                .IMP/MIN                                : 10 Гамма-активность, усл.ед. -  110.0 см 
RMN                .E.ACP                                  : 8 Давление, усл.ед. -  160.0 см 
RTEN               .T                                      : 6 Натяжение кабеля, т -    0.0 см 
RTM                .E.ACP                                  : 7 Температура, усл.ед. -  170.0 см 
SPEE               .M/H                                    : 2 Скорость, м/час -    0.0 см 
TIME               .S                                      : 4 Время, сек -    0.0 см 
TM                 .DEGC                                   : 11 Температура, °C -  170.0 см 
~Ascii
# ...
2744.399906 44         9.76       9.76       0          246.589    -1093      444        13180      0.25       12699      578        578.36     50.055    
2744.599906 64         9.76       9.76       0          246.625    -1093      444        13181      0.25       12707      578        579.61     50.086    
2744.799906 52         9.05       9.05       0          246.654    -1093      412        13182      0.25       12714      579        580.86     50.114    
2744.999906 58         9.05       9.05       0          246.697    -1093      412        13184      0.25       12722      580        582.05     50.147    
2745.199906 86         9.18       9.18       0          246.743    -1093      418        13186      0.25       12729      581        583.3      50.175    
2745.399905 86         9.18       9.18       0          246.771    -1093      418        13187      0.25       12734      580        584.61     50.195    
2745.599905 79         9.82       9.82       0          246.826    -1093      447        13190      0.25       12743      581        585.84     50.231    
2745.799905 75         9.82       9.82       0          246.864    -1093      447        13191      0.25       12752      580        587.05     50.268    
2745.999905 70         10         10         0          246.898    -1093      455        13192      0.25       12763      579        588.3      50.313    
2746.199905 45         10         10         0          246.937    -1093      455        13194      0.25       12771      578        589.62     50.345    
2746.399904 126        10.08      10.08      0          246.963    -1093      459        13195      0.25       12778      578        590.88     50.375    
2746.599904 95         10.08      10.08      0          246.993    -1093      459        13196      0.25       12787      578        592.06     50.41     
2746.799904 76         10.3       10.3       0          247.037    -1093      469        13198      0.25       12797      579        593.31     50.449    
2746.999904 61         10.3       10.3       0          247.064    -1093      469        13199      0.25       12807      580        594.56     50.488    
2747.199904 66         10.02      10.02      0          247.117    -1093      456        13201      0.25       12815      579        595.82     50.522    
2747.399903 9457       10.02      10.02      0          247.148    -1093      456        13203      0.25       12823      580        597.1      50.553    
2747.599903 7421       9.62       9.62       0          247.184    -1093      438        13204      0.25       12831      579        598.32     50.585    
2747.799903 2138       9.62       9.62       0          247.231    -1093      438        13206      0.25       12838      580        599.59     50.615    
2747.999903 421        9.58       9.58       0          247.257    -1093      436        13207      0.25       12848      579        600.86     50.655    
2748.199903 147        9.58       9.58       0          247.302    -1093      436        13209      0.25       12857      580        602.11     50.691    
2748.399902 208        10.96      10.96      0          247.332    -1093      499        13210      0.25       12867      579        603.35     50.729    
2748.599902 110        10.96      10.96      0          247.36     -1093      499        13211      0.25       12877      580        604.6      50.77     
2748.799902 62         11.4       11.4       0          247.408    -1093      519        13213      0.25       12887      579        605.8      50.812    
2748.999902 55         11.4       11.4       0          247.435    -1093      519        13214      0.25       12898      580        607.11     50.854    
2749.199902 297        10.08      10.08      0          247.48     -1093      459        13216      0.25       12904      580        608.36     50.879    
2749.399901 244        10.08      10.08      0          247.505    -1093      459        13217      0.25       12911      580        609.59     50.909    
2749.599901 116        10.15      10.15      0          247.533    -1093      462        13218      0.25       12915      580        610.8      50.926    
2749.799901 89         10.15      10.15      0          247.578    -1093      462        13220      0.25       12930      581        612.05     50.983    
2749.999901 68         10.83      10.83      0          247.628    -1093      493        13221      0.25       12964      580        613.33     51.122    
2750.199901 72         10.83      10.83      0          247.681    -1093      493        13223      0.25       12986      580        614.57     51.21     
2750.3999  57         11.16      11.16      0          247.713    -1093      508        13224      0.25       12998      579        615.81     51.259    
2750.5999  72         11.16      11.16      0          247.798    -1093      508        13226      0.25       13010      580        617.06     51.305    
2750.7999  69         11.95      11.95      -9999      247.931    -1093      544        13227      0.25       13194      578        618.38     52.045    
2750.9999  -9999      11.95      11.95      -9999      247.967    -9999      544        13228      -9999      13268      -9999      -9999      52.342    
2751.1999  -9999      13.05      13.05      -9999      247.986    -9999      594        13230      -9999      13262      -9999      -9999      52.319    
2751.399899 -9999      13.05      13.05      -9999      248.009    -9999      594        13231      -9999      13252      -9999      -9999      52.279    
2751.599899 -9999      11.97      11.97      -9999      248.088    -9999      545        13232      -9999      13277      -9999      -9999      52.381    
2751.799899 -9999      11.78      11.78      -9999      248.179    -9999      536        13234      -9999      13403      -9999      -9999      52.886    
2751.999899 -9999      -9999      -9999      -9999      248.214    -9999      -9999      13235      -9999      13440      -9999      -9999      53.035    
2752.199899 -9999      -9999      -9999      -9999      248.227    -9999      -9999      13236      -9999      13437      -9999      -9999      53.023    
