~Version
 VERS              .         2.0                           : CWLS LOG ASCII STANDARD - VERSION 2.0
 WRAP              .         NO                            : ONE LINE PER DEPTH STEP
 DLM               .         SPACE                         : DELIMITING CHARACTER(SPACE TAB OR COMMA)
~Well Information
#_______________________________________________________________________________
#
#PARAMETER_NAME    .UNIT     VALUE                         : DESCRIPTION
#_______________________________________________________________________________
STRT               .M        10.2                          : First reference value
STOP               .M        2774.8                        : Last reference value
STEP               .M        0.2                           : Step increment
NULL               .         -9999                         : Missing value
COMP               .                                       : Company
WELL               .         616                           : Well name
FLD                .                                       : Field
LOC                .                                       : Location
CNTY               .                                       : County
STAT               .                                       : State
CTRY               .                                       : Country
SRVC               .                                       : Service Company
DATE               .                                       : Date
API                .                                       : API number
PROJECT_UPGRADE_TIME .         2021-03-18T21_24_50           : 
group              .         Good                          : 
~Parameter Information Block
#_______________________________________________________________________________
#
#PARAMETER_NAME    .UNIT     VALUE                         : DESCRIPTION
#_______________________________________________________________________________
SET                .         D1813_D_2                     : 
NPR                .                                       : 
OTHER              .         Программное обеспечение станции MONITOR-386EX 25/12/99 15_08_10   BGF V52 22/08/01 16_56_30   3.1_SNGF___BGF_N_092049: 
OTHER_10           .         Тарировки_                    : 
OTHER_11           .         TM.GRD = 0.00403*TM$.UE + -1.07: 
OTHER_12           .         MN.ATM = (9.34907e-006*TM.GRD + 0.02171)*(MN$.UE + -7.93*TM.GRD + -1787): 
OTHER_13           .         GK.MKR/H = LM. / 42.4676      : 
OTHER_14           .         GK.FLT = 0.1*GK.MKR/H[-1] + (1-0.1)*GK.MKR/H[0]: 
OTHER_2            .         Kedr.exe версия 3.4.2.51      : 
OTHER_3            .         KedrData.dll версия 3.4.2.24  : 
OTHER_4            .         Драйвер версия 2.1.1.3        : 
OTHER_5            .         Мнемоники версия 3.3 S        : 
OTHER_6            .         Прибор_ КСА-Т4                : 
OTHER_7            .         Номер прибора_ 03             : 
OTHER_8            .         Режим_ КСА-Т4                 : 
OTHER_9            .         Форма_ КВА.                   : 
PR                 .                                       : 
PROJECT_UPGRADE_TIME .         2021-03-18T21_24_49           : 
PRTY               .         ПП-603-1                      : N партии
SRV                .                                       : 
SRVC               .         Карпов                        : Начальник партии
TLFamily_DEPT      .         Measured Depth                : 
TLFamily_LM        .         Casing Collar locator         : 
TLFamily_MN        .                                       : 
TLFamily_TM        .         Temperature                   : 
group              .         second                        : 
~Curve Information
#_______________________________________________________________________________
#
#LOGNAME           .UNIT     LOG_ID                        : DESCRIPTION
#_______________________________________________________________________________
DEPT               .M                                      : Depth curve 
LM                 .е.ацп                                  : Локатор муфт,е.ацп 
MN                 .атм                                    : Манометрия, атм 
TM                 .град.C                                 : Термограмма по стволу скважины,град.C 
~Ascii
# ...
920.2      382.004    84.599     33.973    
920.4      448.003    84.609     33.978    
920.6      496.002    84.642     33.982    
920.8      523.008    84.65      33.987    
921        640.994    84.673     33.991    
921.2      545.003    84.684     33.995    
921.4      594.004    84.698     34        
921.6      659.024    84.722     34.004    
921.8      1011.011   84.726     34.008    
922        1171.037   84.745     34.013    
922.2      1729.055   84.769     34.017    
922.4      2543.088   84.792     34.021    
922.6      3856.132   84.812     34.026    
922.8      5825.706   84.817     34.03     
923        1437.937   84.841     34.035    
923.2      492.996    84.864     34.035    
923.4      432.999    84.888     34.039    
923.6      423.001    84.897     34.044    
923.8      432        84.912     34.052    
924        431.005    84.934     34.056    
924.2      501.001    84.959     34.061    
924.4      515.002    84.96      34.067    
924.6      540.006    84.981     34.074    
924.8      630.993    85.003     34.078    
925        534        85.007     34.082    
925.2      526.994    85.031     34.084    
925.4      441.005    85.054     34.087    
925.6      509.002    85.067     34.095    
925.8      538.995    85.08      34.096    
926        461.004    85.102     34.1      
926.2      526.011    85.124     34.104    
926.4      686.988    85.131     34.109    
926.6      510.004    85.151     34.113    
926.8      572.004    85.174     34.118    
927        637.994    85.195     34.12     
927.2      545.01     85.198     34.125    
927.4      694.992    85.223     34.128    
927.6      577.001    85.246     34.135    
927.8      598.003    85.259     34.136    
928        643.005    85.271     34.14     
928.2      713.007    85.295     34.145    
928.4      823.004    85.318     34.15     
928.6      882.977    85.322     34.158    
928.8      545.004    85.341     34.162    
929        597.006    85.365     34.166    
929.2      681.004    85.388     34.168    
929.4      734.995    85.408     34.171    
929.6      664.001    85.413     34.175    
929.8      673.001    85.438     34.18     
930        688.992    85.451     34.184    
930.2      574.004    85.462     34.188    
930.4      633.001    85.486     34.193    
930.6      645.999    85.493     34.197    
930.8      623.996    85.512     34.202    
931        563.995    85.535     34.206    
931.2      484.999    85.558     34.209    
931.4      469.003    85.562     34.211    
931.6      509.003    85.583     34.219    
931.8      558.996    85.606     34.224    
932        505.003    85.621     34.225    
932.2      553.008    85.631     34.232    
932.4      669.01     85.654     34.237    
932.6      823.017    85.678     34.241    
932.8      1075.052   85.702     34.246    
933        1836.067   85.706     34.25     
933.2      2821.08    85.726     34.255    
933.4      3999.082   85.75      34.259    
933.6      5206.188   85.774     34.263    
933.8      7970.535   85.792     34.268    
934        1124.964   85.798     34.272    
934.2      602.003    85.821     34.273    
934.4      648.999    85.834     34.28     
934.6      636.992    85.846     34.285    
934.8      519.001    85.869     34.29     
935        540.015    85.892     34.294    
935.2      757.999    85.898     34.298    
935.4      737.009    85.916     34.303    
935.6      864.981    85.939     34.307    
935.8      583.004    85.962     34.311    
936        637.995    85.964     34.316    
936.2      558        85.988     34.32     
936.4      561.999    85.982     34.325    
936.6      545.004    85.977     34.325    
936.8      605.008    86.036     34.334    
937        723.011    86.06      34.338    
937.2      885.021    86.068     34.342    
937.4      1198.987   86.085     34.347    
937.6      1009.994   86.107     34.35     
937.8      922.008    86.13      34.352    
938        1044.995   86.133     34.358    
938.2      973.999    86.157     34.36     
938.4      954.009    86.179     34.365    
938.6      1081.022   86.202     34.369    
938.8      1406.973   86.218     34.373    
939        1010.988   86.228     34.378    
939.2      831.014    86.252     34.382    
939.4      1029.008   86.275     34.383    
939.6      1147.976   86.298     34.39     
939.8      799.997    86.303     34.391    
940        762.983    86.322     34.395    
940.2      513.002    86.345     34.4      
940.4      537.007    86.368     34.404    
940.6      634.011    86.372     34.409    
940.8      795.012    86.394     34.413    
941        974.965    86.417     34.417    
941.2      462.999    86.431     34.422    
941.4      449.001    86.442     34.426    
941.6      464.997    86.465     34.43     
941.8      416.005    86.488     34.435    
942        484.006    86.495     34.439    
942.2      573.004    86.514     34.444    
942.4      634.002    86.536     34.45     
942.6      664.001    86.559     34.456    
942.8      683.009    86.562     34.458    
943        814.989    86.586     34.461    
943.2      650.008    86.609     34.466    
943.4      763.01     86.623     34.474    
943.6      908.985    86.632     34.475    
943.8      688.011    86.656     34.479    
944        853.065    86.679     34.483    
944.2      1795       86.703     34.487    
944.4      1795.163   86.708     34.492    
944.6      4173.161   86.728     34.496    
944.8      6521.603   86.751     34.501    
945        736.991    86.754     34.505    
945.2      599.003    86.777     34.51     
945.4      642.987    86.8       34.514    
945.6      455.006    86.815     34.515    
945.8      542.996    86.825     34.519    
946        481        86.847     34.527    
946.2      484.001    86.871     34.527    
946.4      493.005    86.879     34.532    
946.6      563.997    86.897     34.536    
946.8      522        86.919     34.541    
947        528.004    86.943     34.547    
947.2      590.994    86.964     34.553    
947.4      511.007    86.968     34.558    
947.6      606.004    86.99      34.559    
947.8      663.01     87.013     34.562    
948        803.998    87.028     34.567    
948.2      781.994    87.039     34.571    
948.4      691.004    87.062     34.576    
948.6      744.02     87.07      34.58     
948.8      1030.012   87.088     34.584    
949        1205.955   87.111     34.589    
949.2      558.01     87.134     34.593    
949.4      707.015    87.135     34.6      
949.6      920.004    87.16      34.604    
949.8      984.989    87.183     34.607    
950        827.023    87.198     34.611    
950.2      1153.02    87.207     34.615    
950.4      1440.965   87.23      34.623    
950.6      936.978    87.24      34.624    
950.8      618        87.254     34.632    
951        621.006    87.278     34.632    
951.2      708.003    87.302     34.637    
951.4      744.99     87.325     34.642    
951.6      597.997    87.327     34.646    
951.8      555.008    87.348     34.65     
952        671.019    87.372     34.654    
952.2      938.996    87.39      34.659    
952.4      887.996    87.396     34.663    
952.6      828.978    87.42      34.667    
952.8      509.996    87.445     34.672    
953        457.008    87.454     34.673    
953.2      575.014    87.469     34.68     
953.4      771.982    87.493     34.682    
953.6      507.002    87.497     34.688    
953.8      531.003    87.519     34.69     
954        571.002    87.541     34.697    
954.2      595.004    87.565     34.703    
954.4      646.001    87.582     34.707    
954.6      666.004    87.589     34.708    
954.8      719.005    87.612     34.716    
955        795.02     87.636     34.72     
955.2      1080.016   87.645     34.725    
955.4      1316.04    87.645     34.728    
955.6      1887.176   87.681     34.73     
955.8      4413.167   87.708     34.734    
956        6819.581   87.71      34.738    
956.2      794.994    87.733     34.743    
956.4      706.005    87.753     34.747    
