~Version
 VERS              .         2.0                           : CWLS LOG ASCII STANDARD - VERSION 2.0
 WRAP              .         NO                            : ONE LINE PER DEPTH STEP
 DLM               .         SPACE                         : DELIMITING CHARACTER(SPACE TAB OR COMMA)
~Well Information
#_______________________________________________________________________________
#
#PARAMETER_NAME    .UNIT     VALUE                         : DESCRIPTION
#_______________________________________________________________________________
STRT               .M        2657.8                        : First reference value
STOP               .M        2767.999945                   : Last reference value
STEP               .M        0.1999999                     : Step increment
NULL               .         -9999                         : Missing value
COMP               .                                       : Company
WELL               .         616                           : Well name
FLD                .                                       : Field
LOC                .                                       : Location
CNTY               .                                       : County
STAT               .                                       : State
CTRY               .                                       : Country
SRVC               .                                       : Service Company
DATE               .                                       : Date
API                .                                       : API number
PROJECT_UPGRADE_TIME .         2021-03-18T21_24_50           : 
group              .         Good                          : 
~Parameter Information Block
#_______________________________________________________________________________
#
#PARAMETER_NAME    .UNIT     VALUE                         : DESCRIPTION
#_______________________________________________________________________________
SET                .         D7020_D_2                     : 
NPR                .         155                           : Номер прибора
OTHER              .         Kedr.exe версия 2.1.2.32      : 
OTHER_10           .         TM.GRD = 0.00404*TM$.UE + 0.07: 
OTHER_11           .         MN.ATM = (6.33279e-006*TM.GRD + 0.02401)*(MN$.UE + 2.72*TM.GRD + -2018): 
OTHER_12           .         GK.MKR/H = GK$.UE / 43.5489 + 0: 
OTHER_13           .         RES.SM = 0.00476*CRES.UE - 1.51709: 
OTHER_14           .         PL.GSM3 = 0 + 0 * (PL.UE / 1) +  0 * (PL.UE / 1)^2: 
OTHER_15           .         Постоянная времени ГГП = 6 сек: 
OTHER_16           .         Постоянная времени ГК = 6 сек : 
OTHER_2            .         KedrData.dll версия 3.2.2.14  : 
OTHER_3            .         LasInf.dll версия 3.2.0.13    : 
OTHER_4            .         Драйвер версия 1.2.0.5        : 
OTHER_5            .         Прибор_ КСА-M1                : 
OTHER_6            .         Номер прибора_ 155+р204       : 
OTHER_7            .         Режим_ КСА-М1 + ГГП + Резистивиметр: 
OTHER_8            .         Форма_ 223\2                  : 
OTHER_9            .         Тарировки_                    : 
PR                 .         КСА-Т7 М1                     : Тип прибора
PROJECT_UPGRADE_TIME .         2021-03-18T21_24_50           : 
PRTY               .         ПП-223_2                      : Номер партии
SRV                .         ЦКРС                          : Заказчик
SRVC               .         Лузин  А.Б.                   : Начальник партии
TLFamily_DEPT      .         Measured Depth                : 
TLFamily_LM        .         Casing Collar locator         : 
TLFamily_MN        .                                       : 
TLFamily_SPID      .         Spontaneous Potential         : 
TLFamily_TM        .         Temperature                   : 
group              .         second                        : 
~Curve Information
#_______________________________________________________________________________
#
#LOGNAME           .UNIT     LOG_ID                        : DESCRIPTION
#_______________________________________________________________________________
DEPT               .M                                      : Depth curve 
LM                 .е.ацп                                  : Локация муфт 
MN                 .атм                                    : Манометрия, атм 
SPID               .м/ч                                    : Скорость записи,м/час 
TM                 .град.С                                 : Термометрия,град.С 
~Ascii
# ...
2715.399971 43.011     248.55     580        46.12     
2715.599971 85.996     248.59     580        46.11     
2715.799971 69.995     248.62     580        46.11     
2715.999971 50.996     248.61     580        46.1      
2716.199971 35.999     248.64     579.983    46.11     
2716.399971 31.003     248.67     510.017    46.11     
2716.599971 43.006     248.69     580        46.1      
2716.799971 69.006     248.71     580        46.09     
2716.99997 91.996     248.74     580        46.09     
2717.19997 76.998     248.76     579.983    46.09     
2717.39997 67.003     248.76     510        46.08     
2717.59997 78.001     248.79     510.017    46.07     
2717.79997 80.994     248.81     580        46.07     
2717.99997 58.002     248.83     580        46.07     
2718.19997 66.011     248.83     579.983    46.07     
2718.39997 111.996    248.88     510.017    46.06     
2718.59997 96.994     248.87     580        46.06     
2718.79997 71.009     248.91     580        46.06     
2718.999969 106.001    248.93     579.983    46.06     
2719.199969 110.997    248.95     510        46.06     
2719.399969 96.997     248.98     510.017    46.05     
2719.599969 85.01      249        579.988    46.05     
2719.799969 125.995    249.03     533        46.05     
2719.999969 105.993    249.03     533.012    46.05     
2720.199969 76         249.05     580        46.05     
2720.399969 75.001     249.07     579.993    46.05     
2720.599969 79.997     249.11     549.993    46.04     
2720.799968 67.998     249.1      520.012    46.04     
2720.999968 58.998     249.15     568.003    46.04     
2721.199968 49.001     249.16     580        46.03     
2721.399968 52         249.19     580        46.04     
2721.599968 50.001     249.19     579.988    46.03     
2721.799968 56.008     249.22     533        46.03     
2721.999968 88.008     249.24     533.012    46.03     
2722.199968 120.05     249.28     580        46.03     
2722.399968 318.957    249.29     579.991    46.03     
2722.599968 146.014    249.3      544.994    46.02     
2722.799968 200.969    249.33     522.011    46.02     
2722.999967 78.008     249.36     568.003    46.02     
2723.199967 112.065    249.36     579.995    46.02     
2723.399967 373.986    249.39     560.005    46.02     
2723.599967 316.068    249.41     579.994    46.02     
2723.799967 587.983    249.43     557.006    46.02     
2723.999967 518.443    249.46     580        46.02     
2724.199967 2297.592   249.46     579.986    46.02     
2724.399967 660.909    249.48     524.014    46.02     
2724.599967 293.983    249.53     579.997    46.02     
2724.799967 227        249.53     567.989    46.02     
2724.999966 226.984    249.57     522.014    46.02     
2725.199966 160.982    249.58     579.994    46.02     
2725.399966 86.998     249.59     557.006    46.02     
2725.599966 76.995     249.62     580        46.02     
2725.799966 56.008     249.63     579.99     46.02     
2725.999966 89.993     249.68     540.01     46.02     
2726.199966 61.996     249.67     580        46.02     
2726.399966 46.001     249.7      579.994    46.02     
2726.599966 52.007     249.7      557.006    46.02     
2726.799966 79.004     249.73     580        46.02     
2726.999965 95.995     249.76     580        46.02     
2727.199965 74.003     249.78     580        46.02     
2727.399965 86.995     249.82     579.997    46.02     
2727.599965 64.997     249.82     567.986    46.03     
2727.799965 53         249.82     510.017    46.03     
2727.999965 51.004     249.85     579.994    46.03     
2728.199965 66.001     249.87     557.006    46.03     
2728.399965 69.029     249.9      580        46.03     
2728.599965 186.04     249.92     579.994    46.03     
2728.799964 348.016    249.93     556.991    46.03     
2728.999964 410.982    249.96     520.01     46.03     
2729.199964 338.988    250        560.005    46.04     
2729.399964 291.212    250        579.997    46.04     
2729.599964 1141.818   250.03     568.003    46.05     
2729.799964 412.998    250.07     580        46.04     
2729.999964 403.342    250.07     580        46.05     
2730.199964 1771.828   250.09     579.994    46.07     
2730.399964 1081.794   250.12     556.988    46.08     
2730.599964 256.974    250.12     510.012    46.09     
2730.799964 153.994    250.15     557.006    46.09     
2730.999963 130.999    250.17     579.983    46.09     
2731.199963 127.999    250.17     510.014    46.08     
2731.399963 123.997    250.24     568.002    46.07     
2731.599963 111.997    250.22     575.001    46.05     
2731.799963 98.003     250.24     580        46.04     
2731.999963 110.994    250.28     579.994    46.02     
2732.199963 85.008     250.36     556.006    46.01     
2732.399963 118.024    250.37     580        46        
2732.599963 215.578    250.32     579.997    45.99     
2732.799963 2527.623   250.31     568.003    45.99     
2732.999962 1018.812   250.38     579.997    45.99     
2733.199962 264.968    250.4      568.988    45.99     
2733.399962 137.044    250.42     522.006    45.99     
2733.599962 312.048    250.47     545.009    45.99     
2733.799962 503.902    250.45     580        45.99     
2733.999962 111.037    250.46     579.989    46        
2734.199962 258.99     250.48     534        46        
2734.399962 218.968    250.53     533.012    46.01     
2734.599962 89.997     250.55     580        46.02     
2734.799962 79         250.58     580        46.03     
2734.999961 80.091     250.56     579.983    46.04     
2735.199961 4444.324   250.59     510.017    46.05     
2735.399961 5740.92    250.61     579.988    46.06     
2735.599961 1419.743   250.68     533.012    46.07     
2735.799961 391.935    250.67     580        46.08     
2735.999961 130.988    250.71     579.986    46.09     
2736.199961 80.995     250.71     522.014    46.1      
2736.399961 61         250.74     579.997    46.11     
2736.599961 63.002     250.76     568.003    46.14     
2736.79996 70.997     250.77     579.988    46.16     
2736.99996 60.002     250.8      533.012    46.19     
2737.19996 68         250.82     579.982    46.21     
2737.39996 69         250.87     510.012    46.24     
2737.59996 68.998     250.89     557.006    46.29     
2737.79996 60.999     250.92     579.985    46.34     
2737.99996 59.007     250.95     522.012    46.4      
2738.19996 85.001     250.98     568.003    46.45     
2738.39996 87.001     250.99     579.988    46.5      
2738.59996 88.997     251.02     533.012    46.54     
2738.79996 76.998     251.05     580        46.6      
2738.999959 70.999     251.09     580        46.66     
2739.199959 66.001     251.1      580        46.75     
2739.399959 70.002     251.15     580        46.82     
2739.599959 77.994     251.18     579.997    46.89     
2739.799959 56.001     251.2      567.985    46.96     
2739.999959 60.003     251.21     510.018    47.03     
2740.199959 71         251.25     579.992    47.1      
2740.399959 69.998     251.29     550.008    47.15     
2740.599959 62.002     251.3      579.982    47.21     
2740.799959 68.001     251.3      510.012    47.26     
2740.999958 72         251.34     557.006    47.3      
2741.199958 71.998     251.34     579.997    47.35     
2741.399958 64.007     251.4      569.988    47.42     
2741.599958 89.997     251.45     522.006    47.48     
2741.799958 80.004     251.44     545.009    47.54     
2741.999958 94.996     251.47     580        47.59     
2742.199958 80.001     251.5      579.995    47.65     
2742.399958 83.004     251.54     559.982    47.7      
2742.599958 96.995     251.59     487.008    47.77     
2742.799958 79.003     251.6      520.015    47.83     
2742.999957 91.002     251.63     579.989    47.9      
2743.199957 96.995     251.64     538.011    47.94     
2743.399957 78.999     251.68     579.985    47.98     
2743.599957 74.003     251.7      520.009    48.03     
2743.799957 86.995     251.73     557.006    48.08     
2743.999957 68.003     251.74     580        48.14     
