~Version
 VERS              .         2.0                           : CWLS LOG ASCII STANDARD - VERSION 2.0
 WRAP              .         NO                            : ONE LINE PER DEPTH STEP
 DLM               .         SPACE                         : DELIMITING CHARACTER(SPACE TAB OR COMMA)
~Well Information
#_______________________________________________________________________________
#
#PARAMETER_NAME    .UNIT     VALUE                         : DESCRIPTION
#_______________________________________________________________________________
STRT               .M        2659.6                        : First reference value
STOP               .M        2768.6                        : Last reference value
STEP               .M        0.2                           : Step increment
NULL               .         -9999                         : Missing value
COMP               .                                       : Company
WELL               .         616                           : Well name
FLD                .                                       : Field
LOC                .                                       : Location
CNTY               .                                       : County
STAT               .                                       : State
CTRY               .                                       : Country
SRVC               .                                       : Service Company
DATE               .                                       : Date
API                .                                       : API number
PROJECT_UPGRADE_TIME .         2021-03-18T21_24_50           : 
group              .         Good                          : 
~Parameter Information Block
#_______________________________________________________________________________
#
#PARAMETER_NAME    .UNIT     VALUE                         : DESCRIPTION
#_______________________________________________________________________________
SET                .         D1166_D                       : 
OTHER              .         Программное обеспечение станции MONITOR-386EX 25/12/99 15_08_10   BGF V52 22/08/01 16_56_30   3.2_BGF_N_3070031: 
OTHER_10           .         Тарировки_                    : 
OTHER_11           .         TM.GRD = 0.00403*TM$.UE + -1.19: 
OTHER_12           .         MN.ATM = (7.1e-006*TM.GRD + 0.02017)*(MN$.UE + -3.03*TM.GRD + -1833): 
OTHER_13           .         Id error                      : 
OTHER_2            .         Kedr.exe версия 3.4.2.51      : 
OTHER_3            .         KedrData.dll версия 3.4.2.24  : 
OTHER_4            .         Драйвер версия 2.1.1.8        : 
OTHER_5            .         Мнемоники версия 3.3 S        : 
OTHER_6            .         Прибор_ КСА-М1                : 
OTHER_7            .         Номер прибора_ 265            : 
OTHER_8            .         Режим_ КСА-М1                 : 
OTHER_9            .         Форма_ ТЕРМОМЕТР              : 
PROJECT_UPGRADE_TIME .         2021-03-18T21_24_49           : 
TLFamily_DEPT      .         Measured Depth                : 
TLFamily_GK        .         Gamma Ray                     : 
TLFamily_GK$       .                                       : 
TLFamily_LM        .         Casing Collar locator         : 
TLFamily_METKA     .                                       : 
TLFamily_MN        .                                       : 
TLFamily_MN$       .                                       : 
TLFamily_RCOR      .                                       : 
TLFamily_SPID      .         Spontaneous Potential         : 
TLFamily_STD       .                                       : 
TLFamily_TENS      .         Cable Tension                 : 
TLFamily_TIME      .         Time                          : 
TLFamily_TM        .         Temperature                   : 
TLFamily_TM$       .         Temperature                   : 
TLFamily_VGD       .         Gas Volume                    : 
group              .         prim                          : 
~Curve Information
#_______________________________________________________________________________
#
#LOGNAME           .UNIT     LOG_ID                        : DESCRIPTION
#_______________________________________________________________________________
DEPT               .M                                      : 1 Глубина, м -    0.0 см 
GK                 .MKR/H                                  : 15 Гамма-активность, мкр./ч -  110.0 см 
GK$                .UE                                     : 12 Гамма-активность, усл.ед. -  110.0 см 
LM                 .                                       : 10 Локатор муфт,  -   20.0 см 
METKA              .                                       : 3 Метки,  -    0.0 см 
MN                 .ATM                                    : 14 Давление, атм. -  160.0 см 
MN$                .UE                                     : 8 Давление, усл.ед. -  160.0 см 
RCOR               .CM/KM                                  : 5 Коррекция по ролику, см/км -    0.0 см 
SPID               .M/H                                    : 2 Скорость, м/час -    0.0 см 
STD                .                                       : 11 Приток,  -  170.0 см 
TENS               .T                                      : 6 Натяжение кабеля, т -    0.0 см 
TIME               .S                                      : 4 Время, сек -    0.0 см 
TM                 .GRD                                    : 13 Температура, °C -  180.0 см 
TM$                .UE                                     : 7 Температура, усл.ед. -  180.0 см 
VGD                .                                       : 9 Влагомер,  -  170.0 см 
~Ascii
# ...
2679.2     8.49       370        1          0          354.619    19160      -1400      608        31291      0          22008.14   85.366     21478      6571      
2679.4     8.68       376        1          0          355.163    19186      -1400      601        31296      0          22009.37   85.373     21480      6570      
2679.6     8.76       376        1          0          355.729    19214      -1400      601        31299      0          22010.56   85.377     21481      6571      
2679.8     8.77       375        1          0          355.651    19210      -1400      610        31303      0          22011.72   85.382     21482      6571      
2680       8.77       375        1          2          355.301    19193      -1400      605        31307      0          22012.96   85.386     21483      6570      
2680.2     9.04       409        1          0          355.739    19214      -1400      604        31301      0          22014.2    85.389     21484      6570      
2680.4     9.4        409        1          0          356.898    19270      -1400      608        31303      0          22015.34   85.392     21484      6571      
2680.6     9.8        436        1          0          355.133    19185      -1400      608        31306      0          22016.57   85.399     21486      6569      
2680.8     10.07      436        1          0          355.986    19226      -1400      603        31311      0          22017.76   85.401     21487      6570      
2681       10.13      433        1          0          357.451    19296      -1400      606        31310      0          22018.9    85.403     21487      6571      
2681.2     10.11      432        1          0          355.212    19189      -1400      605        31311      0          22020.11   85.407     21488      6570      
2681.4     9.95       412        1          0          355.968    19225      -1400      595        31308      0          22021.31   85.415     21490      6569      
2681.6     9.44       393        1152       0          357.126    19281      -1400      594        31309      0          22022.52   85.419     21491      6570      
2681.8     8.82       336        265        0          354.278    19144      -1400      605        31312      0          22023.67   85.424     21492      6570      
2682       8.04       328        1          0          355.817    19218      -1400      602        31313      0          22024.87   85.427     21493      6570      
2682.2     7.78       327        1          0          356.812    19266      -1400      594        31316      0          22026.04   85.427     21493      6570      
2682.4     7.65       324        1          0          355.24     19190      -1400      595        31321      0          22027.23   85.431     21494      6570      
2682.6     7.6        324        1          0          356.07     19230      -1400      600        31325      0          22028.39   85.439     21496      6571      
2682.8     8.32       374        1          0          356.393    19245      -1400      597        31322      0          22029.64   85.439     21496      6570      
2683       8.6        374        1          0          356.244    19238      -1400      599        31322      0          22030.79   85.447     21498      6572      
2683.2     9.03       400        1          0          355.556    19205      -1400      605        31322      0          22031.99   85.452     21499      6570      
2683.4     9.25       400        1          0          356.051    19229      -1400      604        31328      0          22033.17   85.456     21500      6569      
2683.6     9.62       421        1          0          357.214    19285      -1400      599        31331      0          22034.36   85.462     21502      6571      
2683.8     9.77       421        1          0          355.799    19217      -1400      609        31333      0          22035.56   85.465     21503      6569      
2684       9.81       420        1          0          356.527    19252      -1400      611        31328      0          22036.68   85.468     21503      6571      
2684.2     9.82       420        1          0          357.79     19313      -1400      606        31326      0          22037.94   85.471     21504      6570      
2684.4     9.77       414        1          0          354.858    19171      -1400      605        31328      0          22039.12   85.475     21505      6570      
2684.6     9.71       414        1          0          356.262    19239      -1400      608        31332      0          22040.25   85.481     21506      6570      
2684.8     9.55       401        1          0          357.25     19287      -1400      611        31336      0          22041.44   85.483     21507      6570      
2685       9.44       401        1          0          355.618    19208      -1400      607        31335      0          22042.69   85.49      21509      6571      
2685.2     9.38       398        1          0          356.386    19245      -1400      615        31336      0          22043.82   85.497     21510      6570      
2685.4     9.33       398        1          0          356.513    19251      -1400      613        31335      0          22045.01   85.499     21511      6570      
2685.6     9.38       406        1          0          356.332    19242      -1400      609        31340      0          22046.25   85.51      21514      6570      
2685.8     9.83       429        1          0          356.036    19228      -1400      608        31344      0          22047.39   85.521     21516      6570      
2686       9.86       416        1          0          356.182    19235      -1400      610        31344      0          22048.54   85.524     21517      6570      
2686.2     9.7        411        1          0          357.618    19304      -1400      616        31344      0          22049.72   85.524     21517      6571      
2686.4     9.68       416        1          0          356.141    19233      -1400      607        31347      0          22050.96   85.528     21518      6569      
2686.6     10.22      448        1          0          356.847    19267      -1400      615        31348      0          22052.12   85.532     21519      6570      
2686.8     10.39      448        1          0          358.388    19341      -1400      608        31347      0          22053.32   85.532     21519      6570      
2687       11.37      513        1          0          355.407    19198      -1400      606        31351      0          22054.57   85.538     21521      6570      
2687.2     11.79      513        1          0          356.873    19268      -1400      599        31350      0          22055.79   85.545     21522      6569      
2687.4     11.35      461        1          0          357.872    19316      -1400      600        31358      0          22056.94   85.548     21523      6570      
2687.6     10.96      461        1          0          356.068    19229      -1400      608        31360      0          22058.11   85.552     21524      6570      
2687.8     9.56       364        1          0          356.489    19250      -1400      598        31364      0          22059.35   85.558     21526      6569      
2688       8.86       364        1          0          356.54     19252      -1400      604        31363      0          22060.54   85.56      21526      6570      
2688.2     8.07       312        1          0          356.185    19235      -1400      599        31367      0          22061.74   85.568     21528      6571      
2688.4     7.54       312        1          0          356.508    19251      -1400      602        31371      0          22062.96   85.572     21529      6569      
2688.6     7.43       319        1          0          356.887    19269      -1400      588        31372      0          22064.17   85.576     21530      6571      
2688.8     7.45       319        1          0          357.491    19298      -1400      595        31377      0          22065.32   85.581     21531      6571      
