~Version
 VERS              .         2.0                           : CWLS LOG ASCII STANDARD - VERSION 2.0
 WRAP              .         NO                            : ONE LINE PER DEPTH STEP
 DLM               .         SPACE                         : DELIMITING CHARACTER(SPACE TAB OR COMMA)
~Well Information
#_______________________________________________________________________________
#
#PARAMETER_NAME    .UNIT     VALUE                         : DESCRIPTION
#_______________________________________________________________________________
STRT               .M        1149                          : First reference value
STOP               .M        2127.4                        : Last reference value
STEP               .M        0.2                           : Step increment
NULL               .         -9999                         : Missing value
COMP               .                                       : Company
WELL               .         616                           : Well name
FLD                .                                       : Field
LOC                .                                       : Location
CNTY               .                                       : County
STAT               .                                       : State
CTRY               .                                       : Country
SRVC               .                                       : Service Company
DATE               .                                       : Date
API                .                                       : API number
PROJECT_UPGRADE_TIME .         2021-03-18T21_24_50           : 
group              .         Good                          : 
~Parameter Information Block
#_______________________________________________________________________________
#
#PARAMETER_NAME    .UNIT     VALUE                         : DESCRIPTION
#_______________________________________________________________________________
SET                .         616_9                         : 
CONF               .         00                            : 
END                .         0                             : 
ERR                .         0                             : 
GS00               .M        2125.46                       : 
GS01               .M        1146.68                       : 
MM00               .M        2120.00                       : 
NOKG               .         0                             : 
NPR                .         990907                        : 
PART               .         Ивашин                        : 
PROJECT_UPGRADE_TIME .         2021-03-18T21_24_49           : 
PRZK               .         Шакиров                       : 
TLFamily_AZIMUTH   .         True Dip Azimuth              : 
TLFamily_DEPTH     .         Measured Depth                : 
TLFamily_METKA     .                                       : 
TLFamily_ROLL      .                                       : 
TLFamily_SPEED     .         Spontaneous Potential         : 
TLFamily_ZENIT     .                                       : 
VPRG               .         310                           : 
WAY                .         UP                            : 
group              .         prim                          : 
~Curve Information
#_______________________________________________________________________________
#
#LOGNAME           .UNIT     LOG_ID                        : DESCRIPTION
#_______________________________________________________________________________
DEPTH              .M                                      :  
AZIMUTH            .DEG                                    :  
METKA              .                                       :  
ROLL               .DEG                                    :  
SPEED              .M/H                                    :  
ZENIT              .DEG                                    :  
~Ascii
# ...
1222.2     256.16     0          323.2      288        33.42     
1222.4     257.47     0          322.28     648        33.6      
1222.6     257.18     0          321.48     684        33.65     
1222.8     257        0          321.53     648        33.6      
1223       257.21     0          321.95     684        33.59     
1223.2     256.98     0          322.52     648        33.53     
1223.4     256.45     0          323.01     684        33.49     
1223.6     254.68     0          323.46     684        33.05     
1223.8     253.74     0          323.58     684        33.23     
1224       255.32     0          323.15     684        33.69     
1224.2     257.73     0          321.94     648        33.72     
1224.4     257.5      0          320.91     648        33.72     
1224.6     257.39     0          320.89     684        33.78     
1224.8     256.31     0          321.4      684        33.61     
1225       256.94     0          321.93     648        33.8      
1225.2     256.07     0          322.09     684        33.48     
1225.4     257.67     0          322.15     684        33.86     
1225.6     256.39     0          322.03     648        33.58     
1225.8     256.98     0          321.97     684        33.75     
1226       256.67     0          322.26     684        33.68     
1226.2     257.37     0          322.59     684        33.77     
1226.4     256.94     0          322.52     648        33.67     
1226.6     256.52     0          322.28     684        33.63     
1226.8     257.13     0          322.12     648        33.7      
1227       257.43     0          321.84     684        33.78     
1227.2     256.82     0          321.86     648        33.66     
1227.4     257.04     0          322.14     684        33.71     
1227.6     256.85     0          322.36     684        33.64     
1227.8     257.31     0          322.4      648        33.78     
1228       256.6      0          322.35     648        33.57     
1228.2     257.47     0          322.19     684        33.79     
1228.4     256.93     0          322.11     684        33.68     
1228.6     257.6      0          322.19     684        33.83     
1228.8     256.86     0          322.23     684        33.64     
1229       257.43     0          322.18     648        33.75     
1229.2     256.81     0          322.07     684        33.62     
1229.4     257.54     0          322        684        33.76     
1229.6     257.63     0          321.92     648        33.79     
1229.8     256.89     0          321.95     684        33.64     
1230       257.66     0          322.06     684        33.79     
1230.2     257.55     0          322.19     648        33.76     
1230.4     257.87     0          322.01     648        33.75     
1230.6     257.73     0          321.63     684        33.67     
1230.8     259.09     0          321.5      648        33.93     
1231       257.79     0          321.58     684        33.53     
1231.2     259.16     0          321.74     684        33.65     
1231.4     262.2      0          322.17     684        33.81     
1231.6     269.81     0          322.89     648        33.84     
1231.8     300.43     0          323.19     684        33.85     
1232       237.64     0          323.32     684        33.73     
1232.2     81.18      1          323.29     648        33.92     
1232.4     0.34       0          323.06     648        33.95     
1232.6     303.7      0          323.06     684        33.9      
1232.8     271.23     0          323.19     684        34.15     
1233       262.39     0          322.98     684        34.02     
1233.2     259.81     0          322.4      648        34.05     
1233.4     259.03     0          322.16     684        34.04     
1233.6     257.89     0          322.57     684        33.91     
1233.8     257.58     0          322.66     684        33.83     
1234       257.08     0          322.43     648        33.78     
1234.2     258.79     0          322.77     684        34.01     
1234.4     256.93     0          323.11     648        33.49     
1234.6     259.53     0          322.03     684        33.99     
1234.8     254.46     0          321.52     648        33.39     
1235       256.52     0          321.28     684        33.63     
1235.2     257.07     0          321.07     684        33.81     
1235.4     255.54     0          322.66     648        33.62     
1235.6     257.38     0          323.47     684        33.6      
1235.8     257.38     0          322.56     684        33.72     
1236       256.85     0          320.81     648        33.88     
1236.2     256.22     0          321.37     684        33.94     
1236.4     257.16     0          322.09     648        33.94     
1236.6     257.8      0          322.57     684        34.05     
1236.8     257.95     0          322.4      684        33.91     
1237       257.35     0          321.91     648        33.93     
1237.2     257.09     0          321.9      684        33.83     
1237.4     257.13     0          322.01     684        33.91     
1237.6     256.44     0          322.29     648        33.74     
1237.8     257.27     0          322.71     684        33.94     
1238       257.81     0          323.01     684        34.05     
1238.2     258.39     0          322.91     684        34.04     
1238.4     255.96     0          322.34     648        33.73     
1238.6     257.46     0          322.09     684        34.01     
1238.8     257.12     0          322.44     648        33.97     
1239       256.99     0          323.01     684        33.92     
1239.2     257.46     0          323.18     684        33.95     
1239.4     257.3      0          323.09     648        33.91     
1239.6     257.59     0          323.15     684        34.03     
1239.8     256.1      0          323.49     684        33.71     
1240       257.04     0          323.91     648        33.94     
1240.2     256.75     0          324.01     684        33.89     
1240.4     257.76     0          324.13     684        34.09     
1240.6     257.86     0          324.53     684        34.14     
1240.8     256.58     0          324.95     684        33.97     
1241       258.1      0          324.63     648        34.02     
1241.2     256.7      0          324.41     684        33.94     
1241.4     257.24     0          324.31     648        34.12     
1241.6     257.81     0          324.13     684        34.16     
1241.8     257.46     0          323.53     648        34.05     
1242       257.68     0          322.95     684        34.09     
1242.2     256.81     1          322.6      684        33.88     
1242.4     258.22     0          322.25     684        34.11     
1242.6     257.56     0          322.26     684        33.93     
1242.8     257.82     0          322.85     648        33.94     
1243       258.54     0          323.44     684        34        
1243.2     258.78     0          323.53     684        33.92     
1243.4     260.81     0          323.65     684        34.1      
1243.6     263.51     0          324.52     648        34.02     
1243.8     275        0          325.36     684        34.18     
1244       314.16     0          325.36     648        34.05     
1244.2     258.04     0          324.98     648        34.19     
1244.4     86.93      0          324.27     684        34.39     
1244.6     20.1       0          323.7      684        34.18     
1244.8     315.44     0          323.87     648        34.46     
1245       273.25     0          324.79     684        34.21     
1245.2     262.81     0          325.14     684        34.14     
1245.4     259.32     0          324.79     648        34.07     
1245.6     259.06     0          324.05     684        34.1      
1245.8     257.56     0          323.82     648        33.94     
1246       256.7      0          323.96     684        33.68     
1246.2     258.09     0          323.87     648        33.95     
1246.4     257.81     0          324.23     684        33.97     
