~Version
 VERS              .         2.0                           : CWLS LOG ASCII STANDARD - VERSION 2.0
 WRAP              .         NO                            : ONE LINE PER DEPTH STEP
 DLM               .         SPACE                         : DELIMITING CHARACTER(SPACE TAB OR COMMA)
~Well Information
#_______________________________________________________________________________
#
#PARAMETER_NAME    .UNIT     VALUE                         : DESCRIPTION
#_______________________________________________________________________________
STRT               .M        1.8                           : First reference value
STOP               .M        2776                          : Last reference value
STEP               .M        0.2                           : Step increment
NULL               .         -9999                         : Missing value
COMP               .                                       : Company
WELL               .         616                           : Well name
FLD                .                                       : Field
LOC                .                                       : Location
CNTY               .                                       : County
STAT               .                                       : State
CTRY               .                                       : Country
SRVC               .                                       : Service Company
DATE               .                                       : Date
API                .                                       : API number
PROJECT_UPGRADE_TIME .         2021-03-18T21_24_50           : 
group              .         Good                          : 
~Parameter Information Block
#_______________________________________________________________________________
#
#PARAMETER_NAME    .UNIT     VALUE                         : DESCRIPTION
#_______________________________________________________________________________
SET                .         D1799_D                       : 
OTHER              .         Программное обеспечение станции MONITOR-386EX 25/12/99 15_08_10   BGF V52 22/08/01 16_56_30   3.1_SNGF___BGF_N_092049: 
OTHER_10           .         Тарировки_                    : 
OTHER_11           .         TM.GRD = 0.00403*TM$.UE + -1.07: 
OTHER_12           .         MN.ATM = (9.34907e-006*TM.GRD + 0.02171)*(MN$.UE + -7.93*TM.GRD + -1787): 
OTHER_13           .         GK.MKR/H = LM. / 42.4676      : 
OTHER_14           .         GK.FLT = 0.1*GK.MKR/H[-1] + (1-0.1)*GK.MKR/H[0]: 
OTHER_2            .         Kedr.exe версия 3.4.2.51      : 
OTHER_3            .         KedrData.dll версия 3.4.2.24  : 
OTHER_4            .         Драйвер версия 2.1.1.3        : 
OTHER_5            .         Мнемоники версия 3.3 S        : 
OTHER_6            .         Прибор_ КСА-Т4                : 
OTHER_7            .         Номер прибора_ 03             : 
OTHER_8            .         Режим_ КСА-Т4                 : 
OTHER_9            .         Форма_ КВА.                   : 
PROJECT_UPGRADE_TIME .         2021-03-18T21_24_49           : 
TLFamily_DEPT      .         Measured Depth                : 
TLFamily_GK        .         Gamma Ray                     : 
TLFamily_GK$       .                                       : 
TLFamily_GK_2      .         Gamma Ray                     : 
TLFamily_LM        .         Casing Collar locator         : 
TLFamily_METKA     .                                       : 
TLFamily_MN        .                                       : 
TLFamily_MN$       .                                       : 
TLFamily_RCOR      .                                       : 
TLFamily_SPID      .         Spontaneous Potential         : 
TLFamily_TENS      .         Cable Tension                 : 
TLFamily_TIME      .         Time                          : 
TLFamily_TM        .         Temperature                   : 
TLFamily_TM$       .         Temperature                   : 
group              .         prim                          : 
~Curve Information
#_______________________________________________________________________________
#
#LOGNAME           .UNIT     LOG_ID                        : DESCRIPTION
#_______________________________________________________________________________
DEPT               .M                                      : 1 Глубина, м -    0.0 см 
GK                 .MKR/H                                  : 13 Гамма-активность, мкр./ч -  110.0 см 
GK$                .UE                                     : 10 Гамма-активность, усл.ед. -  110.0 см 
GK_2               .FLT                                    : 14 Гамма-активность фильтрованная, мкр./ч -  110.0 см 
LM                 .                                       : 9 Локатор муфт,  -   20.0 см 
METKA              .                                       : 3 Метки,  -    0.0 см 
MN                 .ATM                                    : 12 Давление, атм. -  160.0 см 
MN$                .UE                                     : 8 Давление, усл.ед. -  160.0 см 
RCOR               .CM/KM                                  : 5 Коррекция по ролику, см/км -    0.0 см 
SPID               .M/H                                    : 2 Скорость, м/час -    0.0 см 
TENS               .T                                      : 6 Натяжение кабеля, т -    0.0 см 
TIME               .S                                      : 4 Время, сек -    0.0 см 
TM                 .GRD                                    : 11 Температура, °C -  170.0 см 
TM$                .UE                                     : 7 Температура, усл.ед. -  170.0 см 
~Ascii
# ...
740.2      2.38       101        2.38       698        0          68.268     5150       -853       2070       -0.1       1711.5     33.102     8479      
740.4      2.38       101        2.38       714        0          68.288     5151       -853       2072       -0.1       1711.86    33.106     8480      
740.6      2.38       101        2.38       741        0          68.309     5152       -853       2076       -0.1       1712.21    33.11      8481      
740.8      2.38       101        2.38       832        0          68.329     5153       -853       2071       -0.1       1712.55    33.113     8482      
741        2.43       103        2.41       804        0          68.35      5154       -853       2066       -0.1       1712.89    33.117     8483      
741.2      2.83       120        2.69       876        0          68.356     5154       -853       2065       -0.1       1713.24    33.121     8484      
741.4      2.83       120        2.77       861        0          68.369     5155       -853       2066       -0.1       1713.57    33.125     8485      
741.6      2.83       120        2.81       814        0          68.377     5155       -853       2068       -0.1       1713.91    33.129     8486      
741.8      2.83       120        2.82       814        0          68.41      5157       -853       2066       -0.1       1714.26    33.135     8488      
742        2.83       120        2.82       817        0          68.419     5157       -853       2065       -0.1       1714.61    33.142     8489      
742.2      2.87       122        2.85       998        0          68.45      5158       -853       2063       -0.1       1714.96    33.146     8490      
742.4      3.3        140        3.13       1011       0          68.462     5159       -853       2063       -0.1       1715.3     33.149     8491      
742.6      3.3        140        3.22       952        0          68.475     5160       -853       2068       -0.1       1715.65    33.153     8492      
742.8      3.3        140        3.27       988        0          68.483     5160       -853       2072       -0.1       1716.01    33.158     8493      
743        3.3        140        3.29       881        0          68.504     5161       -853       2074       -0.1       1716.36    33.165     8495      
743.2      3.3        140        3.29       944        0          68.535     5162       -853       2066       -0.1       1716.71    33.165     8495      
743.4      3.3        140        3.29       856        0          68.556     5163       -853       2070       -0.1       1717.05    33.168     8496      
743.6      3.3        140        3.3        764        0          68.576     5164       -853       2074       -0.1       1717.36    33.176     8498      
743.8      3.46       147        3.4        659        0          68.59      5165       -853       2077       -0.1       1717.71    33.18      8499      
744        3.53       150        3.48       657        0          68.589     5165       -853       2069       -0.1       1718.07    33.184     8500      
744.2      3.53       150        3.51       633        0          68.598     5165       -853       2060       -0.1       1718.43    33.188     8501      
744.4      3.53       150        3.52       630        0          68.637     5167       -853       2063       -0.1       1718.76    33.192     8502      
744.6      3.53       150        3.53       634        0          68.657     5168       -853       2068       -0.1       1719.11    33.196     8503      
744.8      3.53       150        3.53       517        0          68.675     5169       -853       2072       -0.1       1719.45    33.2       8504      
745        3.53       150        3.53       500        0          68.676     5169       -853       2071       -0.1       1719.8     33.203     8505      
745.2      3.33       141        3.4        503        0          68.694     5170       -853       2065       -0.1       1720.15    33.207     8505      
745.4      2.94       125        3.12       541        0          68.715     5171       -853       2057       -0.1       1720.51    33.211     8506      
745.6      2.94       125        3.01       527        0          68.736     5172       -853       2060       -0.1       1720.85    33.215     8507      
745.8      2.94       125        2.97       640        0          68.757     5173       -853       2065       -0.1       1721.19    33.22      8509      
746        2.94       125        2.95       640        0          68.759     5173       -853       2064       -0.1       1721.52    33.227     8510      
746.2      2.94       125        2.95       9023       0          68.792     5175       -853       2063       -0.1       1721.87    33.23      8511      
746.4      2.94       125        2.94       5769       0          68.817     5176       -853       2061       -0.1       1722.24    33.234     8512      
746.6      2.91       124        2.92       3751       0          68.824     5176       -853       2060       -0.1       1722.58    33.238     8513      
746.8      2.59       110        2.72       2468       0          68.837     5177       -853       2061       -0.1       1722.94    33.242     8514      
747        2.59       110        2.65       1681       0          68.845     5177       -853       2065       -0.1       1723.27    33.246     8515      
747.2      2.59       110        2.61       1209       0          68.868     5178       -853       2069       -0.1       1723.6     33.25      8516      
747.4      2.59       110        2.6        1165       0          68.898     5179       -853       2067       -0.1       1723.94    33.254     8517      
747.6      2.59       110        2.59       917        0          68.909     5180       -853       2065       -0.1       1724.31    33.257     8518      
747.8      2.59       110        2.59       923        0          68.915     5180       -853       2064       -0.1       1724.67    33.264     8520      
748        2.59       110        2.59       934        0          68.943     5182       -853       2068       -0.1       1725.01    33.269     8521      
748.2      2.6        111        2.6        939        0          68.973     5183       -853       2067       -0.1       1725.35    33.273     8522      
748.4      2.61       111        2.61       838        0          68.977     5183       -853       2065       -0.1       1725.7     33.277     8523      
748.6      2.61       111        2.61       809        0          68.996     5184       -853       2069       -0.1       1726.05    33.283     8524      
748.8      2.61       111        2.61       880        0          69.016     5185       -853       2068       -0.1       1726.4     33.286     8525      
749        2.61       111        2.61       853        0          69.035     5186       -853       2066       -0.1       1726.74    33.29      8526      
749.2      2.61       111        2.61       754        0          69.036     5186       -853       2065       -0.1       1727.07    33.296     8527      
749.4      2.61       111        2.61       703        0          69.056     5187       -853       2067       -0.1       1727.41    33.3       8528      
749.6      2.63       112        2.63       699        0          69.057     5187       -853       2071       -0.1       1727.75    33.304     8529      
749.8      2.68       114        2.66       699        0          69.094     5189       -853       2072       -0.1       1728.1     33.307     8530      
750        2.68       114        2.68       663        0          69.117     5190       -854       2070       -0.1       1728.47    33.311     8531      
750.2      2.68       114        2.68       760        2          69.121     5190       -855       2068       -0.1       1728.84    33.315     8532      
750.4      2.68       114        2.68       695        0          69.137     5191       -855       2069       -0.1       1729.19    33.319     8533      
