~Version
 VERS              .         2.0                           : CWLS LOG ASCII STANDARD - VERSION 2.0
 WRAP              .         NO                            : ONE LINE PER DEPTH STEP
 DLM               .         SPACE                         : DELIMITING CHARACTER(SPACE TAB OR COMMA)
~Well Information
#_______________________________________________________________________________
#
#PARAMETER_NAME    .UNIT     VALUE                         : DESCRIPTION
#_______________________________________________________________________________
STRT               .M        10.2                          : First reference value
STOP               .M        2774.8                        : Last reference value
STEP               .M        0.2                           : Step increment
NULL               .         -9999                         : Missing value
COMP               .                                       : Company
WELL               .         616                           : Well name
FLD                .                                       : Field
LOC                .                                       : Location
CNTY               .                                       : County
STAT               .                                       : State
CTRY               .                                       : Country
SRVC               .                                       : Service Company
DATE               .                                       : Date
API                .                                       : API number
PROJECT_UPGRADE_TIME .         2021-03-18T21_24_50           : 
group              .         Good                          : 
~Parameter Information Block
#_______________________________________________________________________________
#
#PARAMETER_NAME    .UNIT     VALUE                         : DESCRIPTION
#_______________________________________________________________________________
SET                .         D1813_D_2                     : 
NPR                .                                       : 
OTHER              .         Программное обеспечение станции MONITOR-386EX 25/12/99 15_08_10   BGF V52 22/08/01 16_56_30   3.1_SNGF___BGF_N_092049: 
OTHER_10           .         Тарировки_                    : 
OTHER_11           .         TM.GRD = 0.00403*TM$.UE + -1.07: 
OTHER_12           .         MN.ATM = (9.34907e-006*TM.GRD + 0.02171)*(MN$.UE + -7.93*TM.GRD + -1787): 
OTHER_13           .         GK.MKR/H = LM. / 42.4676      : 
OTHER_14           .         GK.FLT = 0.1*GK.MKR/H[-1] + (1-0.1)*GK.MKR/H[0]: 
OTHER_2            .         Kedr.exe версия 3.4.2.51      : 
OTHER_3            .         KedrData.dll версия 3.4.2.24  : 
OTHER_4            .         Драйвер версия 2.1.1.3        : 
OTHER_5            .         Мнемоники версия 3.3 S        : 
OTHER_6            .         Прибор_ КСА-Т4                : 
OTHER_7            .         Номер прибора_ 03             : 
OTHER_8            .         Режим_ КСА-Т4                 : 
OTHER_9            .         Форма_ КВА.                   : 
PR                 .                                       : 
PROJECT_UPGRADE_TIME .         2021-03-18T21_24_49           : 
PRTY               .         ПП-603-1                      : N партии
SRV                .                                       : 
SRVC               .         Карпов                        : Начальник партии
TLFamily_DEPT      .         Measured Depth                : 
TLFamily_LM        .         Casing Collar locator         : 
TLFamily_MN        .                                       : 
TLFamily_TM        .         Temperature                   : 
group              .         second                        : 
~Curve Information
#_______________________________________________________________________________
#
#LOGNAME           .UNIT     LOG_ID                        : DESCRIPTION
#_______________________________________________________________________________
DEPT               .M                                      : Depth curve 
LM                 .е.ацп                                  : Локатор муфт,е.ацп 
MN                 .атм                                    : Манометрия, атм 
TM                 .град.C                                 : Термограмма по стволу скважины,град.C 
~Ascii
# ...
738.2      709.995    68.985     30.008    
738.4      615.002    68.991     30.012    
738.6      647        69.014     30.017    
738.8      649.997    69.037     30.021    
739        591        69.048     30.025    
739.2      599        69.062     30.03     
739.4      607.003    69.084     30.034    
739.6      668.003    69.107     30.038    
739.8      732.994    69.13      30.043    
740        617        69.153     30.047    
740.2      624.005    69.154     30.051    
740.4      720.002    69.177     30.056    
740.6      756.004    69.198     30.06     
740.8      836.005    69.219     30.064    
741        927.996    69.22      30.068    
741.2      850.996    69.243     30.072    
741.4      781.001    69.261     30.077    
741.6      790.991    69.267     30.081    
741.8      631.003    69.29      30.085    
742        679.994    69.302     30.093    
742.2      560.998    69.326     30.098    
742.4      521.999    69.345     30.102    
742.6      501.001    69.36      30.103    
742.8      512.998    69.382     30.11     
743        481.001    69.405     30.112    
743.2      506.999    69.409     30.118    
743.4      483.002    69.428     30.12     
743.6      518.005    69.451     30.124    
743.8      607.008    69.473     30.128    
744        754.017    69.475     30.133    
744.2      1076.026   69.497     30.137    
744.4      1568.042   69.52      30.141    
744.6      2354.07    69.544     30.145    
744.8      3659.11    69.558     30.15     
745        5712.759   69.567     30.154    
745.2      1229.97    69.591     30.158    
745.4      680.994    69.614     30.163    
745.6      577.997    69.622     30.167    
745.8      523.003    69.638     30.167    
746        586.006    69.66      30.172    
746.2      703.009    69.681     30.177    
746.4      866.993    69.685     30.184    
746.6      729.002    69.705     30.188    
746.8      772.008    69.728     30.193    
747        920.993    69.749     30.197    
747.2      791.007    69.75      30.199    
747.4      920.986    69.773     30.204    
747.6      666        69.795     30.209    
747.8      674.997    69.82      30.214    
748        618.998    69.842     30.218    
748.2      590.002    69.855     30.223    
748.4      622.998    69.866     30.227    
748.6      590        69.889     30.231    
748.8      585.001    69.898     30.235    
749        601.001    69.912     30.24     
749.2      624.997    69.935     30.244    
749.4      567.998    69.94      30.248    
749.6      523        69.958     30.253    
749.8      526.001    69.98      30.257    
750        550.001    70.005     30.261    
750.2      565        70.026     30.265    
750.4      560        70.047     30.27     
750.6      560        70.05      30.274    
750.8      569.003    70.074     30.278    
751        622.002    70.095     30.279    
751.2      652.003    70.111     30.283    
751.4      714        70.12      30.287    
751.6      709.995    70.143     30.291    
751.8      627        70.153     30.296    
752        619.994    70.167     30.3      
752.2      516        70.189     30.304    
752.4      515.005    70.213     30.309    
752.6      599.004    70.216     30.313    
752.8      671.003    70.234     30.317    
753        719.994    70.257     30.321    
753.2      600.997    70.28      30.325    
753.4      538.999    70.304     30.33     
753.6      513.001    70.323     30.334    
753.8      539.001    70.327     30.338    
754        552.002    70.35      30.343    
754.2      581.998    70.373     30.347    
754.4      538.003    70.387     30.351    
754.6      585.007    70.397     30.356    
754.8      718.016    70.407     30.36     
755        1017.015   70.435     30.364    
755.2      1286.025   70.45      30.369    
755.4      1737.023   70.466     30.373    
755.6      2161.054   70.488     30.377    
755.8      3155.094   70.511     30.381    
756        4881.134   70.514     30.386    
756.2      7340.626   70.535     30.39     
756.4      490.995    70.558     30.394    
756.6      394        70.578     30.399    
756.8      395.001    70.582     30.403    
757        408        70.605     30.407    
757.2      412.001    70.628     30.412    
757.4      425.001    70.641     30.416    
757.6      442        70.649     30.42     
757.8      448        70.672     30.424    
758        457.001    70.683     30.428    
758.2      472        70.696     30.433    
758.4      463.999    70.719     30.437    
758.6      438.003    70.743     30.441    
758.8      488        70.765     30.446    
759        482.999    70.787     30.45     
759.2      461        70.79      30.454    
759.4      466.999    70.812     30.457    
759.6      442.002    70.833     30.459    
759.8      478.999    70.854     30.463    
760        467.001    70.857     30.467    
760.2      484.997    70.881     30.472    
760.4      429.998    70.903     30.476    
760.6      390.002    70.918     30.48     
760.8      424        70.928     30.485    
761        415.001    70.951     30.489    
761.2      433.001    70.96      30.493    
761.4      457.999    70.974     30.498    
761.6      442        70.998     30.502    
761.8      448.001    71.021     30.505    
762        464.997    71.042     30.508    
762.2      409.001    71.045     30.515    
762.4      434.998    71.066     30.519    
762.6      395.999    71.088     30.523    
762.8      380.999    71.09      30.525    
763        365        71.113     30.528    
763.2      373        71.13      30.532    
763.4      380.999    71.145     30.54     
763.6      370.001    71.172     30.545    
763.8      396.001    71.182     30.549    
764        419.999    71.206     30.553    
764.2      410        71.215     30.554    
764.4      408.002    71.23      30.561    
764.6      448.001    71.236     30.562    
764.8      460.002    71.254     30.567    
765        500.002    71.275     30.571    
765.2      539.006    71.298     30.575    
765.4      653.003    71.32      30.579    
765.6      705.009    71.343     30.584    
765.8      864.015    71.345     30.588    
766        1126.019   71.364     30.592    
766.2      1476.031   71.369     30.597    
766.4      2037.046   71.392     30.601    
766.6      2866.081   71.415     30.609    
766.8      4320.133   71.438     30.61     
767        6721.662   71.448     30.614    
767.2      632.994    71.463     30.618    
767.4      530.996    71.485     30.623    
767.6      466.998    71.508     30.627    
767.8      433.002    71.512     30.632    
768        469        71.529     30.639    
768.2      471.001    71.554     30.642    
768.4      498.001    71.575     30.644    
768.6      518.999    71.576     30.65     
768.8      497        71.599     30.656    
769        501.001    71.62      30.661    
769.2      511.001    71.639     30.665    
769.4      521.003    71.645     30.666    
769.6      565.998    71.668     30.673    
769.8      531.001    71.69      30.678    
770        541.998    71.713     30.682    
770.2      510.997    71.724     30.686    
770.4      451.002    71.737     30.691    
770.6      484.999    71.76      30.695    
770.8      461.005    71.766     30.699    
771        549        71.779     30.703    
771.2      540.996    71.803     30.703    
771.4      462        71.825     30.708    
771.6      468.997    71.848     30.713    
771.8      413        71.851     30.72     
772        417.001    71.87      30.724    
772.2      442.998    71.893     30.728    
772.4      403        71.915     30.733    
772.6      397        71.936     30.74     
772.8      390.002    71.941     30.743    
773        419.001    71.963     30.749    
773.2      431.002    71.978     30.754    
773.4      467.004    71.987     30.755    
773.6      545.005    72.009     30.763    
773.8      637.006    72.032     30.767    
774        736.011    72.042     30.771    
774.2      939.01     72.057     30.772    
774.4      1112.006   72.08      30.78     
