~Version
 VERS              .         2.0                           : CWLS LOG ASCII STANDARD - VERSION 2.0
 WRAP              .         NO                            : ONE LINE PER DEPTH STEP
 DLM               .         SPACE                         : DELIMITING CHARACTER(SPACE TAB OR COMMA)
~Well Information
#_______________________________________________________________________________
#
#PARAMETER_NAME    .UNIT     VALUE                         : DESCRIPTION
#_______________________________________________________________________________
STRT               .M        2298.8                        : First reference value
STOP               .M        2799.8                        : Last reference value
STEP               .M        0.2                           : Step increment
NULL               .         -9999                         : Missing value
COMP               .                                       : Company
WELL               .         616                           : Well name
FLD                .                                       : Field
LOC                .                                       : Location
CNTY               .                                       : County
STAT               .                                       : State
CTRY               .                                       : Country
SRVC               .                                       : Service Company
DATE               .                                       : Date
API                .                                       : API number
PROJECT_UPGRADE_TIME .         2021-03-18T21_24_50           : 
group              .         Good                          : 
~Parameter Information Block
#_______________________________________________________________________________
#
#PARAMETER_NAME    .UNIT     VALUE                         : DESCRIPTION
#_______________________________________________________________________________
SET                .         D2659_D                       : 
OTHER              .         Программное обеспечение станции MONITOR-386EX 25/12/99 15_08_10   BGF V50 26/12/00 07_26_01   3.1_SNGF___BGF_N_092085: 
OTHER_10           .         Тарировки_                    : 
OTHER_11           .         <_techsia_sc_> Постоянная времени фильтра ПС  0.5 сек, kf=0.139292: 
OTHER_2            .         Kedr.exe версия 3.3.2.32      : 
OTHER_3            .         KedrData.dll версия 3.3.2.17  : 
OTHER_4            .         Драйвер версия 2.1.0.7        : 
OTHER_5            .         Мнемоники версия 3.3 S        : 
OTHER_6            .         Прибор_ К1a-723м              : 
OTHER_7            .         Номер прибора_ 348/72         : 
OTHER_8            .         Режим_ K1A-723M               : 
OTHER_9            .         Форма_ БКЗ                    : 
PROJECT_UPGRADE_TIME .         2021-03-18T21_24_49           : 
TLFamily_BK        .         Lateral Log Resistivity       : 
TLFamily_DEPT      .         Measured Depth                : 
TLFamily_GZ1       .         Extra Shallow Resistivity     : 
TLFamily_GZ2       .         Shallow Resistivity           : 
TLFamily_GZ3       .         Medium Resistivity            : 
TLFamily_GZ4       .         Deep Resistivity              : 
TLFamily_GZ5       .         Extra Deep Resistivity        : 
TLFamily_GZ6       .         Medium Resistivity Inverted   : 
TLFamily_IBK       .                                       : 
TLFamily_IK        .         Conductivity                  : 
TLFamily_IPR       .                                       : 
TLFamily_METKA     .                                       : 
TLFamily_PS        .         Spontaneous Potential         : 
TLFamily_PZ        .         Potential Resistivity         : 
TLFamily_RCOR      .                                       : 
TLFamily_RES       .         Mud Resistivity               : 
TLFamily_SPID      .         Spontaneous Potential         : 
TLFamily_TENS      .         Cable Tension                 : 
TLFamily_TIME      .         Time                          : 
TLFamily_UBK       .         Uranium Concentration         : 
group              .         prim                          : 
~Curve Information
#_______________________________________________________________________________
#
#LOGNAME           .UNIT     LOG_ID                        : DESCRIPTION
#_______________________________________________________________________________
DEPT               .M                                      : 1 Глубина, м -    0.0 см 
BK                 .OHMM                                   : 20 БК, Ом*м - 1768.0 см 
GZ1                .OHMM                                   : 12 A0.4M0.1N, Ом*м - 1295.0 см 
GZ2                .OHMM                                   : 11 A1.0M0.1N, Ом*м - 1355.0 см 
GZ3                .OHMM                                   : 9 A2.0M0.5N, Ом*м - 1475.0 см 
GZ4                .OHMM                                   : 8 A4.0M0.5N, Ом*м - 1025.0 см 
GZ5                .OHMM                                   : 7 A8.0M1.0N, Ом*м - 1450.0 см 
GZ6                .OHMM                                   : 10 N0.5M2.0A, Ом*м - 1025.0 см 
IBK                .A                                      : 18 Ток БК, А - 1768.0 см 
IK                 .MSM/M                                  : 14 ИК, мСм/м - 1961.0 см 
IPR                .MA                                     : 17 Ток прибора, мA -    0.0 см 
METKA              .                                       : 3 Метки,  -    0.0 см 
PS                 .mV                                     : 16 ПС, мВ - 1210.0 см 
PZ                 .OHMM                                   : 13 N11M0.5A, Ом*м - 1225.0 см 
RCOR               .CM/KM                                  : 5 Коррекция по ролику, см/км -    0.0 см 
RES                .OHMM                                   : 15 Резистивиметр, Ом*м -  600.0 см 
SPID               .M/H                                    : 2 Скорость, м/час -    0.0 см 
TENS               .T                                      : 6 Натяжение кабеля, т -    0.0 см 
TIME               .S                                      : 4 Время, сек -    0.0 см 
UBK                .V                                      : 19 Напр. БК, В - 1768.0 см 
~Ascii
# ...
2691       4.84       6          5.3        5.1        5.1        5.4        5.1        0.028      178.9      430        0          568.25     6.2        -304       2.756      -1859      0          28650.29   0.562     
2691.2     4.76       5.8        5.3        4.9        5          5.3        5.2        0.028      179.8      428.667    0          568.13     6.2        -304       2.759      -1817      0          28649.9    0.565     
2691.4     4.93       5.7        5.1        5          5.2        5.5        5.4        0.027      179.7      428        0          568.04     6.3        -304       2.758      -1838      0          28649.58   0.566     
2691.6     5.54       5.8        5.2        5.2        5.3        5.7        5.4        0.024      178.2      428.512    0          568.15     6.3        -304       2.761      -1847      0          28649.12   0.568     
2691.8     5.32       6.3        5.6        5.4        5.3        5.7        5.5        0.025      176.5      430        0          568.29     6.2        -304       2.757      -1838      0          28648.79   0.566     
2692       5.13       6.6        5.5        5.3        5.3        5.7        5.5        0.026      176.8      430        0          568.04     6.1        -304       2.758      -1821      0          28648.36   0.567     
2692.2     5.26       6.3        5.3        5.2        5.3        5.5        5.4        0.026      177.1      429.5      0          567.82     6          -304       2.757      -1830      0          28647.97   0.571     
2692.4     5.14       6.4        5.6        5.2        5.3        5.6        5.5        0.027      177.9      428        0          568.44     6          -304       2.757      -1848      0          28647.58   0.576     
2692.6     5.09       6.4        5.8        5.1        5.3        5.5        5.5        0.027      176.3      428        0          568.69     6.1        -304       2.757      -1838      0          28647.19   0.579     
2692.8     5.08       6.3        5.8        5.1        5.4        5.6        5.6        0.027      178        430.656    0          568.89     6.4        -304       2.758      -1822      0          28646.82   0.579     
2693       4.89       6.1        5.6        5.2        5.2        5.6        5.3        0.028      177.7      428        0          568.31     6.5        -304       2.758      -1817      0          28646.4    0.578     
2693.2     5.3        5.9        5.2        4.9        5.1        5.2        5.1        0.026      177.4      428        0          568.46     6.4        -304       2.758      -1834      0          28646.04   0.579     
2693.4     5.41       6          5.2        4.7        4.9        5.1        4.7        0.025      178.5      428        0          568.06     6.3        -304       2.76       -1814      0          28645.67   0.58      
2693.6     5.6        6.5        5.3        4.8        4.9        5.1        4.5        0.025      179.1      428        0          567.94     6.2        -304       2.757      -1807      0          28645.24   0.58      
2693.8     5.17       6.7        5.4        4.9        5.1        5.1        4.4        0.026      179.4      429.206    0          567.99     6.3        -304       2.759      -1820      0          28644.87   0.577     
2694       5.12       6.5        5.5        5          5          5.1        4.1        0.027      180.7      428        0          568.49     6.2        -304       2.758      -1844      0          28644.47   0.578     
2694.2     5.15       6.1        5.7        5          4.9        4.9        4.2        0.026      184.8      429.333    0          568.18     6          -304       2.757      -1843      0          28644.1    0.574     
2694.4     5.42       6.2        5.6        4.9        5.1        5          4.4        0.025      187.1      428        0          568.13     5.8        -304       2.756      -1830      0          28643.8    0.569     
2694.6     5.41       6.5        5.7        5.1        5.1        5.1        4.7        0.025      188.2      429.317    0          567.96     5.6        -304       2.759      -1808      0          28643.4    0.561     
2694.8     5.02       6.6        5.7        5.3        5.1        5          5.2        0.026      192.5      428        0          568.33     5.4        -304       2.757      -1814      0          28642.98   0.553     
2695       4.85       6.4        5.9        5.3        5.3        5          5.8        0.026      198.4      428        0          568.41     5.3        -304       2.756      -1832      0          28642.55   0.537     
2695.2     4.84       6.1        5.6        5.5        5.3        5.3        6.3        0.025      203.8      428        0          568.55     5.1        -304       2.759      -1857      0          28642.09   0.514     
2695.4     4.64       5.8        5.4        5.6        5.4        5.1        6.9        0.025      211.4      429.2      0          568.75     4.7        -304       2.757      -1855      0          28641.7    0.498     
2695.6     4.69       5.7        5.4        5.4        5.2        5          7.5        0.025      216.6      428        0          569.16     4.4        -304       2.757      -1852      0          28641.33   0.492     
2695.8     4.78       5.7        5.4        5.4        5.2        4.8        8.1        0.025      220.1      430        0          569.45     4.4        -304       2.757      -1846      0          28640.93   0.496     
2696       4.52       5.9        5.2        5          4.9        4.5        8.6        0.027      220.8      429.333    0          568.85     4.8        -304       2.756      -1835      0          28640.57   0.506     
2696.2     3.34       5.2        4.4        4.4        4.3        4.1        9          0.037      221.9      429.333    0          569        5.7        -304       2.757      -1816      0          28640.21   0.52      
2696.4     3.21       3.8        3.4        3.3        3.4        3.4        8.9        0.04       220.1      428        0          568.67     6.9        -304       2.757      -1800      0          28639.77   0.535     
2696.6     3.42       2.8        2.5        2.7        2.7        3.1        8.5        0.038      214        429.301    0          567.14     8.1        -304       2.754      -1808      0          28639.38   0.551     
2696.8     5.03       3.1        2.4        2.5        2.6        3          8.1        0.027      195.7      428        0          564.49     9          -304       2.759      -1822      0          28639      0.567     
2697       6.12       4.2        2.9        2.6        2.6        3.1        8.4        0.023      173.2      428        0          562.17     9.7        -304       2.76       -1825      0          28638.64   0.587     
2697.2     7.15       6.1        3.7        3          3          3.2        8.9        0.02       153        428        0          560.19     10.3       -304       2.758      -1799      0          28638.19   0.612     
2697.4     7.55       7.5        4.8        3.5        3.5        3.5        9.2        0.021      136.1      428        0          559.44     10.7       -304       2.758      -1806      0          28637.82   0.66      
2697.6     8.2        8.8        6          4          3.8        3.5        9.2        0.021      124.2      428        0          560.18     11.3       -304       2.757      -1818      0          28637.48   0.725     
2697.8     7.54       9.4        6.8        4.2        3.9        3.7        9          0.025      116.2      428        0          561.27     12.3       -304       2.758      -1839      0          28637.03   0.795     
2698       7.32       9.6        7.7        4.5        3.9        4          8.8        0.027      110.7      428        0          563.03     13         -304       2.756      -1877      0          28636.64   0.833     
2698.2     6.88       9.1        7.8        5.1        4.3        4.5        9.1        0.029      107.7      428        0          563.89     13.6       -304       2.758      -1871      0          28636.3    0.85      
