~Version
 VERS              .         2.0                           : CWLS LOG ASCII STANDARD - VERSION 2.0
 WRAP              .         NO                            : ONE LINE PER DEPTH STEP
 DLM               .         SPACE                         : DELIMITING CHARACTER(SPACE TAB OR COMMA)
~Well Information
#_______________________________________________________________________________
#
#PARAMETER_NAME    .UNIT     VALUE                         : DESCRIPTION
#_______________________________________________________________________________
STRT               .M        2733.1                        : First reference value
STOP               .M        2798.6                        : Last reference value
STEP               .M        0.1                           : Step increment
NULL               .         -9999                         : Missing value
COMP               .                                       : Company
WELL               .         616                           : Well name
FLD                .                                       : Field
LOC                .                                       : Location
CNTY               .                                       : County
STAT               .                                       : State
CTRY               .                                       : Country
SRVC               .                                       : Service Company
DATE               .                                       : Date
API                .                                       : API number
PROJECT_UPGRADE_TIME .         2021-03-18T21_24_50           : 
group              .         Good                          : 
~Parameter Information Block
#_______________________________________________________________________________
#
#PARAMETER_NAME    .UNIT     VALUE                         : DESCRIPTION
#_______________________________________________________________________________
SET                .         D2661_D                       : 
OTHER              .         Программное обеспечение станции MONITOR-386EX 25/12/99 15_08_10   BGF V50 26/12/00 07_26_01   3.1_SNGF___BGF_N_092085: 
OTHER_10           .         Тарировки_                    : 
OTHER_11           .         IK1.GRD = IK1$.UE - -5.96     : 
OTHER_12           .         IK5.GRD = IK5$.UE - -0.74     : 
OTHER_13           .         IK4.GRD = IK4$.UE - -0.9      : 
OTHER_14           .         IK3.GRD = IK3$.UE - -1.28     : 
OTHER_15           .         IK2.GRD = IK2$.UE - -3.55     : 
OTHER_2            .         Kedr.exe версия 3.3.2.32      : 
OTHER_3            .         KedrData.dll версия 3.3.2.17  : 
OTHER_4            .         Драйвер версия 2.1.0.4        : 
OTHER_5            .         Мнемоники версия 3.3 S        : 
OTHER_6            .         Прибор_ Викиз                 : 
OTHER_7            .         Номер прибора_ 0006012        : 
OTHER_8            .         Режим_ Викиз                  : 
OTHER_9            .         Форма_ ВИКИЗ                  : 
PROJECT_UPGRADE_TIME .         2021-03-18T21_24_49           : 
TLFamily_DEPT      .         Measured Depth                : 
TLFamily_IK1       .         Extra Shallow Resistivity     : 
TLFamily_IK1$      .         Extra Shallow Resistivity     : 
TLFamily_IK2       .         Shallow Resistivity           : 
TLFamily_IK2$      .         Shallow Resistivity           : 
TLFamily_IK3       .         Medium Resistivity            : 
TLFamily_IK3$      .         Medium Resistivity            : 
TLFamily_IK4       .         Deep Resistivity              : 
TLFamily_IK4$      .         Deep Resistivity              : 
TLFamily_IK5       .         Resistivity 20                : 
TLFamily_IK5$      .         Resistivity 20                : 
TLFamily_METKA     .                                       : 
TLFamily_PS        .         Spontaneous Potential         : 
TLFamily_RCOR      .                                       : 
TLFamily_SPID      .         Spontaneous Potential         : 
TLFamily_TENS      .         Cable Tension                 : 
TLFamily_TIME      .         Time                          : 
group              .         prim                          : 
~Curve Information
#_______________________________________________________________________________
#
#LOGNAME           .UNIT     LOG_ID                        : DESCRIPTION
#_______________________________________________________________________________
DEPT               .M                                      : 1 Глубина, м -    0.0 см 
IK1                .GRD                                    : 13 3Ф0.5, град. -  226.0 см 
IK1$               .UE                                     : 7 3Ф0.5, усл.ед. -  226.0 см 
IK2                .GRD                                    : 17 3Ф0.7, град. -  240.0 см 
IK2$               .UE                                     : 11 3Ф0.7, усл.ед. -  240.0 см 
IK3                .GRD                                    : 16 3Ф1.0, град. -  260.0 см 
IK3$               .UE                                     : 10 3Ф1.0, усл.ед. -  260.0 см 
IK4                .GRD                                    : 15 3Ф1.4, град. -  288.0 см 
IK4$               .UE                                     : 9 3Ф1.4, усл.ед. -  288.0 см 
IK5                .GRD                                    : 14 3Ф2.0, град. -  328.0 см 
IK5$               .UE                                     : 8 3Ф2.0, усл.ед. -  328.0 см 
METKA              .                                       : 3 Метки,  -    0.0 см 
PS                 .mV                                     : 12 ПС, мВ -  372.0 см 
RCOR               .CM/KM                                  : 5 Коррекция по ролику, см/км -    0.0 см 
SPID               .M/H                                    : 2 Скорость, м/час -    0.0 см 
TENS               .T                                      : 6 Натяжение кабеля, т -    0.0 см 
TIME               .S                                      : 4 Время, сек -    0.0 см 
~Ascii
# ...
2746       14.63      8.67       15.13      11.58      15.92      14.64      15.42      14.52      15.07      14.33      0          327.86     -302       -1807      0          34457.49  
2746.1     15.21      9.25       15.37      11.82      15.96      14.68      15.39      14.49      15.02      14.28      0          330.11     -302       -1793      0          34457.28  
2746.2     15.44      9.48       15.26      11.71      15.77      14.49      15.23      14.33      14.92      14.18      0          331.79     -302       -1777      0          34457.09  
2746.3     15.45      9.49       15.02      11.47      15.47      14.19      14.99      14.09      14.79      14.05      0          332.68     -302       -1784      0          34456.9   
2746.4     15.52      9.56       14.86      11.31      15.2       13.92      14.82      13.92      14.66      13.92      0          333.24     -302       -1797      0          34456.71  
2746.5     15.69      9.73       14.87      11.32      15.1       13.82      14.72      13.82      14.58      13.84      0          333.83     -302       -1815      0          34456.48  
2746.6     15.89      9.93       14.98      11.43      15.08      13.8       14.71      13.81      14.57      13.83      0          334.11     -302       -1821      0          34456.28  
2746.7     16.11      10.15      15.16      11.61      15.1       13.82      14.73      13.83      14.59      13.85      0          334.01     -302       -1829      0          34456.1   
2746.8     16.27      10.31      15.3       11.75      15.11      13.83      14.74      13.84      14.61      13.87      0          333.84     -302       -1825      0          34455.88  
2746.9     16.28      10.32      15.35      11.8       15.08      13.8       14.73      13.83      14.61      13.87      0          333.63     -302       -1817      0          34455.68  
2747       16.24      10.28      15.35      11.8       15.06      13.78      14.68      13.78      14.61      13.87      0          333.31     -302       -1807      0          34455.5   
2747.1     16.29      10.33      15.4       11.85      15.08      13.8       14.66      13.76      14.6       13.86      0          333.13     -302       -1809      0          34455.3   
2747.2     16.39      10.43      15.52      11.97      15.14      13.86      14.65      13.75      14.58      13.84      0          332.74     -302       -1815      0          34455.09  
2747.3     16.45      10.49      15.59      12.04      15.19      13.91      14.64      13.74      14.57      13.83      0          332.54     -302       -1819      0          34454.9   
2747.4     16.43      10.47      15.6       12.05      15.19      13.91      14.62      13.72      14.54      13.8       0          332.3      -302       -1809      0          34454.72  
2747.5     16.39      10.43      15.56      12.01      15.19      13.91      14.59      13.69      14.5       13.76      0          332.27     -302       -1796      0          34454.51  
2747.6     16.37      10.41      15.52      11.97      15.18      13.9       14.55      13.65      14.45      13.71      0          332.09     -302       -1787      0          34454.32  
2747.7     16.36      10.4       15.47      11.92      15.16      13.88      14.52      13.62      14.42      13.68      0          332.2      -302       -1800      0          34454.14  
2747.8     16.32      10.36      15.41      11.86      15.14      13.86      14.5       13.6       14.39      13.65      0          332.47     -302       -1819      0          34453.93  
2747.9     16.31      10.35      15.37      11.82      15.11      13.83      14.49      13.59      14.37      13.63      0          332.66     -302       -1830      0          34453.72  
2748       16.27      10.31      15.31      11.76      15.08      13.8       14.48      13.58      14.35      13.61      0          332.99     -302       -1823      0          34453.54  
2748.1     16.22      10.26      15.25      11.7       15.05      13.77      14.47      13.57      14.33      13.59      0          333.32     -302       -1813      0          34453.33  
2748.2     16.22      10.26      15.23      11.68      15.04      13.76      14.48      13.58      14.33      13.59      0          333.68     -302       -1810      0          34453.12  
2748.3     16.25      10.29      15.25      11.7       15.05      13.77      14.5       13.6       14.34      13.6       0          334.16     -302       -1815      0          34452.93  
2748.4     16.32      10.36      15.28      11.73      15.08      13.8       14.52      13.62      14.36      13.62      0          334.26     -302       -1821      0          34452.73  
2748.5     16.36      10.4       15.31      11.76      15.08      13.8       14.53      13.63      14.38      13.64      0          334.47     -302       -1816      0          34452.52  
2748.6     16.36      10.4       15.31      11.76      15.08      13.8       14.53      13.63      14.4       13.66      0          334.44     -302       -1806      0          34452.32  
2748.7     16.32      10.36      15.29      11.74      15.06      13.78      14.53      13.63      14.42      13.68      0          334.27     -302       -1793      0          34452.14  
2748.8     16.25      10.29      15.26      11.71      15.03      13.75      14.52      13.62      14.43      13.69      0          334.19     -302       -1791      0          34451.93  
2748.9     16.22      10.26      15.27      11.72      15.03      13.75      14.53      13.63      14.46      13.72      0          334.27     -302       -1792      0          34451.74  
2749       16.24      10.28      15.34      11.79      15.07      13.79      14.57      13.67      14.5       13.76      0          334.05     -302       -1792      0          34451.56  
2749.1     16.31      10.35      15.45      11.9       15.17      13.89      14.65      13.75      14.58      13.84      0          333.88     -302       -1793      0          34451.37  
2749.2     16.38      10.42      15.57      12.02      15.28      14         14.74      13.84      14.64      13.9       0          333.88     -302       -1793      0          34451.14  
2749.3     16.53      10.57      15.72      12.17      15.4       14.12      14.85      13.95      14.72      13.98      0          333.72     -302       -1797      0          34450.96  
2749.4     16.73      10.77      15.85      12.3       15.54      14.26      14.96      14.06      14.79      14.05      0          333.54     -302       -1813      0          34450.77  
2749.5     16.85      10.89      15.94      12.39      15.62      14.34      15.03      14.13      14.85      14.11      0          333.15     -302       -1836      0          34450.55  
2749.6     16.89      10.93      15.98      12.43      15.66      14.38      15.07      14.17      14.87      14.13      0          332.65     -302       -1850      0          34450.37  
2749.7     16.95      10.99      16.02      12.47      15.69      14.41      15.1       14.2       14.89      14.15      0          332.53     -302       -1847      0          34450.18  
2749.8     17.03      11.07      16.05      12.5       15.71      14.43      15.11      14.21      14.88      14.14      0          332.52     -302       -1844      0          34449.99  
2749.9     17.04      11.08      16.04      12.49      15.7       14.42      15.1       14.2       14.85      14.11      1          332.31     -302       -1839      0          34449.75  
2750       17         11.04      16         12.45      15.66      14.38      15.06      14.16      14.82      14.08      0          332.53     -299       -1832      0          34449.49  
2750.1     16.93      10.97      15.93      12.38      15.6       14.32      14.99      14.09      14.76      14.02      0          332.62     -299       -1826      0          34449.32  
2750.2     16.82      10.86      15.83      12.28      15.53      14.25      14.92      14.02      14.69      13.95      0          332.71     -299       -1816      0          34449.09  
