~Version
 VERS              .         2.0                           : CWLS LOG ASCII STANDARD - VERSION 2.0
 WRAP              .         NO                            : ONE LINE PER DEPTH STEP
 DLM               .         SPACE                         : DELIMITING CHARACTER(SPACE TAB OR COMMA)
~Well Information
#_______________________________________________________________________________
#
#PARAMETER_NAME    .UNIT     VALUE                         : DESCRIPTION
#_______________________________________________________________________________
STRT               .M        2650.4                        : First reference value
STOP               .M        2757.800161                   : Last reference value
STEP               .M        0.2000003                     : Step increment
NULL               .         -9999                         : Missing value
COMP               .                                       : Company
WELL               .         616                           : Well name
FLD                .                                       : Field
LOC                .                                       : Location
CNTY               .                                       : County
STAT               .                                       : State
CTRY               .                                       : Country
SRVC               .                                       : Service Company
DATE               .                                       : Date
API                .                                       : API number
PROJECT_UPGRADE_TIME .         2021-03-18T21_24_50           : 
group              .         Good                          : 
~Parameter Information Block
#_______________________________________________________________________________
#
#PARAMETER_NAME    .UNIT     VALUE                         : DESCRIPTION
#_______________________________________________________________________________
SET                .         D4412_D                       : 
OTHER              .         Запись производится в присутствии: 
OTHER_10           .         Максимальная температура      : 
OTHER_11           .         Тип промывочной жидкости      : 
OTHER_12           .         Сопротивление ПЖ (Ом*м) при 20°C: 
OTHER_13           .         Плотность ПЖ(г/см3)           : 
OTHER_14           .         Вязкость ПЖ(с)                : 
OTHER_15           .         Водоотдача ПЖ(см3/30мин)      : 
OTHER_16           .         Уровень ПЖ                    : 
OTHER_17           .         Нефть ПЖ (%)                  : 
OTHER_18           .         Барит ПЖ (%)                  : 
OTHER_19           .         Гематит ПЖ (%)                : 
OTHER_2            .         Заказчик ННСН  ЦДНГ-1         : 
OTHER_20           .         КМЦ ПЖ (%)                    : 
OTHER_21           .         Разгазирование ПЖ (да,нет)    : 
OTHER_22           .         Подъемник                     : 
OTHER_23           .         Лаборатория                   : 
OTHER_24           .         Тип кабеля                    : 
OTHER_25           .         Длина кабеля (м)              : 
OTHER_26           .         Цена последней метки          : 
OTHER_27           .         Цена контрольной метки        : 
OTHER_28           .         Диаметр долота (мм)           : 
OTHER_29           .         Глубина бурения (м)           : 
OTHER_3            .         Площадь                       : 
OTHER_30           .         Искусственный забой (м)       : 
OTHER_31           .         Диаметр колонны (мм)          : 
OTHER_32           .         Толщина колонны (мм)          : 
OTHER_33           .         Башмак колонны (м)            : 
OTHER_34           .         Диаметр НКТ (мм)              : 
OTHER_35           .         Толщина НКТ (мм)              : 
OTHER_36           .         Воронка НКТ (м)               : 
OTHER_37           .         Дата цементожа                : 
OTHER_38           .         Тип, количество(т) и плотность цемента: 
OTHER_39           .         Интервалы перфорации (м)      : 
OTHER_4            .         Категория                     : 
OTHER_40           .         Направление, диаметр (мм)     : 
OTHER_41           .         Направление, глубина (м)      : 
OTHER_42           .         Кондуктор, диаметр (мм)       : 
OTHER_43           .         Кондуктор, глубина (м)        : 
OTHER_44           .         Техническая колонна, диаметр (мм): 
OTHER_45           .         Техническая колонна, глубина (м): 
OTHER_46           .         Эксплуатационная колонна, диаметр (мм): 
OTHER_47           .         Эксплуатационная колонна, глубина (м): 
OTHER_48           .         Программа Кедр-02 версия 3.4  : 
OTHER_49           .         Операционная система Windows NT 5.1 build 2600 Service Pack 2: 
OTHER_5            .         Назначение исследований       : 
OTHER_50           .         Программное обеспечение станции MONITOR-386EX 25/12/99 15_08_10   BGF V54 20/09/05 15_32_17   3.3__BGF_9030071: 
OTHER_51           .         Kedr.exe версия 3.4.2.74      : 
OTHER_52           .         KedrData.dll версия 3.4.2.29  : 
OTHER_53           .         Мнемоники версия 3.18 S       : 
OTHER_54           .         Драйвер версия 2.1.1.4        : 
OTHER_55           .         LasInf.dll 4.3.0.35           : 
OTHER_56           .         Прибор_ КСА-Т4                : 
OTHER_57           .         Номер прибора_ 160            : 
OTHER_58           .         Режим_ КСА-Т4                 : 
OTHER_59           .         Форма_ С.А.Б.                 : 
OTHER_6            .         Альтитуда стола ротора        : 
OTHER_60           .         Тарировки_                    : 
OTHER_61           .         <_techsia_sc_> Дата тарировки температуры 25.05.2010: 
OTHER_62           .         Ручной ввод коэффициентов     : 
OTHER_63           .         TM.DEGC = 0.00402*RTM.E.ACP + -0.994: 
OTHER_64           .         <_techsia_sc_> Дата тарировки давления 25.05.2010: 
OTHER_65           .         Ручной ввод коэффициентов     : 
OTHER_66           .         MN.ATM = (2.27521e-006*TM.DEGC + 0.02078)*(RMN.E.ACP + 6.2*TM.DEGC + -1688): 
OTHER_67           .         <_techsia_sc_> Дата тарировки ГК 25.05.2010: 
OTHER_68           .         Ручной ввод коэффициентов     : 
OTHER_69           .         GR.UR/H = RGR.IMP/MIN / 45.5144: 
OTHER_7            .         Вид исследований 3  6         : 
OTHER_70           .         GK.FLT = 0.1*GR.UR/H[-1] + (1-0.1)*GR.UR/H[0]: 
OTHER_8            .         Начало бурения интервала каротажа: 
OTHER_9            .         Окончание бурения интервала каротажа: 
PROJECT_UPGRADE_TIME .         2021-03-18T21_24_50           : 
TLFamily_CCLC      .                                       : 
TLFamily_DEPT      .         Measured Depth                : 
TLFamily_GK        .         Gamma Ray                     : 
TLFamily_GR        .         Gamma Ray                     : 
TLFamily_METKA     .                                       : 
TLFamily_MN        .                                       : 
TLFamily_RCOR      .                                       : 
TLFamily_RGR       .                                       : 
TLFamily_RMN       .                                       : 
TLFamily_RTEN      .                                       : 
TLFamily_RTM       .                                       : 
TLFamily_SPEE      .         Cable Speed                   : 
TLFamily_TIME      .         Time                          : 
TLFamily_TM        .         Temperature                   : 
group              .         prim                          : 
~Curve Information
#_______________________________________________________________________________
#
#LOGNAME           .UNIT     LOG_ID                        : DESCRIPTION
#_______________________________________________________________________________
DEPT               .M                                      : 1 Глубина, м -    0.0 см 
CCLC               .E.ACP                                  : 9 Локатор муфт,  -   20.0 см 
GK                 .FLT                                    : 14 Гамма-активность фильтрованная, мкр./ч -  110.0 см 
GR                 .UR/H                                   : 13 Гамма-активность, мкр./ч -  110.0 см 
METKA              .CU                                     : 3 Метки,  -    0.0 см 
MN                 .ATM                                    : 12 Давление, атм. -  160.0 см 
RCOR               .CM/KM                                  : 5 Коррекция по ролику, см/км -    0.0 см 
RGR                .IMP/MIN                                : 10 Гамма-активность, усл.ед. -  110.0 см 
RMN                .E.ACP                                  : 8 Давление, усл.ед. -  160.0 см 
RTEN               .T                                      : 6 Натяжение кабеля, т -    0.0 см 
RTM                .E.ACP                                  : 7 Температура, усл.ед. -  170.0 см 
SPEE               .M/H                                    : 2 Скорость, м/час -    0.0 см 
TIME               .S                                      : 4 Время, сек -    0.0 см 
TM                 .DEGC                                   : 11 Температура, °C -  170.0 см 
~Ascii
# ...
2681.600047 210        5.73       5.73       0          370.392    -1086      261        18985      0.2        16379      586        195.15     64.85     
2681.800047 127        5.85       5.85       0          370.461    -1086      266        18988      0.2        16379      586        196.39     64.85     
2682.000047 122        6.57       6.57       0          370.461    -1086      299        18988      0.2        16379      586        197.66     64.85     
2682.200048 115        6.44       6.44       0          370.512    -1086      293        18990      0.2        16379      586        198.88     64.85     
2682.400048 183        6.37       6.37       0          370.545    -1086      290        18992      0.2        16380      586        200.09     64.854    
2682.600048 271        6.37       6.37       0          370.567    -1086      290        18993      0.2        16380      586        201.31     64.855    
2682.800049 124        6.81       6.81       0          370.549    -1086      310        18992      0.2        16381      586        202.59     64.858    
2683.000049 155        7.23       7.23       0          370.588    -1086      329        18994      0.2        16382      587        203.8      64.861    
2683.200049 151        7.54       7.54       0          370.358    -1086      343        18983      0.2        16382      586        205.05     64.862    
2683.40005 209        7.54       7.54       0          370.358    -1086      343        18983      0.2        16382      587        206.26     64.862    
2683.60005 249        7.16       7.16       0          370.403    -1086      326        18985      0.2        16382      586        207.5      64.862    
2683.80005 264        7.21       7.21       0          370.331    -1086      328        18982      0.2        16383      586        208.77     64.864    
2684.00005 168        7.38       7.38       0          370.203    -1086      336        18975      0.2        16383      586        210        64.866    
2684.200051 205        7.38       7.38       0          370.171    -1086      336        18974      0.2        16384      585        211.21     64.87     
2684.400051 110        7.89       7.89       0          370.192    -1086      359        18975      0.2        16384      585        212.44     64.87     
2684.600051 188        7.89       7.89       0          370.189    -1086      359        18975      0.2        16384      585        213.76     64.87     
2684.800052 217        8.17       8.17       0          370.163    -1086      372        18974      0.2        16385      585        214.97     64.874    
2685.000052 304        8.17       8.17       0          370.151    -1086      372        18973      0.2        16385      586        216.2      64.874    
2685.200052 245        7.71       7.71       0          370.172    -1086      351        18974      0.2        16385      585        217.41     64.874    
2685.400053 360        7.71       7.71       0          370.131    -1086      351        18972      0.2        16386      587        218.62     64.876    
2685.600053 321        6.92       6.92       0          370.131    -1086      315        18972      0.2        16386      587        219.89     64.878    
2685.800053 339        6.92       6.92       0          370.12     -1086      315        18972      0.2        16386      587        221.11     64.878    
2686.000053 298        7.58       7.58       2          370.11     -1087      345        18971      0.2        16386      587        222.37     64.878    
2686.200054 3560       7.58       7.58       0          370.131    -1087      345        18972      0.2        16387      587        223.61     64.88     
2686.400054 3029       7.95       7.95       0          370.152    -1087      362        18973      0.2        16386      586        224.83     64.878    
2686.600054 949        7.95       7.95       0          370.174    -1087      362        18974      0.2        16387      586        226.11     64.881    
2686.800055 282        7.84       7.84       0          370.133    -1087      357        18972      0.2        16388      587        227.32     64.886    
2687.000055 135        7.84       7.84       0          370.15     -1087      357        18973      0.2        16389      587        228.54     64.89     
2687.200055 124        8.79       8.79       0          370.158    -1087      400        18973      0.2        16389      587        229.76     64.891    
2687.400056 85         8.79       8.79       0          370.196    -1087      400        18975      0.2        16389      588        231.03     64.89     
2687.600056 86         9.05       9.05       0          370.217    -1087      412        18976      0.2        16390      588        232.28     64.894    
2687.800056 84         9.05       9.05       0          370.238    -1087      412        18977      0.2        16390      587        233.48     64.894    
2688.000056 113        8.63       8.63       0          370.239    -1087      393        18977      0.2        16390      587        234.73     64.894    
2688.200057 153        8.63       8.63       0          370.302    -1087      393        18980      0.2        16391      586        235.95     64.897    
2688.400057 134        9.14       9.14       0          370.333    -1087      416        18982      0.2        16391      587        237.22     64.898    
2688.600057 124        9.14       9.14       1          370.365    -1087      416        18983      0.2        16391      586        238.44     64.898    
2688.800058 113        9.36       9.36       0          370.38     -1087      426        18984      0.2        16392      586        239.67     64.902    
2689.000058 88         9.36       9.36       0          370.431    -1087      426        18986      0.2        16392      586        240.92     64.902    
2689.200058 69         9.34       9.34       0          370.479    -1087      425        18988      0.2        16393      585        242.19     64.906    
2689.400058 116        9.34       9.34       0          370.513    -1087      425        18990      0.2        16393      585        243.42     64.906    
2689.600059 107        9.69       9.69       1          370.555    -1087      441        18992      0.2        16394      585        244.64     64.91     
2689.800059 158        9.69       9.69       0          370.576    -1087      441        18993      0.2        16395      586        245.85     64.914    
2690.000059 142        10.19      10.19      0          370.597    -1087      464        18994      0.2        16395      587        247.06     64.914    
2690.20006 183        10.19      10.19      0          370.629    -1087      464        18996      0.2        16396      587        248.37     64.918    
2690.40006 207        10.68      10.68      0          370.688    -1087      486        18998      0.2        16396      586        249.58     64.918    
2690.60006 144        10.68      10.68      0          370.703    -1087      486        18999      0.2        16396      587        250.78     64.918    
2690.800061 144        10.9       10.9       0          370.757    -1087      496        19002      0.2        16397      587        252.05     64.922    
2691.000061 145        10.9       10.9       0          370.829    -1087      496        19005      0.2        16397      588        253.3      64.922    
2691.200061 91         10.22      10.22      0          370.851    -1087      465        19006      0.2        16397      587        254.51     64.922    
2691.400061 67         10.22      10.22      0          370.889    -1087      465        19008      0.2        16398      588        255.75     64.926    
2691.600062 87         9.69       9.69       0          370.956    -1087      441        19011      0.2        16398      587        256.97     64.926    
2691.800062 104        9.69       9.69       0          371.028    -1087      441        19014      0.2        16399      587        258.17     64.93     
