~Version
 VERS              .         2.0                           : CWLS LOG ASCII STANDARD - VERSION 2.0
 WRAP              .         NO                            : ONE LINE PER DEPTH STEP
 DLM               .         SPACE                         : DELIMITING CHARACTER(SPACE TAB OR COMMA)
~Well Information
#_______________________________________________________________________________
#
#PARAMETER_NAME    .UNIT     VALUE                         : DESCRIPTION
#_______________________________________________________________________________
STRT               .M        2668.2                        : First reference value
STOP               .M        2774.000053                   : Last reference value
STEP               .M        0.2000001                     : Step increment
NULL               .         -9999                         : Missing value
COMP               .                                       : Company
WELL               .         616                           : Well name
FLD                .                                       : Field
LOC                .                                       : Location
CNTY               .                                       : County
STAT               .                                       : State
CTRY               .                                       : Country
SRVC               .                                       : Service Company
DATE               .                                       : Date
API                .                                       : API number
PROJECT_UPGRADE_TIME .         2021-03-18T21_24_50           : 
group              .         Good                          : 
~Parameter Information Block
#_______________________________________________________________________________
#
#PARAMETER_NAME    .UNIT     VALUE                         : DESCRIPTION
#_______________________________________________________________________________
SET                .         D1812_D_2                     : 
NPR                .                                       : 
OTHER              .         Программное обеспечение станции MONITOR-386EX 25/12/99 15_08_10   BGF V52 22/08/01 16_56_30   3.1_SNGF___BGF_N_092049: 
OTHER_10           .         Тарировки_                    : 
OTHER_11           .         TM.GRD = 0.00403*TM$.UE + -1.07: 
OTHER_12           .         MN.ATM = (9.34907e-006*TM.GRD + 0.02171)*(MN$.UE + -7.93*TM.GRD + -1787): 
OTHER_13           .         GK.MKR/H = LM. / 42.4676      : 
OTHER_14           .         GK.FLT = 0.1*GK.MKR/H[-1] + (1-0.1)*GK.MKR/H[0]: 
OTHER_2            .         Kedr.exe версия 3.4.2.51      : 
OTHER_3            .         KedrData.dll версия 3.4.2.24  : 
OTHER_4            .         Драйвер версия 2.1.1.3        : 
OTHER_5            .         Мнемоники версия 3.3 S        : 
OTHER_6            .         Прибор_ КСА-Т4                : 
OTHER_7            .         Номер прибора_ 03             : 
OTHER_8            .         Режим_ КСА-Т4                 : 
OTHER_9            .         Форма_ КВА.                   : 
PR                 .                                       : 
PROJECT_UPGRADE_TIME .         2021-03-18T21_24_49           : 
PRTY               .         ПП-603-1                      : N партии
SRV                .                                       : 
SRVC               .         Карпов                        : Начальник партии
TLFamily_DEPT      .         Measured Depth                : 
TLFamily_LM        .         Casing Collar locator         : 
TLFamily_MN        .                                       : 
TLFamily_TM        .         Temperature                   : 
group              .         second                        : 
~Curve Information
#_______________________________________________________________________________
#
#LOGNAME           .UNIT     LOG_ID                        : DESCRIPTION
#_______________________________________________________________________________
DEPT               .M                                      : Depth curve 
LM                 .е.ацп                                  : Локатор муфт,е.ацп 
MN                 .атм                                    : Манометрия, атм 
TM                 .град.C                                 : Термограмма по стволу скважины,град.C 
~Ascii
# ...
2739.800036 112.997    252.05     50.752    
2740.000036 115.999    252.073    50.742    
2740.200036 123.998    252.098    50.714    
2740.400036 111.003    252.121    50.697    
2740.600036 85.006     252.144    50.677    
2740.800036 89.999     252.169    50.655    
2741.000036 96.998     252.199    50.613    
2741.200036 85.003     252.222    50.539    
2741.400037 85         252.25     50.478    
2741.600037 64.005     252.275    50.38     
2741.800037 139.982    252.308    50.277    
2742.000037 97.01      252.314    50.186    
2742.200037 82.004     252.341    50.103    
2742.400037 73.002     252.383    50.036    
2742.600037 73         252.412    49.978    
2742.800037 88.996     252.42     49.919    
2743.000037 92.999     252.446    49.867    
2743.200037 123.993    252.47     49.825    
2743.400038 94.007     252.495    49.789    
2743.600038 80.003     252.521    49.746    
2743.800038 97.996     252.545    49.704    
2744.000038 71.006     252.565    49.68     
2744.200038 66.001     252.593    49.66     
2744.400038 99.992     252.616    49.638    
2744.600038 210.974    252.616    49.629    
2744.800038 126.02     252.661    49.627    
2745.000038 108.004    252.676    49.616    
2745.200038 100.002    252.706    49.607    
2745.400039 136.991    252.728    49.607    
2745.600039 144.998    252.75     49.607    
2745.800039 129.004    252.768    49.615    
2746.000039 127        252.78     49.623    
2746.200039 123.001    252.792    49.636    
2746.400039 104.005    252.814    49.648    
2746.600039 3147.275   252.835    49.661    
2746.800039 1161.473   252.856    49.676    
2747.000039 318.201    252.884    49.694    
2747.20004 103.051    252.898    49.713    
2747.40004 105.999    252.94     49.735    
2747.60004 68.009     252.937    49.771    
2747.80004 73.999     252.956    49.822    
2748.00004 65.002     252.953    49.864    
2748.20004 77.997     252.973    49.901    
2748.40004 65.003     252.992    49.942    
2748.60004 86.995     253.01     49.994    
2748.80004 69.004     253.029    50.046    
2749.00004 76.998     253.048    50.094    
2749.20004 75         253.066    50.147    
2749.400041 71.001     253.061    50.207    
2749.600041 55.004     253.097    50.273    
2749.800041 76.995     253.118    50.347    
2750.000041 79         253.135    50.421    
2750.200041 92.997     253.15     50.521    
2750.400041 77.004     253.146    50.621    
2750.600041 67.002     253.157    50.72     
2750.800041 53.003     253.173    50.822    
2751.000041 78.994     253.188    50.921    
2751.200041 64.004     253.204    51.013    
2751.400042 78.996     253.22     51.1      
2751.600042 71.002     253.225    51.2      
2751.800042 73         253.256    51.278    
2752.000042 62.003     253.265    51.387    
2752.200042 76.996     253.279    51.528    
2752.400042 69.002     253.292    51.638    
2752.600042 76.998     253.28     51.793    
2752.800042 82.999     253.289    52.003    
2753.000042 103.995    253.29     52.166    
2753.200042 84.005     253.287    52.352    
2753.400043 98.996     253.313    52.51     
2753.600043 87.003     253.329    52.646    
2753.800043 89.999     253.334    52.819    
2754.000043 100.997    253.347    53.041    
2754.200043 97.001     253.336    53.249    
2754.400043 113.996    253.36     53.389    
2754.600043 96.004     253.358    53.549    
2754.800043 107.997    253.347    53.725    
2755.000043 102.001    253.38     53.881    
2755.200043 103        253.382    54.089    
2755.400044 125.995    253.375    54.278    
2755.600044 156.993    253.408    54.431    
2755.800044 207.988    253.395    54.603    
2756.000044 96.027     253.402    54.816    
2756.200044 106.997    253.4      55.057    
2756.400044 76.007     253.401    55.243    
2756.600044 102.994    253.424    55.398    
2756.800044 111.998    253.426    55.557    
2757.000044 123.997    253.443    55.741    
2757.200044 119.001    253.429    56.014    
2757.400045 142.994    253.436    56.257    
2757.600045 138.001    253.437    56.434    
2757.800045 5403.749   253.433    56.656    
2758.000045 2167.769   253.436    56.898    
2758.200045 381.424    253.443    57.097    
2758.400045 172.05     253.451    57.325    
2758.600045 149.005    253.483    57.494    
2758.800045 146.001    253.488    57.74     
2759.000045 136.002    253.485    57.939    
2759.200045 108.007    253.488    58.112    
2759.400046 121.997    253.504    58.198    
2759.600046 129.998    253.514    58.322    
2759.800046 129        253.522    58.514    
2760.000046 107.005    253.528    58.754    
2760.200046 107        253.526    59.088    
2760.400046 91.004     253.546    59.29     
2760.600046 78.003     253.551    59.424    
2760.800046 105.993    253.563    59.557    
2761.000046 104        253.552    59.712    
2761.200046 110.998    253.579    59.85     
2761.400047 122.997    253.604    59.958    
2761.600047 139.996    253.593    60.07     
2761.800047 130.002    253.61     60.245    
2762.000047 107.005    253.638    60.398    
2762.200047 116.998    253.649    60.558    
2762.400047 102.004    253.663    60.683    
2762.600047 119.996    253.678    60.792    
2762.800047 137.996    253.695    60.879    
2763.000047 148.997    253.722    60.982    
2763.200047 131.004    253.727    61.061    
2763.400048 146.996    253.745    61.129    
2763.600048 145        253.762    61.202    
2763.800048 133.003    253.777    61.294    
2764.000048 115.004    253.791    61.4      
2764.200048 134.995    253.807    61.504    
2764.400048 109.006    253.827    61.597    
2764.600048 153.989    253.84     61.673    
2764.800048 122.008    253.857    61.754    
2765.000048 118.001    253.874    61.818    
2765.200048 221.975    253.902    61.899    
2765.400049 188.008    253.935    61.969    
2765.600049 205.996    253.949    62.025    
2765.800049 213.998    253.968    62.086    
2766.000049 187.006    253.986    62.135    
2766.200049 141.011    254.005    62.196    
2766.400049 136.001    254.023    62.245    
2766.600049 117.004    254.05     62.301    
2766.800049 173.987    254.082    62.33     
2767.000049 197.994    254.092    62.351    
2767.200049 148.012    254.126    62.388    
2767.40005 173.994    254.145    62.424    
2767.60005 145.007    254.111    62.482    
2767.80005 160.996    254.204    62.537    
2768.00005 122.009    254.223    62.584    
2768.20005 122        254.234    62.626    
2768.40005 119.001    254.26     62.689    
2768.60005 128.998    254.273    62.745    
2768.80005 2964.329   254.295    62.814    
2769.00005 1361.38    254.312    62.882    
2769.20005 308.249    254.35     62.969    
2769.400051 172.032    254.344    63.064    
2769.600051 154.004    254.384    63.139    
2769.800051 137.004    254.399    63.222    
2770.000051 217.981    254.415    63.325    
2770.200051 186.008    254.451    63.44     
2770.400051 224.991    254.467    63.531    
2770.600051 240.996    254.483    63.62     
2770.800051 193.011    254.499    63.713    
2771.000051 188.001    254.521    63.811    
2771.200051 164.006    254.529    63.918    
2771.400052 242.981    254.578    64.015    
2771.600052 280.991    254.584    64.091    
2771.800052 264.004    254.609    64.198    
2772.000052 246.004    254.613    64.306    
2772.200052 248        254.642    64.414    
2772.400052 62.044     254.665    64.52     
2772.600052 42.005     254.68     64.603    
2772.800052 -9999      254.718    64.717    
2773.000052 -9999      254.728    64.808    
2773.200052 -9999      254.74     64.857    
2773.400053 -9999      254.773    64.909    
2773.600053 -9999      254.776    65        
2773.800053 -9999      254.772    65.436    
2774.000053 -9999      254.753    65.668    
