~Version
 VERS              .         2.0                           : CWLS LOG ASCII STANDARD - VERSION 2.0
 WRAP              .         NO                            : ONE LINE PER DEPTH STEP
 DLM               .         SPACE                         : DELIMITING CHARACTER(SPACE TAB OR COMMA)
~Well Information
#_______________________________________________________________________________
#
#PARAMETER_NAME    .UNIT     VALUE                         : DESCRIPTION
#_______________________________________________________________________________
STRT               .M        2649.8                        : First reference value
STOP               .M        2761.600056                   : Last reference value
STEP               .M        0.2000001                     : Step increment
NULL               .         -9999                         : Missing value
COMP               .                                       : Company
WELL               .         616                           : Well name
FLD                .                                       : Field
LOC                .                                       : Location
CNTY               .                                       : County
STAT               .                                       : State
CTRY               .                                       : Country
SRVC               .                                       : Service Company
DATE               .                                       : Date
API                .                                       : API number
PROJECT_UPGRADE_TIME .         2021-03-18T21_24_50           : 
group              .         Good                          : 
~Parameter Information Block
#_______________________________________________________________________________
#
#PARAMETER_NAME    .UNIT     VALUE                         : DESCRIPTION
#_______________________________________________________________________________
SET                .         D8106_D                       : 
OTHER              .         Программное обеспечение станции MONITOR-386EX 25/12/99 15_08_10   BGF V52 22/08/01 16_56_30   4_SNGF_BGF_N_011645: 
OTHER_10           .         Тарировки_                    : 
OTHER_11           .         TM.GRD = 0.00412*TM$.UE + -2.13: 
OTHER_12           .         MN.ATM = (5.87652e-006*TM.GRD + 0.01993)*(MN$.UE + -2.72*TM.GRD + -1925): 
OTHER_13           .         GK.MKR/H = GK$.UE / 57.4657   : 
OTHER_2            .         Kedr.exe версия 3.4.2.51      : 
OTHER_3            .         KedrData.dll версия 3.4.2.24  : 
OTHER_4            .         Драйвер версия 2.1.0.2        : 
OTHER_5            .         Мнемоники версия 3.3 S        : 
OTHER_6            .         Прибор_ АКП4-90               : 
OTHER_7            .         Номер прибора_ 53             : 
OTHER_8            .         Режим_ АКП4_90                : 
OTHER_9            .         Форма_ ПК-53ое                : 
PROJECT_UPGRADE_TIME .         2021-03-18T21_24_50           : 
TLFamily_DEPT      .         Measured Depth                : 
TLFamily_GK        .         Gamma Ray                     : 
TLFamily_GK$       .                                       : 
TLFamily_LM        .         Casing Collar locator         : 
TLFamily_METKA     .                                       : 
TLFamily_METKA_1   .                                       : 
TLFamily_MN        .                                       : 
TLFamily_MN$       .                                       : 
TLFamily_RCOR      .                                       : 
TLFamily_SPID      .         Spontaneous Potential         : 
TLFamily_TENS      .         Cable Tension                 : 
TLFamily_TIME      .         Time                          : 
TLFamily_TM        .         Temperature                   : 
TLFamily_TM$       .         Temperature                   : 
group              .         prim                          : 
~Curve Information
#_______________________________________________________________________________
#
#LOGNAME           .UNIT     LOG_ID                        : DESCRIPTION
#_______________________________________________________________________________
DEPT               .M                                      : 1 Глубина, м -    0.0 см 
GK                 .MKR/H                                  : 13 Гамма-активность, мкр./ч -   65.0 см 
GK$                .UE                                     : 10 Гамма-активность, усл.ед. -   65.0 см 
LM                 .                                       : 9 Локатор муфт,  -   30.0 см 
METKA              .                                       : 3 Метки,  -    0.0 см 
METKA_1            .                                       : 14 Маркеры - 65 см 
MN                 .ATM                                    : 12 Давление, атм. -  140.0 см 
MN$                .UE                                     : 8 Давление, усл.ед. -  140.0 см 
RCOR               .CM/KM                                  : 5 Коррекция по ролику, см/км -    0.0 см 
SPID               .M/H                                    : 2 Скорость, м/час -    0.0 см 
TENS               .T                                      : 6 Натяжение кабеля, т -    0.0 см 
TIME               .S                                      : 4 Время, сек -    0.0 см 
TM                 .GRD                                    : 11 Температура, °C -  145.0 см 
TM$                .UE                                     : 7 Температура, усл.ед. -  145.0 см 
~Ascii
# ...
2670.60001 4.93       283        596        0          0          244.242    14180      -4         490        0.55       14515.25   64.106     16077     
2670.800011 4.84       278        403        0          0          244.342    14185      -4         492        0.55       14516.76   64.049     16063     
2671.000011 4.37       251        179        0          0          244.302    14183      -4         493        0.55       14518.2    63.975     16045     
2671.200011 4.36       251        355        0          0          244.401    14188      -4         488        0.55       14519.64   63.929     16034     
2671.400011 4.47       257        347        0          0          244.342    14185      -4         490        0.55       14521.15   63.869     16019     
2671.600011 4.6        264        771        0          0          244.39     14187      -4         492        0.55       14522.66   63.808     16004     
2671.800011 4.63       266        571        0          0          244.362    14186      -4         491        0.55       14524.1    63.77      15995     
2672.000011 4.85       279        389        0          0          244.501    14193      -4         492        0.55       14525.61   63.702     15979     
2672.200011 4.87       280        345        0          0          244.422    14189      -4         486        0.55       14527.1    63.664     15970     
2672.400011 5.46       314        643        0          0          244.505    14193      -4         489        0.55       14528.59   63.598     15953     
2672.600011 5.46       314        13583      0          0          244.453    14191      -4         491        0.55       14530.06   63.558     15944     
2672.800011 5.45       313        11836      0          0          244.549    14195      -4         487        0.55       14531.5    63.488     15927     
2673.000012 5.23       301        3281       0          0          244.525    14194      -4         485        0.55       14533.01   63.422     15911     
2673.200012 5.2        299        992        0          0          244.565    14196      -4         478        0.55       14534.53   63.37      15898     
2673.400012 5.17       297        614        0          0          244.565    14196      -4         477        0.55       14535.99   63.322     15886     
2673.600012 5.19       298        719        0          0          244.588    14197      -4         475        0.55       14537.48   63.269     15874     
2673.800012 5.2        299        468        0          0          244.609    14198      -4         480        0.54       14538.99   63.207     15858     
2674.000012 5.67       326        769        0          0          244.621    14199      -4         485        0.53       14540.51   63.156     15846     
2674.200012 5.71       328        501        0          0          244.637    14200      -4         489        0.55       14541.94   63.117     15837     
2674.400012 6.58       378        753        0          0          244.625    14199      -4         480        0.55       14543.45   63.071     15826     
2674.600012 6.64       381        655        0          0          244.657    14201      -4         483        0.55       14544.91   63.001     15809     
2674.800013 6.68       384        742        0          0          244.641    14200      -4         482        0.55       14546.48   62.936     15793     
2675.000013 5.82       335        781        0          0          244.74     14205      -4         483        0.55       14547.93   62.87      15777     
2675.200013 5.73       329        819        0          0          244.641    14200      -4         487        0.55       14549.43   62.842     15770     
2675.400013 5.21       299        907        0          0          244.772    14207      -4         490        0.55       14550.94   62.776     15754     
2675.600013 5.2        299        896        0          0          244.72     14204      -4         480        0.55       14552.38   62.711     15738     
2675.800013 5.32       306        700        0          0          244.82     14209      -4         485        0.55       14553.89   62.645     15722     
2676.000013 6.03       347        323        0          0          244.765    14206      -4         478        0.55       14555.4    62.613     15714     
2676.200013 6.12       352        434        0          0          244.86     14211      -4         473        0.55       14556.91   62.541     15697     
2676.400013 6.21       357        210        0          0          244.805    14208      -4         476        0.55       14558.43   62.489     15684     
2676.600013 5.64       324        727        0          0          244.9      14213      -4         472        0.55       14559.94   62.408     15665     
2676.800014 5.37       308        395        0          0          244.848    14210      -4         470        0.55       14561.37   62.347     15650     
2677.000014 5.62       323        511        0          0          244.94     14215      -4         472        0.55       14562.89   62.268     15631     
2677.200014 5.67       326        247        0          0          244.9      14213      -4         475        0.55       14564.35   62.204     15615     
2677.400014 6.03       347        486        0          0          244.979    14217      -4         472        0.55       14565.91   62.157     15604     
2677.600014 6.1        351        269        0          0          244.96     14216      -4         479        0.55       14567.35   62.08      15585     
2677.800014 6.14       353        761        0          0          244.999    14218      -4         474        0.55       14568.89   62.004     15566     
2678.000014 6.5        373        417        0          0          245.039    14220      -4         477        0.55       14570.37   61.931     15549     
2678.200014 6.58       378        445        0          0          244.992    14218      -4         474        0.55       14571.89   61.881     15537     
2678.400014 6.2        357        531        0          0          245.091    14223      -4         482        0.55       14573.33   61.781     15512     
2678.600014 6.05       348        594        0          0          245.019    14219      -4         483        0.55       14574.84   61.697     15492     
2678.800015 5.82       334        500        0          0          245.139    14225      -4         484        0.55       14576.35   61.571     15461     
2679.000015 6.06       349        371        0          0          245.059    14221      -4         484        0.55       14577.84   61.495     15443     
2679.200015 6.16       354        500        0          0          245.179    14227      -4         484        0.55       14579.35   61.392     15418     
2679.400015 6.5        373        358        0          0          245.111    14224      -4         480        0.55       14580.81   61.332     15403     
2679.600015 6.46       371        596        0          0          245.207    14228      -4         480        0.55       14582.33   61.246     15383     
2679.800015 6.22       357        313        2          0          245.155    14226      -4         481        0.55       14583.76   61.177     15366     
2680.000015 6.18       355        819        0          0          245.211    14229      -5         486        0.55       14585.37   61.052     15335     
2680.200015 6.18       355        302        0          0          245.195    14228      -5         487        0.55       14586.86   60.968     15315     
2680.400015 6.49       373        555        0          0          245.252    14231      -5         480        0.55       14588.37   60.889     15296     
2680.600015 6.57       377        307        0          0          245.245    14230      -5         479        0.55       14589.87   60.803     15275     
2680.800015 6.78       390        518        0          0          245.29     14233      -5         474        0.55       14591.4    60.711     15253     
