~Version
 VERS              .         2.0                           : CWLS LOG ASCII STANDARD - VERSION 2.0
 WRAP              .         NO                            : ONE LINE PER DEPTH STEP
 DLM               .         SPACE                         : DELIMITING CHARACTER(SPACE TAB OR COMMA)
~Well Information
#_______________________________________________________________________________
#
#PARAMETER_NAME    .UNIT     VALUE                         : DESCRIPTION
#_______________________________________________________________________________
STRT               .M        1149                          : First reference value
STOP               .M        2127.4                        : Last reference value
STEP               .M        0.2                           : Step increment
NULL               .         -9999                         : Missing value
COMP               .                                       : Company
WELL               .         616                           : Well name
FLD                .                                       : Field
LOC                .                                       : Location
CNTY               .                                       : County
STAT               .                                       : State
CTRY               .                                       : Country
SRVC               .                                       : Service Company
DATE               .                                       : Date
API                .                                       : API number
PROJECT_UPGRADE_TIME .         2021-03-18T21_24_50           : 
group              .         Good                          : 
~Parameter Information Block
#_______________________________________________________________________________
#
#PARAMETER_NAME    .UNIT     VALUE                         : DESCRIPTION
#_______________________________________________________________________________
SET                .         616_9                         : 
CONF               .         00                            : 
END                .         0                             : 
ERR                .         0                             : 
GS00               .M        2125.46                       : 
GS01               .M        1146.68                       : 
MM00               .M        2120.00                       : 
NOKG               .         0                             : 
NPR                .         990907                        : 
PART               .         Ивашин                        : 
PROJECT_UPGRADE_TIME .         2021-03-18T21_24_49           : 
PRZK               .         Шакиров                       : 
TLFamily_AZIMUTH   .         True Dip Azimuth              : 
TLFamily_DEPTH     .         Measured Depth                : 
TLFamily_METKA     .                                       : 
TLFamily_ROLL      .                                       : 
TLFamily_SPEED     .         Spontaneous Potential         : 
TLFamily_ZENIT     .                                       : 
VPRG               .         310                           : 
WAY                .         UP                            : 
group              .         prim                          : 
~Curve Information
#_______________________________________________________________________________
#
#LOGNAME           .UNIT     LOG_ID                        : DESCRIPTION
#_______________________________________________________________________________
DEPTH              .M                                      :  
AZIMUTH            .DEG                                    :  
METKA              .                                       :  
ROLL               .DEG                                    :  
SPEED              .M/H                                    :  
ZENIT              .DEG                                    :  
~Ascii
# ...
1539.4     260.42     0          325.44     612        31.57     
1539.6     260.99     0          325.51     648        31.65     
1539.8     260.71     0          324.6      648        31.53     
1540       261.26     0          323.46     648        31.78     
1540.2     259.98     0          323.52     648        31.58     
1540.4     260.94     0          324.53     648        31.73     
1540.6     260.91     0          325.82     648        31.81     
1540.8     258.38     0          326.8      648        31.3      
1541       260.52     0          327.32     612        31.65     
1541.2     260.43     0          326.41     648        31.92     
1541.4     259.75     0          325.24     648        31.74     
1541.6     261.09     0          324.94     648        31.89     
1541.8     260.15     0          324.6      612        31.69     
1542       260.77     1          324.48     648        31.8      
1542.2     259.97     0          324.84     648        31.68     
1542.4     260.21     0          325.1      648        31.64     
1542.6     260.74     0          324.66     648        31.74     
1542.8     260.08     0          324.55     648        31.62     
1543       260.59     0          325.08     648        31.66     
1543.2     260.71     0          325.37     648        31.64     
1543.4     260.92     0          325.31     612        31.63     
1543.6     260.83     0          324.68     648        31.54     
1543.8     261.05     0          324.13     648        31.64     
1544       260.73     0          324.47     648        31.52     
1544.2     260.73     0          324.96     648        31.5      
1544.4     260.54     0          325.36     648        31.44     
1544.6     260.72     0          325.55     648        31.43     
1544.8     260.41     0          325.67     648        31.33     
1545       260.51     0          325.31     648        31.32     
1545.2     261.43     0          324.78     648        31.45     
1545.4     260.2      0          324.84     612        31.24     
1545.6     260.99     0          325.22     648        31.35     
1545.8     261.42     0          325.03     648        31.36     
1546       262.17     0          324.52     612        31.55     
1546.2     261.09     0          324.5      648        31.3      
1546.4     260.71     0          324.91     648        31.19     
1546.6     261.02     0          325.05     648        31.2      
1546.8     261.06     0          324.73     648        31.18     
1547       260.6      0          324.44     648        31.14     
1547.2     261.43     0          324.89     648        31.34     
1547.4     261.36     0          325.09     648        31.13     
1547.6     261.08     0          324.97     612        31.22     
1547.8     261.75     0          325.04     648        31.28     
1548       262.01     0          325.62     648        31.24     
1548.2     262.01     0          326.31     648        31.19     
1548.4     263.68     0          326.45     648        31.32     
1548.6     265.92     0          326.57     648        31.37     
1548.8     272.11     0          326.86     612        31.29     
1549       295.12     0          326.76     648        31.36     
1549.2     315.5      0          326.1      648        31.36     
1549.4     196.08     0          325.92     648        31.44     
1549.6     112.55     0          325.95     648        31.43     
1549.8     340.58     0          326.16     648        31.48     
1550       290.37     0          326.48     648        31.43     
1550.2     268.5      0          325.41     648        31.33     
1550.4     262.38     0          324.46     648        31.24     
1550.6     261.41     0          324.95     648        31.1      
1550.8     261.45     0          324.7      648        31.03     
1551       260.05     0          324.96     648        31.02     
1551.2     260.09     0          326.02     612        30.83     
1551.4     259.98     0          326.33     648        30.9      
1551.6     259.71     0          326.38     684        30.84     
1551.8     260.11     0          325.67     648        30.77     
1552       260.36     0          324.35     648        30.93     
1552.2     260.38     1          323.36     612        30.91     
1552.4     259.12     0          324.81     648        30.55     
1552.6     259.39     0          326.03     648        30.54     
1552.8     258.55     0          326.53     648        30.39     
1553       261.79     0          327.09     648        31.16     
1553.2     258.28     0          326.83     648        30.45     
1553.4     257.73     0          324.93     648        30.75     
1553.6     259.3      0          324.2      648        30.69     
1553.8     259.53     0          324.47     648        30.79     
1554       259.34     0          324.83     648        30.75     
1554.2     259.48     0          325.13     648        30.76     
1554.4     258.8      0          325.58     648        30.6      
1554.6     259.73     0          325.55     648        30.82     
1554.8     258.81     0          325.69     648        30.6      
1555       259.58     0          325.41     648        30.78     
1555.2     259.6      0          324.34     648        30.74     
1555.4     259.51     0          323.92     612        30.79     
1555.6     259.48     0          324.36     648        30.68     
1555.8     259.65     0          324.88     648        30.65     
1556       258.93     0          325.44     648        30.57     
1556.2     258.88     0          325.79     648        30.57     
1556.4     259.17     0          325.82     648        30.61     
1556.6     259.67     0          325.96     648        30.74     
1556.8     259.7      0          326.13     648        30.7      
1557       259.98     0          325.38     648        30.75     
1557.2     259.86     0          324.41     612        30.73     
1557.4     259.59     0          323.95     648        30.71     
1557.6     259.53     0          324.16     648        30.65     
1557.8     260.06     0          324.36     648        30.7      
1558       260.47     0          324.32     648        30.76     
1558.2     259.6      0          324.4      648        30.61     
1558.4     260.04     0          324.73     648        30.75     
1558.6     259.8      0          325.48     648        30.72     
1558.8     260.15     0          325.93     648        30.74     
1559       259.44     0          325.93     612        30.54     
1559.2     260.22     0          325.35     648        30.69     
1559.4     260.13     0          324.6      648        30.65     
1559.6     259.68     0          324.49     648        30.64     
1559.8     260.05     0          324.52     648        30.68     
1560       260.11     0          324.68     612        30.65     
1560.2     260.48     0          325.06     648        30.62     
1560.4     260.6      0          325.34     648        30.53     
1560.6     262.12     0          325.62     648        30.64     
1560.8     263.08     0          325.8      648        30.44     
1561       268.77     0          326.24     648        30.66     
1561.2     285.65     0          326.74     648        30.63     
1561.4     335.36     0          326.71     648        30.58     
1561.6     194.82     0          326.41     648        30.62     
1561.8     153.59     0          326.15     612        30.56     
1562       338.77     0          325.85     648        30.65     
1562.2     290.19     1          326.18     648        30.63     
1562.4     265.77     0          326.25     648        30.85     
1562.6     261.8      0          326.4      612        30.62     
1562.8     261.5      0          326.7      648        30.58     
1563       260.08     0          326.66     684        30.33     
1563.2     260.05     0          327.1      648        30.11     
1563.4     260.3      0          327.47     648        29.99     
1563.6     260.51     0          327.41     612        30.17     
