~Version
 VERS              .         2.0                           : CWLS LOG ASCII STANDARD - VERSION 2.0
 WRAP              .         NO                            : ONE LINE PER DEPTH STEP
 DLM               .         SPACE                         : DELIMITING CHARACTER(SPACE TAB OR COMMA)
~Well Information
#_______________________________________________________________________________
#
#PARAMETER_NAME    .UNIT     VALUE                         : DESCRIPTION
#_______________________________________________________________________________
STRT               .M        2654.8                        : First reference value
STOP               .M        2761.6                        : Last reference value
STEP               .M        0.2000001                     : Step increment
NULL               .         -9999                         : Missing value
COMP               .                                       : Company
WELL               .         616                           : Well name
FLD                .                                       : Field
LOC                .                                       : Location
CNTY               .                                       : County
STAT               .                                       : State
CTRY               .                                       : Country
SRVC               .                                       : Service Company
DATE               .                                       : Date
API                .                                       : API number
PROJECT_UPGRADE_TIME .         2021-03-18T21_24_50           : 
group              .         Good                          : 
~Parameter Information Block
#_______________________________________________________________________________
#
#PARAMETER_NAME    .UNIT     VALUE                         : DESCRIPTION
#_______________________________________________________________________________
SET                .         D8107_D                       : 
OTHER              .         Программное обеспечение станции MONITOR-386EX 25/12/99 15_08_10   BGF V52 22/08/01 16_56_30   4_SNGF_BGF_N_011645: 
OTHER_10           .         Тарировки_                    : 
OTHER_11           .         TM.GRD = 0.00412*TM$.UE + -2.13: 
OTHER_12           .         MN.ATM = (5.87652e-006*TM.GRD + 0.01993)*(MN$.UE + -2.72*TM.GRD + -1925): 
OTHER_13           .         GK.MKR/H = GK$.UE / 57.4657   : 
OTHER_2            .         Kedr.exe версия 3.4.2.51      : 
OTHER_3            .         KedrData.dll версия 3.4.2.24  : 
OTHER_4            .         Драйвер версия 2.1.0.2        : 
OTHER_5            .         Мнемоники версия 3.3 S        : 
OTHER_6            .         Прибор_ АКП4-90               : 
OTHER_7            .         Номер прибора_ 53             : 
OTHER_8            .         Режим_ АКП4_90                : 
OTHER_9            .         Форма_ ПК-53ое                : 
PROJECT_UPGRADE_TIME .         2021-03-18T21_24_50           : 
TLFamily_DEPT      .         Measured Depth                : 
TLFamily_GK        .         Gamma Ray                     : 
TLFamily_GK$       .                                       : 
TLFamily_LM        .         Casing Collar locator         : 
TLFamily_METKA     .                                       : 
TLFamily_METKA_1   .                                       : 
TLFamily_MN        .                                       : 
TLFamily_MN$       .                                       : 
TLFamily_RCOR      .                                       : 
TLFamily_SPID      .         Spontaneous Potential         : 
TLFamily_TENS      .         Cable Tension                 : 
TLFamily_TIME      .         Time                          : 
TLFamily_TM        .         Temperature                   : 
TLFamily_TM$       .         Temperature                   : 
group              .         prim                          : 
~Curve Information
#_______________________________________________________________________________
#
#LOGNAME           .UNIT     LOG_ID                        : DESCRIPTION
#_______________________________________________________________________________
DEPT               .M                                      : 1 Глубина, м -    0.0 см 
GK                 .MKR/H                                  : 13 Гамма-активность, мкр./ч -   65.0 см 
GK$                .UE                                     : 10 Гамма-активность, усл.ед. -   65.0 см 
LM                 .                                       : 9 Локатор муфт,  -   30.0 см 
METKA              .                                       : 3 Метки,  -    0.0 см 
METKA_1            .                                       : 14 Маркеры - 65 см 
MN                 .ATM                                    : 12 Давление, атм. -  140.0 см 
MN$                .UE                                     : 8 Давление, усл.ед. -  140.0 см 
RCOR               .CM/KM                                  : 5 Коррекция по ролику, см/км -    0.0 см 
SPID               .M/H                                    : 2 Скорость, м/час -    0.0 см 
TENS               .T                                      : 6 Натяжение кабеля, т -    0.0 см 
TIME               .S                                      : 4 Время, сек -    0.0 см 
TM                 .GRD                                    : 11 Температура, °C -  145.0 см 
TM$                .UE                                     : 7 Температура, усл.ед. -  145.0 см 
~Ascii
2654.8000488 -9999      -9999      -9999      -9999      0          -9999      -9999      -9999      -9999      -9999      -9999      -9999      -9999     
2655       -9999      -9999      -9999      -9999      0          -9999      -9999      -27        -630       1.03       15809.6    -9999      -9999     
2655.2     -9999      -9999      -9999      0          0          -9999      -9999      -27        -625       1.03       15808.42   -9999      -9999     
2655.4     -9999      -9999      316        0          0          -9999      -9999      -27        -620       1.04       15807.28   -9999      -9999     
2655.6     6.04       347        246        0          0          -9999      -9999      -27        -627       1.03       15806.13   -9999      -9999     
2655.8     6.01       345        304        0          0          -9999      -9999      -27        -622       1.03       15804.97   -9999      -9999     
2656       5.83       335        409        0          0          -9999      -9999      -27        -630       1.03       15803.89   -9999      -9999     
2656.2     5.25       302        163        0          0          -9999      -9999      -27        -627       1.03       15802.78   -9999      -9999     
2656.4     5.2        299        559        0          0          242.934    14114      -27        -622       1.03       15801.56   65.391     16389     
2656.6     4.7        270        801        0          0          242.972    14116      -27        -618       1.03       15800.43   65.383     16387     
2656.8     4.75       273        325        0          0          242.947    14115      -27        -629       1.03       15799.3    65.37      16383     
2657       5.19       298        551        0          0          242.993    14117      -27        -625       1.03       15798.13   65.341     16376     
2657.2     5.21       299        774        0          0          243.026    14119      -27        -619       1.03       15796.99   65.329     16374     
2657.4     5.69       327        217        0          0          243.015    14118      -27        -626       1.04       15795.86   65.297     16366     
2657.6     5.81       334        422        0          0          243.075    14121      -27        -621       1.04       15794.7    65.277     16361     
2657.8     6.17       354        308        0          0          243.066    14121      -27        -629       1.03       15793.53   65.265     16358     
2658       6.25       359        610        0          0          243.083    14122      -27        -625       1.03       15792.4    65.239     16352     
2658.2     6.24       359        1025       0          0          243.136    14124      -27        -631       1.03       15791.24   65.229     16349     
2658.4     6.23       358        828        0          0          243.106    14123      -27        -630       1.03       15790.06   65.222     16348     
2658.6     6.14       353        343        0          0          243.156    14126      -27        -627       1.03       15788.97   65.189     16340     
2658.8     5.46       314        425        0          0          243.186    14127      -27        -630       1.03       15787.84   65.17      16335     
2659       5.45       313        436        0          0          243.177    14127      -27        -626       1.03       15786.66   65.151     16330     
2659.2     5.34       307        833        0          0          243.239    14130      -27        -629       1.03       15785.52   65.114     16321     
2659.4     5.33       306        1254       0          0          243.246    14130      -27        -624       1.03       15784.38   65.096     16317     
2659.6     5.1        293        340        0          0          243.246    14130      -27        -627       1.05       15783.24   65.075     16312     
2659.8     5.07       291        1055       2          0          243.302    14133      -27        -622       1.05       15782.11   65.047     16305     
2660       4.56       262        2025       0          0          243.305    14133      -24        -628       1.03       15780.76   65.026     16300     
2660.2     4.57       263        11749      0          0          243.314    14133      -24        -624       1.05       15779.61   64.997     16293     
2660.4     4.77       274        18469      0          0          243.365    14136      -24        -627       1.03       15778.48   64.972     16287     
2660.6     5.14       296        912        0          0          243.329    14134      -24        -628       1.03       15777.33   64.948     16281     
2660.8     5.33       306        1645       0          0          243.385    14137      -24        -623       1.03       15776.19   64.898     16269     
2661       5.85       336        2321       0          0          243.408    14138      -24        -625       1.03       15775.04   64.881     16265     
2661.2     5.91       340        257        0          0          243.438    14140      -24        -627       1.03       15773.9    64.853     16258     
2661.4     6.09       350        383        0          0          243.452    14140      -24        -622       1.03       15772.77   64.82      16250     
2661.6     6.09       350        421        0          0          243.459    14141      -24        -624       1.03       15771.59   64.79      16243     
2661.8     6.03       347        231        0          0          243.505    14143      -24        -623       1.04       15770.44   64.748     16232     
2662       5.96       342        356        0          0          243.505    14143      -24        -628       1.04       15769.28   64.727     16227     
2662.2     5.2        299        205        0          0          243.505    14143      -24        -627       1.03       15768.14   64.696     16220     
2662.4     5.18       298        741        0          0          243.531    14144      -24        -622       1.03       15767      64.651     16209     
2662.6     4.75       273        1148       0          0          243.551    14145      -24        -626       1.03       15765.86   64.622     16202     
2662.8     4.69       270        832        0          0          243.584    14147      -24        -632       1.04       15764.69   64.58      16192     
2663       4.62       265        453        0          0          243.613    14148      -24        -629       1.05       15763.56   64.536     16181     
2663.2     4.45       255        481        0          0          243.624    14149      -24        -632       1.03       15762.44   64.506     16174     
2663.4     4.26       245        276        0          0          243.696    14153      -24        -629       1.03       15761.27   64.467     16164     
2663.6     3.88       223        713        0          0          243.744    14155      -24        -632       1.03       15760.09   64.422     16153     
2663.8     3.84       221        721        0          0          243.732    14154      -24        -630       1.03       15758.96   64.39      16146     
2664       3.54       203        265        0          0          243.764    14156      -24        -626       1.03       15757.81   64.339     16133     
2664.2     3.58       206        451        0          0          243.804    14158      -24        -628       1.03       15756.68   64.298     16123     
2664.4     3.9        224        271        0          0          243.784    14157      -24        -630       1.05       15755.5    64.266     16116     
2664.6     3.93       226        490        0          0          243.837    14160      -24        -627       1.05       15754.42   64.208     16102     
2664.8     4.46       256        370        0          0          243.863    14161      -24        -629       1.03       15753.22   64.185     16096     
2665       4.46       256        205        0          0          243.863    14161      -24        -625       1.03       15752.09   64.144     16086     
