~Version
 VERS              .         2.0                           : CWLS LOG ASCII STANDARD - VERSION 2.0
 WRAP              .         NO                            : ONE LINE PER DEPTH STEP
 DLM               .         SPACE                         : DELIMITING CHARACTER(SPACE TAB OR COMMA)
~Well Information
#_______________________________________________________________________________
#
#PARAMETER_NAME    .UNIT     VALUE                         : DESCRIPTION
#_______________________________________________________________________________
STRT               .M        2650.4                        : First reference value
STOP               .M        2757.800161                   : Last reference value
STEP               .M        0.2000003                     : Step increment
NULL               .         -9999                         : Missing value
COMP               .                                       : Company
WELL               .         616                           : Well name
FLD                .                                       : Field
LOC                .                                       : Location
CNTY               .                                       : County
STAT               .                                       : State
CTRY               .                                       : Country
SRVC               .                                       : Service Company
DATE               .                                       : Date
API                .                                       : API number
PROJECT_UPGRADE_TIME .         2021-03-18T21_24_50           : 
group              .         Good                          : 
~Parameter Information Block
#_______________________________________________________________________________
#
#PARAMETER_NAME    .UNIT     VALUE                         : DESCRIPTION
#_______________________________________________________________________________
SET                .         D4412_D                       : 
OTHER              .         Запись производится в присутствии: 
OTHER_10           .         Максимальная температура      : 
OTHER_11           .         Тип промывочной жидкости      : 
OTHER_12           .         Сопротивление ПЖ (Ом*м) при 20°C: 
OTHER_13           .         Плотность ПЖ(г/см3)           : 
OTHER_14           .         Вязкость ПЖ(с)                : 
OTHER_15           .         Водоотдача ПЖ(см3/30мин)      : 
OTHER_16           .         Уровень ПЖ                    : 
OTHER_17           .         Нефть ПЖ (%)                  : 
OTHER_18           .         Барит ПЖ (%)                  : 
OTHER_19           .         Гематит ПЖ (%)                : 
OTHER_2            .         Заказчик ННСН  ЦДНГ-1         : 
OTHER_20           .         КМЦ ПЖ (%)                    : 
OTHER_21           .         Разгазирование ПЖ (да,нет)    : 
OTHER_22           .         Подъемник                     : 
OTHER_23           .         Лаборатория                   : 
OTHER_24           .         Тип кабеля                    : 
OTHER_25           .         Длина кабеля (м)              : 
OTHER_26           .         Цена последней метки          : 
OTHER_27           .         Цена контрольной метки        : 
OTHER_28           .         Диаметр долота (мм)           : 
OTHER_29           .         Глубина бурения (м)           : 
OTHER_3            .         Площадь                       : 
OTHER_30           .         Искусственный забой (м)       : 
OTHER_31           .         Диаметр колонны (мм)          : 
OTHER_32           .         Толщина колонны (мм)          : 
OTHER_33           .         Башмак колонны (м)            : 
OTHER_34           .         Диаметр НКТ (мм)              : 
OTHER_35           .         Толщина НКТ (мм)              : 
OTHER_36           .         Воронка НКТ (м)               : 
OTHER_37           .         Дата цементожа                : 
OTHER_38           .         Тип, количество(т) и плотность цемента: 
OTHER_39           .         Интервалы перфорации (м)      : 
OTHER_4            .         Категория                     : 
OTHER_40           .         Направление, диаметр (мм)     : 
OTHER_41           .         Направление, глубина (м)      : 
OTHER_42           .         Кондуктор, диаметр (мм)       : 
OTHER_43           .         Кондуктор, глубина (м)        : 
OTHER_44           .         Техническая колонна, диаметр (мм): 
OTHER_45           .         Техническая колонна, глубина (м): 
OTHER_46           .         Эксплуатационная колонна, диаметр (мм): 
OTHER_47           .         Эксплуатационная колонна, глубина (м): 
OTHER_48           .         Программа Кедр-02 версия 3.4  : 
OTHER_49           .         Операционная система Windows NT 5.1 build 2600 Service Pack 2: 
OTHER_5            .         Назначение исследований       : 
OTHER_50           .         Программное обеспечение станции MONITOR-386EX 25/12/99 15_08_10   BGF V54 20/09/05 15_32_17   3.3__BGF_9030071: 
OTHER_51           .         Kedr.exe версия 3.4.2.74      : 
OTHER_52           .         KedrData.dll версия 3.4.2.29  : 
OTHER_53           .         Мнемоники версия 3.18 S       : 
OTHER_54           .         Драйвер версия 2.1.1.4        : 
OTHER_55           .         LasInf.dll 4.3.0.35           : 
OTHER_56           .         Прибор_ КСА-Т4                : 
OTHER_57           .         Номер прибора_ 160            : 
OTHER_58           .         Режим_ КСА-Т4                 : 
OTHER_59           .         Форма_ С.А.Б.                 : 
OTHER_6            .         Альтитуда стола ротора        : 
OTHER_60           .         Тарировки_                    : 
OTHER_61           .         <_techsia_sc_> Дата тарировки температуры 25.05.2010: 
OTHER_62           .         Ручной ввод коэффициентов     : 
OTHER_63           .         TM.DEGC = 0.00402*RTM.E.ACP + -0.994: 
OTHER_64           .         <_techsia_sc_> Дата тарировки давления 25.05.2010: 
OTHER_65           .         Ручной ввод коэффициентов     : 
OTHER_66           .         MN.ATM = (2.27521e-006*TM.DEGC + 0.02078)*(RMN.E.ACP + 6.2*TM.DEGC + -1688): 
OTHER_67           .         <_techsia_sc_> Дата тарировки ГК 25.05.2010: 
OTHER_68           .         Ручной ввод коэффициентов     : 
OTHER_69           .         GR.UR/H = RGR.IMP/MIN / 45.5144: 
OTHER_7            .         Вид исследований 3  6         : 
OTHER_70           .         GK.FLT = 0.1*GR.UR/H[-1] + (1-0.1)*GR.UR/H[0]: 
OTHER_8            .         Начало бурения интервала каротажа: 
OTHER_9            .         Окончание бурения интервала каротажа: 
PROJECT_UPGRADE_TIME .         2021-03-18T21_24_50           : 
TLFamily_CCLC      .                                       : 
TLFamily_DEPT      .         Measured Depth                : 
TLFamily_GK        .         Gamma Ray                     : 
TLFamily_GR        .         Gamma Ray                     : 
TLFamily_METKA     .                                       : 
TLFamily_MN        .                                       : 
TLFamily_RCOR      .                                       : 
TLFamily_RGR       .                                       : 
TLFamily_RMN       .                                       : 
TLFamily_RTEN      .                                       : 
TLFamily_RTM       .                                       : 
TLFamily_SPEE      .         Cable Speed                   : 
TLFamily_TIME      .         Time                          : 
TLFamily_TM        .         Temperature                   : 
group              .         prim                          : 
~Curve Information
#_______________________________________________________________________________
#
#LOGNAME           .UNIT     LOG_ID                        : DESCRIPTION
#_______________________________________________________________________________
DEPT               .M                                      : 1 Глубина, м -    0.0 см 
CCLC               .E.ACP                                  : 9 Локатор муфт,  -   20.0 см 
GK                 .FLT                                    : 14 Гамма-активность фильтрованная, мкр./ч -  110.0 см 
GR                 .UR/H                                   : 13 Гамма-активность, мкр./ч -  110.0 см 
METKA              .CU                                     : 3 Метки,  -    0.0 см 
MN                 .ATM                                    : 12 Давление, атм. -  160.0 см 
RCOR               .CM/KM                                  : 5 Коррекция по ролику, см/км -    0.0 см 
RGR                .IMP/MIN                                : 10 Гамма-активность, усл.ед. -  110.0 см 
RMN                .E.ACP                                  : 8 Давление, усл.ед. -  160.0 см 
RTEN               .T                                      : 6 Натяжение кабеля, т -    0.0 см 
RTM                .E.ACP                                  : 7 Температура, усл.ед. -  170.0 см 
SPEE               .M/H                                    : 2 Скорость, м/час -    0.0 см 
TIME               .S                                      : 4 Время, сек -    0.0 см 
TM                 .DEGC                                   : 11 Температура, °C -  170.0 см 
~Ascii
# ...
2692.000062 122        10.19      10.19      0          371.072    -1087      464        19017      0.2        16399      587        259.46     64.93     
2692.200063 1854       10.19      10.19      0          371.102    -1087      464        19018      0.2        16399      586        260.67     64.93     
2692.400063 522        10.06      10.06      0          371.144    -1087      458        19020      0.2        16399      587        261.89     64.93     
2692.600063 148        10.06      10.06      0          371.193    -1087      458        19022      0.2        16400      586        263.1      64.932    
2692.800064 55         10.28      10.28      0          371.229    -1087      468        19024      0.2        16400      587        264.38     64.934    
2693.000064 34         10.28      10.28      0          371.291    -1087      468        19027      0.2        16400      587        265.62     64.934    
2693.200064 35         10.68      10.68      0          371.351    -1087      486        19030      0.2        16400      587        266.83     64.934    
2693.400065 49         10.68      10.68      0          371.418    -1087      486        19033      0.2        16401      587        268.03     64.937    
2693.600065 43         10.41      10.41      0          371.445    -1087      474        19034      0.2        16400      587        269.3      64.934    
2693.800065 51         10.41      10.41      0          371.48     -1087      474        19036      0.2        16401      588        270.57     64.938    
2694.000065 49         9.89       9.89       0          371.494    -1087      450        19037      0.2        16401      587        271.79     64.937    
2694.200066 42         9.89       9.89       0          371.522    -1087      450        19038      0.2        16401      587        273        64.938    
2694.400066 40         9.65       9.65       0          371.564    -1087      439        19040      0.2        16401      587        274.22     64.938    
2694.600066 35         9.65       9.65       0          371.564    -1087      439        19040      0.2        16401      587        275.49     64.938    
2694.800067 42         10.79      10.79      0          371.597    -1087      491        19042      0.2        16401      589        276.7      64.938    
2695.000067 47         10.79      10.79      0          371.543    -1087      491        19039      0.2        16401      589        277.91     64.938    
2695.200067 32         11.14      11.14      0          371.543    -1087      507        19039      0.2        16401      589        279.15     64.938    
2695.400068 27         11.14      11.14      0          371.55     -1087      507        19039      0.2        16401      588        280.35     64.938    
2695.600068 28         10.73      10.73      0          371.543    -1087      489        19039      0.2        16401      587        281.67     64.938    
2695.800068 30         10.33      10.33      0          371.522    -1087      470        19038      0.2        16401      589        282.87     64.938    
2696.000068 60         11.12      11.12      2          371.547    -1086      506        19039      0.2        16401      588        284.01     64.938    
2696.200069 50         11.12      11.12      0          371.589    -1084      506        19041      0.2        16401      587        285.13     64.938    
2696.400069 34         11.45      11.45      0          371.578    -1084      521        19041      0.2        16401      586        286.35     64.938    
2696.600069 34         12.11      12.11      0          371.575    -1084      551        19040      0.2        16401      587        287.63     64.938    
2696.80007 36         11.72      11.72      0          371.57     -1084      534        19040      0.2        16401      587        288.84     64.938    
2697.00007 96         11.64      11.64      0          371.603    -1084      530        19042      0.2        16401      586        290.1      64.938    
2697.20007 71         11.64      11.64      0          371.627    -1084      530        19043      0.2        16401      586        291.3      64.938    
2697.400071 84         12.19      12.19      0          371.8      -1084      555        19051      0.2        16401      587        292.6      64.938    
2697.600071 86         12.37      12.37      0          371.694    -1084      563        19046      0.2        16401      586        293.83     64.938    
2697.800071 177        13.29      13.29      0          371.752    -1084      605        19049      0.2        16401      587        295.02     64.938    
2698.000071 119        13.29      13.29      0          371.846    -1084      605        19054      0.2        16401      587        296.25     64.938    
2698.200072 71         11.51      11.51      0          371.836    -1084      524        19053      0.2        16401      587        297.46     64.938    
2698.400072 94         11.51      11.51      0          371.731    -1084      524        19048      0.2        16401      588        298.73     64.936    
2698.600072 113        8.81       8.81       0          371.683    -1084      401        19046      0.2        16400      588        299.95     64.934    
2698.800073 92         8.81       8.81       0          371.719    -1084      401        19047      0.2        16400      589        301.17     64.934    
2699.000073 86         7.91       7.91       0          371.773    -1084      360        19050      0.2        16400      590        302.38     64.934    
2699.200073 84         7.91       7.91       0          371.794    -1084      360        19051      0.2        16400      589        303.63     64.934    
2699.400073 86         8.72       8.72       0          372.057    -1084      397        19064      0.2        16400      589        304.87     64.934    
2699.600074 50         8.72       8.72       0          372.31     -1084      397        19076      0.2        16400      588        306.09     64.934    
2699.800074 42         8.63       8.63       0          372.181    -1084      393        19069      0.2        16400      589        307.3      64.934    
2700.000074 26         8.63       8.63       0          372.121    -1084      393        19067      0.2        16400      588        308.54     64.934    
2700.200075 36         8.11       8.11       0          372.003    -1084      369        19061      0.2        16400      588        309.81     64.934    
2700.400075 84         8.11       8.11       0          372.163    -1084      369        19069      0.2        16400      588        311.01     64.934    
2700.600075 90         8.37       8.37       0          372.086    -1084      381        19065      0.2        16400      588        312.28     64.934    
2700.800076 87         8.37       8.37       0          372.103    -1084      381        19066      0.2        16400      587        313.5      64.933    
2701.000076 115        9.18       9.18       0          372.044    -1084      418        19063      0.2        16399      588        314.71     64.93     
2701.200076 113        9.18       9.18       0          372.128    -1084      418        19067      0.2        16399      588        315.98     64.93     
2701.400077 173        10         10         0          372.135    -1084      455        19067      0.2        16399      587        317.2      64.93     
2701.600077 81         10         10         0          372.14     -1084      455        19068      0.2        16398      586        318.41     64.926    
2701.800077 67         9.82       9.82       0          372.079    -1084      447        19065      0.2        16398      587        319.63     64.926    
2702.000077 70         9.82       9.82       0          372.109    -1084      447        19066      0.2        16398      588        320.91     64.926    
2702.200078 90         9.97       9.97       0          372.151    -1084      454        19068      0.2        16398      587        322.13     64.924    
