~Version
 VERS              .         2.0                           : CWLS LOG ASCII STANDARD - VERSION 2.0
 WRAP              .         NO                            : ONE LINE PER DEPTH STEP
 DLM               .         SPACE                         : DELIMITING CHARACTER(SPACE TAB OR COMMA)
~Well Information
#_______________________________________________________________________________
#
#PARAMETER_NAME    .UNIT     VALUE                         : DESCRIPTION
#_______________________________________________________________________________
STRT               .M        2645.6                        : First reference value
STOP               .M        2754.199837                   : Last reference value
STEP               .M        0.1999997                     : Step increment
NULL               .         -9999                         : Missing value
COMP               .                                       : Company
WELL               .         616                           : Well name
FLD                .                                       : Field
LOC                .                                       : Location
CNTY               .                                       : County
STAT               .                                       : State
CTRY               .                                       : Country
SRVC               .                                       : Service Company
DATE               .                                       : Date
API                .                                       : API number
PROJECT_UPGRADE_TIME .         2021-03-18T21_24_50           : 
group              .         Good                          : 
~Parameter Information Block
#_______________________________________________________________________________
#
#PARAMETER_NAME    .UNIT     VALUE                         : DESCRIPTION
#_______________________________________________________________________________
SET                .         D7026_D                       : 
OTHER              .         Kedr.exe версия 2.1.2.32      : 
OTHER_10           .         TM.GRD = 0.00404*TM$.UE + 0.07: 
OTHER_11           .         MN.ATM = (6.33279e-006*TM.GRD + 0.02401)*(MN$.UE + 2.72*TM.GRD + -2018): 
OTHER_12           .         GK.MKR/H = GK$.UE / 43.5489 + 0: 
OTHER_13           .         RES.SM = 0.00476*CRES.UE - 1.51709: 
OTHER_14           .         PL.GSM3 = 0 + 0 * (PL.UE / 1) +  0 * (PL.UE / 1)^2: 
OTHER_15           .         Постоянная времени ГГП = 6 сек: 
OTHER_16           .         Постоянная времени ГК = 6 сек : 
OTHER_2            .         KedrData.dll версия 3.2.2.14  : 
OTHER_3            .         LasInf.dll версия 3.2.0.13    : 
OTHER_4            .         Драйвер версия 1.2.0.5        : 
OTHER_5            .         Прибор_ КСА-M1                : 
OTHER_6            .         Номер прибора_ 155+р204       : 
OTHER_7            .         Режим_ КСА-М1 + ГГП + Резистивиметр: 
OTHER_8            .         Форма_ 223\2                  : 
OTHER_9            .         Тарировки_                    : 
PROJECT_UPGRADE_TIME .         2021-03-18T21_24_50           : 
TLFamily_CRES      .                                       : 
TLFamily_DEPT      .         Measured Depth                : 
TLFamily_GK        .         Gamma Ray                     : 
TLFamily_GK$       .                                       : 
TLFamily_LM        .         Casing Collar locator         : 
TLFamily_METKA     .                                       : 
TLFamily_MN        .                                       : 
TLFamily_MN$       .                                       : 
TLFamily_PL        .                                       : 
TLFamily_PL_2      .                                       : 
TLFamily_RCOR      .                                       : 
TLFamily_RES       .         Mud Resistivity               : 
TLFamily_SPID      .         Spontaneous Potential         : 
TLFamily_STD       .                                       : 
TLFamily_TIME      .         Time                          : 
TLFamily_TM        .         Temperature                   : 
TLFamily_TM$       .         Temperature                   : 
TLFamily_VGD       .         Gas Volume                    : 
group              .         prim                          : 
~Curve Information
#_______________________________________________________________________________
#
#LOGNAME           .UNIT     LOG_ID                        : DESCRIPTION
#_______________________________________________________________________________
DEPT               .M                                      : 1 Глубина, м -    0.0 см 
CRES               .UE                                     : 9 Проводимость, усл.ед. -  222.0 см 
GK                 .MKR/H                                  : 16 Гамма-активность, мкр./ч -  106.0 см 
GK$                .UE                                     : 13 Гамма-активность, усл.ед. -  106.0 см 
LM                 .                                       : 11 Локатор муфт,  -   16.0 см 
METKA              .                                       : 3 Метки,  -    0.0 см 
MN                 .ATM                                    : 15 Давление, атм. -  160.0 см 
MN$                .UE                                     : 7 Давление, усл.ед. -  160.0 см 
PL                 .UE                                     : 10 Плотность, усл.ед. -  270.0 см 
PL_2               .GSM3                                   : 18 Плотность, г./см3 -  270.0 см 
RCOR               .CM/KM                                  : 5 Коррекция по ролику, см/км -    0.0 см 
RES                .SM                                     : 17 Проводимость,  -  222.0 см 
SPID               .M/H                                    : 2 Скорость, м/час -    0.0 см 
STD                .                                       : 12 Приток,  -  170.0 см 
TIME               .S                                      : 4 Время, сек -    0.0 см 
TM                 .GRD                                    : 14 Температура, °C -  180.0 см 
TM$                .UE                                     : 6 Температура, усл.ед. -  180.0 см 
VGD                .                                       : 8 Влагомер,  -  170.0 см 
~Ascii
# ...
2670.199963 1234       7.17       291        191        1          245.576    11939      14         0          0          4.3552     580        11167      17310.37   57.118     14121      6681      
2670.399963 1233       6.92       291        138        0          245.599    11940      14         0          0          4.3536     580        11165      17311.64   57.104     14117      6681      
2670.599962 1232       7.2        345        3863       0          245.622    11941      14         0          0          4.3472     550        11165      17312.94   57.091     14114      6681      
2670.799962 1233       7.56       345        1629       0          245.645    11942      14         0          0          4.3504     580        11167      17314.23   57.078     14111      6680      
2670.999962 1232       7.73       344        402        0          245.66     11943      14         0          0          4.3472     580        11166      17315.54   57.069     14109      6681      
2671.199962 1229       7.84       344        123        0          245.671    11943      14         0          0          4.333      550        11163      17316.84   57.06      14106      6681      
2671.399961 1231       7.87       344        85         0          245.69     11944      14         0          0          4.3425     580        11159      17318.12   57.051     14104      6682      
2671.599961 1230       8.04       381        100        0          245.714    11945      14         0          0          4.3393     580        11155      17319.44   57.041     14102      6680      
2671.799961 1231       8.61       399        130        0          245.736    11946      14         0          0          4.3448     580        11153      17320.7    57.037     14101      6680      
2671.99996 1232       8.96       416        101        0          245.759    11947      14         0          0          4.3464     545        11153      17322.02   57.021     14097      6679      
2672.19996 1230       9.25       416        114        0          245.783    11948      14         0          0          4.3377     524        11155      17323.32   57.012     14095      6679      
2672.39996 1231       9.17       381        97         0          245.807    11949      14         0          0          4.3425     580        11152      17324.6    57.007     14093      6681      
2672.599959 1229       8.96       381        120        0          245.829    11950      14         0          0          4.333      530        11149      17325.9    57.002     14092      6682      
2672.799959 1231       8.78       367        73         0          245.838    11950      14         0          0          4.3425     545        11147      17327.17   56.989     14089      6682      
2672.999959 1231       8.61       367        112        0          245.851    11951      14         0          0          4.3445     580        11142      17328.5    56.973     14085      6680      
2673.199959 1231       8.99       436        67         0          245.874    11952      14         0          0          4.3425     580        11139      17329.81   56.967     14083      6682      
2673.399958 1232       9.5        436        59         0          245.897    11953      14         0          0          4.3472     533        11135      17331.06   56.957     14081      6682      
2673.599958 1231       9.78       439        103        0          245.92     11954      14         0          0          4.3425     540        11135      17332.36   56.948     14079      6682      
2673.799958 1231       9.93       439        117        0          245.943    11955      14         0          0          4.3406     580        11135      17333.66   56.937     14076      6682      
2673.999957 1230       9.42       359        123        0          245.942    11955      14         0          0          4.3384     522        11136      17334.96   56.926     14073      6682      
2674.199957 1230       8.83       359        116        0          245.973    11956      14         0          0          4.3377     580        11138      17336.29   56.917     14071      6682      
2674.399957 1230       8.51       355        101        0          245.989    11957      13         0          0          4.3358     580        11139      17337.55   56.913     14070      6682      
2674.599956 1229       8.33       355        98         0          246.012    11958      14         0          0          4.3345     510        11140      17338.86   56.903     14067      6682      
2674.799956 1226       8.54       383        74         0          246.035    11959      14         0          0          4.3187     557        11135      17340.18   56.893     14065      6680      
2674.999956 1229       8.66       383        63         0          246.033    11959      14         0          0          4.333      580        11128      17341.45   56.88      14062      6682      
2675.199956 1229       8.83       394        65         0          246.081    11961      14         0          0          4.3353     580        11124      17342.76   56.871     14060      6682      
2675.399955 1229       8.94       394        75         0          246.08     11961      14         0          0          4.333      580        11120      17344.01   56.858     14056      6683      
2675.599955 1230       9.3        423        117        0          246.107    11962      14         0          0          4.3377     580        11116      17345.34   56.852     14055      6681      
2675.799955 1231       9.55       433        68         0          246.126    11963      14         0          0          4.3411     580        11114      17346.59   56.844     14053      6681      
2675.999954 1229       9.95       452        111        0          246.149    11964      14         0          0          4.335      522        11113      17347.91   56.834     14050      6682      
2676.199954 1229       10.16      452        73         0          246.171    11965      14         0          0          4.3337     580        11112      17349.24   56.821     14047      6683      
2676.399954 1229       10.08      434        101        0          246.195    11966      14         0          0          4.3337     580        11110      17350.56   56.808     14044      6684      
2676.599954 1230       9.96       421        183        0          246.206    11967      14         0          0          4.3377     569        11112      17351.88   56.798     14042      6682      
2676.799953 1229       9.53       395        104        0          246.217    11967      14         0          0          4.333      510        11113      17353.14   56.792     14040      6682      
2676.999953 1229       9.28       391        132        0          246.24     11968      14         0          0          4.333      580        11116      17354.46   56.78      14037      6681      
2677.199953 1228       9.12       390        125        0          246.247    11968      14         0          0          4.3282     580        11117      17355.75   56.775     14036      6681      
2677.399952 1226       9.16       410        88         0          246.286    11970      14         0          0          4.3187     568        11113      17357.04   56.766     14034      6683      
2677.599952 1227       9.29       410        98         0          246.285    11970      14         0          0          4.3234     570        11108      17358.35   56.753     14030      6683      
2677.799952 1226       9.43       428        106        0          246.312    11971      14         0          0          4.3187     580        11101      17359.64   56.744     14028      6683      
2677.999951 1228       9.63       428        74         0          246.33     11972      14         0          0          4.3282     557        11097      17360.93   56.73      14025      6682      
2678.199951 1229       9.6        408        98         0          246.353    11973      14         0          0          4.3306     580        11092      17362.2    56.717     14021      6682      
