~Version
 VERS              .         2.0                           : CWLS LOG ASCII STANDARD - VERSION 2.0
 WRAP              .         NO                            : ONE LINE PER DEPTH STEP
 DLM               .         SPACE                         : DELIMITING CHARACTER(SPACE TAB OR COMMA)
~Well Information
#_______________________________________________________________________________
#
#PARAMETER_NAME    .UNIT     VALUE                         : DESCRIPTION
#_______________________________________________________________________________
STRT               .M        3.8                           : First reference value
STOP               .M        216                           : Last reference value
STEP               .M        0.2                           : Step increment
NULL               .         -9999                         : Missing value
COMP               .                                       : Company
WELL               .         616                           : Well name
FLD                .                                       : Field
LOC                .                                       : Location
CNTY               .                                       : County
STAT               .                                       : State
CTRY               .                                       : Country
SRVC               .                                       : Service Company
DATE               .                                       : Date
API                .                                       : API number
PROJECT_UPGRADE_TIME .         2021-03-18T21_24_50           : 
group              .         Good                          : 
~Parameter Information Block
#_______________________________________________________________________________
#
#PARAMETER_NAME    .UNIT     VALUE                         : DESCRIPTION
#_______________________________________________________________________________
SET                .         D1350_D                       : 
OTHER              .         Программное обеспечение станции MONITOR-386EX 25/12/99 15_08_10   BGF V52 22/08/01 16_56_30   3.1_SNGF__BGF_								111238: 
OTHER_10           .         Тарировки_                    : 
OTHER_11           .         <_techsia_sc_> Постоянная времени фильтра  0.5 сек, kf=0.181269: 
OTHER_12           .         TM.GRD = 0.00428968*TM$.UE + -0.3284: 
OTHER_13           .         GK.MKR/H = GK$.UE / 40.16     : 
OTHER_14           .         NKT. = NKT$.UE / 1            : 
OTHER_2            .         Kedr.exe версия 3.3.2.43      : 
OTHER_3            .         KedrData.dll версия 3.3.2.22  : 
OTHER_4            .         Драйвер версия 2.1.1.3        : 
OTHER_5            .         Мнемоники версия 3.3 S        : 
OTHER_6            .         Прибор_ РК4-38                : 
OTHER_7            .         Номер прибора_ 35с            : 
OTHER_8            .         Режим_ РК4-38                 : 
OTHER_9            .         Форма_ 3                      : 
PROJECT_UPGRADE_TIME .         2021-03-18T21_24_49           : 
TLFamily_DEPT      .         Measured Depth                : 
TLFamily_GK        .         Gamma Ray                     : 
TLFamily_GK$       .                                       : 
TLFamily_LM        .         Casing Collar locator         : 
TLFamily_METKA     .                                       : 
TLFamily_NKT       .         Neutron Far                   : 
TLFamily_NKT$      .         Neutron Far                   : 
TLFamily_RCOR      .                                       : 
TLFamily_SPID      .         Spontaneous Potential         : 
TLFamily_TENS      .         Cable Tension                 : 
TLFamily_TIME      .         Time                          : 
TLFamily_TM        .         Temperature                   : 
TLFamily_TM$       .         Temperature                   : 
group              .         prim                          : 
~Curve Information
#_______________________________________________________________________________
#
#LOGNAME           .UNIT     LOG_ID                        : DESCRIPTION
#_______________________________________________________________________________
DEPT               .M                                      : 1 Глубина, м -    0.0 см 
GK                 .MKR/H                                  : 12 Гамма-активность, мкр./ч -   23.0 см 
GK$                .UE                                     : 10 Гамма-активность, усл.ед. -   23.0 см 
LM                 .                                       : 8 Локатор муфт,  -  180.0 см 
METKA              .                                       : 3 Метки,  -    0.0 см 
NKT                .                                       : 13 НКТ, прив. -  160.0 см 
NKT$               .UE                                     : 9 НКТ, усл.ед. -  160.0 см 
RCOR               .CM/KM                                  : 5 Коррекция по ролику, см/км -    0.0 см 
SPID               .M/H                                    : 2 Скорость, м/час -    0.0 см 
TENS               .T                                      : 6 Натяжение кабеля, т -    0.0 см 
TIME               .S                                      : 4 Время, сек -    0.0 см 
TM                 .GRD                                    : 11 Температура, °C -  193.0 см 
TM$                .UE                                     : 7 Температура, усл.ед. -  193.0 см 
~Ascii
# ...
48.6       3.62       143        31         0          0          0          7013       -316       0          3606.55    8.548      2069      
48.8       3.93       141        26         0          0          0          7013       -319       0          3604.42    8.534      2066      
49         4.36       164        25         0          0          0          7013       -328       0          3602.11    8.53       2065      
49.2       4.52       184        25         0          0          0          7013       -318       0          3599.9     8.521      2063      
49.4       4.51       178        25         0          0          0          7013       -313       0          3597.64    8.513      2061      
49.6       4.67       185        26         0          0          0          7013       -321       0          3595.38    8.503      2059      
49.8       4.75       197        29         0          0          0          7013       -314       0          3593.11    8.498      2058      
50         4.36       175        94         2          0          0          7013       -310       0          3591       8.493      2056      
50.2       4.37       170        177        0          0          0          7013       -315       0          3588.99    8.489      2056      
50.4       4.79       170        44         0          0          0          7013       -322       0          3588.03    8.483      2054      
50.6       4.93       201        26         0          0          0          7013       -319       0          3585.72    8.478      2053      
50.8       4.71       195        26         0          0          0          7013       -310       0          3583.6     8.474      2052      
51         4.19       168        25         0          0          0          7013       -320       0          3581.29    8.472      2052      
51.2       4.21       168        26         0          0          0          7013       -320       0          3578.92    8.468      2051      
51.4       4.11       171        26         0          0          0          7013       -320       0          3576.75    8.465      2050      
51.6       3.84       167        26         0          0          0          7013       -321       0          3574.54    8.458      2048      
51.8       3.81       143        25         0          0          0          7013       -322       0          3572.23    8.526      2064      
52         4.12       158        26         0          0          0          7013       -317       0          3570.01    8.53       2065      
52.2       4.39       177        25         0          0          0          7013       -326       0          3567.82    8.53       2065      
52.4       4.32       179        26         0          0          0          7013       -316       0          3565.59    8.528      2065      
52.6       3.93       167        26         0          0          0          7013       -312       0          3563.44    8.508      2060      
52.8       3.12       127        26         0          0          0          7013       -323       0          3561.16    8.444      2045      
53         3          127        26         0          0          0          7013       -322       0          3558.84    8.44       2044      
53.2       3.12       117        28         0          0          0          7013       -314       0          3556.63    8.44       2044      
53.4       3.31       126        27         0          0          0          7013       -320       0          3554.41    8.494      2057      
53.6       3.65       130        30         0          0          0          7013       -329       0          3552.1     8.435      2043      
53.8       4.25       156        26         0          0          0          7013       -320       0          3549.78    8.431      2042      
54         4.94       180        26         0          0          0          7013       -325       0          3547.57    8.429      2041      
54.2       5.51       221        25         1          0          0          7013       -333       0          3545.35    8.427      2041      
54.4       5.43       227        25         0          0          0          7013       -326       0          3543.04    8.423      2040      
54.6       4.86       195        25         0          0          0          7013       -319       0          3540.93    8.42       2040      
54.8       4.87       196        26         0          0          0          7013       -324       0          3538.62    8.414      2038      
55         4.84       197        25         0          0          0          7013       -314       0          3536.35    8.418      2039      
55.2       4.61       197        25         0          0          0          7013       -318       0          3534.19    8.418      2039      
55.4       4.44       180        26         0          0          0          7013       -316       0          3531.97    8.414      2038      
55.6       4.5        175        25         1          0          0          7013       -310       0          3529.7     8.411      2037      
55.8       4.7        183        26         0          0          0          7013       -311       0          3527.48    8.405      2036      
56         4.81       196        26         0          0          0          7013       -315       0          3525.19    8.418      2039      
56.2       4.67       189        26         0          0          0          7013       -331       0          3522.88    8.425      2041      
56.4       4.58       185        27         0          0          0          7013       -326       0          3520.61    8.453      2047      
56.6       4.46       186        33         0          0          0          7013       -322       0          3518.44    8.397      2034      
56.8       3.98       164        57         0          0          0          7013       -324       0          3516.23    8.393      2033      
57         3.63       164        460        0          0          0          7013       -313       0          3513.91    8.393      2033      
57.2       3.72       139        4598       0          0          0          7013       -321       0          3511.7     8.43       2042      
57.4       4.2        146        8564       0          0          0          7013       -318       0          3509.44    8.384      2031      
57.6       4.64       179        27         0          0          0          7013       -312       0          3507.17    8.381      2030      
57.8       4.72       193        28         0          0          0          7013       -310       0          3505.05    8.39       2033      
58         4.59       185        28         0          0          0          7013       -320       0          3502.79    8.381      2030      
58.2       4.59       182        27         0          0          0          7013       -322       0          3500.42    8.371      2028      
58.4       4.71       190        27         0          0          0          7013       -311       0          3498.11    8.371      2028      
58.6       4.65       186        29         0          0          0          7013       -322       0          3495.9     8.373      2028      
58.8       4.71       191        27         0          0          0          7013       -320       0          3493.69    8.362      2026      
59         4.56       188        26         0          0          0          7013       -316       0          3491.4     8.362      2026      
59.2       4.35       185        35         0          0          0          7013       -324       0          3489.21    8.357      2025      
59.4       4.3        172        31         0          0          0          7013       -325       0          3486.94    8.358      2025      
59.6       4.36       172        41         0          0          0          7013       -315       0          3484.73    8.354      2024      
