~Version
 VERS              .         2.0                           : CWLS LOG ASCII STANDARD - VERSION 2.0
 WRAP              .         NO                            : ONE LINE PER DEPTH STEP
 DLM               .         SPACE                         : DELIMITING CHARACTER(SPACE TAB OR COMMA)
~Well Information
#_______________________________________________________________________________
#
#PARAMETER_NAME    .UNIT     VALUE                         : DESCRIPTION
#_______________________________________________________________________________
STRT               .M        47.8                          : First reference value
STOP               .M        2693.8                        : Last reference value
STEP               .M        0.2                           : Step increment
NULL               .         -9999                         : Missing value
COMP               .                                       : Company
WELL               .         616                           : Well name
FLD                .                                       : Field
LOC                .                                       : Location
CNTY               .                                       : County
STAT               .                                       : State
CTRY               .                                       : Country
SRVC               .                                       : Service Company
DATE               .                                       : Date
API                .                                       : API number
PROJECT_UPGRADE_TIME .         2021-03-18T21_24_50           : 
group              .         Good                          : 
~Parameter Information Block
#_______________________________________________________________________________
#
#PARAMETER_NAME    .UNIT     VALUE                         : DESCRIPTION
#_______________________________________________________________________________
SET                .         D1172_D                       : 
OTHER              .         Программное обеспечение станции MONITOR-386EX 25/12/99 15_08_10   BGF V52 22/08/01 16_56_30   3.2_BGF_N_3070031: 
OTHER_10           .         Тарировки_                    : 
OTHER_11           .         TM.GRD = 0.00403*TM$.UE + -1.19: 
OTHER_12           .         MN.ATM = (7.1e-006*TM.GRD + 0.02017)*(MN$.UE + -3.03*TM.GRD + -1833): 
OTHER_13           .         Id error                      : 
OTHER_2            .         Kedr.exe версия 3.4.2.51      : 
OTHER_3            .         KedrData.dll версия 3.4.2.24  : 
OTHER_4            .         Драйвер версия 2.1.1.8        : 
OTHER_5            .         Мнемоники версия 3.3 S        : 
OTHER_6            .         Прибор_ КСА-М1                : 
OTHER_7            .         Номер прибора_ 265            : 
OTHER_8            .         Режим_ КСА-М1                 : 
OTHER_9            .         Форма_ ТЕРМОМЕТР              : 
PROJECT_UPGRADE_TIME .         2021-03-18T21_24_49           : 
TLFamily_DEPT      .         Measured Depth                : 
TLFamily_GK        .         Gamma Ray                     : 
TLFamily_GK$       .                                       : 
TLFamily_LM        .         Casing Collar locator         : 
TLFamily_METKA     .                                       : 
TLFamily_MN        .                                       : 
TLFamily_MN$       .                                       : 
TLFamily_RCOR      .                                       : 
TLFamily_SPID      .         Spontaneous Potential         : 
TLFamily_STD       .                                       : 
TLFamily_TENS      .         Cable Tension                 : 
TLFamily_TIME      .         Time                          : 
TLFamily_TM        .         Temperature                   : 
TLFamily_TM$       .         Temperature                   : 
TLFamily_VGD       .         Gas Volume                    : 
group              .         prim                          : 
~Curve Information
#_______________________________________________________________________________
#
#LOGNAME           .UNIT     LOG_ID                        : DESCRIPTION
#_______________________________________________________________________________
DEPT               .M                                      : 1 Глубина, м -    0.0 см 
GK                 .MKR/H                                  : 15 Гамма-активность, мкр./ч -  110.0 см 
GK$                .UE                                     : 12 Гамма-активность, усл.ед. -  110.0 см 
LM                 .                                       : 10 Локатор муфт,  -   20.0 см 
METKA              .                                       : 3 Метки,  -    0.0 см 
MN                 .ATM                                    : 14 Давление, атм. -  160.0 см 
MN$                .UE                                     : 8 Давление, усл.ед. -  160.0 см 
RCOR               .CM/KM                                  : 5 Коррекция по ролику, см/км -    0.0 см 
SPID               .M/H                                    : 2 Скорость, м/час -    0.0 см 
STD                .                                       : 11 Приток,  -  170.0 см 
TENS               .T                                      : 6 Натяжение кабеля, т -    0.0 см 
TIME               .S                                      : 4 Время, сек -    0.0 см 
TM                 .GRD                                    : 13 Температура, °C -  180.0 см 
TM$                .UE                                     : 7 Температура, усл.ед. -  180.0 см 
VGD                .                                       : 9 Влагомер,  -  170.0 см 
~Ascii
47.8       -9999      -9999      -9999      -9999      -9999      -9999      -9999      -9999      -9999      -9999      -9999      -9999      -9999      -9999     
48         -9999      -9999      -9999      0          -9999      -9999      -1400      -1253      -9999      0          34325.06   -9999      -9999      -9999     
48.2       -9999      -9999      62         0          -9999      -9999      -1400      -1253      -9999      0          34324.46   -9999      -9999      -9999     
48.4       -9999      -9999      38         0          -9999      -9999      -1400      -1249      -9999      0          34323.94   -9999      -9999      -9999     
48.6       -9999      -9999      19         0          -9999      -9999      -1400      -1257      -9999      0          34323.36   -9999      -9999      -9999     
48.8       -9999      -9999      21         0          -9999      -9999      -1400      -1253      -9999      0          34322.73   -9999      -9999      -9999     
49         3.99       163        22         0          -9999      -9999      -1400      -1248      -9999      0          34322.19   -9999      -9999      -9999     
49.2       4.07       175        24         0          -9999      -9999      -1400      -1253      -9999      0          34321.6    -9999      -9999      -9999     
49.4       4.06       175        22         0          -9999      -9999      -1400      -1252      -9999      0          34321.03   -9999      -9999      -9999     
49.6       4.03       175        27         0          1.858      1971       -1400      -1248      2079       0          34320.46   -9999      -9999      6577      
49.8       3.96       175        23         0          1.871      1972       -1400      -1251      2075       0          34319.89   15.432     4125       6577      
50         3.87       167        29         2          1.9        1973       -1400      -1251      2074       0          34319.29   15.426     4123       6578      
50.2       3.84       167        33         0          1.912      1974       -1400      -1245      2072       0          34318.72   15.42      4122       6578      
50.4       3.78       167        28         0          1.933      1975       -1400      -1247      2070       0          34318.14   15.414     4120       6579      
50.6       3.66       167        26         0          1.956      1976       -1400      -1251      2066       0          34317.55   15.407     4118       6579      
50.8       3.44       153        32         0          1.974      1977       -1400      -1249      2062       0          34316.98   15.405     4118       6579      
51         3.36       144        38         0          2.001      1978       -1400      -1243      2060       0          34316.39   15.395     4115       6580      
51.2       3.36       144        31         0          2.016      1979       -1400      -1239      2060       0          34315.84   15.388     4114       6580      
51.4       3.36       144        32         0          2.044      1980       -1400      -1242      2055       0          34315.27   15.382     4112       6580      
51.6       3.34       144        32         0          2.057      1981       -1400      -1246      2050       0          34314.69   15.376     4111       6581      
51.8       3.32       143        30         0          2.078      1982       -1400      -1250      2048       0          34314.07   15.369     4109       6581      
52         3.31       143        37         0          2.1        1983       -1400      -1249      2047       0          34313.52   15.363     4107       6581      
52.2       3.27       143        39         0          2.119      1984       -1400      -1254      2045       0          34312.94   15.357     4106       6581      
52.4       3.21       142        43         0          2.145      1985       -1400      -1256      2043       0          34312.36   15.35      4104       6581      
52.6       3.15       134        39         0          2.16       1986       -1400      -1255      2040       0          34311.79   15.34      4102       6581      
52.8       3.16       134        36         0          2.187      1987       -1400      -1257      2038       0          34311.22   15.334     4100       6582      
53         3.19       134        27         0          2.219      1989       -1400      -1247      2035       0          34310.63   15.328     4099       6582      
53.2       3.23       134        37         0          2.231      1989       -1400      -1245      2032       0          34310.06   15.322     4097       6582      
53.4       3.33       140        27         0          2.246      1990       -1400      -1242      2029       0          34309.5    15.318     4096       6582      
53.6       3.38       140        27         0          2.284      1992       -1400      -1246      2027       0          34308.9    15.313     4095       6583      
53.8       3.47       140        29         0          2.304      1993       -1400      -1247      2025       0          34308.33   15.307     4093       6584      
54         3.65       140        27         0          2.319      1994       -1400      -1241      2022       0          34307.76   15.301     4092       6584      
54.2       4          147        26         0          2.346      1995       -1400      -1244      2019       0          34307.17   15.298     4091       6583      
54.4       4.29       183        31         0          2.362      1996       -1400      -1242      2016       0          34306.58   15.292     4090       6583      
54.6       4.31       183        31         0          2.387      1997       -1400      -1235      2013       0          34306.02   15.289     4089       6584      
54.8       4.33       183        19         0          2.406      1998       -1400      -1237      2010       0          34305.45   15.283     4088       6584      
55         4.38       183        18         0          2.417      1998       -1400      -1233      2008       0          34304.88   15.277     4086       6584      
55.2       4.46       192        30         0          2.448      2000       -1400      -1235      2008       0          34304.29   15.275     4086       6583      
55.4       4.41       194        29         0          2.461      2001       -1400      -1231      2006       0          34303.74   15.272     4085       6585      
55.6       4.29       194        27         0          2.489      2002       -1400      -1247      2004       0          34303.12   15.266     4083       6584      
55.8       4.07       194        29         0          2.504      2003       -1400      -1246      2002       0          34302.55   15.264     4083       6585      
56         3.72       160        31         0          2.517      2003       -1400      -1240      2001       0          34301.98   15.26      4082       6586      
56.2       3.71       160        39         0          2.548      2005       -1400      -1242      2001       0          34301.4    15.255     4081       6585      
56.4       3.67       160        43         0          2.571      2006       -1400      -1246      1999       0          34300.81   15.252     4080       6586      
56.6       3.61       160        37         0          2.59       2007       -1400      -1240      1995       0          34300.24   15.248     4079       6585      
56.8       3.49       153        46         1          2.602      2008       -1400      -1234      1995       0          34299.7    15.245     4078       6586      
57         3.45       145        50         0          2.633      2009       -1400      -1248      1995       0          34299.1    15.24      4077       6586      
57.2       3.51       145        63         0          2.646      2010       -1400      -1250      1993       0          34298.53   15.236     4076       6587      
57.4       3.61       145        71         0          2.674      2011       -1400      -1244      1991       0          34297.93   15.234     4075       6587      
