~Version
 VERS              .         2.0                           : CWLS LOG ASCII STANDARD - VERSION 2.0
 WRAP              .         NO                            : ONE LINE PER DEPTH STEP
 DLM               .         SPACE                         : DELIMITING CHARACTER(SPACE TAB OR COMMA)
~Well Information
#_______________________________________________________________________________
#
#PARAMETER_NAME    .UNIT     VALUE                         : DESCRIPTION
#_______________________________________________________________________________
STRT               .M        47.8                          : First reference value
STOP               .M        2693.8                        : Last reference value
STEP               .M        0.2                           : Step increment
NULL               .         -9999                         : Missing value
COMP               .                                       : Company
WELL               .         616                           : Well name
FLD                .                                       : Field
LOC                .                                       : Location
CNTY               .                                       : County
STAT               .                                       : State
CTRY               .                                       : Country
SRVC               .                                       : Service Company
DATE               .                                       : Date
API                .                                       : API number
PROJECT_UPGRADE_TIME .         2021-03-18T21_24_50           : 
group              .         Good                          : 
~Parameter Information Block
#_______________________________________________________________________________
#
#PARAMETER_NAME    .UNIT     VALUE                         : DESCRIPTION
#_______________________________________________________________________________
SET                .         D1172_D                       : 
OTHER              .         Программное обеспечение станции MONITOR-386EX 25/12/99 15_08_10   BGF V52 22/08/01 16_56_30   3.2_BGF_N_3070031: 
OTHER_10           .         Тарировки_                    : 
OTHER_11           .         TM.GRD = 0.00403*TM$.UE + -1.19: 
OTHER_12           .         MN.ATM = (7.1e-006*TM.GRD + 0.02017)*(MN$.UE + -3.03*TM.GRD + -1833): 
OTHER_13           .         Id error                      : 
OTHER_2            .         Kedr.exe версия 3.4.2.51      : 
OTHER_3            .         KedrData.dll версия 3.4.2.24  : 
OTHER_4            .         Драйвер версия 2.1.1.8        : 
OTHER_5            .         Мнемоники версия 3.3 S        : 
OTHER_6            .         Прибор_ КСА-М1                : 
OTHER_7            .         Номер прибора_ 265            : 
OTHER_8            .         Режим_ КСА-М1                 : 
OTHER_9            .         Форма_ ТЕРМОМЕТР              : 
PROJECT_UPGRADE_TIME .         2021-03-18T21_24_49           : 
TLFamily_DEPT      .         Measured Depth                : 
TLFamily_GK        .         Gamma Ray                     : 
TLFamily_GK$       .                                       : 
TLFamily_LM        .         Casing Collar locator         : 
TLFamily_METKA     .                                       : 
TLFamily_MN        .                                       : 
TLFamily_MN$       .                                       : 
TLFamily_RCOR      .                                       : 
TLFamily_SPID      .         Spontaneous Potential         : 
TLFamily_STD       .                                       : 
TLFamily_TENS      .         Cable Tension                 : 
TLFamily_TIME      .         Time                          : 
TLFamily_TM        .         Temperature                   : 
TLFamily_TM$       .         Temperature                   : 
TLFamily_VGD       .         Gas Volume                    : 
group              .         prim                          : 
~Curve Information
#_______________________________________________________________________________
#
#LOGNAME           .UNIT     LOG_ID                        : DESCRIPTION
#_______________________________________________________________________________
DEPT               .M                                      : 1 Глубина, м -    0.0 см 
GK                 .MKR/H                                  : 15 Гамма-активность, мкр./ч -  110.0 см 
GK$                .UE                                     : 12 Гамма-активность, усл.ед. -  110.0 см 
LM                 .                                       : 10 Локатор муфт,  -   20.0 см 
METKA              .                                       : 3 Метки,  -    0.0 см 
MN                 .ATM                                    : 14 Давление, атм. -  160.0 см 
MN$                .UE                                     : 8 Давление, усл.ед. -  160.0 см 
RCOR               .CM/KM                                  : 5 Коррекция по ролику, см/км -    0.0 см 
SPID               .M/H                                    : 2 Скорость, м/час -    0.0 см 
STD                .                                       : 11 Приток,  -  170.0 см 
TENS               .T                                      : 6 Натяжение кабеля, т -    0.0 см 
TIME               .S                                      : 4 Время, сек -    0.0 см 
TM                 .GRD                                    : 13 Температура, °C -  180.0 см 
TM$                .UE                                     : 7 Температура, усл.ед. -  180.0 см 
VGD                .                                       : 9 Влагомер,  -  170.0 см 
~Ascii
# ...
753.4      2.83       121        127        0          71.59      5423       -1400      -1875      5207       0          32895.72   22.468     5871       6581      
753.6      2.83       121        154        0          71.611     5424       -1400      -1870      5211       0          32895.35   22.472     5872       6581      
753.8      2.82       121        177        0          71.631     5425       -1400      -1875      5213       0          32894.95   22.479     5873       6581      
754        2.82       121        55         0          71.639     5425       -1400      -1879      5216       0          32894.55   22.487     5875       6581      
754.2      2.82       121        53         0          71.651     5426       -1400      -1881      5218       0          32894.14   22.495     5877       6580      
754.4      2.81       121        57         0          71.671     5427       -1400      -1878      5221       0          32893.78   22.501     5879       6580      
754.6      2.8        120        55         0          71.692     5428       -1400      -1878      5225       0          32893.39   22.505     5880       6579      
754.8      2.8        120        46         0          71.711     5429       -1400      -1881      5228       0          32893.01   22.514     5882       6580      
755        2.79       120        53         0          71.732     5430       -1400      -1877      5231       0          32892.64   22.521     5884       6579      
755.2      2.79       120        58         0          71.753     5431       -1400      -1878      5234       0          32892.27   22.525     5885       6580      
755.4      2.78       120        56         0          71.774     5432       -1400      -1880      5236       0          32891.91   22.532     5886       6579      
755.6      2.76       120        48         0          71.794     5433       -1400      -1877      5239       0          32891.5    22.54      5888       6579      
755.8      2.74       118        45         0          71.816     5434       -1400      -1872      5240       0          32891.13   22.546     5890       6579      
756        2.73       114        58         0          71.836     5435       -1400      -1872      5242       0          32890.75   22.55      5891       6579      
756.2      2.76       114        65         0          71.857     5436       -1400      -1873      5245       0          32890.36   22.557     5893       6579      
756.4      2.81       114        59         0          71.877     5437       -1400      -1869      5249       0          32889.96   22.562     5894       6579      
756.6      2.88       114        48         0          71.896     5438       -1400      -1876      5253       0          32889.6    22.57      5896       6580      
756.8      3          114        53         0          71.916     5439       -1400      -1886      5255       0          32889.21   22.577     5898       6579      
757        3.18       123        64         0          71.92      5439       -1400      -1890      5259       0          32888.83   22.582     5899       6579      
757.2      3.33       142        72         0          71.936     5440       -1400      -1887      5263       0          32888.43   22.589     5901       6579      
757.4      3.34       142        58         0          71.956     5441       -1400      -1883      5266       0          32888.07   22.598     5903       6579      
757.6      3.35       142        53         0          71.977     5442       -1400      -1893      5268       0          32887.68   22.602     5904       6579      
757.8      3.36       142        61         0          72.032     5445       -1400      -1890      5269       0          32887.28   22.613     5907       6578      
758        3.38       142        66         0          72.059     5446       -1400      -1887      5271       0          32886.9    22.619     5908       6579      
758.2      3.41       142        64         0          72.078     5447       -1400      -1890      5274       0          32886.52   22.626     5910       6578      
758.4      3.45       145        64         0          72.099     5448       -1400      -1886      5277       0          32886.15   22.631     5911       6577      
758.6      3.48       150        59         0          72.101     5448       -1400      -1883      5280       0          32885.75   22.639     5913       6577      
758.8      3.46       150        59         0          72.12      5449       -1400      -1893      5284       0          32885.39   22.647     5915       6577      
759        3.44       150        74         0          72.139     5450       -1400      -1890      5287       0          32884.99   22.655     5917       6577      
759.2      3.4        150        70         0          72.16      5451       -1400      -1887      5290       0          32884.62   22.659     5918       6578      
759.4      3.34       150        68         0          72.181     5452       -1400      -1883      5292       0          32884.24   22.667     5920       6577      
759.6      3.26       150        61         0          72.181     5452       -1400      -1886      5293       0          32883.88   22.676     5922       6577      
759.8      3.13       139        55         0          72.201     5453       -1400      -1889      5296       0          32883.46   22.684     5924       6577      
760        3.06       129        65         2          72.221     5454       -1400      -1892      5299       0          32883.1    22.688     5925       6576      
760.2      3.09       129        78         0          72.242     5455       -1400      -1896      5303       0          32882.67   22.696     5927       6576      
760.4      3.12       129        73         0          72.261     5456       -1400      -1899      5307       0          32882.3    22.7       5928       6576      
760.6      3.17       129        74         0          72.282     5457       -1400      -1896      5311       0          32881.93   22.708     5930       6576      
760.8      3.26       129        96         0          72.301     5458       -1400      -1893      5314       0          32881.54   22.716     5932       6575      
761        3.38       138        120        0          72.302     5458       -1400      -1892      5318       0          32881.17   22.724     5934       6574      
761.2      3.47       144        153        0          72.321     5459       -1400      -1894      5321       0          32880.77   22.732     5936       6575      
761.4      3.53       144        208        0          72.343     5460       -1400      -1891      5324       0          32880.41   22.736     5937       6575      
761.6      3.61       144        304        0          72.362     5461       -1400      -1889      5328       0          32880.03   22.749     5940       6575      
761.8      3.74       144        447        0          72.385     5462       -1400      -1891      5331       0          32879.66   22.753     5941       6575      
762        3.92       144        668        0          72.404     5463       -1400      -1888      5334       0          32879.25   22.766     5944       6575      
762.2      4.23       144        998        0          72.424     5464       -1400      -1886      5336       0          32878.88   22.773     5946       6574      
762.4      4.65       184        1513       0          72.441     5465       -1400      -1888      5340       0          32878.52   22.778     5947       6575      
762.6      4.82       203        2299       0          72.448     5465       -1400      -1892      5345       0          32878.11   22.787     5950       6575      
762.8      4.86       203        3499       0          72.486     5467       -1400      -1894      5349       0          32877.74   22.797     5952       6575      
763        4.92       203        5099       0          72.505     5468       -1400      -1892      5354       0          32877.35   22.803     5954       6574      
