~Version
 VERS              .         2.0                           : CWLS LOG ASCII STANDARD - VERSION 2.0
 WRAP              .         NO                            : ONE LINE PER DEPTH STEP
 DLM               .         SPACE                         : DELIMITING CHARACTER(SPACE TAB OR COMMA)
~Well Information
#_______________________________________________________________________________
#
#PARAMETER_NAME    .UNIT     VALUE                         : DESCRIPTION
#_______________________________________________________________________________
STRT               .M        2669.8                        : First reference value
STOP               .M        2775.8                        : Last reference value
STEP               .M        0.2                           : Step increment
NULL               .         -9999                         : Missing value
COMP               .                                       : Company
WELL               .         616                           : Well name
FLD                .                                       : Field
LOC                .                                       : Location
CNTY               .                                       : County
STAT               .                                       : State
CTRY               .                                       : Country
SRVC               .                                       : Service Company
DATE               .                                       : Date
API                .                                       : API number
PROJECT_UPGRADE_TIME .         2021-03-18T21_24_50           : 
group              .         Good                          : 
~Parameter Information Block
#_______________________________________________________________________________
#
#PARAMETER_NAME    .UNIT     VALUE                         : DESCRIPTION
#_______________________________________________________________________________
SET                .         D1812_D                       : 
OTHER              .         Программное обеспечение станции MONITOR-386EX 25/12/99 15_08_10   BGF V52 22/08/01 16_56_30   3.1_SNGF___BGF_N_092049: 
OTHER_10           .         Тарировки_                    : 
OTHER_11           .         TM.GRD = 0.00403*TM$.UE + -1.07: 
OTHER_12           .         MN.ATM = (9.34907e-006*TM.GRD + 0.02171)*(MN$.UE + -7.93*TM.GRD + -1787): 
OTHER_13           .         GK.MKR/H = LM. / 42.4676      : 
OTHER_14           .         GK.FLT = 0.1*GK.MKR/H[-1] + (1-0.1)*GK.MKR/H[0]: 
OTHER_2            .         Kedr.exe версия 3.4.2.51      : 
OTHER_3            .         KedrData.dll версия 3.4.2.24  : 
OTHER_4            .         Драйвер версия 2.1.1.3        : 
OTHER_5            .         Мнемоники версия 3.3 S        : 
OTHER_6            .         Прибор_ КСА-Т4                : 
OTHER_7            .         Номер прибора_ 03             : 
OTHER_8            .         Режим_ КСА-Т4                 : 
OTHER_9            .         Форма_ КВА.                   : 
PROJECT_UPGRADE_TIME .         2021-03-18T21_24_49           : 
TLFamily_DEPT      .         Measured Depth                : 
TLFamily_GK        .         Gamma Ray                     : 
TLFamily_GK$       .                                       : 
TLFamily_GK_2      .         Gamma Ray                     : 
TLFamily_LM        .         Casing Collar locator         : 
TLFamily_METKA     .                                       : 
TLFamily_MN        .                                       : 
TLFamily_MN$       .                                       : 
TLFamily_RCOR      .                                       : 
TLFamily_SPID      .         Spontaneous Potential         : 
TLFamily_TENS      .         Cable Tension                 : 
TLFamily_TIME      .         Time                          : 
TLFamily_TM        .         Temperature                   : 
TLFamily_TM$       .         Temperature                   : 
group              .         prim                          : 
~Curve Information
#_______________________________________________________________________________
#
#LOGNAME           .UNIT     LOG_ID                        : DESCRIPTION
#_______________________________________________________________________________
DEPT               .M                                      : 1 Глубина, м -    0.0 см 
GK                 .MKR/H                                  : 13 Гамма-активность, мкр./ч -  110.0 см 
GK$                .UE                                     : 10 Гамма-активность, усл.ед. -  110.0 см 
GK_2               .FLT                                    : 14 Гамма-активность фильтрованная, мкр./ч -  110.0 см 
LM                 .                                       : 9 Локатор муфт,  -   20.0 см 
METKA              .                                       : 3 Метки,  -    0.0 см 
MN                 .ATM                                    : 12 Давление, атм. -  160.0 см 
MN$                .UE                                     : 8 Давление, усл.ед. -  160.0 см 
RCOR               .CM/KM                                  : 5 Коррекция по ролику, см/км -    0.0 см 
SPID               .M/H                                    : 2 Скорость, м/час -    0.0 см 
TENS               .T                                      : 6 Натяжение кабеля, т -    0.0 см 
TIME               .S                                      : 4 Время, сек -    0.0 см 
TM                 .GRD                                    : 11 Температура, °C -  170.0 см 
TM$                .UE                                     : 7 Температура, усл.ед. -  170.0 см 
~Ascii
# ...
2763.4     8.9        378        8.89       130        0          253.61     13651      -661       535        0.07       7695.05    60.245     15215     
2763.6     9.37       398        9.2        107        0          253.638    13653      -661       534        0.07       7696.39    60.398     15253     
2763.8     9.61       408        9.6        117        0          253.649    13654      -661       531        0.07       7697.7     60.558     15292     
2764       9          382        9.11       102        0          253.663    13655      -661       538        0.07       7699.03    60.683     15323     
2764.2     9          382        9          120        0          253.678    13656      -661       539        0.07       7700.39    60.792     15350     
2764.4     8.78       373        8.81       138        0          253.695    13657      -661       543        0.07       7701.69    60.879     15372     
2764.6     8.78       373        8.78       149        0          253.722    13659      -661       528        0.07       7703.04    60.982     15398     
2764.8     8.5        361        8.51       131        0          253.727    13659      -661       533        0.07       7704.44    61.061     15417     
2765       8.5        361        8.5        147        0          253.745    13660      -661       528        0.07       7705.77    61.129     15434     
2765.2     8.45       359        8.46       145        0          253.762    13661      -661       532        0.07       7707.09    61.202     15452     
2765.4     8.45       359        8.45       133        0          253.777    13662      -661       529        0.07       7708.47    61.294     15475     
2765.6     8.76       372        8.74       115        0          253.791    13663      -661       537        0.07       7709.74    61.4       15501     
2765.8     8.55       363        8.63       135        0          253.807    13664      -661       537        0.07       7711.11    61.504     15527     
2766       8.5        361        8.5        109        0          253.827    13665      -661       534        0.07       7712.41    61.597     15550     
2766.2     9.23       392        8.96       154        0          253.84     13666      -661       521        0.07       7713.83    61.673     15569     
2766.4     9.37       398        9.36       122        0          253.857    13667      -661       535        0.07       7715.14    61.754     15589     
2766.6     9.63       409        9.59       118        0          253.874    13668      -661       529        0.07       7716.47    61.818     15605     
2766.8     9.63       409        9.63       222        0          253.902    13670      -661       541        0.07       7717.8     61.899     15625     
2767       8.74       371        8.89       188        0          253.935    13671      -661       532        0.07       7719.14    61.969     15642     
2767.2     8.74       371        8.74       206        0          253.949    13672      -661       538        0.07       7720.5     62.025     15656     
2767.4     8.62       366        8.63       214        0          253.968    13673      -661       535        0.07       7721.77    62.086     15671     
2767.6     8.62       366        8.62       187        0          253.986    13674      -661       533        0.07       7723.22    62.135     15684     
2767.8     9.09       386        9.07       141        0          254.005    13675      -661       526        0.07       7724.53    62.196     15699     
2768       9.09       386        9.09       136        0          254.023    13676      -661       534        0.07       7725.86    62.245     15711     
2768.2     8.41       357        8.44       117        0          254.05     13677      -661       537        0.07       7727.19    62.301     15725     
2768.4     7.43       315        7.79       174        0          254.082    13679      -661       543        0.07       7728.5     62.33      15732     
2768.6     6.95       295        6.97       198        0          254.092    13679      -661       537        0.07       7729.88    62.351     15737     
2768.8     6.95       295        6.95       148        0          254.126    13681      -661       535        0.07       7731.16    62.388     15746     
2769       6.95       295        6.95       174        0          254.145    13682      -661       533        0.07       7732.52    62.424     15755     
2769.2     7.44       316        7.26       145        0          254.111    13681      -661       528        0.07       7733.88    62.482     15770     
2769.4     7.54       320        7.53       161        0          254.204    13685      -661       526        0.07       7735.25    62.537     15783     
2769.6     7.7        327        7.68       122        0          254.223    13686      -661       536        0.07       7736.61    62.584     15795     
2769.8     7.7        327        7.7        122        0          254.234    13687      -661       536        0.07       7737.89    62.626     15805     
2770       8.74       371        8.6        119        2          254.26     13688      -661       534        0.07       7739.28    62.689     15821     
2770.2     8.74       371        8.73       129        0          254.273    13689      -667       543        0.05       7740.98    62.745     15835     
2770.4     8.92       379        8.9        2965       0          254.295    13690      -667       548        0.07       7742.31    62.814     15852     
2770.6     8.92       379        8.92       1361       0          254.312    13691      -667       539        0.07       7743.7     62.882     15869     
2770.8     7.32       311        7.39       308        0          254.35     13693      -667       545        0.07       7745.02    62.969     15891     
2771       7.32       311        7.33       172        0          254.344    13693      -667       541        0.07       7746.34    63.064     15914     
2771.2     8.1        344        8.09       154        0          254.384    13695      -667       537        0.07       7747.67    63.139     15933     
2771.4     8.78       373        8.66       137        0          254.399    13696      -667       534        0.07       7749.06    63.222     15953     
2771.6     8.78       373        8.78       218        0          254.415    13697      -667       538        0.07       7750.38    63.325     15979     
2771.8     8.01       340        8.1        186        0          254.451    13699      -667       541        0.07       7751.7     63.44      16007     
2772       8.01       340        8.01       225        0          254.467    13700      -667       545        0.07       7753.03    63.531     16030     
2772.2     8.01       340        8.01       241        0          254.483    13701      -667       534        0.07       7754.41    63.62      16052     
2772.4     8.01       340        8.01       193        0          254.499    13702      -667       533        0.07       7755.75    63.713     16075     
2772.6     8.08       343        8.07       188        0          254.521    13703      -667       531        0.07       7757.06    63.811     16100     
2772.8     8.08       343        8.08       164        0          254.529    13704      -667       537        0.07       7758.39    63.918     16126     
2773       8.5        361        8.48       243        0          254.578    13706      -667       533        0.07       7759.7     64.015     16150     
2773.2     9.32       396        9.02       281        0          254.584    13707      -667       540        0.07       7761.09    64.091     16169     
2773.4     9.32       396        9.31       264        0          254.609    13709      -667       545        0.07       7762.34    64.198     16195     
2773.6     9.75       414        9.59       246        0          254.613    13709      -667       541        0.07       7763.8     64.306     16222     
