~Version
 VERS              .         2.0                           : CWLS LOG ASCII STANDARD - VERSION 2.0
 WRAP              .         NO                            : ONE LINE PER DEPTH STEP
 DLM               .         SPACE                         : DELIMITING CHARACTER(SPACE TAB OR COMMA)
~Well Information
#_______________________________________________________________________________
#
#PARAMETER_NAME    .UNIT     VALUE                         : DESCRIPTION
#_______________________________________________________________________________
STRT               .M        2667.4                        : First reference value
STOP               .M        2776.000109                   : Last reference value
STEP               .M        0.2000002                     : Step increment
NULL               .         -9999                         : Missing value
COMP               .                                       : Company
WELL               .         616                           : Well name
FLD                .                                       : Field
LOC                .                                       : Location
CNTY               .                                       : County
STAT               .                                       : State
CTRY               .                                       : Country
SRVC               .                                       : Service Company
DATE               .                                       : Date
API                .                                       : API number
PROJECT_UPGRADE_TIME .         2021-03-18T21_24_50           : 
group              .         Good                          : 
~Parameter Information Block
#_______________________________________________________________________________
#
#PARAMETER_NAME    .UNIT     VALUE                         : DESCRIPTION
#_______________________________________________________________________________
SET                .         D1801_D                       : 
OTHER              .         Программное обеспечение станции MONITOR-386EX 25/12/99 15_08_10   BGF V52 22/08/01 16_56_30   3.1_SNGF___BGF_N_092049: 
OTHER_10           .         Тарировки_                    : 
OTHER_11           .         TM.GRD = 0.00403*TM$.UE + -1.07: 
OTHER_12           .         MN.ATM = (9.34907e-006*TM.GRD + 0.02171)*(MN$.UE + -7.93*TM.GRD + -1787): 
OTHER_13           .         GK.MKR/H = LM. / 42.4676      : 
OTHER_14           .         GK.FLT = 0.1*GK.MKR/H[-1] + (1-0.1)*GK.MKR/H[0]: 
OTHER_2            .         Kedr.exe версия 3.4.2.51      : 
OTHER_3            .         KedrData.dll версия 3.4.2.24  : 
OTHER_4            .         Драйвер версия 2.1.1.3        : 
OTHER_5            .         Мнемоники версия 3.3 S        : 
OTHER_6            .         Прибор_ КСА-Т4                : 
OTHER_7            .         Номер прибора_ 03             : 
OTHER_8            .         Режим_ КСА-Т4                 : 
OTHER_9            .         Форма_ КВА.                   : 
PROJECT_UPGRADE_TIME .         2021-03-18T21_24_49           : 
TLFamily_DEPT      .         Measured Depth                : 
TLFamily_GK        .         Gamma Ray                     : 
TLFamily_GK$       .                                       : 
TLFamily_GK_2      .         Gamma Ray                     : 
TLFamily_LM        .         Casing Collar locator         : 
TLFamily_METKA     .                                       : 
TLFamily_MN        .                                       : 
TLFamily_MN$       .                                       : 
TLFamily_RCOR      .                                       : 
TLFamily_SPID      .         Spontaneous Potential         : 
TLFamily_TENS      .         Cable Tension                 : 
TLFamily_TIME      .         Time                          : 
TLFamily_TM        .         Temperature                   : 
TLFamily_TM$       .         Temperature                   : 
group              .         prim                          : 
~Curve Information
#_______________________________________________________________________________
#
#LOGNAME           .UNIT     LOG_ID                        : DESCRIPTION
#_______________________________________________________________________________
DEPT               .M                                      : 1 Глубина, м -    0.0 см 
GK                 .MKR/H                                  : 13 Гамма-активность, мкр./ч -  110.0 см 
GK$                .UE                                     : 10 Гамма-активность, усл.ед. -  110.0 см 
GK_2               .FLT                                    : 14 Гамма-активность фильтрованная, мкр./ч -  110.0 см 
LM                 .                                       : 9 Локатор муфт,  -   20.0 см 
METKA              .                                       : 3 Метки,  -    0.0 см 
MN                 .ATM                                    : 12 Давление, атм. -  160.0 см 
MN$                .UE                                     : 8 Давление, усл.ед. -  160.0 см 
RCOR               .CM/KM                                  : 5 Коррекция по ролику, см/км -    0.0 см 
SPID               .M/H                                    : 2 Скорость, м/час -    0.0 см 
TENS               .T                                      : 6 Натяжение кабеля, т -    0.0 см 
TIME               .S                                      : 4 Время, сек -    0.0 см 
TM                 .GRD                                    : 11 Температура, °C -  170.0 см 
TM$                .UE                                     : 7 Температура, усл.ед. -  170.0 см 
~Ascii
# ...
2719.400052 9.63       409        9.63       82         0          249.124    13401      -628       576        0.05       8060.1     45.069     11449     
2719.600052 10.53      447        10.43      61         0          249.146    13402      -628       580        0.05       8061.31    45.069     11449     
2719.800052 10.53      447        10.52      58         0          249.168    13403      -628       586        0.05       8062.54    45.069     11449     
2720.000053 10.78      458        10.77      92         2          249.183    13404      -628       590        0.05       8063.77    45.069     11449     
2720.200053 10.78      458        10.78      81         0          249.191    13404      -636       586        0.05       8065.56    45.068     11449     
2720.400053 10.29      437        10.33      94         0          249.235    13406      -636       572        0.05       8066.81    45.065     11448     
2720.600053 10.29      437        10.29      128        0          249.251    13407      -636       576        0.05       8068.05    45.065     11448     
2720.800053 10.83      460        10.77      84         0          249.257    13407      -636       575        0.05       8069.29    45.061     11447     
2721.000054 10.83      460        10.83      76         0          249.279    13408      -636       576        0.05       8070.49    45.061     11447     
2721.200054 11.82      502        11.8       102        0          249.302    13409      -636       577        0.05       8071.72    45.057     11446     
2721.400054 11.66      495        11.72      93         0          249.321    13410      -636       589        0.05       8072.97    45.057     11446     
2721.600054 11.59      492        11.59      119        0          249.324    13410      -636       593        0.05       8074.14    45.057     11446     
2721.800054 11.55      491        11.57      88         0          249.368    13412      -636       585        0.05       8075.45    45.053     11445     
2722.000055 11.49      488        11.49      102        0          249.391    13413      -636       581        0.05       8076.69    45.053     11445     
2722.200055 10.93      464        11.13      152        0          249.391    13413      -636       581        0.05       8077.94    45.053     11445     
2722.400055 10.83      460        10.84      175        0          249.413    13414      -636       583        0.05       8079.17    45.051     11444     
2722.600055 10.43      443        10.58      110        0          249.435    13415      -636       579        0.05       8080.42    45.049     11444     
2722.800055 10.03      426        10.05      89         0          249.479    13417      -636       579        0.05       8081.65    45.049     11444     
2723.000056 10.11      429        10.08      145        0          249.479    13417      -636       579        0.05       8082.88    45.045     11443     
2723.200056 10.48      445        10.46      130        0          249.502    13418      -636       589        0.05       8084.08    45.047     11444     
2723.400056 10.48      445        10.48      161        0          249.513    13419      -636       581        0.05       8085.39    45.045     11443     
2723.600056 11.02      468        11         143        0          249.524    13419      -636       587        0.05       8086.6     45.045     11443     
2723.800056 11.44      486        11.29      197        0          249.546    13420      -636       585        0.05       8087.83    45.045     11443     
2724.000057 11.87      504        11.85      165        0          249.568    13421      -636       584        0.05       8089.05    45.045     11443     
2724.200057 11.88      505        11.88      151        0          249.59     13422      -636       586        0.05       8090.3     45.045     11443     
2724.400057 11.96      508        11.96      136        0          249.616    13423      -636       580        0.06       8091.54    45.045     11443     
2724.600057 11.96      508        11.96      182        0          249.635    13424      -636       580        0.05       8092.78    45.045     11443     
2724.800057 9.49       403        9.6        157        0          249.65     13425      -636       580        0.07       8094.02    45.045     11443     
2725.000058 8.76       372        9.03       230        0          249.657    13425      -636       569        0.07       8095.28    45.041     11442     
2725.200058 7.79       331        7.84       219        0          249.679    13426      -636       582        0.07       8096.52    45.038     11441     
2725.400058 7.79       331        7.8        305        0          249.701    13427      -636       587        0.07       8097.75    45.037     11441     
2725.600058 7.11       302        7.14       237        0          249.724    13428      -636       585        0.07       8098.96    45.037     11441     
2725.800058 7.11       302        7.11       958        0          249.746    13429      -636       583        0.07       8100.2     45.036     11441     
2726.000059 6.22       264        6.26       392        0          249.783    13431      -636       582        0.07       8101.42    45.033     11440     
2726.200059 6.58       280        6.45       315        0          249.79     13431      -636       584        0.07       8102.67    45.033     11440     
2726.400059 6.95       295        6.93       256        0          249.798    13431      -636       580        0.07       8103.91    45.029     11439     
2726.600059 6.95       295        6.95       206        0          249.835    13433      -636       574        0.07       8105.22    45.033     11440     
2726.800059 7.94       337        7.9        267        0          249.857    13434      -636       576        0.07       8106.45    45.029     11439     
2727.00006 7.94       337        7.93       165        0          249.879    13435      -636       577        0.07       8107.7     45.029     11439     
2727.20006 8.45       359        8.42       183        0          249.879    13435      -636       589        0.07       8108.88    45.029     11439     
2727.40006 8.45       359        8.45       284        0          249.901    13436      -636       586        0.07       8110.13    45.033     11440     
2727.60006 7.65       325        7.72       520        0          249.923    13437      -636       584        0.07       8111.36    45.037     11441     
2727.80006 7.65       325        7.65       248        0          249.945    13438      -636       583        0.05       8112.61    45.037     11441     
2728.000061 6.83       290        6.86       200        0          249.967    13439      -636       579        0.07       8113.84    45.037     11441     
2728.200061 6.83       290        6.83       155        0          249.974    13439      -636       569        0.07       8115.16    45.039     11441     
2728.400061 7.16       304        7.14       130        0          250.011    13441      -636       572        0.07       8116.33    45.041     11442     
2728.600061 7.16       304        7.16       307        0          250.033    13442      -636       574        0.07       8117.58    45.039     11441     
2728.800061 7.3        310        7.29       168        0          250.033    13442      -636       576        0.07       8118.81    45.037     11441     
2729.000062 7.3        310        7.3        389        0          250.055    13443      -636       587        0.07       8120.06    45.045     11443     
2729.200062 8.59       365        8.54       285        0          250.076    13444      -636       591        0.07       8121.3     45.054     11445     
2729.400062 8.59       365        8.59       129        0          250.098    13445      -636       588        0.07       8122.55    45.061     11447     
2729.600062 10.62      451        10.49      91         0          250.109    13446      -636       579        0.07       8123.81    45.069     11449     
