~Version
 VERS              .         2.0                           : CWLS LOG ASCII STANDARD - VERSION 2.0
 WRAP              .         NO                            : ONE LINE PER DEPTH STEP
 DLM               .         SPACE                         : DELIMITING CHARACTER(SPACE TAB OR COMMA)
~Well Information
#_______________________________________________________________________________
#
#PARAMETER_NAME    .UNIT     VALUE                         : DESCRIPTION
#_______________________________________________________________________________
STRT               .M        2665.8                        : First reference value
STOP               .M        2774.199892                   : Last reference value
STEP               .M        0.1999998                     : Step increment
NULL               .         -9999                         : Missing value
COMP               .                                       : Company
WELL               .         616                           : Well name
FLD                .                                       : Field
LOC                .                                       : Location
CNTY               .                                       : County
STAT               .                                       : State
CTRY               .                                       : Country
SRVC               .                                       : Service Company
DATE               .                                       : Date
API                .                                       : API number
PROJECT_UPGRADE_TIME .         2021-03-18T21_24_50           : 
group              .         Good                          : 
~Parameter Information Block
#_______________________________________________________________________________
#
#PARAMETER_NAME    .UNIT     VALUE                         : DESCRIPTION
#_______________________________________________________________________________
SET                .         D1801_D_2                     : 
NPR                .                                       : 
OTHER              .         Программное обеспечение станции MONITOR-386EX 25/12/99 15_08_10   BGF V52 22/08/01 16_56_30   3.1_SNGF___BGF_N_092049: 
OTHER_10           .         Тарировки_                    : 
OTHER_11           .         TM.GRD = 0.00403*TM$.UE + -1.07: 
OTHER_12           .         MN.ATM = (9.34907e-006*TM.GRD + 0.02171)*(MN$.UE + -7.93*TM.GRD + -1787): 
OTHER_13           .         GK.MKR/H = LM. / 42.4676      : 
OTHER_14           .         GK.FLT = 0.1*GK.MKR/H[-1] + (1-0.1)*GK.MKR/H[0]: 
OTHER_2            .         Kedr.exe версия 3.4.2.51      : 
OTHER_3            .         KedrData.dll версия 3.4.2.24  : 
OTHER_4            .         Драйвер версия 2.1.1.3        : 
OTHER_5            .         Мнемоники версия 3.3 S        : 
OTHER_6            .         Прибор_ КСА-Т4                : 
OTHER_7            .         Номер прибора_ 03             : 
OTHER_8            .         Режим_ КСА-Т4                 : 
OTHER_9            .         Форма_ КВА.                   : 
PR                 .                                       : 
PROJECT_UPGRADE_TIME .         2021-03-18T21_24_49           : 
PRTY               .         ПП-603-1                      : N партии
SRV                .                                       : 
SRVC               .         Карпов                        : Начальник партии
TLFamily_DEPT      .         Measured Depth                : 
TLFamily_LM        .         Casing Collar locator         : 
TLFamily_MN        .                                       : 
TLFamily_TM        .         Temperature                   : 
group              .         second                        : 
~Curve Information
#_______________________________________________________________________________
#
#LOGNAME           .UNIT     LOG_ID                        : DESCRIPTION
#_______________________________________________________________________________
DEPT               .M                                      : Depth curve 
LM                 .е.ацп                                  : Локатор муфт,е.ацп 
MN                 .атм                                    : Манометрия, атм 
TM                 .град.C                                 : Термограмма по стволу скважины,град.C 
~Ascii
2665.8000488 -9999      -9999      -9999     
2666       44         -9999      -9999     
2666.2     44.01      -9999      -9999     
2666.399999 86.052     -9999      -9999     
2666.599999 296.993    -9999      -9999     
2666.799999 270.002    -9999      -9999     
2666.999999 280.014    -9999      -9999     
2667.199999 339.056    -9999      -9999     
2667.399998 567.959    -9999      -9999     
2667.599998 398.993    244.117    46.657    
2667.799998 368.986    244.116    46.681    
2667.999998 311.124    244.125    46.7      
2668.199998 819.113    244.138    46.723    
2668.399997 1281.812   244.172    46.754    
2668.599997 512.37     244.175    46.778    
2668.799997 2025.323   244.189    46.794    
2668.999997 3346.343   244.219    46.786    
2669.199997 656.928    244.251    46.793    
2669.399996 361        244.266    46.814    
2669.599996 359        244.267    46.802    
2669.799996 357.998    244.294    46.786    
2669.999996 349.003    244.287    46.792    
2670.199996 360.99     244.329    46.8      
2670.399995 320.998    244.352    46.802    
2670.599995 312.002    244.372    46.782    
2670.799995 319.997    244.398    46.762    
2670.999995 309.029    244.41     46.758    
2671.199995 426.97     244.439    46.755    
2671.399994 305.005    244.421    46.752    
2671.599994 324.982    244.466    46.746    
2671.799994 253.01     244.489    46.738    
2671.999994 294.993    244.512    46.73     
2672.199994 265.002    244.535    46.716    
2672.399993 275.004    244.551    46.706    
2672.599993 291.986    244.559    46.683    
2672.799993 234.005    244.589    46.675    
2672.999993 254.004    244.619    46.675    
2673.199993 270.99     244.627    46.661    
2673.399992 230.993    244.65     46.651    
2673.599992 202.01     244.662    46.638    
2673.799992 244.001    244.719    46.616    
2673.999992 247.987    244.718    46.621    
2674.199992 195.002    244.741    46.622    
2674.399991 205.019    244.765    46.6      
2674.599991 283.988    244.769    46.583    
2674.799991 234.991    244.796    46.584    
2674.999991 196.993    244.833    46.584    
2675.199991 167.015    244.855    46.567    
2675.39999 230.002    244.856    46.566    
2675.59999 236.987    244.895    46.532    
2675.79999 183.003    244.902    46.518    
2675.99999 195.01     244.924    46.531    
2676.19999 236.014    244.948    46.52     
2676.399989 292.985    244.972    46.495    
2676.599989 229.988    244.993    46.488    
2676.799989 181.991    245.016    46.489    
2676.999989 145.993    245.04     46.475    
2677.199989 116.031    245.04     46.458    
2677.399988 242.994    245.063    46.448    
2677.599988 219.998    245.084    46.46     
2677.799988 211.986    245.111    46.454    
2677.999988 153.01     245.131    46.437    
2678.199988 195.006    245.154    46.415    
2678.399987 220.998    245.177    46.407    
2678.599987 213.997    245.199    46.407    
2678.799987 200.982    245.215    46.395    
2678.999987 126.011    245.224    46.382    
2679.199987 170.987    245.254    46.362    
2679.399986 118.019    245.27     46.347    
2679.599986 194.015    245.291    46.351    
2679.799986 255.234    245.314    46.345    
2679.999986 1208.231   245.336    46.335    
2680.199986 2150.617   245.359    46.346    
2680.399985 590.905    245.383    46.319    
2680.599985 203.983    245.406    46.307    
2680.799985 135.993    245.428    46.299    
2680.999985 107.02     245.455    46.296    
2681.199985 186.996    245.475    46.275    
2681.399984 171.987    245.498    46.258    
2681.599984 121.016    245.499    46.245    
2681.799984 186.993    245.521    46.234    
2681.999984 158.995    245.544    46.237    
2682.199984 138        245.569    46.233    
2682.399983 140.004    245.59     46.217    
2682.599983 155.998    245.613    46.186    
2682.799983 146.996    245.635    46.195    
2682.999983 130.026    245.68     46.184    
2683.199983 236.993    245.681    46.175    
2683.399982 209.994    245.699    46.173    
2683.599982 184.998    245.726    46.166    
2683.799982 176.995    245.694    46.15     
2683.999982 156.001    245.769    46.133    
2684.199982 158.992    245.773    46.121    
2684.399981 127.006    245.796    46.107    
2684.599981 152.984    245.819    46.101    
2684.799981 89.012     245.838    46.102    
2684.999981 135.997    245.864    46.097    
2685.199981 123.01     245.888    46.07     
2685.39998 162.004    245.911    46.049    
2685.59998 178.995    245.933    46.055    
2685.79998 159.003    245.944    46.057    
2685.99998 170.009    245.957    46.039    
2686.19998 205.999    245.981    46.008    
2686.399979 200.987    246.004    45.989    
2686.599979 149.995    246.025    45.988    
2686.799979 130.016    246.046    46.006    
2686.999979 197.004    246.054    46.007    
2687.199979 214.985    246.085    45.992    
2687.399978 151.99     246.116    45.975    
2687.599978 110.001    246.131    45.965    
2687.799978 115.999    246.14     45.953    
2687.999978 110.02     246.161    45.948    
2688.199978 190.992    246.184    45.951    
2688.399977 159.002    246.209    45.929    
2688.599977 169        246.232    45.899    
2688.799977 167.008    246.254    45.9      
2688.999977 201.003    246.265    45.9      
2689.199977 213.989    246.276    45.9      
2689.399976 167.998    246.299    45.894    
2689.599976 159.988    246.321    45.892    
2689.799976 113        246.337    45.882    
2689.999976 114.999    246.367    45.867    
2690.199976 111.012    246.389    45.868    
2690.399975 157.999    246.412    45.854    
2690.599975 152.004    246.457    45.843    
2690.799975 167.002    246.458    45.841    
2690.999975 175.997    246.459    45.819    
2691.199975 163.386    246.482    45.807    
2691.399974 1729.689   246.504    45.806    
2691.599974 466.937    246.527    45.807    
2691.799974 208.998    246.55     45.789    
2691.999974 201.984    246.573    45.775    
2692.199974 135.011    246.595    45.779    
2692.399973 181.004    246.617    45.779    
2692.599973 198.003    246.625    45.772    
2692.799973 210.999    246.661    45.771    
2692.999973 204.994    246.685    45.762    
2693.199973 179.999    246.685    45.753    
2693.399972 174.989    246.709    45.738    
2693.599972 129.002    246.732    45.724    
2693.799972 136.996    246.74     45.706    
2693.999972 122        246.768    45.702    
2694.199972 119.989    246.778    45.697    
2694.399971 76.024     246.823    45.679    
2694.599971 172.007    246.824    45.667    
2694.799971 198.997    246.847    45.661    
2694.999971 187.981    246.87     45.65     
2695.199971 112.008    246.893    45.638    
2695.39997 143.998    246.915    45.622    
2695.59997 135.014    246.938    45.63     
2695.79997 192.998    246.961    45.614    
2695.99997 184.996    246.96     45.611    
2696.19997 167.012    246.982    45.618    
2696.399969 213.993    247.005    45.618    
2696.599969 184.992    247.027    45.614    
2696.799969 152.006    247.049    45.614    
2696.999969 177.009    247.072    45.601    
2697.199969 214.987    247.096    45.589    
2697.399968 164.002    247.101    45.571    
2697.599968 174.006    247.133    45.547    
2697.799968 197.993    247.143    45.536    
2697.999968 170.98     247.188    45.525    
2698.199968 89.995     247.189    45.514    
2698.399967 71.002     247.211    45.508    
2698.599967 79.997     247.234    45.505    
2698.799967 67.006     247.246    45.501    
2698.999967 90         247.258    45.483    
2699.199967 91.002     247.304    45.464    
2699.399966 101        247.327    45.449    
2699.599966 101.996    247.327    45.44     
2699.799966 87.002     247.35     45.432    
2699.999966 97.018     247.373    45.425    
2700.199966 169.997    247.392    45.412    
2700.399965 156.985    247.418    45.406    
2700.599965 97.994     247.43     45.393    
2700.799965 72         247.463    45.389    
2700.999965 73.002     247.486    45.388    
2701.199965 81.998     247.497    45.38     
2701.399964 72.001     247.509    45.372    
