~Version
 VERS              .         2.0                           : CWLS LOG ASCII STANDARD - VERSION 2.0
 WRAP              .         NO                            : ONE LINE PER DEPTH STEP
 DLM               .         SPACE                         : DELIMITING CHARACTER(SPACE TAB OR COMMA)
~Well Information
#_______________________________________________________________________________
#
#PARAMETER_NAME    .UNIT     VALUE                         : DESCRIPTION
#_______________________________________________________________________________
STRT               .M        2649.6                        : First reference value
STOP               .M        2756.799946                   : Last reference value
STEP               .M        0.1999999                     : Step increment
NULL               .         -9999                         : Missing value
COMP               .                                       : Company
WELL               .         616                           : Well name
FLD                .                                       : Field
LOC                .                                       : Location
CNTY               .                                       : County
STAT               .                                       : State
CTRY               .                                       : Country
SRVC               .                                       : Service Company
DATE               .                                       : Date
API                .                                       : API number
PROJECT_UPGRADE_TIME .         2021-03-18T21_24_50           : 
group              .         Good                          : 
~Parameter Information Block
#_______________________________________________________________________________
#
#PARAMETER_NAME    .UNIT     VALUE                         : DESCRIPTION
#_______________________________________________________________________________
SET                .         D4412_D_2                     : 
COMM               .                                       : 
OTHER              .         Запись производится в присутствии: 
OTHER_10           .         Максимальная температура      : 
OTHER_11           .         Тип промывочной жидкости      : 
OTHER_12           .         Сопротивление ПЖ (Ом*м) при 20°C: 
OTHER_13           .         Плотность ПЖ(г/см3)           : 
OTHER_14           .         Вязкость ПЖ(с)                : 
OTHER_15           .         Водоотдача ПЖ(см3/30мин)      : 
OTHER_16           .         Уровень ПЖ                    : 
OTHER_17           .         Нефть ПЖ (%)                  : 
OTHER_18           .         Барит ПЖ (%)                  : 
OTHER_19           .         Гематит ПЖ (%)                : 
OTHER_2            .         Заказчик ННСН  ЦДНГ-1         : 
OTHER_20           .         КМЦ ПЖ (%)                    : 
OTHER_21           .         Разгазирование ПЖ (да,нет)    : 
OTHER_22           .         Подъемник                     : 
OTHER_23           .         Лаборатория                   : 
OTHER_24           .         Тип кабеля                    : 
OTHER_25           .         Длина кабеля (м)              : 
OTHER_26           .         Цена последней метки          : 
OTHER_27           .         Цена контрольной метки        : 
OTHER_28           .         Диаметр долота (мм)           : 
OTHER_29           .         Глубина бурения (м)           : 
OTHER_3            .         Площадь                       : 
OTHER_30           .         Искусственный забой (м)       : 
OTHER_31           .         Диаметр колонны (мм)          : 
OTHER_32           .         Толщина колонны (мм)          : 
OTHER_33           .         Башмак колонны (м)            : 
OTHER_34           .         Диаметр НКТ (мм)              : 
OTHER_35           .         Толщина НКТ (мм)              : 
OTHER_36           .         Воронка НКТ (м)               : 
OTHER_37           .         Дата цементожа                : 
OTHER_38           .         Тип, количество(т) и плотность цемента: 
OTHER_39           .         Интервалы перфорации (м)      : 
OTHER_4            .         Категория                     : 
OTHER_40           .         Направление, диаметр (мм)     : 
OTHER_41           .         Направление, глубина (м)      : 
OTHER_42           .         Кондуктор, диаметр (мм)       : 
OTHER_43           .         Кондуктор, глубина (м)        : 
OTHER_44           .         Техническая колонна, диаметр (мм): 
OTHER_45           .         Техническая колонна, глубина (м): 
OTHER_46           .         Эксплуатационная колонна, диаметр (мм): 
OTHER_47           .         Эксплуатационная колонна, глубина (м): 
OTHER_48           .         Программа Кедр-02 версия 3.4  : 
OTHER_49           .         Операционная система Windows NT 5.1 build 2600 Service Pack 2: 
OTHER_5            .         Назначение исследований       : 
OTHER_50           .         Программное обеспечение станции MONITOR-386EX 25/12/99 15_08_10   BGF V54 20/09/05 15_32_17   3.3__BGF_9030071: 
OTHER_51           .         Kedr.exe версия 3.4.2.74      : 
OTHER_52           .         KedrData.dll версия 3.4.2.29  : 
OTHER_53           .         Мнемоники версия 3.18 S       : 
OTHER_54           .         Драйвер версия 2.1.1.4        : 
OTHER_55           .         LasInf.dll 4.3.0.35           : 
OTHER_56           .         Прибор_ КСА-Т4                : 
OTHER_57           .         Номер прибора_ 160            : 
OTHER_58           .         Режим_ КСА-Т4                 : 
OTHER_59           .         Форма_ С.А.Б.                 : 
OTHER_6            .         Альтитуда стола ротора        : 
OTHER_60           .         Тарировки_                    : 
OTHER_61           .         <_techsia_sc_> Дата тарировки температуры 25.05.2010: 
OTHER_62           .         Ручной ввод коэффициентов     : 
OTHER_63           .         TM.DEGC = 0.00402*RTM.E.ACP + -0.994: 
OTHER_64           .         <_techsia_sc_> Дата тарировки давления 25.05.2010: 
OTHER_65           .         Ручной ввод коэффициентов     : 
OTHER_66           .         MN.ATM = (2.27521e-006*TM.DEGC + 0.02078)*(RMN.E.ACP + 6.2*TM.DEGC + -1688): 
OTHER_67           .         <_techsia_sc_> Дата тарировки ГК 25.05.2010: 
OTHER_68           .         Ручной ввод коэффициентов     : 
OTHER_69           .         GR.UR/H = RGR.IMP/MIN / 45.5144: 
OTHER_7            .         Вид исследований 3  6         : 
OTHER_70           .         GK.FLT = 0.1*GR.UR/H[-1] + (1-0.1)*GR.UR/H[0]: 
OTHER_8            .         Начало бурения интервала каротажа: 
OTHER_9            .         Окончание бурения интервала каротажа: 
PROJECT_UPGRADE_TIME .         2021-03-18T21_24_50           : 
PRTY               .         ПП-601-1                      : N партии
SRVC               .         Барковский                    : Начальник партии
TLFamily_DEPT      .         Measured Depth                : 
TLFamily_LM        .         Casing Collar locator         : 
TLFamily_MN        .                                       : 
TLFamily_TM        .         Temperature                   : 
group              .         second                        : 
~Curve Information
#_______________________________________________________________________________
#
#LOGNAME           .UNIT     LOG_ID                        : DESCRIPTION
#_______________________________________________________________________________
DEPT               .M                                      : Depth curve 
LM                 .е.ацп                                  : Локатор муфт,е.ацп 
MN                 .атм                                    : 12 Давление, атм. -  160.0 см 
TM                 .град.C                                 : Термограмма по стволу скважины,град.C 
~Ascii
# ...
2721.199964 111.008    373.618    64.11     
2721.399964 126.976    373.653    64.094    
2721.599964 78.009     373.647    64.086    
2721.799964 96.986     373.698    64.081    
2721.999964 68.991     373.76     64.07     
2722.199964 50.031     373.8      64.066    
2722.399964 111.99     373.804    64.05     
2722.599963 91.03      373.756    64.05     
2722.799963 151.963    373.761    64.043    
2722.999963 78.043     373.774    64.03     
2723.199963 165.082    373.707    64.019    
2723.399963 331.971    373.749    64.001    
2723.599963 274.051    373.76     64.005    
2723.799963 376.987    373.79     64.005    
2723.999963 350.977    373.784    63.991    
2724.199963 2327.179   373.733    63.978    
2724.399963 665.867    373.763    63.969    
2724.599962 396.033    373.782    63.956    
2724.799962 461.998    373.78     63.949    
2724.999962 457.883    373.778    63.936    
2725.199962 220.965    373.796    63.924    
2725.399962 150.991    373.834    63.9      
2725.599962 132.965    373.838    63.885    
2725.799962 62.001     373.85     63.87     
2725.999962 64.998     373.959    63.853    
2726.199962 60.086     373.963    63.849    
2726.399962 234.012    373.974    63.849    
2726.599962 258.964    374.017    63.845    
2726.799961 185.975    374.158    63.829    
2726.999961 135.019    374.152    63.826    
2727.199961 173.024    374.208    63.817    
2727.399961 221.987    374.156    63.808    
2727.599961 195.95     374.21     63.79     
2727.799961 94.03      374.514    63.777    
2727.999961 153.96     374.628    63.764    
2728.199961 74.032     374.773    63.755    
2728.399961 137.985    374.58     63.734    
2728.59996 107.044    374.515    63.724    
2728.79996 196.981    374.536    63.706    
2728.99996 157.999    374.693    63.68     
2729.19996 154.973    374.628    63.657    
2729.39996 101.006    374.623    63.622    
2729.59996 113.983    374.665    63.595    
2729.79996 80.014     374.731    63.583    
2729.99996 108.996    374.742    63.571    
2730.19996 100.052    374.902    63.555    
2730.39996 204.952    375.105    63.529    
2730.599959 107.982    375.227    63.358    
2730.799959 70.988     375.243    62.676    
2730.999959 47.012     375.11     61.567    
2731.199959 70.99      374.798    60.355    
2731.399959 51.005     374.415    59.315    
2731.599959 62.001     374.307    58.177    
2731.799959 63.997     374.39     57.17     
2731.999959 57         374.152    56.222    
2732.199959 57.999     374.112    55.32     
2732.399959 55.016     374.07     54.654    
2732.599958 87.149     373.942    54.289    
2732.799958 388.864    373.868    54.084    
2732.999958 113.971    373.794    53.984    
2733.199958 55.002     373.972    53.935    
2733.399958 60.205     374.086    53.852    
2733.599958 473.917    374.038    53.827    
2733.799958 306.901    373.827    53.702    
2733.999958 106.093    374.02     53.283    
2734.199958 294.915    374.076    52.576    
2734.399958 123.977    373.929    51.954    
2734.599958 77.012     373.98     51.538    
2734.799957 100.98     374.066    51.265    
2734.999957 63.923     374.149    51.109    
2735.199957 7989.607   373.979    50.99     
2735.399957 5173.157   374.068    50.89     
2735.599957 1448.487   374.245    50.74     
2735.799957 411.857    374.011    50.626    
2735.999957 122.007    373.974    50.583    
2736.199957 135.969    373.769    50.524    
2736.399957 72.988     373.681    50.462    
2736.599956 47.999     373.651    50.394    
2736.799956 45         373.774    50.347    
2736.999956 44.999     373.966    50.316    
2737.199956 43.017     373.65     50.291    
2737.399956 76.99      373.543    50.285    
2737.599956 56.007     373.502    50.274    
2737.799956 69.985     373.723    50.281    
2737.999956 40.013     373.686    50.278    
2738.199956 66         373.426    50.223    
2738.399956 65.013     373.436    50.185    
2738.599955 91.996     373.718    50.154    
2738.799955 83.003     373.56     50.116    
2738.999955 89.985     373.73     50.099    
2739.199955 59.996     373.797    50.088    
2739.399955 52.002     373.904    50.092    
2739.599955 55.997     373.951    50.094    
2739.799955 48.999     374.2      50.081    
2739.999955 47.018     374.318    50.08     
2740.199955 84.002     374.365    50.075    
2740.399955 87.982     374.334    50.057    
2740.599954 52.002     374.473    50.052    
2740.799954 56.006     374.635    50.05     
2740.999954 68.987     374.702    50.073    
2741.199954 42.007     374.732    50.092    
2741.399954 56.002     374.832    50.102    
2741.599954 60.996     374.655    50.118    
2741.799954 52         374.629    50.138    
2741.999954 52.003     374.718    50.158    
2742.199954 58.997     374.749    50.189    
2742.399954 53.001     375.038    50.207    
2742.599954 55.003     375.17     50.226    
2742.799953 61.016     375.233    50.246    
2742.999953 92.979     375.142    50.264    
2743.199953 51.012     375.226    50.286    
2743.399953 75.991     375.412    50.31     
2743.599953 57.004     375.515    50.341    
2743.799953 64.993     375.554    50.37     
2743.999953 51.011     375.573    50.401    
2744.199953 73.011     375.761    50.434    
2744.399953 95.006     375.716    50.47     
2744.599952 107.979    375.724    50.491    
2744.799952 64.991     375.845    50.517    
2744.999952 46.999     375.934    50.554    
2745.199952 44.017     375.939    50.584    
2745.399952 77.996     375.974    50.621    
2745.599952 69.999     376.025    50.661    
2745.799952 67.99      376.003    50.711    
2745.999952 47.003     376.055    50.751    
2746.199952 57.07      376.111    50.786    
2746.399952 8264.623   376.052    50.83     
2746.599951 3468.772   376.113    50.878    
2746.799951 991.652    376.154    50.922    
2746.999951 288.906    376.263    50.968    
2747.199951 100.041    376.127    51.005    
2747.399951 182.946    376.115    51.039    
2747.599951 73.992     376.219    51.078    
2747.799951 56.997     376.313    51.112    
2747.999951 50.088     376.234    51.163    
2748.199951 227.963    376.319    51.211    
2748.399951 152.973    376.417    51.247    
2748.59995 98.999     376.346    51.266    
2748.79995 95.99      376.283    51.274    
2748.99995 75.986     376.45     51.27     
2749.19995 47.008     376.513    51.266    
2749.39995 64.016     376.494    51.272    
2749.59995 95.983     376.5      51.314    
2749.79995 61.014     376.64     51.399    
2749.99995 89.991     376.671    51.542    
2750.19995 72.001     376.757    51.624    
2750.39995 73.99      376.831    51.74     
2750.59995 53.005     376.781    51.819    
2750.799949 64.011     376.782    51.898    
2750.999949 86.996     377.043    52.283    
2751.199949 77.989     377.209    53.02     
2751.399949 55.991     377.223    53.445    
2751.599949 38.002     377.244    53.61     
2751.799949 43.029     377.317    53.531    
2751.999949 102.044    377.34     53.436    
2752.199949 190.016    377.412    53.344    
2752.399949 223.02     377.365    53.236    
2752.599948 263.023    377.455    53.201    
2752.799948 308.879    377.503    53.228    
2752.999948 64.985     377.56     53.26     
2753.199948 34.997     377.62     53.439    
2753.399948 29         377.877    53.598    
2753.599948 28         377.916    53.646    
2753.799948 28         378.004    53.651    
2753.999948 28         377.986    53.623    
2754.199948 27         378.076    53.606    
2754.399948 28         378.142    53.73     
2754.599947 27         378.273    53.929    
2754.799947 27         378.258    54.116    
2754.999947 28         378.287    54.331    
2755.199947 28         378.259    54.538    
2755.399947 -9999      378.22     54.735    
2755.599947 -9999      378.254    54.902    
2755.799947 -9999      378.248    55.053    
2755.999947 -9999      378.275    55.175    
2756.199947 -9999      378.349    55.274    
2756.399947 -9999      378.313    55.354    
2756.599946 -9999      378.354    55.417    
2756.799946 -9999      378.257    55.466    
