~Version
 VERS              .         2.0                           : CWLS LOG ASCII STANDARD - VERSION 2.0
 WRAP              .         NO                            : ONE LINE PER DEPTH STEP
 DLM               .         SPACE                         : DELIMITING CHARACTER(SPACE TAB OR COMMA)
~Well Information
#_______________________________________________________________________________
#
#PARAMETER_NAME    .UNIT     VALUE                         : DESCRIPTION
#_______________________________________________________________________________
STRT               .M        749.69                        : First reference value
STOP               .M        1410.72                       : Last reference value
STEP               .M        0                             : Step increment
NULL               .         -9999                         : Missing value
COMP               .                                       : Company
WELL               .         616                           : Well name
FLD                .                                       : Field
LOC                .                                       : Location
CNTY               .                                       : County
STAT               .                                       : State
CTRY               .                                       : Country
SRVC               .                                       : Service Company
DATE               .                                       : Date
API                .                                       : API number
PROJECT_UPGRADE_TIME .         2021-03-18T21_24_50           : 
group              .         Good                          : 
~Parameter Information Block
#_______________________________________________________________________________
#
#PARAMETER_NAME    .UNIT     VALUE                         : DESCRIPTION
#_______________________________________________________________________________
SET                .         D0928                         : 
NPR                .         210404                        : ЗАВ НОМЕР ПРИБОРА
NPRT               .         Каштанов                      : НАЧ ПАРТИИ
PROJECT_UPGRADE_TIME .         2021-03-18T21_24_49           : 
TLFamily_AZIMUTH   .         True Dip Azimuth              : 
TLFamily_DEPTH     .         Measured Depth                : 
TLFamily_DRILL     .                                       : 
TLFamily_METKA     .                                       : 
TLFamily_ZENIT     .                                       : 
group              .         prim                          : 
~Curve Information
#_______________________________________________________________________________
#
#LOGNAME           .UNIT     LOG_ID                        : DESCRIPTION
#_______________________________________________________________________________
DEPTH              .M                                      : 1 ГЛУБИНА 
AZIMUTH            .ГРАД                                   : 4 АЗИМУТ 
DRILL              .ГРАД                                   : 2 ПОВОРОТ 
METKA              .                                       : 5 МАГН МЕТКА 
ZENIT              .ГРАД                                   : 3 ЗЕНИТ 
~Ascii
# ...
1058.37    354.96     140.14     0          31.68     
1058.56    354.97     140.15     0          31.68     
1058.75    355.56     140.16     0          31.69     
1058.94    354.02     140.15     0          31.72     
1059.14    353.18     140.15     0          31.74     
1059.33    351.14     140.2      0          31.73     
1059.52    354.01     140.26     0          31.75     
1059.71    355.32     140.28     0          31.77     
1059.91    355.9      140.26     0          31.81     
1060.1     356.07     140.28     0          31.72     
1060.29    357.98     140.29     0          31.71     
1060.48    357.79     140.23     0          31.69     
1060.68    357.5      140.14     0          31.69     
1060.86    356.96     140.05     0          31.67     
1061.04    356.06     139.96     0          31.66     
1061.21    355.22     139.93     0          31.65     
1061.38    354.33     139.92     0          31.64     
1061.54    353.72     139.94     0          31.63     
1061.7     352.15     140        0          31.62     
1061.84    351.16     140.08     0          31.61     
1061.99    349.83     140.21     0          31.61     
1062.12    348.59     140.34     0          31.6      
1062.25    347.59     140.42     0          31.59     
1062.37    347.46     140.44     0          31.58     
1062.49    346.21     140.42     0          31.58     
1062.6     345.57     140.39     0          31.57     
1062.7     345.39     140.34     0          31.56     
1062.8     345.08     140.26     0          31.58     
1062.89    344.17     140.16     0          31.57     
1062.97    342.95     140.06     0          31.55     
1063.05    341.34     139.97     0          31.53     
1063.12    340.51     139.9      0          31.52     
1063.18    339.69     139.83     0          31.49     
1063.24    341.33     139.77     0          31.46     
1063.29    342.71     139.71     0          31.43     
1063.34    343.96     139.61     0          31.43     
1063.38    341.82     139.49     0          31.4      
1063.41    340.41     139.41     0          31.36     
1063.43    339.81     139.37     0          31.32     
1063.45    338.98     139.29     0          31.39     
1063.47    337.55     139.21     0          31.39     
1063.47    337.31     139.19     0          31.39     
1063.48    337.11     139.19     0          31.39     
1063.48    336.92     139.19     0          31.4      
1063.48    336.92     139.19     0          31.4      
1063.48    336.92     139.19     0          31.4      
1063.48    337.8      139.22     0          31.38     
1063.49    338.76     139.22     0          31.39     
1063.49    339.51     139.24     0          31.38     
1063.51    340.56     139.24     0          31.38     
1063.53    341.59     139.16     0          31.4      
1063.55    342.25     139        0          31.4      
1063.58    342.07     139        0          31.4      
1063.62    343.24     139.16     0          31.41     
1063.66    343.17     139.36     0          31.41     
1063.71    344.46     139.58     0          31.41     
1063.77    344.71     139.83     0          31.42     
1063.83    345.66     140.08     0          31.43     
1063.9     345.18     140.34     0          31.43     
1063.97    346.86     140.62     0          31.43     
1064.06    346.78     140.9      0          31.44     
1064.14    347.14     141.16     0          31.44     
1064.24    348.22     141.41     0          31.46     
1064.34    348.5      141.65     0          31.46     
1064.44    348.76     141.9      0          31.47     
1064.55    349.4      142.17     0          31.47     
1064.67    350.12     142.43     0          31.48     
1064.79    350.48     142.7      0          31.48     
1064.92    351.81     142.96     0          31.5      
1065.06    351.32     143.21     0          31.48     
1065.2     352.67     143.46     0          31.5      
1065.35    351.4      143.75     0          31.49     
1065.51    352.77     144.14     0          31.5      
1065.67    351.39     144.67     0          31.47     
1065.84    352.69     145.35     0          31.5      
1066.01    352.28     146.24     0          31.47     
1066.19    350.3      147.32     0          31.51     
1066.37    350        148.58     0          31.51     
1066.55    349.65     149.99     0          31.53     
1066.74    349.1      151.59     0          31.52     
1066.93    348.39     153.44     0          31.53     
1067.11    348.15     155.54     0          31.53     
1067.3     347.35     157.67     0          31.55     
1067.48    347.13     159.85     0          31.55     
1067.67    347.28     162.2      0          31.55     
1067.85    346.63     164.72     0          31.55     
1068.04    347.02     167.4      0          31.56     
1068.23    346.39     170.32     0          31.56     
1068.41    346.44     173.51     0          31.55     
1068.6     346.68     176.87     0          31.54     
1068.78    347.54     180.23     0          31.51     
1068.97    348.48     183.22     0          31.5      
1069.15    347.63     185.49     0          31.5      
1069.34    346.03     187.03     0          31.52     
1069.52    343.92     187.79     0          31.54     
1069.71    341.48     187.77     0          31.58     
1069.9     340.52     186.99     0          31.58     
1070.08    339.16     185.57     0          31.54     
1070.27    336.81     183.67     0          31.53     
1070.45    338.68     181.38     0          31.58     
1070.64    337.11     178.74     0          31.56     
1070.83    340.54     175.62     0          31.63     
1071.01    339.74     171.79     0          31.61     
1071.2     343.37     166.92     0          31.7      
1071.38    343.33     160.74     0          31.67     
1071.57    340.76     152.95     0          31.77     
1071.75    343.7      143.84     0          31.77     
1071.94    343.77     134.33     0          31.8      
1072.12    344.88     125.62     0          31.77     
1072.31    343.78     118.27     0          31.8      
1072.5     343.06     112.39     0          31.8      
1072.68    342.35     107.91     0          31.79     
1072.87    343.63     104.5      0          31.77     
1073.05    341.79     101.94     0          31.77     
1073.24    341.3      100.12     0          31.77     
1073.42    340.89     98.93      0          31.78     
1073.61    340.29     98.13      0          31.77     
1073.79    340.25     97.92      0          31.75     
1073.98    339.4      98.75      0          31.75     
1074.17    336.14     100.52     0          31.79     
1074.35    333.52     102.99     0          31.81     
1074.54    331.53     106.07     0          31.84     
1074.72    329.67     109.42     0          31.82     
1074.91    331.84     112.72     0          31.81     
1075.09    333.7      115.79     0          31.78     
1075.28    335.83     118.57     0          31.76     
1075.47    336.14     121.03     0          31.75     
1075.65    336.93     123.16     0          31.8      
1075.84    337.63     125.03     0          31.8      
1076.02    337.69     126.71     0          31.76     
1076.21    337.98     128.22     0          31.79     
1076.39    337.55     129.58     0          31.73     
1076.58    337.39     130.84     0          31.76     
1076.76    336.31     132.07     0          31.69     
1076.95    335.46     133.27     0          31.72     
1077.14    337.17     134.44     0          31.66     
1077.32    337.18     135.53     0          31.64     
1077.51    336.16     136.52     0          31.63     
1077.69    335.4      137.33     0          31.65     
1077.88    335.23     138.01     0          31.63     
1078.06    336.12     138.62     0          31.65     
1078.25    335.91     139.16     0          31.64     
1078.43    336.44     139.67     0          31.65     
1078.62    336.36     140.5      0          31.62     
1078.81    336.76     141.68     0          31.66     
1078.99    336.26     143.09     0          31.63     
