~Version
 VERS              .         2.0                           : CWLS LOG ASCII STANDARD - VERSION 2.0
 WRAP              .         NO                            : ONE LINE PER DEPTH STEP
 DLM               .         SPACE                         : DELIMITING CHARACTER(SPACE TAB OR COMMA)
~Well Information
#_______________________________________________________________________________
#
#PARAMETER_NAME    .UNIT     VALUE                         : DESCRIPTION
#_______________________________________________________________________________
STRT               .M        1.8                           : First reference value
STOP               .M        2776                          : Last reference value
STEP               .M        0.2                           : Step increment
NULL               .         -9999                         : Missing value
COMP               .                                       : Company
WELL               .         616                           : Well name
FLD                .                                       : Field
LOC                .                                       : Location
CNTY               .                                       : County
STAT               .                                       : State
CTRY               .                                       : Country
SRVC               .                                       : Service Company
DATE               .                                       : Date
API                .                                       : API number
PROJECT_UPGRADE_TIME .         2021-03-18T21_24_50           : 
group              .         Good                          : 
~Parameter Information Block
#_______________________________________________________________________________
#
#PARAMETER_NAME    .UNIT     VALUE                         : DESCRIPTION
#_______________________________________________________________________________
SET                .         D1799_D                       : 
OTHER              .         Программное обеспечение станции MONITOR-386EX 25/12/99 15_08_10   BGF V52 22/08/01 16_56_30   3.1_SNGF___BGF_N_092049: 
OTHER_10           .         Тарировки_                    : 
OTHER_11           .         TM.GRD = 0.00403*TM$.UE + -1.07: 
OTHER_12           .         MN.ATM = (9.34907e-006*TM.GRD + 0.02171)*(MN$.UE + -7.93*TM.GRD + -1787): 
OTHER_13           .         GK.MKR/H = LM. / 42.4676      : 
OTHER_14           .         GK.FLT = 0.1*GK.MKR/H[-1] + (1-0.1)*GK.MKR/H[0]: 
OTHER_2            .         Kedr.exe версия 3.4.2.51      : 
OTHER_3            .         KedrData.dll версия 3.4.2.24  : 
OTHER_4            .         Драйвер версия 2.1.1.3        : 
OTHER_5            .         Мнемоники версия 3.3 S        : 
OTHER_6            .         Прибор_ КСА-Т4                : 
OTHER_7            .         Номер прибора_ 03             : 
OTHER_8            .         Режим_ КСА-Т4                 : 
OTHER_9            .         Форма_ КВА.                   : 
PROJECT_UPGRADE_TIME .         2021-03-18T21_24_49           : 
TLFamily_DEPT      .         Measured Depth                : 
TLFamily_GK        .         Gamma Ray                     : 
TLFamily_GK$       .                                       : 
TLFamily_GK_2      .         Gamma Ray                     : 
TLFamily_LM        .         Casing Collar locator         : 
TLFamily_METKA     .                                       : 
TLFamily_MN        .                                       : 
TLFamily_MN$       .                                       : 
TLFamily_RCOR      .                                       : 
TLFamily_SPID      .         Spontaneous Potential         : 
TLFamily_TENS      .         Cable Tension                 : 
TLFamily_TIME      .         Time                          : 
TLFamily_TM        .         Temperature                   : 
TLFamily_TM$       .         Temperature                   : 
group              .         prim                          : 
~Curve Information
#_______________________________________________________________________________
#
#LOGNAME           .UNIT     LOG_ID                        : DESCRIPTION
#_______________________________________________________________________________
DEPT               .M                                      : 1 Глубина, м -    0.0 см 
GK                 .MKR/H                                  : 13 Гамма-активность, мкр./ч -  110.0 см 
GK$                .UE                                     : 10 Гамма-активность, усл.ед. -  110.0 см 
GK_2               .FLT                                    : 14 Гамма-активность фильтрованная, мкр./ч -  110.0 см 
LM                 .                                       : 9 Локатор муфт,  -   20.0 см 
METKA              .                                       : 3 Метки,  -    0.0 см 
MN                 .ATM                                    : 12 Давление, атм. -  160.0 см 
MN$                .UE                                     : 8 Давление, усл.ед. -  160.0 см 
RCOR               .CM/KM                                  : 5 Коррекция по ролику, см/км -    0.0 см 
SPID               .M/H                                    : 2 Скорость, м/час -    0.0 см 
TENS               .T                                      : 6 Натяжение кабеля, т -    0.0 см 
TIME               .S                                      : 4 Время, сек -    0.0 см 
TM                 .GRD                                    : 11 Температура, °C -  170.0 см 
TM$                .UE                                     : 7 Температура, усл.ед. -  170.0 см 
~Ascii
# ...
1291.4     9.44       401        9.44       986        0          115.238    7347       -1032      2015       -0.09      2686.55    44.236     11242     
1291.6     9.44       401        9.44       2845       0          115.262    7348       -1032      2011       -0.09      2686.91    44.24      11243     
1291.8     9.36       397        9.39       2774       0          115.283    7349       -1032      2009       -0.09      2687.25    44.244     11244     
1292       9.02       383        9.16       2676       0          115.289    7349       -1032      2013       -0.09      2687.6     44.247     11245     
1292.2     9.02       383        9.07       2676       0          115.304    7350       -1032      2016       -0.09      2687.95    44.248     11245     
1292.4     9.02       383        9.04       2083       0          115.341    7351       -1032      2017       -0.09      2688.3     44.252     11246     
1292.6     9.02       383        9.03       1613       0          115.354    7352       -1032      2013       -0.09      2688.68    44.256     11247     
1292.8     9.02       383        9.02       1361       0          115.366    7353       -1032      2012       -0.09      2689.05    44.259     11248     
1293       9.02       383        9.02       1268       0          115.389    7354       -1032      2014       -0.09      2689.4     44.26      11248     
1293.2     9.02       383        9.02       1090       0          115.409    7355       -1032      2011       -0.09      2689.74    44.264     11249     
1293.4     9.77       415        9.49       1106       0          115.419    7355       -1032      2008       -0.09      2690.11    44.272     11251     
1293.6     9.94       422        9.78       1203       0          115.428    7355       -1032      2006       -0.09      2690.47    44.275     11252     
1293.8     9.94       422        9.88       1203       0          115.448    7356       -1032      2010       -0.09      2690.82    44.279     11253     
1294       9.94       422        9.91       1181       0          115.468    7357       -1032      2014       -0.09      2691.16    44.283     11254     
1294.2     9.94       422        9.93       1306       0          115.483    7358       -1032      2017       -0.09      2691.53    44.287     11255     
1294.4     9.94       422        9.93       1374       0          115.49     7358       -1032      2008       -0.09      2691.87    44.291     11256     
1294.6     9.94       422        9.94       1241       0          115.51     7359       -1032      1999       -0.09      2692.23    44.295     11257     
1294.8     10.31      438        10.17      1129       0          115.53     7360       -1032      2004       -0.09      2692.61    44.299     11258     
1295       10.53      447        10.39      982        0          115.547    7361       -1032      2008       -0.09      2692.96    44.303     11259     
1295.2     10.53      447        10.47      925        0          115.551    7361       -1032      2012       -0.09      2693.31    44.307     11260     
1295.4     10.53      447        10.51      1066       0          115.571    7362       -1032      2016       -0.09      2693.66    44.31      11261     
1295.6     10.53      447        10.52      1063       0          115.591    7363       -1032      2014       -0.09      2694.03    44.314     11262     
1295.8     10.53      447        10.52      893        0          115.613    7364       -1032      2010       -0.09      2694.37    44.318     11263     
1296       10.53      447        10.52      904        0          115.632    7365       -1032      2008       -0.09      2694.72    44.322     11264     
1296.2     10.4       442        10.44      990        0          115.654    7366       -1032      2010       -0.09      2695.09    44.326     11264     
1296.4     10.17      432        10.28      1141       0          115.655    7366       -1032      2014       -0.09      2695.45    44.328     11265     
1296.6     10.17      432        10.21      1141       0          115.675    7367       -1032      2009       -0.09      2695.8     44.33      11265     
1296.8     10.17      432        10.19      963        0          115.694    7368       -1032      2008       -0.09      2696.16    44.333     11266     
1297       10.17      432        10.18      1172       0          115.715    7369       -1032      2012       -0.09      2696.52    44.338     11268     
1297.2     10.17      432        10.17      972        0          115.737    7370       -1032      2016       -0.09      2696.87    44.345     11269     
1297.4     9.99       424        10.06      972        0          115.741    7370       -1032      2016       -0.09      2697.23    44.349     11270     
1297.6     9.23       392        9.55       1036       0          115.755    7371       -1032      2012       -0.09      2697.59    44.352     11271     
1297.8     9.23       392        9.35       1059       0          115.777    7372       -1032      2012       -0.09      2697.93    44.353     11271     
1298       9.23       392        9.28       1214       0          115.798    7373       -1032      2013       -0.09      2698.28    44.361     11273     
1298.2     9.23       392        9.25       1066       0          115.805    7373       -1032      2010       -0.09      2698.65    44.365     11274     
1298.4     9.23       392        9.24       1055       0          115.817    7374       -1032      2007       -0.09      2699.01    44.368     11275     
1298.6     9.23       392        9.23       1102       0          115.838    7375       -1032      2006       -0.09      2699.35    44.372     11276     
1298.8     9.23       392        9.23       1069       0          115.858    7375       -1032      2010       -0.09      2699.71    44.376     11277     
1299       9.15       389        9.18       1265       0          115.879    7376       -1032      2013       -0.09      2700.09    44.38      11278     
1299.2     9.14       388        9.15       1215       0          115.891    7377       -1032      2010       -0.09      2700.46    44.388     11280     
1299.4     9.14       388        9.14       1170       0          115.899    7377       -1032      2007       -0.09      2700.8     44.388     11280     
1299.6     9.14       388        9.14       1039       0          115.925    7379       -1032      2005       -0.09      2701.14    44.392     11281     
1299.8     9.14       388        9.14       1607       0          115.956    7380       -1032      2009       -0.09      2701.5     44.396     11282     
1300       9.14       388        9.14       5431       0          115.961    7380       -1032      2013       -0.09      2701.85    44.4       11283     
1300.2     9.14       388        9.14       6466       2          115.981    7381       -1036      2017       -0.09      2702.3     44.403     11284     
1300.4     9.02       383        9.06       4480       0          116.002    7382       -1036      2020       -0.09      2702.64    44.41      11285     
1300.6     8.95       380        8.99       3297       0          116.023    7383       -1036      2016       -0.09      2703       44.415     11287     
1300.8     8.95       380        8.97       2501       0          116.042    7384       -1036      2013       -0.09      2703.36    44.417     11287     
1301       8.95       380        8.95       2216       0          116.043    7384       -1036      2016       -0.09      2703.7     44.422     11288     
1301.2     8.95       380        8.95       3406       0          116.064    7385       -1036      2008       -0.09      2704.07    44.425     11289     
1301.4     8.95       380        8.95       3116       0          116.084    7386       -1036      1999       -0.09      2704.45    44.429     11290     
1301.6     8.95       380        8.95       2202       0          116.104    7387       -1036      2002       -0.09      2704.79    44.435     11291     
