~Version
 VERS              .         2.0                           : CWLS LOG ASCII STANDARD - VERSION 2.0
 WRAP              .         NO                            : ONE LINE PER DEPTH STEP
 DLM               .         SPACE                         : DELIMITING CHARACTER(SPACE TAB OR COMMA)
~Well Information
#_______________________________________________________________________________
#
#PARAMETER_NAME    .UNIT     VALUE                         : DESCRIPTION
#_______________________________________________________________________________
STRT               .M        2648.8                        : First reference value
STOP               .M        2753.600052                   : Last reference value
STEP               .M        0.2000001                     : Step increment
NULL               .         -9999                         : Missing value
COMP               .                                       : Company
WELL               .         616                           : Well name
FLD                .                                       : Field
LOC                .                                       : Location
CNTY               .                                       : County
STAT               .                                       : State
CTRY               .                                       : Country
SRVC               .                                       : Service Company
DATE               .                                       : Date
API                .                                       : API number
PROJECT_UPGRADE_TIME .         2021-03-18T21_24_50           : 
group              .         Good                          : 
~Parameter Information Block
#_______________________________________________________________________________
#
#PARAMETER_NAME    .UNIT     VALUE                         : DESCRIPTION
#_______________________________________________________________________________
SET                .         D7027_D                       : 
OTHER              .         Kedr.exe версия 2.1.2.32      : 
OTHER_10           .         TM.GRD = 0.00404*TM$.UE + 0.07: 
OTHER_11           .         MN.ATM = (6.33279e-006*TM.GRD + 0.02401)*(MN$.UE + 2.72*TM.GRD + -2018): 
OTHER_12           .         GK.MKR/H = GK$.UE / 43.5489 + 0: 
OTHER_13           .         RES.SM = 0.00476*CRES.UE - 1.51709: 
OTHER_14           .         PL.GSM3 = 0 + 0 * (PL.UE / 1) +  0 * (PL.UE / 1)^2: 
OTHER_15           .         Постоянная времени ГГП = 6 сек: 
OTHER_16           .         Постоянная времени ГК = 6 сек : 
OTHER_2            .         KedrData.dll версия 3.2.2.14  : 
OTHER_3            .         LasInf.dll версия 3.2.0.13    : 
OTHER_4            .         Драйвер версия 1.2.0.5        : 
OTHER_5            .         Прибор_ КСА-M1                : 
OTHER_6            .         Номер прибора_ 155+р204       : 
OTHER_7            .         Режим_ КСА-М1 + ГГП + Резистивиметр: 
OTHER_8            .         Форма_ 223\2                  : 
OTHER_9            .         Тарировки_                    : 
PROJECT_UPGRADE_TIME .         2021-03-18T21_24_50           : 
TLFamily_CRES      .                                       : 
TLFamily_DEPT      .         Measured Depth                : 
TLFamily_GK        .         Gamma Ray                     : 
TLFamily_GK$       .                                       : 
TLFamily_LM        .         Casing Collar locator         : 
TLFamily_METKA     .                                       : 
TLFamily_MN        .                                       : 
TLFamily_MN$       .                                       : 
TLFamily_PL        .                                       : 
TLFamily_PL_2      .                                       : 
TLFamily_RCOR      .                                       : 
TLFamily_RES       .         Mud Resistivity               : 
TLFamily_SPID      .         Spontaneous Potential         : 
TLFamily_STD       .                                       : 
TLFamily_TIME      .         Time                          : 
TLFamily_TM        .         Temperature                   : 
TLFamily_TM$       .         Temperature                   : 
TLFamily_VGD       .         Gas Volume                    : 
group              .         prim                          : 
~Curve Information
#_______________________________________________________________________________
#
#LOGNAME           .UNIT     LOG_ID                        : DESCRIPTION
#_______________________________________________________________________________
DEPT               .M                                      : 1 Глубина, м -    0.0 см 
CRES               .UE                                     : 9 Проводимость, усл.ед. -  222.0 см 
GK                 .MKR/H                                  : 16 Гамма-активность, мкр./ч -  106.0 см 
GK$                .UE                                     : 13 Гамма-активность, усл.ед. -  106.0 см 
LM                 .                                       : 11 Локатор муфт,  -   16.0 см 
METKA              .                                       : 3 Метки,  -    0.0 см 
MN                 .ATM                                    : 15 Давление, атм. -  160.0 см 
MN$                .UE                                     : 7 Давление, усл.ед. -  160.0 см 
PL                 .UE                                     : 10 Плотность, усл.ед. -  270.0 см 
PL_2               .GSM3                                   : 18 Плотность, г./см3 -  270.0 см 
RCOR               .CM/KM                                  : 5 Коррекция по ролику, см/км -    0.0 см 
RES                .SM                                     : 17 Проводимость,  -  222.0 см 
SPID               .M/H                                    : 2 Скорость, м/час -    0.0 см 
STD                .                                       : 12 Приток,  -  170.0 см 
TIME               .S                                      : 4 Время, сек -    0.0 см 
TM                 .GRD                                    : 14 Температура, °C -  180.0 см 
TM$                .UE                                     : 6 Температура, усл.ед. -  180.0 см 
VGD                .                                       : 8 Влагомер,  -  170.0 см 
~Ascii
# ...
2706.200029 1207       13.31      620        41         0          248.894    12102      14         0          0          4.2282     533        10210      18372.78   52.118     12883      6629      
2706.400029 1206       13.07      492        32         0          248.916    12103      14         0          0          4.2251     533        10206      18374.1    52.105     12880      6631      
2706.600029 1207       12.21      492        24         0          248.93     12104      14         0          0          4.2259     580        10200      18375.35   52.09      12876      6631      
2706.800029 1203       11.51      434        43         0          248.958    12105      14         0          0          4.2107     580        10193      18376.68   52.06      12869      6634      
2707.000029 1206       10.6       420        43         0          248.955    12105      14         0          0          4.2235     545        10183      18378      52.037     12863      6634      
2707.200029 1205       10.13      421        57         0          248.989    12107      14         0          0          4.2194     580        10177      18379.25   52.012     12857      6632      
2707.400029 1207       9.9        421        62         0          249        12107      14         0          0          4.2266     580        10171      18380.58   51.998     12853      6633      
2707.600029 1205       9.75       416        60         0          249.022    12108      14         0          0          4.2187     568        10167      18381.83   51.988     12851      6634      
2707.80003 1205       9.65       416        42         0          249.043    12109      14         0          0          4.2187     580        10163      18383.14   51.968     12846      6635      
2708.00003 1205       9.75       441        64         0          249.066    12110      14         0          0          4.2187     580        10158      18384.48   51.945     12840      6633      
2708.20003 1203       9.94       441        50         0          249.088    12111      14         0          0          4.2092     520        10156      18385.79   51.933     12837      6632      
2708.40003 1203       10.13      454        56         0          249.11     12112      14         0          0          4.2092     510        10151      18387.04   51.916     12833      6629      
2708.60003 1202       10.27      454        99         0          249.132    12113      14         0          0          4.2028     580        10148      18388.34   51.898     12829      6626      
2708.80003 1203       9.94       410        111        0          249.156    12114      14         0          0          4.2068     580        10146      18389.63   51.881     12824      6622      
2709.00003 1203       9.68       410        74         1          249.178    12115      14         0          0          4.2084     580        10142      18390.94   51.879     12824      6624      
2709.20003 1201       9.72       431        84         0          249.201    12116      14         0          0          4.2005     510        10139      18392.26   51.859     12819      6624      
2709.40003 1202       9.81       431        89         0          249.2      12116      14         0          0          4.2044     580        10135      18393.53   51.85      12817      6626      
2709.60003 1201       9.9        436        83         0          249.222    12117      14         0          0          4.1997     580        10133      18394.84   51.841     12814      6627      
2709.800031 1199       9.95       436        94         0          249.248    12118      14         0          0          4.1909     580        10131      18396.09   51.824     12810      6627      
2710.000031 1200       9.97       435        97         0          249.274    12119      14         0          0          4.1941     545        10128      18397.43   51.806     12806      6629      
2710.200031 1198       9.98       436        81         1          249.288    12120      14         0          0          4.1878     580        10125      18399.34   51.789     12802      6628      
2710.400031 1199       10.01      437        66         0          249.311    12121      14         0          0          4.1886     557        10122      18400.66   51.771     12797      6628      
2710.600031 1198       10.02      437        54         0          249.332    12122      14         0          0          4.1854     510        10121      18401.97   51.758     12794      6626      
2710.800031 1197       9.82       418        67         0          249.354    12123      14         0          0          4.1797     568        10118      18403.24   51.733     12788      6631      
2711.000031 1196       9.74       426        65         0          249.392    12125      14         0          0          4.1759     580        10115      18404.49   51.713     12783      6632      
2711.200031 1196       9.88       434        50         0          249.398    12125      14         0          0          4.1759     510        10113      18405.8    51.694     12778      6631      
2711.400031 1197       9.86       427        52         0          249.421    12126      14         0          0          4.1798     580        10111      18407.14   51.681     12775      6630      
2711.600031 1196       9.83       427        44         1          249.431    12127      14         0          0          4.1759     580        10108      18408.44   51.668     12772      6632      
2711.800032 1196       9.85       431        44         0          249.464    12128      14         0          0          4.1759     510        10104      18409.7    51.655     12768      6630      
2712.000032 1196       9.87       431        51         0          249.486    12129      14         0          0          4.1743     580        10102      18411.08   51.627     12762      6632      
2712.200032 1196       10.1       453        43         0          249.508    12130      14         0          0          4.1759     580        10100      18412.35   51.61      12757      6633      
2712.400032 1193       10.25      453        59         0          249.531    12131      14         0          0          4.1616     580        10098      18413.67   51.592     12753      6633      
2712.600032 1195       10.65      481        213        1          249.554    12132      14         0          0          4.1727     580        10096      18414.92   51.579     12750      6633      
2712.800032 1193       10.84      481        263        0          249.577    12133      14         0          0          4.1632     510        10096      18416.25   51.571     12748      6632      
2713.000032 1195       11.28      516        155        0          249.6      12134      14         0          0          4.1695     580        10093      18417.5    51.56      12745      6630      
2713.200032 1192       11.51      501        184        0          249.623    12135      14         0          0          4.1568     580        10091      18418.82   51.552     12743      6631      
2713.400032 1189       11.07      462        74         0          249.622    12135      14         0          0          4.1441     560        10088      18420.1    51.542     12741      6632      
2713.600032 1194       10.55      392        112        0          249.669    12137      14         0          0          4.1664     510        10087      18421.47   51.531     12738      6630      
2713.800033 1191       9.36       357        338        0          249.671    12137      14         0          0          4.1521     510        10086      18422.75   51.523     12736      6630      
2714.000033 1193       8.54       310        451        0          249.701    12139      14         0          0          4.1632     533        10081      18424.05   51.507     12732      6629      
2714.200033 1195       7.85       310        450        0          249.71     12139      14         0          0          4.1711     580        10078      18425.31   51.483     12726      6632      
