~Version
 VERS              .         2.0                           : CWLS LOG ASCII STANDARD - VERSION 2.0
 WRAP              .         NO                            : ONE LINE PER DEPTH STEP
 DLM               .         SPACE                         : DELIMITING CHARACTER(SPACE TAB OR COMMA)
~Well Information
#_______________________________________________________________________________
#
#PARAMETER_NAME    .UNIT     VALUE                         : DESCRIPTION
#_______________________________________________________________________________
STRT               .M        1.8                           : First reference value
STOP               .M        2776                          : Last reference value
STEP               .M        0.2                           : Step increment
NULL               .         -9999                         : Missing value
COMP               .                                       : Company
WELL               .         616                           : Well name
FLD                .                                       : Field
LOC                .                                       : Location
CNTY               .                                       : County
STAT               .                                       : State
CTRY               .                                       : Country
SRVC               .                                       : Service Company
DATE               .                                       : Date
API                .                                       : API number
PROJECT_UPGRADE_TIME .         2021-03-18T21_24_50           : 
group              .         Good                          : 
~Parameter Information Block
#_______________________________________________________________________________
#
#PARAMETER_NAME    .UNIT     VALUE                         : DESCRIPTION
#_______________________________________________________________________________
SET                .         D1799_D                       : 
OTHER              .         Программное обеспечение станции MONITOR-386EX 25/12/99 15_08_10   BGF V52 22/08/01 16_56_30   3.1_SNGF___BGF_N_092049: 
OTHER_10           .         Тарировки_                    : 
OTHER_11           .         TM.GRD = 0.00403*TM$.UE + -1.07: 
OTHER_12           .         MN.ATM = (9.34907e-006*TM.GRD + 0.02171)*(MN$.UE + -7.93*TM.GRD + -1787): 
OTHER_13           .         GK.MKR/H = LM. / 42.4676      : 
OTHER_14           .         GK.FLT = 0.1*GK.MKR/H[-1] + (1-0.1)*GK.MKR/H[0]: 
OTHER_2            .         Kedr.exe версия 3.4.2.51      : 
OTHER_3            .         KedrData.dll версия 3.4.2.24  : 
OTHER_4            .         Драйвер версия 2.1.1.3        : 
OTHER_5            .         Мнемоники версия 3.3 S        : 
OTHER_6            .         Прибор_ КСА-Т4                : 
OTHER_7            .         Номер прибора_ 03             : 
OTHER_8            .         Режим_ КСА-Т4                 : 
OTHER_9            .         Форма_ КВА.                   : 
PROJECT_UPGRADE_TIME .         2021-03-18T21_24_49           : 
TLFamily_DEPT      .         Measured Depth                : 
TLFamily_GK        .         Gamma Ray                     : 
TLFamily_GK$       .                                       : 
TLFamily_GK_2      .         Gamma Ray                     : 
TLFamily_LM        .         Casing Collar locator         : 
TLFamily_METKA     .                                       : 
TLFamily_MN        .                                       : 
TLFamily_MN$       .                                       : 
TLFamily_RCOR      .                                       : 
TLFamily_SPID      .         Spontaneous Potential         : 
TLFamily_TENS      .         Cable Tension                 : 
TLFamily_TIME      .         Time                          : 
TLFamily_TM        .         Temperature                   : 
TLFamily_TM$       .         Temperature                   : 
group              .         prim                          : 
~Curve Information
#_______________________________________________________________________________
#
#LOGNAME           .UNIT     LOG_ID                        : DESCRIPTION
#_______________________________________________________________________________
DEPT               .M                                      : 1 Глубина, м -    0.0 см 
GK                 .MKR/H                                  : 13 Гамма-активность, мкр./ч -  110.0 см 
GK$                .UE                                     : 10 Гамма-активность, усл.ед. -  110.0 см 
GK_2               .FLT                                    : 14 Гамма-активность фильтрованная, мкр./ч -  110.0 см 
LM                 .                                       : 9 Локатор муфт,  -   20.0 см 
METKA              .                                       : 3 Метки,  -    0.0 см 
MN                 .ATM                                    : 12 Давление, атм. -  160.0 см 
MN$                .UE                                     : 8 Давление, усл.ед. -  160.0 см 
RCOR               .CM/KM                                  : 5 Коррекция по ролику, см/км -    0.0 см 
SPID               .M/H                                    : 2 Скорость, м/час -    0.0 см 
TENS               .T                                      : 6 Натяжение кабеля, т -    0.0 см 
TIME               .S                                      : 4 Время, сек -    0.0 см 
TM                 .GRD                                    : 11 Температура, °C -  170.0 см 
TM$                .UE                                     : 7 Температура, усл.ед. -  170.0 см 
~Ascii
# ...
365.8      3.63       154        3.63       631        0          34.468     3549       -699       1959       -0.1       1064.57    24.049     6233      
366        3.63       154        3.63       618        0          34.49      3550       -699       1973       -0.1       1064.89    24.052     6234      
366.2      3.63       154        3.63       1534       0          34.511     3551       -699       1986       -0.1       1065.25    24.058     6235      
366.4      3.53       150        3.56       1916       0          34.529     3552       -699       1998       -0.1       1065.58    24.064     6237      
366.6      3.49       148        3.51       1399       0          34.533     3552       -699       2003       -0.1       1065.94    24.068     6238      
366.8      3.49       148        3.5        1079       0          34.553     3553       -699       2007       -0.1       1066.28    24.075     6239      
367        3.49       148        3.49       1055       0          34.574     3554       -699       2011       -0.1       1066.62    24.083     6241      
367.2      3.49       148        3.49       848        0          34.596     3555       -699       2020       -0.1       1066.96    24.088     6243      
367.4      3.49       148        3.49       730        0          34.616     3556       -699       2029       -0.1       1067.31    24.092     6244      
367.6      3.49       148        3.49       642        0          34.634     3557       -699       2037       -0.1       1067.65    24.096     6245      
367.8      3.59       152        3.55       609        0          34.634     3557       -699       2043       -0.1       1067.98    24.102     6246      
368        3.72       158        3.66       597        0          34.653     3558       -699       2050       -0.1       1068.32    24.11      6248      
368.2      3.72       158        3.7        559        0          34.673     3559       -699       2052       -0.1       1068.68    24.117     6250      
368.4      3.72       158        3.71       564        0          34.694     3560       -699       2056       -0.1       1069.04    24.123     6251      
368.6      3.72       158        3.72       557        0          34.714     3561       -699       2061       -0.1       1069.38    24.127     6252      
368.8      3.72       158        3.72       531        0          34.735     3562       -699       2062       -0.1       1069.71    24.131     6253      
369        3.72       158        3.72       565        0          34.754     3563       -699       2068       -0.1       1070.05    24.136     6255      
369.2      3.73       158        3.72       553        0          34.775     3564       -699       2078       -0.1       1070.4     24.143     6256      
369.4      3.77       160        3.75       543        0          34.794     3565       -699       2083       -0.1       1070.73    24.148     6257      
369.6      3.77       160        3.76       543        0          34.814     3566       -699       2080       -0.1       1071.07    24.154     6259      
369.8      3.77       160        3.77       598        0          34.836     3567       -699       2077       -0.1       1071.42    24.158     6260      
370        3.77       160        3.77       610        2          34.842     3567       -701       2074       -0.1       1071.8     24.163     6261      
370.2      3.77       160        3.77       708        0          34.869     3568       -705       2071       -0.1       1072.2     24.166     6262      
370.4      3.77       160        3.77       776        0          34.897     3570       -705       2072       -0.1       1072.55    24.17      6263      
370.6      3.77       160        3.77       776        0          34.906     3570       -705       2076       -0.1       1072.9     24.174     6264      
370.8      3.99       169        3.91       798        0          34.915     3570       -705       2079       -0.1       1073.24    24.182     6266      
371        4.03       171        3.98       798        0          34.944     3572       -705       2080       -0.1       1073.6     24.186     6267      
371.2      4.03       171        4.01       837        0          34.969     3573       -705       2079       -0.1       1073.93    24.193     6269      
371.4      4.03       171        4.02       6968       0          34.975     3573       -705       2082       -0.1       1074.25    24.201     6271      
371.6      4.03       171        4.02       4598       0          35.006     3575       -705       2083       -0.1       1074.63    24.205     6272      
371.8      4.03       171        4.03       3355       0          35.032     3576       -705       2082       -0.1       1074.95    24.214     6274      
372        4.03       171        4.03       2462       0          35.041     3576       -705       2091       -0.1       1075.27    24.218     6275      
372.2      4.09       174        4.07       1782       0          35.062     3577       -705       2099       -0.1       1075.61    24.226     6277      
372.4      4.1        174        4.08       1422       0          35.083     3578       -705       2088       -0.1       1075.98    24.23      6278      
372.6      4.1        174        4.09       1587       0          35.103     3579       -705       2077       -0.1       1076.33    24.238     6280      
372.8      4.1        174        4.1        1581       0          35.122     3580       -705       2086       -0.1       1076.65    24.242     6281      
373        4.1        174        4.1        1493       0          35.14      3581       -705       2084       -0.1       1077.02    24.248     6283      
373.2      4.1        174        4.1        1351       0          35.156     3582       -705       2081       -0.1       1077.36    24.257     6285      
373.4      4.1        174        4.1        1356       0          35.16      3582       -705       2082       -0.1       1077.69    24.261     6286      
373.6      4.14       176        4.13       1726       0          35.179     3583       -705       2085       -0.1       1078.05    24.267     6287      
373.8      4.19       178        4.17       1410       0          35.219     3585       -705       2087       -0.1       1078.38    24.275     6289      
374        4.19       178        4.18       1002       0          35.219     3585       -705       2086       -0.1       1078.72    24.281     6291      
374.2      4.19       178        4.19       796        0          35.217     3585       -705       2086       -0.1       1079.05    24.287     6292      
374.4      4.19       178        4.19       843        0          35.255     3587       -705       2088       -0.1       1079.39    24.292     6293      
374.6      4.19       178        4.19       843        0          35.26      3587       -705       2088       -0.1       1079.75    24.296     6294      
374.8      4.19       178        4.19       716        0          35.294     3589       -705       2088       -0.1       1080.09    24.299     6295      
375        4.22       179        4.21       633        0          35.319     3590       -705       2097       -0.1       1080.43    24.3       6295      
375.2      4.78       203        4.56       604        0          35.34      3591       -705       2100       -0.1       1080.78    24.304     6296      
375.4      4.78       203        4.69       634        0          35.346     3591       -705       2092       -0.1       1081.12    24.308     6297      
375.6      4.78       203        4.75       606        0          35.368     3592       -705       2101       -0.1       1081.47    24.315     6299      
375.8      4.78       203        4.77       617        0          35.398     3593       -705       2108       -0.1       1081.81    24.319     6300      
376        4.78       203        4.77       650        0          35.409     3594       -705       2102       -0.1       1082.16    24.323     6301      
