~Version
 VERS              .         2.0                           : CWLS LOG ASCII STANDARD - VERSION 2.0
 WRAP              .         NO                            : ONE LINE PER DEPTH STEP
 DLM               .         SPACE                         : DELIMITING CHARACTER(SPACE TAB OR COMMA)
~Well Information
#_______________________________________________________________________________
#
#PARAMETER_NAME    .UNIT     VALUE                         : DESCRIPTION
#_______________________________________________________________________________
STRT               .M        2658.35                       : First reference value
STOP               .M        2764.149788                   : Last reference value
STEP               .M        0.1999996                     : Step increment
NULL               .         -9999                         : Missing value
COMP               .                                       : Company
WELL               .         616                           : Well name
FLD                .                                       : Field
LOC                .                                       : Location
CNTY               .                                       : County
STAT               .                                       : State
CTRY               .                                       : Country
SRVC               .                                       : Service Company
DATE               .                                       : Date
API                .                                       : API number
PROJECT_UPGRADE_TIME .         2021-03-18T21_24_50           : 
group              .         Good                          : 
~Parameter Information Block
#_______________________________________________________________________________
#
#PARAMETER_NAME    .UNIT     VALUE                         : DESCRIPTION
#_______________________________________________________________________________
SET                .         D7019_D_2                     : 
NPR                .         155                           : Номер прибора
OTHER              .         Kedr.exe версия 2.1.2.32      : 
OTHER_10           .         TM.GRD = 0.00404*TM$.UE + 0.07: 
OTHER_11           .         MN.ATM = (6.33279e-006*TM.GRD + 0.02401)*(MN$.UE + 2.72*TM.GRD + -2018): 
OTHER_12           .         GK.MKR/H = GK$.UE / 43.5489 + 0: 
OTHER_13           .         RES.SM = 0.00476*CRES.UE - 1.51709: 
OTHER_14           .         PL.GSM3 = 0 + 0 * (PL.UE / 1) +  0 * (PL.UE / 1)^2: 
OTHER_15           .         Постоянная времени ГГП = 6 сек: 
OTHER_16           .         Постоянная времени ГК = 6 сек : 
OTHER_2            .         KedrData.dll версия 3.2.2.14  : 
OTHER_3            .         LasInf.dll версия 3.2.0.13    : 
OTHER_4            .         Драйвер версия 1.2.0.5        : 
OTHER_5            .         Прибор_ КСА-M1                : 
OTHER_6            .         Номер прибора_ 155+р204       : 
OTHER_7            .         Режим_ КСА-М1 + ГГП + Резистивиметр: 
OTHER_8            .         Форма_ 223\2                  : 
OTHER_9            .         Тарировки_                    : 
PR                 .         КСА-Т7 М1                     : Тип прибора
PROJECT_UPGRADE_TIME .         2021-03-18T21_24_50           : 
PRTY               .         ПП-223_2                      : Номер партии
SRV                .         ЦКРС                          : Заказчик
SRVC               .         Лузин  А.Б.                   : Начальник партии
TLFamily_DEPT      .         Measured Depth                : 
TLFamily_LM        .         Casing Collar locator         : 
TLFamily_MN        .                                       : 
TLFamily_SPID      .         Spontaneous Potential         : 
TLFamily_TM        .         Temperature                   : 
group              .         second                        : 
~Curve Information
#_______________________________________________________________________________
#
#LOGNAME           .UNIT     LOG_ID                        : DESCRIPTION
#_______________________________________________________________________________
DEPT               .M                                      : Depth curve 
LM                 .е.ацп                                  : Локация муфт 
MN                 .атм                                    : Манометрия, атм 
SPID               .м/ч                                    : Скорость записи,м/час 
TM                 .град.С                                 : Термометрия,град.С 
~Ascii
# ...
2715.949885 42.999     248.74     580        46.11     
2716.149884 41.002     248.76     580        46.1      
2716.349884 44.996     248.79     580        46.1      
2716.549884 37.005     248.81     580        46.1      
2716.749883 48.002     248.82     580        46.09     
2716.949883 52.001     248.84     580        46.09     
2717.149882 53.999     248.86     579.995    46.08     
2717.349882 51.004     248.88     570.005    46.08     
2717.549882 59         248.91     580        46.08     
2717.749881 58.006     248.93     579.966    46.08     
2717.949881 71.008     248.96     510.034    46.07     
2718.14988 86.998     248.97     579.966    46.07     
2718.34988 82.998     248.95     510.034    46.07     
2718.54988 79.003     249        580        46.06     
2718.749879 85.991     249.03     580        46.06     
2718.949879 66.999     249.09     580        46.06     
2719.149878 63.993     249.08     580        46.06     
2719.349878 50.005     249.09     579.966    46.06     
2719.549878 61         249.1      510.006    46.06     
2719.749877 60.015     249.12     522.011    46.06     
2719.949877 91.01      249.12     545.017    46.05     
2720.149876 110.998    249.17     579.965    46.05     
2720.349876 105.992    249.22     510.035    46.05     
2720.549876 89.016     249.22     579.989    46.04     
2720.749875 121.996    249.23     556.977    46.04     
2720.949875 112.979    249.24     510.023    46.04     
2721.149874 70.002     249.27     556.012    46.04     
2721.349874 75.018     249.31     579.971    46.03     
2721.549874 112.001    249.33     522.023    46.03     
2721.749873 115.026    249.36     568.006    46.03     
2721.949873 167.009    249.36     579.993    46.03     
2722.149872 186.074    249.39     565.972    46.02     
2722.349872 336.926    249.39     510.035    46.03     
2722.549872 186.999    249.44     579.985    46.03     
2722.749871 183.955    249.46     550.015    46.03     
2722.949871 92         249.46     580        46.03     
2723.14987 93.118     249.48     579.983    46.03     
2723.34987 334.293    249.49     544.989    46.02     
2723.54987 2955.519   249.53     521.994    46.02     
2723.749869 1981.385   249.55     510.035    46.02     
2723.949869 2761.006   249.58     579.983    46.02     
2724.149868 2773.159   249.59     545.017    46.02     
2724.349868 1067.601   249.63     580        46.02     
2724.549868 259.012    249.63     579.977    46.02     
2724.749867 282.956    249.65     533        46.02     
2724.949867 193.005    249.69     533.023    46.02     
2725.149866 203.942    249.7      579.994    46.02     
2725.349866 86.988     249.7      568.006    46.02     
2725.549866 63         249.75     579.965    46.02     
2725.749865 64.016     249.77     510.035    46.02     
2725.949865 95.983     249.8      579.977    46.02     
2726.149864 61.997     249.8      533.988    46.02     
2726.349864 56         249.83     510.035    46.02     
2726.549864 56.009     249.85     580        46.02     
2726.749863 75.021     249.87     579.965    46.02     
2726.949863 118.591    249.87     510.035    46.02     
2727.149862 3340.814   249.9      580        46.02     
2727.349862 938.662    249.92     579.977    46.03     
2727.549862 252.92     249.92     532.989    46.02     
2727.749861 90.984     249.96     510        46.03     
2727.949861 57.995     249.95     510.035    46.03     
2728.14986 48.038     250        580        46.03     
2728.34986 125.053    250.02     580        46.03     
2728.54986 233.4      250.04     579.965    46.03     
2728.749859 1042.823   250.05     510.035    46.03     
2728.949859 683.877    250.09     580        46.04     
2729.149858 434.991    250.1      580        46.04     
2729.349858 416.17     250.13     580        46.04     
2729.549858 760.089    250.14     580        46.05     
2729.749857 942.202    250.17     580        46.06     
2729.949857 3375.386   250.2      579.979    46.07     
2730.149856 2131.415   250.22     536.987    46.08     
2730.349856 945.654    250.22     510.023    46.09     
2730.549856 245.934    250.25     557.011    46.1      
2730.749855 113        250.26     580        46.1      
2730.949855 111.994    250.29     579.975    46.09     
2731.149854 99.994     250.3      530.007    46.08     
2731.349854 87.998     250.36     545.017    46.06     
2731.549854 83         250.34     580        46.04     
2731.749853 84.004     250.37     579.979    46.02     
2731.949853 92.999     250.4      537.993    46        
2732.149852 91.018     250.43     524.028    45.98     
2732.349852 127        250.46     580        45.97     
2732.549852 126.005    250.43     580        45.97     
2732.749851 136.974    250.45     579.994    45.98     
2732.949851 84.989     250.46     568        45.98     
2733.14985 62.005     250.54     568.006    45.98     
2733.34985 72.069     250.55     579.994    45.98     
2733.54985 211.011    250.56     568.006    45.98     
2733.749849 232.932    250.55     579.98     45.98     
2733.949849 95.081     250.6      539.995    45.99     
2734.149848 257.949    250.62     529.995    45.99     
2734.349848 153.975    250.65     520.018    46        
2734.549848 103.981    250.67     557.011    46.01     
2734.749847 66.008     250.68     580        46.02     
2734.949847 84.149     250.7      579.99     46.03     
2735.149846 4433.518   250.72     559.993    46.04     
2735.349846 5480.745   250.76     545.017    46.05     
2735.549846 2941.126   250.77     580        46.07     
2735.749845 1171.576   250.8      580        46.08     
2735.949845 312.91     250.81     579.989    46.1      
2736.149844 129.965    250.83     556.977    46.11     
2736.349844 59.997     250.86     510.035    46.12     
2736.549844 52.999     250.88     579.983    46.14     
2736.749843 51.004     250.89     545.017    46.16     
2736.949843 59.998     250.9      580        46.18     
2737.149842 56         250.94     579.977    46.2      
2737.349842 55.004     250.98     533        46.23     
2737.549842 62.991     251.01     533.023    46.28     
2737.749841 44.009     251.04     579.977    46.32     
2737.949841 62.005     251.04     533.003    46.39     
2738.14984 73         251.08     540.02     46.43     
2738.34984 72.999     251.11     579.99     46.49     
2738.54984 69.998     251.14     560.01     46.54     
2738.749839 65.001     251.15     579.965    46.62     
2738.949839 66.994     251.19     510.035    46.68     
2739.149838 55.012     251.21     580        46.74     
2739.349838 79.004     251.25     580        46.8      
2739.549838 87.981     251.28     579.977    46.86     
2739.749837 49.024     251.31     533.023    46.93     
2739.949837 97.989     251.33     580        47.02     
2740.149836 75         251.38     580        47.1      
2740.349836 76.001     251.34     579.989    47.16     
2740.549836 77.996     251.42     556.977    47.22     
2740.749835 70.004     251.45     510.029    47.26     
2740.949835 78         251.46     567.985    47.31     
2741.149834 78.999     251.49     537.992    47.37     
2741.349834 77.005     251.55     522.029    47.43     
2741.549834 88.006     251.56     579.979    47.55     
2741.749833 100.003    251.6      537.993    47.61     
2741.949833 106.012    251.63     524.028    47.65     
2742.149832 130.007    251.65     579.989    47.71     
2742.349832 144.992    251.66     557.011    47.77     
2742.549832 127.986    251.69     579.995    47.8      
2742.749831 100.008    251.72     569.999    47.85     
2742.949831 117.016    251.73     568.006    47.89     
2743.14983 150.002    251.76     579.989    47.94     
2743.34983 154.992    251.79     556.977    48.01     
2743.54983 137.991    251.82     510.023    48.06     
2743.749829 119.993    251.86     557.011    48.11     
2743.949829 104.984    251.87     580        48.19     
2744.149828 72.005     251.9      579.971    48.24     
2744.349828 81.988     251.93     522.029    48.31     
2744.549828 58.009     251.97     580        48.38     
