~Version
 VERS              .         2.0                           : CWLS LOG ASCII STANDARD - VERSION 2.0
 WRAP              .         NO                            : ONE LINE PER DEPTH STEP
 DLM               .         SPACE                         : DELIMITING CHARACTER(SPACE TAB OR COMMA)
~Well Information
#_______________________________________________________________________________
#
#PARAMETER_NAME    .UNIT     VALUE                         : DESCRIPTION
#_______________________________________________________________________________
STRT               .M        2667.4                        : First reference value
STOP               .M        2776.000109                   : Last reference value
STEP               .M        0.2000002                     : Step increment
NULL               .         -9999                         : Missing value
COMP               .                                       : Company
WELL               .         616                           : Well name
FLD                .                                       : Field
LOC                .                                       : Location
CNTY               .                                       : County
STAT               .                                       : State
CTRY               .                                       : Country
SRVC               .                                       : Service Company
DATE               .                                       : Date
API                .                                       : API number
PROJECT_UPGRADE_TIME .         2021-03-18T21_24_50           : 
group              .         Good                          : 
~Parameter Information Block
#_______________________________________________________________________________
#
#PARAMETER_NAME    .UNIT     VALUE                         : DESCRIPTION
#_______________________________________________________________________________
SET                .         D1801_D                       : 
OTHER              .         Программное обеспечение станции MONITOR-386EX 25/12/99 15_08_10   BGF V52 22/08/01 16_56_30   3.1_SNGF___BGF_N_092049: 
OTHER_10           .         Тарировки_                    : 
OTHER_11           .         TM.GRD = 0.00403*TM$.UE + -1.07: 
OTHER_12           .         MN.ATM = (9.34907e-006*TM.GRD + 0.02171)*(MN$.UE + -7.93*TM.GRD + -1787): 
OTHER_13           .         GK.MKR/H = LM. / 42.4676      : 
OTHER_14           .         GK.FLT = 0.1*GK.MKR/H[-1] + (1-0.1)*GK.MKR/H[0]: 
OTHER_2            .         Kedr.exe версия 3.4.2.51      : 
OTHER_3            .         KedrData.dll версия 3.4.2.24  : 
OTHER_4            .         Драйвер версия 2.1.1.3        : 
OTHER_5            .         Мнемоники версия 3.3 S        : 
OTHER_6            .         Прибор_ КСА-Т4                : 
OTHER_7            .         Номер прибора_ 03             : 
OTHER_8            .         Режим_ КСА-Т4                 : 
OTHER_9            .         Форма_ КВА.                   : 
PROJECT_UPGRADE_TIME .         2021-03-18T21_24_49           : 
TLFamily_DEPT      .         Measured Depth                : 
TLFamily_GK        .         Gamma Ray                     : 
TLFamily_GK$       .                                       : 
TLFamily_GK_2      .         Gamma Ray                     : 
TLFamily_LM        .         Casing Collar locator         : 
TLFamily_METKA     .                                       : 
TLFamily_MN        .                                       : 
TLFamily_MN$       .                                       : 
TLFamily_RCOR      .                                       : 
TLFamily_SPID      .         Spontaneous Potential         : 
TLFamily_TENS      .         Cable Tension                 : 
TLFamily_TIME      .         Time                          : 
TLFamily_TM        .         Temperature                   : 
TLFamily_TM$       .         Temperature                   : 
group              .         prim                          : 
~Curve Information
#_______________________________________________________________________________
#
#LOGNAME           .UNIT     LOG_ID                        : DESCRIPTION
#_______________________________________________________________________________
DEPT               .M                                      : 1 Глубина, м -    0.0 см 
GK                 .MKR/H                                  : 13 Гамма-активность, мкр./ч -  110.0 см 
GK$                .UE                                     : 10 Гамма-активность, усл.ед. -  110.0 см 
GK_2               .FLT                                    : 14 Гамма-активность фильтрованная, мкр./ч -  110.0 см 
LM                 .                                       : 9 Локатор муфт,  -   20.0 см 
METKA              .                                       : 3 Метки,  -    0.0 см 
MN                 .ATM                                    : 12 Давление, атм. -  160.0 см 
MN$                .UE                                     : 8 Давление, усл.ед. -  160.0 см 
RCOR               .CM/KM                                  : 5 Коррекция по ролику, см/км -    0.0 см 
SPID               .M/H                                    : 2 Скорость, м/час -    0.0 см 
TENS               .T                                      : 6 Натяжение кабеля, т -    0.0 см 
TIME               .S                                      : 4 Время, сек -    0.0 см 
TM                 .GRD                                    : 11 Температура, °C -  170.0 см 
TM$                .UE                                     : 7 Температура, усл.ед. -  170.0 см 
~Ascii
# ...
2740.200073 7.7        327        7.7        199        0          251.151    13493      -650       580        0.05       8190.23    45.163     11472     
2740.400073 8.81       374        8.68       190        0          251.167    13494      -650       568        0.05       8191.55    45.235     11490     
2740.600073 8.81       374        8.8        149        0          251.183    13495      -650       576        0.05       8192.8     45.322     11512     
2740.800073 10.69      454        10.36      141        0          251.211    13497      -650       586        0.05       8194.01    45.42      11536     
2741.000074 10.69      454        10.68      123        0          251.214    13497      -650       584        0.07       8195.23    45.518     11560     
2741.200074 12.48      530        12.43      110        0          251.229    13498      -650       583        0.07       8196.48    45.625     11587     
2741.400074 12.74      541        12.64      140        0          251.244    13499      -650       583        0.07       8197.68    45.714     11609     
2741.600074 14.03      596        13.98      148        0          251.253    13500      -650       588        0.07       8198.94    45.82      11635     
2741.800074 14.03      596        14.03      197        0          251.274    13501      -650       585        0.07       8200.25    45.941     11665     
2742.000075 16.06      682        15.96      188        0          251.29     13502      -650       578        0.07       8201.48    46.025     11686     
2742.200075 16.21      688        16.15      211        0          251.307    13503      -650       579        0.07       8202.7     46.101     11705     
2742.400075 16.58      704        16.56      175        0          251.332    13504      -650       572        0.07       8203.92    46.181     11725     
2742.600075 16.58      704        16.58      189        0          251.331    13505      -650       578        0.07       8205.13    46.278     11749     
2742.800075 15.94      677        15.97      182        0          251.332    13505      -650       579        0.07       8206.37    46.375     11773     
2743.000076 15.94      677        15.94      194        0          251.348    13506      -650       579        0.07       8207.63    46.46      11794     
2743.200076 14.83      630        14.91      158        0          251.364    13507      -650       579        0.07       8208.88    46.54      11814     
2743.400076 14.46      614        14.6       171        0          251.381    13508      -650       579        0.07       8210.13    46.633     11837     
2743.600076 12.2       518        12.3       175        0          251.405    13509      -650       587        0.07       8211.35    46.705     11855     
2743.800076 44.23      1878       32.45      221        0          251.427    13510      -650       585        0.07       8212.57    46.77      11871     
2744.000077 10.97      466        12.55      178        0          251.43     13511      -650       584        0.07       8213.83    46.828     11885     
2744.200077 10.97      466        11.04      206        0          251.431    13511      -650       578        0.07       8215.08    46.874     11897     
2744.400077 11.16      474        11.15      223        0          251.456    13512      -650       581        0.07       8216.28    46.935     11912     
2744.600077 11.16      474        11.16      217        0          251.474    13513      -650       580        0.07       8217.52    47         11928     
2744.800077 11.28      479        11.27      203        0          251.506    13515      -650       580        0.07       8218.71    47.06      11943     
2745.000078 11.28      479        11.28      196        0          251.503    13515      -650       576        0.07       8220.02    47.121     11958     
2745.200078 11.21      476        11.21      200        0          251.522    13516      -650       585        0.07       8221.27    47.171     11970     
2745.400078 11.21      476        11.21      212        0          251.541    13517      -650       584        0.07       8222.51    47.211     11980     
2745.600078 10.95      465        10.98      219        0          251.56     13518      -650       583        0.07       8223.7     47.25      11990     
2745.800078 10.95      465        10.95      249        0          251.578    13519      -650       582        0.07       8224.92    47.314     12006     
2746.000079 10.86      461        10.86      214        0          251.596    13520      -650       573        0.07       8226.16    47.375     12021     
2746.200079 10.86      461        10.86      231        0          251.615    13521      -650       575        0.07       8227.4     47.424     12033     
2746.400079 10.34      439        10.38      184        0          251.617    13521      -650       571        0.07       8228.71    47.454     12041     
2746.600079 10.34      439        10.34      247        0          251.637    13522      -650       565        0.07       8229.91    47.512     12055     
2746.800079 10.6       450        10.56      235        0          251.669    13524      -650       569        0.07       8231.16    47.583     12073     
2747.00008 10.6       450        10.6       245        0          251.671    13524      -650       572        0.07       8232.38    47.65      12089     
2747.20008 10.81      459        10.79      201        0          251.682    13525      -650       575        0.07       8233.59    47.714     12105     
2747.40008 10.81      459        10.81      201        0          251.7      13526      -650       586        0.07       8234.84    47.788     12124     
2747.60008 10.03      426        10.11      198        0          251.717    13527      -650       587        0.07       8236.09    47.85      12139     
2747.80008 10.03      426        10.03      172        0          251.734    13528      -650       593        0.07       8237.33    47.925     12158     
2748.000081 9.89       420        9.91       206        0          251.733    13528      -650       582        0.07       8238.6     47.999     12176     
2748.200081 9.89       420        9.89       5589       0          251.769    13530      -650       585        0.07       8239.8     48.066     12193     
2748.400081 9.42       400        9.46       2227       0          251.771    13530      -650       575        0.07       8241.06    48.135     12210     
2748.600081 9.42       400        9.42       598        0          251.796    13532      -650       574        0.07       8242.31    48.197     12225     
2748.800081 10.17      432        10.08      187        0          251.799    13532      -650       576        0.07       8243.5     48.265     12242     
2749.000082 10.17      432        10.17      175        0          251.817    13533      -650       577        0.07       8244.75    48.364     12267     
2749.200082 11.16      474        10.95      147        0          251.828    13534      -650       578        0.07       8245.94    48.469     12292     
2749.400082 11.16      474        11.15      130        0          251.843    13535      -650       590        0.07       8247.19    48.569     12317     
2749.600082 10.78      458        10.82      160        0          251.88     13537      -650       574        0.07       8248.5     48.677     12344     
2749.800082 10.78      458        10.79      154        0          251.88     13537      -650       576        0.07       8249.75    48.778     12369     
2750.000083 10.57      449        10.61      115        2          251.878    13538      -650       577        0.07       8250.94    48.898     12399     
2750.200083 10.57      449        10.57      138        0          251.878    13538      -656       569        0.05       8252.56    49.031     12432     
2750.400083 10.55      448        10.56      93         0          251.914    13540      -656       574        0.05       8253.78    49.14      12459     
