~Version
 VERS              .         2.0                           : CWLS LOG ASCII STANDARD - VERSION 2.0
 WRAP              .         NO                            : ONE LINE PER DEPTH STEP
 DLM               .         SPACE                         : DELIMITING CHARACTER(SPACE TAB OR COMMA)
~Well Information
#_______________________________________________________________________________
#
#PARAMETER_NAME    .UNIT     VALUE                         : DESCRIPTION
#_______________________________________________________________________________
STRT               .M        2650.6                        : First reference value
STOP               .M        2759.999891                   : Last reference value
STEP               .M        0.1999998                     : Step increment
NULL               .         -9999                         : Missing value
COMP               .                                       : Company
WELL               .         616                           : Well name
FLD                .                                       : Field
LOC                .                                       : Location
CNTY               .                                       : County
STAT               .                                       : State
CTRY               .                                       : Country
SRVC               .                                       : Service Company
DATE               .                                       : Date
API                .                                       : API number
PROJECT_UPGRADE_TIME .         2021-03-18T21_24_50           : 
group              .         Good                          : 
~Parameter Information Block
#_______________________________________________________________________________
#
#PARAMETER_NAME    .UNIT     VALUE                         : DESCRIPTION
#_______________________________________________________________________________
SET                .         D4417_D                       : 
OTHER              .         Запись производится в присутствии: 
OTHER_10           .         Максимальная температура      : 
OTHER_11           .         Тип промывочной жидкости      : 
OTHER_12           .         Сопротивление ПЖ (Ом*м) при 20°C: 
OTHER_13           .         Плотность ПЖ(г/см3)           : 
OTHER_14           .         Вязкость ПЖ(с)                : 
OTHER_15           .         Водоотдача ПЖ(см3/30мин)      : 
OTHER_16           .         Уровень ПЖ                    : 
OTHER_17           .         Нефть ПЖ (%)                  : 
OTHER_18           .         Барит ПЖ (%)                  : 
OTHER_19           .         Гематит ПЖ (%)                : 
OTHER_2            .         Заказчик ННСН  ЦДНГ-1         : 
OTHER_20           .         КМЦ ПЖ (%)                    : 
OTHER_21           .         Разгазирование ПЖ (да,нет)    : 
OTHER_22           .         Подъемник                     : 
OTHER_23           .         Лаборатория                   : 
OTHER_24           .         Тип кабеля                    : 
OTHER_25           .         Длина кабеля (м)              : 
OTHER_26           .         Цена последней метки          : 
OTHER_27           .         Цена контрольной метки        : 
OTHER_28           .         Диаметр долота (мм)           : 
OTHER_29           .         Глубина бурения (м)           : 
OTHER_3            .         Площадь                       : 
OTHER_30           .         Искусственный забой (м)       : 
OTHER_31           .         Диаметр колонны (мм)          : 
OTHER_32           .         Толщина колонны (мм)          : 
OTHER_33           .         Башмак колонны (м)            : 
OTHER_34           .         Диаметр НКТ (мм)              : 
OTHER_35           .         Толщина НКТ (мм)              : 
OTHER_36           .         Воронка НКТ (м)               : 
OTHER_37           .         Дата цементожа                : 
OTHER_38           .         Тип, количество(т) и плотность цемента: 
OTHER_39           .         Интервалы перфорации (м)      : 
OTHER_4            .         Категория                     : 
OTHER_40           .         Направление, диаметр (мм)     : 
OTHER_41           .         Направление, глубина (м)      : 
OTHER_42           .         Кондуктор, диаметр (мм)       : 
OTHER_43           .         Кондуктор, глубина (м)        : 
OTHER_44           .         Техническая колонна, диаметр (мм): 
OTHER_45           .         Техническая колонна, глубина (м): 
OTHER_46           .         Эксплуатационная колонна, диаметр (мм): 
OTHER_47           .         Эксплуатационная колонна, глубина (м): 
OTHER_48           .         Программа Кедр-02 версия 3.4  : 
OTHER_49           .         Операционная система Windows NT 5.1 build 2600 Service Pack 2: 
OTHER_5            .         Назначение исследований       : 
OTHER_50           .         Программное обеспечение станции MONITOR-386EX 25/12/99 15_08_10   BGF V54 20/09/05 15_32_17   3.3__BGF_9030071: 
OTHER_51           .         Kedr.exe версия 3.4.2.74      : 
OTHER_52           .         KedrData.dll версия 3.4.2.29  : 
OTHER_53           .         Мнемоники версия 3.18 S       : 
OTHER_54           .         Драйвер версия 2.1.1.4        : 
OTHER_55           .         LasInf.dll 4.3.0.35           : 
OTHER_56           .         Прибор_ КСА-Т4                : 
OTHER_57           .         Номер прибора_ 160            : 
OTHER_58           .         Режим_ КСА-Т4                 : 
OTHER_59           .         Форма_ С.А.Б.                 : 
OTHER_6            .         Альтитуда стола ротора        : 
OTHER_60           .         Тарировки_                    : 
OTHER_61           .         <_techsia_sc_> Дата тарировки температуры 25.05.2010: 
OTHER_62           .         Ручной ввод коэффициентов     : 
OTHER_63           .         TM.DEGC = 0.00402*RTM.E.ACP + -0.994: 
OTHER_64           .         <_techsia_sc_> Дата тарировки давления 25.05.2010: 
OTHER_65           .         Ручной ввод коэффициентов     : 
OTHER_66           .         MN.ATM = (2.27521e-006*TM.DEGC + 0.02078)*(RMN.E.ACP + 6.2*TM.DEGC + -1688): 
OTHER_67           .         <_techsia_sc_> Дата тарировки ГК 25.05.2010: 
OTHER_68           .         Ручной ввод коэффициентов     : 
OTHER_69           .         GR.UR/H = RGR.IMP/MIN / 45.5144: 
OTHER_7            .         Вид исследований 3  6         : 
OTHER_70           .         GK.FLT = 0.1*GR.UR/H[-1] + (1-0.1)*GR.UR/H[0]: 
OTHER_8            .         Начало бурения интервала каротажа: 
OTHER_9            .         Окончание бурения интервала каротажа: 
PROJECT_UPGRADE_TIME .         2021-03-18T21_24_50           : 
TLFamily_CCLC      .                                       : 
TLFamily_DEPT      .         Measured Depth                : 
TLFamily_GK        .         Gamma Ray                     : 
TLFamily_GR        .         Gamma Ray                     : 
TLFamily_METKA     .                                       : 
TLFamily_MN        .                                       : 
TLFamily_RCOR      .                                       : 
TLFamily_RGR       .                                       : 
TLFamily_RMN       .                                       : 
TLFamily_RTEN      .                                       : 
TLFamily_RTM       .                                       : 
TLFamily_SPEE      .         Cable Speed                   : 
TLFamily_TIME      .         Time                          : 
TLFamily_TM        .         Temperature                   : 
group              .         prim                          : 
~Curve Information
#_______________________________________________________________________________
#
#LOGNAME           .UNIT     LOG_ID                        : DESCRIPTION
#_______________________________________________________________________________
DEPT               .M                                      : 1 Глубина, м -    0.0 см 
CCLC               .E.ACP                                  : 9 Локатор муфт,  -   20.0 см 
GK                 .FLT                                    : 14 Гамма-активность фильтрованная, мкр./ч -  110.0 см 
GR                 .UR/H                                   : 13 Гамма-активность, мкр./ч -  110.0 см 
METKA              .CU                                     : 3 Метки,  -    0.0 см 
MN                 .ATM                                    : 12 Давление, атм. -  160.0 см 
RCOR               .CM/KM                                  : 5 Коррекция по ролику, см/км -    0.0 см 
RGR                .IMP/MIN                                : 10 Гамма-активность, усл.ед. -  110.0 см 
RMN                .E.ACP                                  : 8 Давление, усл.ед. -  160.0 см 
RTEN               .T                                      : 6 Натяжение кабеля, т -    0.0 см 
RTM                .E.ACP                                  : 7 Температура, усл.ед. -  170.0 см 
SPEE               .M/H                                    : 2 Скорость, м/час -    0.0 см 
TIME               .S                                      : 4 Время, сек -    0.0 см 
TM                 .DEGC                                   : 11 Температура, °C -  170.0 см 
~Ascii
# ...
2723.399927 91         11.84      11.84      0          244.925    -1087      539        13046      0.25       14501      489        514.17     57.301    
2723.599927 97         11.84      11.84      0          244.949    -1087      539        13048      0.25       14490      489        515.69     57.255    
2723.799927 128        11.71      11.71      0          244.969    -1087      533        13049      0.25       14470      490        517.2      57.174    
2723.999927 82         10.88      10.88      0          244.992    -1087      495        13050      0.25       14467      489        518.64     57.163    
2724.199926 79         9.23       9.23       0          245.019    -1087      420        13051      0.25       14470      488        520.14     57.177    
2724.399926 127        7.1        7.1        0          245.042    -1087      323        13052      0.25       14471      488        521.59     57.178    
2724.599926 330        7.1        7.1        0          245.073    -1087      323        13054      0.25       14466      488        523.1      57.159    
2724.799926 324        7.16       7.16       0          245.09     -1087      326        13055      0.25       14462      488        524.58     57.142    
2724.999926 306        7.16       7.16       0          245.104    -1087      326        13056      0.25       14453      489        526.05     57.107    
2725.199925 2429       6.81       6.81       0          245.138    -1087      310        13058      0.25       14441      489        527.49     57.061    
2725.399925 1049       6.64       6.64       0          245.152    -1087      302        13059      0.25       14429      489        529.02     57.011    
2725.599925 573        6.53       6.53       0          245.183    -1087      297        13061      0.25       14419      490        530.5      56.969    
2725.799925 453        7.56       7.56       0          245.183    -1087      344        13061      0.25       14410      491        531.98     56.935    
2725.999925 317        7.56       7.56       2          245.199    -1086      344        13062      0.25       14403      490        533.31     56.905    
2726.199924 320        8.88       8.88       0          245.227    -1085      404        13064      0.25       14395      490        534.77     56.873    
2726.399924 160        8.44       8.44       0          245.25     -1085      384        13065      0.25       14386      489        536.27     56.837    
2726.599924 187        8.44       8.44       0          245.271    -1085      384        13066      0.25       14373      490        537.74     56.787    
2726.799924 90         7.45       7.45       0          245.299    -1085      339        13068      0.25       14363      491        539.2      56.747    
2726.999924 83         7.45       7.45       0          245.321    -1085      339        13069      0.25       14355      491        540.62     56.711    
2727.199923 68         7.65       7.65       0          245.354    -1085      348        13071      0.25       14350      490        542.14     56.692    
2727.399923 133        7.65       7.65       0          245.353    -1085      348        13071      0.25       14346      491        543.64     56.678    
2727.599923 225        7.65       7.65       0          245.384    -1085      348        13073      0.25       14341      491        545.13     56.657    
2727.799923 145        7.16       7.16       0          245.404    -1085      326        13074      0.25       14331      491        546.56     56.617    
2727.999923 177        7.16       7.16       0          245.412    -1085      326        13075      0.25       14314      491        548        56.55     
2728.199922 112        7.43       7.43       0          245.456    -1085      338        13077      0.25       14305      491        549.56     56.51     
2728.399922 159        8          8          0          245.484    -1085      364        13078      0.25       14315      492        550.99     56.553    
2728.599922 254        9.14       9.14       0          245.511    -1085      416        13079      0.25       14322      492        552.47     56.582    
2728.799922 153        10.59      10.59      0          245.546    -1085      482        13081      0.25       14321      493        553.91     56.576    
2728.999922 189        10.59      10.59      0          245.562    -1085      482        13082      0.25       14315      493        555.35     56.554    
2729.199921 123        10.52      10.52      0          245.558    -1085      479        13082      0.25       14306      493        556.89     56.517    
2729.399921 117        10.52      10.52      0          245.586    -1085      479        13084      0.25       14291      494        558.33     56.456    
2729.599921 135        10.57      10.57      0          245.598    -1085      481        13085      0.25       14275      493        559.78     56.391    
2729.799921 186        10.04      10.04      0          245.631    -1085      457        13087      0.25       14263      493        561.2      56.342    
2729.999921 190        9.69       9.69       0          245.624    -1085      441        13088      0.25       14239      494        562.78     56.246    
2730.19992 149        8.44       8.44       0          245.627    -1085      384        13090      0.25       14180      494        564.2      56.009    
2730.39992 161        8.44       8.44       0          245.603    -1085      384        13090      0.25       14133      493        565.7      55.82     
2730.59992 84         6.94       6.94       0          245.623    -1085      316        13092      0.25       14091      493        567.13     55.653    
2730.79992 120        6.73       6.73       0          245.625    -1085      307        13093      0.25       14059      493        568.58     55.525    
2730.99992 159        5.91       5.91       0          245.63     -1085      269        13094      0.25       14034      492        570.09     55.421    
2731.199919 108        6.06       6.06       0          245.655    -1085      276        13096      0.24       14009      494        571.52     55.321    
2731.399919 192        6.06       6.06       0          245.656    -1085      276        13097      0.25       13975      494        572.99     55.187    
2731.599919 168        6.22       6.22       0          245.667    -1085      283        13098      0.25       13952      495        574.42     55.093    
2731.799919 82         6.22       6.22       0          245.687    -1085      283        13099      0.25       13944      494        575.84     55.061    
2731.999919 58         6.79       6.79       0          245.72     -1085      309        13100      0.25       13954      493        577.42     55.101    
2732.199918 79         6.99       6.99       0          245.772    -1085      318        13102      0.25       13973      495        578.84     55.178    
2732.399918 62         7.12       7.12       0          245.782    -1085      324        13103      0.25       13981      494        580.34     55.211    
2732.599918 46         7.82       7.82       0          245.774    -1085      356        13104      0.25       13950      495        581.77     55.084    
2732.799918 91         7.82       7.82       0          245.744    -1085      356        13105      0.25       13878      495        583.27     54.797    
2732.999918 72         7.82       7.82       0          245.727    -1085      356        13106      0.25       13795      496        584.69     54.464    
2733.199917 115        7.8        7.8        0          245.719    -1085      355        13108      0.25       13727      496        586.16     54.189    
2733.399917 63         7.69       7.69       0          245.696    -1085      350        13109      0.25       13662      495        587.64     53.928    
2733.599917 72         8.9        8.9        0          245.686    -1085      405        13110      0.25       13592      494        589.06     53.646    
