~Version
 VERS              .         2.0                           : CWLS LOG ASCII STANDARD - VERSION 2.0
 WRAP              .         NO                            : ONE LINE PER DEPTH STEP
 DLM               .         SPACE                         : DELIMITING CHARACTER(SPACE TAB OR COMMA)
~Well Information
#_______________________________________________________________________________
#
#PARAMETER_NAME    .UNIT     VALUE                         : DESCRIPTION
#_______________________________________________________________________________
STRT               .M        10.2                          : First reference value
STOP               .M        2757.4                        : Last reference value
STEP               .M        0.2                           : Step increment
NULL               .         -9999                         : Missing value
COMP               .                                       : Company
WELL               .         616                           : Well name
FLD                .                                       : Field
LOC                .                                       : Location
CNTY               .                                       : County
STAT               .                                       : State
CTRY               .                                       : Country
SRVC               .                                       : Service Company
DATE               .                                       : Date
API                .                                       : API number
PROJECT_UPGRADE_TIME .         2021-03-18T21_24_50           : 
group              .         Good                          : 
~Parameter Information Block
#_______________________________________________________________________________
#
#PARAMETER_NAME    .UNIT     VALUE                         : DESCRIPTION
#_______________________________________________________________________________
SET                .         D7016_D                       : 
OTHER              .         Kedr.exe версия 2.1.2.32      : 
OTHER_10           .         TM.GRD = 0.00404*TM$.UE + 0.07: 
OTHER_11           .         MN.ATM = (6.33279e-006*TM.GRD + 0.02401)*(MN$.UE + 2.72*TM.GRD + -2018): 
OTHER_12           .         GK.MKR/H = GK$.UE / 43.5489 + 0: 
OTHER_13           .         RES.SM = 0.00476*CRES.UE - 1.51709: 
OTHER_14           .         PL.GSM3 = 0 + 0 * (PL.UE / 1) +  0 * (PL.UE / 1)^2: 
OTHER_15           .         Постоянная времени ГГП = 6 сек: 
OTHER_16           .         Постоянная времени ГК = 6 сек : 
OTHER_2            .         KedrData.dll версия 3.2.2.14  : 
OTHER_3            .         LasInf.dll версия 3.2.0.13    : 
OTHER_4            .         Драйвер версия 1.2.0.5        : 
OTHER_5            .         Прибор_ КСА-M1                : 
OTHER_6            .         Номер прибора_ 155+р204       : 
OTHER_7            .         Режим_ КСА-М1 + ГГП + Резистивиметр: 
OTHER_8            .         Форма_ 223\2                  : 
OTHER_9            .         Тарировки_                    : 
PROJECT_UPGRADE_TIME .         2021-03-18T21_24_50           : 
TLFamily_CRES      .                                       : 
TLFamily_DEPT      .         Measured Depth                : 
TLFamily_GK        .         Gamma Ray                     : 
TLFamily_GK$       .                                       : 
TLFamily_LM        .         Casing Collar locator         : 
TLFamily_METKA     .                                       : 
TLFamily_MN        .                                       : 
TLFamily_MN$       .                                       : 
TLFamily_PL        .                                       : 
TLFamily_PL_2      .                                       : 
TLFamily_RCOR      .                                       : 
TLFamily_RES       .         Mud Resistivity               : 
TLFamily_SPID      .         Spontaneous Potential         : 
TLFamily_STD       .                                       : 
TLFamily_TIME      .         Time                          : 
TLFamily_TM        .         Temperature                   : 
TLFamily_TM$       .         Temperature                   : 
TLFamily_VGD       .         Gas Volume                    : 
group              .         prim                          : 
~Curve Information
#_______________________________________________________________________________
#
#LOGNAME           .UNIT     LOG_ID                        : DESCRIPTION
#_______________________________________________________________________________
DEPT               .M                                      : 1 Глубина, м -    0.0 см 
CRES               .UE                                     : 9 Проводимость, усл.ед. -  270.0 см 
GK                 .MKR/H                                  : 16 Гамма-активность, мкр./ч -  106.0 см 
GK$                .UE                                     : 13 Гамма-активность, усл.ед. -  106.0 см 
LM                 .                                       : 11 Локатор муфт,  -   16.0 см 
METKA              .                                       : 3 Метки,  -    0.0 см 
MN                 .ATM                                    : 15 Давление, атм. -  160.0 см 
MN$                .UE                                     : 7 Давление, усл.ед. -  160.0 см 
PL                 .UE                                     : 10 Плотность, усл.ед. -  270.0 см 
PL_2               .GSM3                                   : 18 Плотность, г./см3 -  270.0 см 
RCOR               .CM/KM                                  : 5 Коррекция по ролику, см/км -    0.0 см 
RES                .SM                                     : 17 Проводимость,  -  270.0 см 
SPID               .M/H                                    : 2 Скорость, м/час -    0.0 см 
STD                .                                       : 12 Приток,  -  170.0 см 
TIME               .S                                      : 4 Время, сек -    0.0 см 
TM                 .GRD                                    : 14 Температура, °C -  180.0 см 
TM$                .UE                                     : 6 Температура, усл.ед. -  180.0 см 
VGD                .                                       : 8 Влагомер,  -  170.0 см 
~Ascii
# ...
1650.2     1307       10.13      456        601        1          146.669    7906       14         0          0          4.7045     1660       10015      5215.08    51.192     12654      6611      
1650.4     1305       10.2       456        675        0          146.676    7906       15         0          0          4.6952     1704       10015      5215.51    51.197     12655      6607      
1650.6     1306       10.26      456        905        0          146.702    7907       14         0          0          4.6984     1641       10016      5215.93    51.204     12657      6609      
1650.8     1305       10.3       456        992        0          146.718    7908       15         0          0          4.6931     1600       10015      5216.37    51.204     12657      6603      
1651       1305       10.31      449        926        0          146.731    7909       14         0          0          4.6944     1657       10017      5216.82    51.206     12657      6603      
1651.2     1305       10.27      443        1441       0          146.728    7908       13         0          0          4.694      1660       10018      5217.24    51.208     12658      6604      
1651.4     1304       10.25      443        1106       0          146.757    7910       12         0          0          4.6899     1660       10019      5217.69    51.214     12659      6606      
1651.6     1305       10.23      443        786        0          146.79     7911       13         0          0          4.6937     1660       10019      5218.11    51.22      12661      6606      
1651.8     1305       10.22      443        850        0          146.818    7912       14         0          0          4.6947     1660       10020      5218.56    51.224     12662      6605      
1652       1304       10.21      443        938        0          146.834    7913       13         0          0          4.6899     1660       10018      5219.01    51.229     12663      6601      
1652.2     1303       10.15      430        862        0          146.843    7913       14         0          0          4.6849     1622       10021      5219.44    51.231     12664      6595      
1652.4     1302       10.06      424        869        0          146.864    7914       14         0          0          4.6794     1689       10021      5219.86    51.238     12665      6603      
1652.6     1302       9.99       424        910        0          146.892    7915       14         0          0          4.6804     1730       10022      5220.3     51.244     12667      6604      
1652.8     1304       9.94       424        887        0          146.893    7915       13         0          0          4.6899     1667       10022      5220.73    51.248     12668      6610      
1653       1305       9.9        424        694        0          146.919    7916       13         0          0          4.6952     1603       10022      5221.17    51.253     12669      6599      
1653.2     1306       9.85       421        695        0          146.924    7916       14         0          0          4.6987     1660       10024      5221.62    51.261     12671      6600      
1653.4     1305       9.79       415        853        0          146.944    7917       13         0          0          4.697      1660       10023      5222.06    51.262     12671      6608      
1653.6     1307       9.73       415        678        0          146.957    7918       13         0          0          4.7024     1635       10027      5222.49    51.268     12673      6606      
1653.8     1306       9.69       415        663        0          146.969    7918       14         0          0          4.6995     1600       10025      5222.93    51.273     12674      6601      
1654       1307       9.66       415        588        0          146.985    7919       14         0          0          4.7023     1642       10027      5223.38    51.273     12674      6589      
1654.2     1306       9.63       415        466        0          147.014    7920       14         0          0          4.701      1610       10027      5223.82    51.276     12675      6592      
1654.4     1307       9.61       415        465        0          147.04     7921       13         0          0          4.7034     1600       10026      5224.25    51.284     12677      6592      
1654.6     1307       9.54       403        468        0          147.043    7921       14         0          0          4.7042     1660       10027      5224.67    51.285     12677      6588      
1654.8     1307       9.48       403        507        0          147.052    7921       14         0          0          4.7047     1730       10029      5225.12    51.289     12678      6584      
1655       1308       9.43       403        578        0          147.093    7923       13         0          0          4.7075     1697       10029      5225.55    51.293     12679      6578      
1655.2     1306       9.39       403        631        0          147.103    7923       14         0          0          4.7017     1625       10031      5226       51.296     12680      6575      
1655.4     1308       9.36       403        678        0          147.131    7925       14         0          0          4.709      1660       10030      5226.42    51.301     12681      6568      
1655.6     1308       9.23       376        705        0          147.143    7925       14         0          0          4.709      1660       10033      5226.86    51.303     12682      6568      
1655.8     1309       9.04       364        4378       0          147.183    7927       14         0          0          4.7119     1660       10033      5227.3     51.308     12683      6573      
1656       1309       8.91       364        4739       0          147.192    7927       13         0          0          4.7137     1660       10033      5227.75    51.306     12682      6569      
1656.2     1310       8.78       364        3028       0          147.217    7928       14         0          0          4.7178     1660       10034      5228.18    51.317     12685      6568      
1656.4     1310       8.7        364        1243       0          147.221    7928       14         0          0          4.7185     1660       10035      5228.6     51.317     12685      6569      
1656.6     1309       8.65       367        971        0          147.242    7929       14         0          0          4.7137     1600       10035      5229.06    51.323     12686      6571      
1656.8     1309       8.66       379        796        0          147.243    7929       13         0          0          4.7151     1616       10037      5229.48    51.33      12688      6585      
1657       1310       8.67       379        747        0          147.266    7930       13         0          0          4.7167     1660       10039      5229.91    51.335     12689      6570      
1657.2     1309       8.67       379        635        0          147.306    7932       14         0          0          4.716      1660       10042      5230.36    51.342     12691      6567      
1657.4     1309       8.68       379        529        0          147.335    7933       14         0          0          4.7157     1660       10041      5230.79    51.344     12692      6571      
1657.6     1310       8.69       379        696        0          147.343    7933       14         0          0          4.717      1708       10043      5231.22    51.354     12694      6577      
1657.8     1311       8.69       379        600        0          147.343    7933       13         0          0          4.7227     1672       10042      5231.66    51.361     12696      6571      
1658       1311       8.86       417        476        0          147.368    7934       13         0          0          4.7233     1660       10043      5232.08    51.362     12696      6572      
1658.2     1311       9.01       417        1069       0          147.413    7936       14         0          0          4.7233     1600       10043      5232.52    51.37      12698      6574      
