~Version
 VERS              .         2.0                           : CWLS LOG ASCII STANDARD - VERSION 2.0
 WRAP              .         NO                            : ONE LINE PER DEPTH STEP
 DLM               .         SPACE                         : DELIMITING CHARACTER(SPACE TAB OR COMMA)
~Well Information
#_______________________________________________________________________________
#
#PARAMETER_NAME    .UNIT     VALUE                         : DESCRIPTION
#_______________________________________________________________________________
STRT               .M        2659.6                        : First reference value
STOP               .M        2769.6                        : Last reference value
STEP               .M        0.2                           : Step increment
NULL               .         -9999                         : Missing value
COMP               .                                       : Company
WELL               .         616                           : Well name
FLD                .                                       : Field
LOC                .                                       : Location
CNTY               .                                       : County
STAT               .                                       : State
CTRY               .                                       : Country
SRVC               .                                       : Service Company
DATE               .                                       : Date
API                .                                       : API number
PROJECT_UPGRADE_TIME .         2021-03-18T21_24_50           : 
group              .         Good                          : 
~Parameter Information Block
#_______________________________________________________________________________
#
#PARAMETER_NAME    .UNIT     VALUE                         : DESCRIPTION
#_______________________________________________________________________________
SET                .         D1162_D                       : 
OTHER              .         Программное обеспечение станции MONITOR-386EX 25/12/99 15_08_10   BGF V52 22/08/01 16_56_30   3.2_BGF_N_3070031: 
OTHER_10           .         Тарировки_                    : 
OTHER_11           .         TM.GRD = 0.00403*TM$.UE + -1.19: 
OTHER_12           .         MN.ATM = (7.1e-006*TM.GRD + 0.02017)*(MN$.UE + -3.03*TM.GRD + -1833): 
OTHER_13           .         Id error                      : 
OTHER_2            .         Kedr.exe версия 3.4.2.51      : 
OTHER_3            .         KedrData.dll версия 3.4.2.24  : 
OTHER_4            .         Драйвер версия 2.1.1.8        : 
OTHER_5            .         Мнемоники версия 3.3 S        : 
OTHER_6            .         Прибор_ КСА-М1                : 
OTHER_7            .         Номер прибора_ 265            : 
OTHER_8            .         Режим_ КСА-М1                 : 
OTHER_9            .         Форма_ ТЕРМОМЕТР              : 
PROJECT_UPGRADE_TIME .         2021-03-18T21_24_49           : 
TLFamily_DEPT      .         Measured Depth                : 
TLFamily_GK        .         Gamma Ray                     : 
TLFamily_GK$       .                                       : 
TLFamily_LM        .         Casing Collar locator         : 
TLFamily_METKA     .                                       : 
TLFamily_MN        .                                       : 
TLFamily_MN$       .                                       : 
TLFamily_RCOR      .                                       : 
TLFamily_SPID      .         Spontaneous Potential         : 
TLFamily_STD       .                                       : 
TLFamily_TENS      .         Cable Tension                 : 
TLFamily_TIME      .         Time                          : 
TLFamily_TM        .         Temperature                   : 
TLFamily_TM$       .         Temperature                   : 
TLFamily_VGD       .         Gas Volume                    : 
group              .         prim                          : 
~Curve Information
#_______________________________________________________________________________
#
#LOGNAME           .UNIT     LOG_ID                        : DESCRIPTION
#_______________________________________________________________________________
DEPT               .M                                      : 1 Глубина, м -    0.0 см 
GK                 .MKR/H                                  : 15 Гамма-активность, мкр./ч -  110.0 см 
GK$                .UE                                     : 12 Гамма-активность, усл.ед. -  110.0 см 
LM                 .                                       : 10 Локатор муфт,  -   20.0 см 
METKA              .                                       : 3 Метки,  -    0.0 см 
MN                 .ATM                                    : 14 Давление, атм. -  160.0 см 
MN$                .UE                                     : 8 Давление, усл.ед. -  160.0 см 
RCOR               .CM/KM                                  : 5 Коррекция по ролику, см/км -    0.0 см 
SPID               .M/H                                    : 2 Скорость, м/час -    0.0 см 
STD                .                                       : 11 Приток,  -  170.0 см 
TENS               .T                                      : 6 Натяжение кабеля, т -    0.0 см 
TIME               .S                                      : 4 Время, сек -    0.0 см 
TM                 .GRD                                    : 13 Температура, °C -  180.0 см 
TM$                .UE                                     : 7 Температура, усл.ед. -  180.0 см 
VGD                .                                       : 9 Влагомер,  -  170.0 см 
~Ascii
# ...
2698.8     10.07      441        1          0          250.245    14134      -1400      594        32379      0          17644.78   88.065     22148      6494      
2699       10.45      454        1          0          250.217    14132      -1400      591        32382      0          17646.02   88.068     22148      6494      
2699.2     10.57      454        1          0          250.295    14136      -1400      583        32381      0          17647.26   88.075     22150      6494      
2699.4     10.6       454        1          0          250.259    14134      -1400      585        32387      0          17648.47   88.079     22151      6493      
2699.6     10.61      454        1          0          250.331    14138      -1400      585        32386      0          17649.66   88.083     22152      6494      
2699.8     10.35      436        1          0          250.328    14138      -1400      581        32391      0          17650.91   88.089     22154      6494      
2700       10.25      436        1          2          250.353    14139      -1400      580        32392      0          17652.1    88.092     22154      6494      
2700.2     10.09      427        1          0          250.397    14141      -1400      590        32395      0          17653.38   88.099     22156      6494      
2700.4     10.02      427        1          0          250.376    14140      -1400      592        32399      0          17654.56   88.103     22157      6493      
2700.6     9.7        408        1          0          250.442    14143      -1400      597        32397      0          17655.82   88.107     22158      6493      
2700.8     9.59       408        1          0          250.4      14141      -1400      592        32401      0          17657.03   88.114     22160      6495      
2701       8.44       332        1          0          250.471    14144      -1400      595        32373      0          17658.27   88.121     22162      6494      
2701.2     7.96       332        1          0          250.46     14144      -1400      591        32403      0          17659.5    88.127     22163      6495      
2701.4     7.13       281        1          0          250.505    14146      -1400      597        32404      0          17660.66   88.131     22164      6495      
2701.6     6.74       281        1          0          250.494    14145      -1400      597        32406      0          17661.86   88.139     22166      6495      
2701.8     6.6        279        1          0          250.52     14147      -1400      596        32394      0          17663.04   88.146     22168      6495      
2702       6.55       279        1          0          250.559    14149      -1400      592        32405      0          17664.34   88.154     22170      6495      
2702.2     6.75       294        1          0          250.54     14148      -1400      593        32373      0          17665.51   88.161     22171      6495      
2702.4     6.84       294        1          0          250.61     14151      -1400      594        32411      0          17666.72   88.169     22173      6495      
2702.6     6.79       288        1          0          250.568    14149      -1400      593        32394      0          17667.99   88.175     22175      6495      
2702.8     6.75       288        1          0          250.648    14153      -1400      591        32373      0          17669.16   88.183     22177      6495      
2703       6.73       287        1          0          250.62     14151      -1400      592        32373      0          17670.34   88.187     22178      6496      
2703.2     6.72       287        1          0          250.664    14154      -1400      595        32413      0          17671.54   88.195     22180      6495      
2703.4     6.8        297        1          0          250.673    14154      -1400      581        32373      0          17672.78   88.203     22182      6496      
2703.6     6.9        297        1          0          250.694    14155      -1400      591        32373      0          17673.97   88.212     22184      6496      
2703.8     6.96       300        2251       0          250.73     14157      -1400      592        32374      0          17675.17   88.22      22186      6495      
2704       7.01       301        710        0          250.704    14156      -1400      599        32373      0          17676.41   88.226     22188      6494      
2704.2     7          298        1          0          250.768    14159      -1400      594        32373      0          17677.65   88.234     22190      6494      
2704.4     6.98       298        1          0          250.739    14157      -1400      596        32373      0          17678.83   88.241     22191      6494      
2704.6     6.89       287        1          0          250.814    14161      -1400      604        32373      0          17680.01   88.248     22193      6494      
2704.8     6.77       287        1          0          250.799    14160      -1400      591        32373      0          17681.3    88.255     22195      6494      
2705       6.72       285        1          0          250.83     14162      -1400      603        32374      0          17682.47   88.262     22197      6494      
2705.2     6.65       283        1          0          250.856    14163      -1400      598        32373      0          17683.7    88.274     22200      6493      
2705.4     6.63       283        1          0          250.841    14162      -1400      596        32374      0          17684.85   88.281     22201      6494      
2705.6     6.74       290        1          0          250.904    14165      -1400      588        32374      0          17686.08   88.292     22204      6494      
2705.8     6.8        294        1          0          250.883    14164      -1400      592        32373      0          17687.3    88.307     22208      6494      
2706       6.89       296        1          0          250.955    14167      -1400      598        32373      0          17688.48   88.318     22210      6494      
2706.2     6.91       296        1          0          250.925    14166      -1400      590        32373      0          17689.78   88.33      22213      6494      
2706.4     6.94       297        1          0          250.991    14169      -1400      593        32373      0          17690.95   88.341     22216      6494      
2706.6     6.94       297        1          0          250.97     14168      -1400      598        32373      0          17692.13   88.353     22219      6494      
2706.8     7.15       310        1          0          251.002    14170      -1400      604        32374      0          17693.42   88.36      22221      6495      
2707       7.22       310        1          0          251.051    14172      -1400      598        32373      0          17694.6    88.361     22221      6496      
2707.2     7.3        314        1          0          251.034    14171      -1400      594        32373      0          17695.81   88.378     22225      6495      
2707.4     7.33       314        1          0          251.093    14174      -1400      596        32373      0          17697.02   88.39      22228      6495      
2707.6     7.57       328        1          0          251.057    14172      -1400      592        32373      0          17698.25   88.397     22230      6495      
2707.8     7.64       328        1          0          251.129    14176      -1400      589        32372      0          17699.49   88.401     22231      6495      
2708       8.03       353        1          0          251.105    14175      -1400      591        32373      0          17700.67   88.412     22234      6495      
2708.2     8.19       353        1          0          251.159    14177      -1400      594        32373      0          17701.9    88.419     22235      6496      
2708.4     8.2        350        1          0          251.174    14178      -1400      581        32373      0          17703.14   88.425     22237      6495      
