~Version
 VERS              .         2.0                           : CWLS LOG ASCII STANDARD - VERSION 2.0
 WRAP              .         NO                            : ONE LINE PER DEPTH STEP
 DLM               .         SPACE                         : DELIMITING CHARACTER(SPACE TAB OR COMMA)
~Well Information
#_______________________________________________________________________________
#
#PARAMETER_NAME    .UNIT     VALUE                         : DESCRIPTION
#_______________________________________________________________________________
STRT               .M        10.2                          : First reference value
STOP               .M        2774.8                        : Last reference value
STEP               .M        0.2                           : Step increment
NULL               .         -9999                         : Missing value
COMP               .                                       : Company
WELL               .         616                           : Well name
FLD                .                                       : Field
LOC                .                                       : Location
CNTY               .                                       : County
STAT               .                                       : State
CTRY               .                                       : Country
SRVC               .                                       : Service Company
DATE               .                                       : Date
API                .                                       : API number
PROJECT_UPGRADE_TIME .         2021-03-18T21_24_50           : 
group              .         Good                          : 
~Parameter Information Block
#_______________________________________________________________________________
#
#PARAMETER_NAME    .UNIT     VALUE                         : DESCRIPTION
#_______________________________________________________________________________
SET                .         D1813_D_2                     : 
NPR                .                                       : 
OTHER              .         Программное обеспечение станции MONITOR-386EX 25/12/99 15_08_10   BGF V52 22/08/01 16_56_30   3.1_SNGF___BGF_N_092049: 
OTHER_10           .         Тарировки_                    : 
OTHER_11           .         TM.GRD = 0.00403*TM$.UE + -1.07: 
OTHER_12           .         MN.ATM = (9.34907e-006*TM.GRD + 0.02171)*(MN$.UE + -7.93*TM.GRD + -1787): 
OTHER_13           .         GK.MKR/H = LM. / 42.4676      : 
OTHER_14           .         GK.FLT = 0.1*GK.MKR/H[-1] + (1-0.1)*GK.MKR/H[0]: 
OTHER_2            .         Kedr.exe версия 3.4.2.51      : 
OTHER_3            .         KedrData.dll версия 3.4.2.24  : 
OTHER_4            .         Драйвер версия 2.1.1.3        : 
OTHER_5            .         Мнемоники версия 3.3 S        : 
OTHER_6            .         Прибор_ КСА-Т4                : 
OTHER_7            .         Номер прибора_ 03             : 
OTHER_8            .         Режим_ КСА-Т4                 : 
OTHER_9            .         Форма_ КВА.                   : 
PR                 .                                       : 
PROJECT_UPGRADE_TIME .         2021-03-18T21_24_49           : 
PRTY               .         ПП-603-1                      : N партии
SRV                .                                       : 
SRVC               .         Карпов                        : Начальник партии
TLFamily_DEPT      .         Measured Depth                : 
TLFamily_LM        .         Casing Collar locator         : 
TLFamily_MN        .                                       : 
TLFamily_TM        .         Temperature                   : 
group              .         second                        : 
~Curve Information
#_______________________________________________________________________________
#
#LOGNAME           .UNIT     LOG_ID                        : DESCRIPTION
#_______________________________________________________________________________
DEPT               .M                                      : Depth curve 
LM                 .е.ацп                                  : Локатор муфт,е.ацп 
MN                 .атм                                    : Манометрия, атм 
TM                 .град.C                                 : Термограмма по стволу скважины,град.C 
~Ascii
# ...
2740.2     309.995    252.87     50.091    
2740.4     285        252.898    50.056    
2740.6     285.999    252.907    50.016    
2740.8     282.999    252.939    49.986    
2741       277.995    252.971    49.949    
2741.2     252.002    252.981    49.928    
2741.4     260.99     253.003    49.908    
2741.6     214.009    253.025    49.896    
2741.8     259.011    253.046    49.888    
2742       315.003    253.066    49.885    
2742.2     329        253.086    49.888    
2742.4     328.993    253.085    49.893    
2742.6     295.996    253.124    49.904    
2742.8     275.006    253.146    49.919    
2743       302.99     253.148    49.935    
2743.2     254.995    253.162    49.955    
2743.4     232.004    253.181    49.982    
2743.6     252.009    253.2      50.004    
2743.8     294.012    253.219    50.032    
2744       352.007    253.237    50.056    
2744.2     387.003    253.255    50.086    
2744.4     402.005    253.273    50.118    
2744.6     426        253.291    50.151    
2744.8     425.997    253.31     50.188    
2745       408.991    253.328    50.227    
2745.2     364.019    253.346    50.269    
2745.4     458.035    253.363    50.318    
2745.6     632.064    253.361    50.371    
2745.8     946.101    253.373    50.426    
2746       1445.161   253.39     50.482    
2746.2     2237.265   253.419    50.543    
2746.4     3544.143   253.433    50.599    
2746.6     4248.197   253.439    50.675    
2746.8     289.993    253.454    50.741    
2747       254.001    253.469    50.82     
2747.2     258.009    253.482    50.904    
2747.4     301        253.494    50.996    
2747.6     301.02     253.49     51.089    
2747.8     398.002    253.525    51.188    
2748       407.988    253.539    51.285    
2748.2     349.015    253.554    51.377    
2748.4     422.983    253.55     51.466    
2748.6     337.994    253.56     51.555    
2748.8     309.006    253.572    51.658    
2749       337.004    253.583    51.774    
2749.2     355.019    253.595    51.908    
2749.4     447.001    253.607    52.029    
2749.6     453.987    253.619    52.159    
2749.8     390.995    253.632    52.278    
2750       363.983    253.64     52.401    
2750.2     277.998    253.634    52.522    
2750.4     267.996    253.645    52.65     
2750.6     248.015    253.656    52.78     
2750.8     322.02     253.67     52.955    
2751       419.994    253.68     53.129    
2751.2     390.001    253.69     53.295    
2751.4     395        253.699    53.453    
2751.6     394.981    253.687    53.615    
2751.8     303.993    253.718    53.782    
2752       270.004    253.71     53.939    
2752.2     292.01     253.715    54.1      
2752.4     339.031    253.723    54.282    
2752.6     488.99     253.731    54.46     
2752.8     441.997    253.739    54.647    
2753       428.965    253.747    54.826    
2753.2     257.984    253.747    54.991    
2753.4     180.006    253.741    55.173    
2753.6     209.019    253.748    55.377    
2753.8     303.021    253.754    55.57     
2754       404        253.761    55.772    
2754.2     404.009    253.768    55.981    
2754.4     448.988    253.775    56.175    
2754.6     388.987    253.762    56.363    
2754.8     323.997    253.769    56.544    
2755       307.015    253.777    56.724    
2755.2     380.016    253.783    56.923    
2755.4     461.016    253.79     57.118    
2755.6     538.012    253.796    57.324    
2755.8     596.966    253.804    57.514    
2756       428.001    253.812    57.682    
2756.2     433.007    253.812    57.876    
2756.4     465.036    253.803    58.076    
2756.6     643.036    253.808    58.3      
2756.8     821        253.815    58.503    
2757       821.069    253.844    58.699    
2757.2     1161.067   253.833    58.871    
2757.4     1490.161   253.84     59.032    
2757.6     2280.267   253.866    59.203    
2757.8     3587.342   253.864    59.37     
2758       360.005    253.852    59.549    
2758.2     384.966    253.866    59.711    
2758.4     218.008    253.886    59.878    
2758.6     258.014    253.889    60.006    
2758.8     328.015    253.887    60.123    
2759       404.001    253.899    60.252    
2759.2     406.972    253.91     60.37     
2759.4     271.008    253.923    60.489    
2759.6     312.019    253.932    60.611    
2759.8     404.992    253.866    60.727    
2760       366.974    253.947    60.845    
2760.2     238.006    253.955    60.97     
2760.4     265        253.962    61.091    
2760.6     265.006    253.975    61.208    
2760.8     296.019    253.995    61.302    
2761       389.998    254.009    61.425    
2761.2     377.973    254.025    61.511    
2761.4     244.01     254.04     61.599    
2761.6     295.022    254.054    61.675    
2761.8     403.991    254.069    61.745    
2762       360.995    254.075    61.822    
2762.2     337.999    254.079    61.888    
2762.4     332.006    254.095    61.957    
2762.6     363.027    254.112    62.017    
2762.8     492.99     254.129    62.08     
2763       444        254.144    62.144    
2763.2     443.987    254.161    62.206    
2763.4     377.996    254.177    62.263    
2763.6     357.018    254.195    62.318    
2763.8     442.999    254.193    62.368    
2764       436.977    254.205    62.415    
2764.2     324.012    254.224    62.466    
2764.4     384.018    254.228    62.512    
2764.6     474.002    254.237    62.554    
2764.8     482.974    254.254    62.6      
2765       357.009    254.271    62.651    
2765.2     403.032    254.288    62.701    
2765.4     561.995    254.305    62.745    
2765.6     536        254.324    62.791    
2765.8     535.971    254.34     62.84     
2766       396.012    254.357    62.891    
2766.2     457.028    254.354    62.943    
2766.4     594.988    254.387    62.996    
2766.6     536.005    254.39     63.055    
2766.8     558.983    254.416    63.12     
2767       474.033    254.439    63.188    
2767.2     634.982    254.455    63.263    
2767.4     545.004    254.47     63.333    
2767.6     565.028    254.486    63.414    
2767.8     704.044    254.493    63.487    
2768       921.033    254.495    63.56     
2768.2     1080.095   254.51     63.631    
2768.4     1543       254.53     63.711    
2768.6     1543.18    254.561    63.786    
2768.8     2421.636   254.556    63.857    
2769       644.022    254.571    63.934    
2769.2     750.985    254.567    64.016    
2769.4     675.973    254.579    64.099    
2769.6     542.984    254.578    64.178    
2769.8     463.04     254.602    64.253    
2770       659        254.612    64.335    
2770.2     659.018    254.627    64.401    
2770.4     748.962    254.655    64.468    
2770.6     560.95     254.665    64.54     
2770.8     316.03     254.665    64.6      
2771       463.049    254.676    64.644    
2771.2     703.007    254.678    64.685    
2771.4     737.909    254.686    64.731    
2771.6     292.98     254.704    64.787    
2771.8     194.005    254.729    64.832    
2772       218.995    254.76     64.895    
2772.2     195.976    254.777    64.947    
2772.4     78.992     254.789    65        
2772.6     39.999     254.783    65.071    
2772.8     37         254.782    65.163    
2773       35         254.799    65.287    
2773.2     36         254.815    65.399    
2773.4     37         254.834    65.514    
2773.6     -9999      254.838    65.587    
2773.8     -9999      254.837    65.605    
2774       -9999      254.837    65.61     
2774.2     -9999      254.829    65.61     
2774.4     -9999      254.835    65.611    
2774.6     -9999      254.853    65.614    
2774.8     -9999      -9999      65.614    
