~Version
 VERS              .         2.0                           : CWLS LOG ASCII STANDARD - VERSION 2.0
 WRAP              .         NO                            : ONE LINE PER DEPTH STEP
 DLM               .         SPACE                         : DELIMITING CHARACTER(SPACE TAB OR COMMA)
~Well Information
#_______________________________________________________________________________
#
#PARAMETER_NAME    .UNIT     VALUE                         : DESCRIPTION
#_______________________________________________________________________________
STRT               .M        10.2                          : First reference value
STOP               .M        2774.8                        : Last reference value
STEP               .M        0.2                           : Step increment
NULL               .         -9999                         : Missing value
COMP               .                                       : Company
WELL               .         616                           : Well name
FLD                .                                       : Field
LOC                .                                       : Location
CNTY               .                                       : County
STAT               .                                       : State
CTRY               .                                       : Country
SRVC               .                                       : Service Company
DATE               .                                       : Date
API                .                                       : API number
PROJECT_UPGRADE_TIME .         2021-03-18T21_24_50           : 
group              .         Good                          : 
~Parameter Information Block
#_______________________________________________________________________________
#
#PARAMETER_NAME    .UNIT     VALUE                         : DESCRIPTION
#_______________________________________________________________________________
SET                .         D1813_D_2                     : 
NPR                .                                       : 
OTHER              .         Программное обеспечение станции MONITOR-386EX 25/12/99 15_08_10   BGF V52 22/08/01 16_56_30   3.1_SNGF___BGF_N_092049: 
OTHER_10           .         Тарировки_                    : 
OTHER_11           .         TM.GRD = 0.00403*TM$.UE + -1.07: 
OTHER_12           .         MN.ATM = (9.34907e-006*TM.GRD + 0.02171)*(MN$.UE + -7.93*TM.GRD + -1787): 
OTHER_13           .         GK.MKR/H = LM. / 42.4676      : 
OTHER_14           .         GK.FLT = 0.1*GK.MKR/H[-1] + (1-0.1)*GK.MKR/H[0]: 
OTHER_2            .         Kedr.exe версия 3.4.2.51      : 
OTHER_3            .         KedrData.dll версия 3.4.2.24  : 
OTHER_4            .         Драйвер версия 2.1.1.3        : 
OTHER_5            .         Мнемоники версия 3.3 S        : 
OTHER_6            .         Прибор_ КСА-Т4                : 
OTHER_7            .         Номер прибора_ 03             : 
OTHER_8            .         Режим_ КСА-Т4                 : 
OTHER_9            .         Форма_ КВА.                   : 
PR                 .                                       : 
PROJECT_UPGRADE_TIME .         2021-03-18T21_24_49           : 
PRTY               .         ПП-603-1                      : N партии
SRV                .                                       : 
SRVC               .         Карпов                        : Начальник партии
TLFamily_DEPT      .         Measured Depth                : 
TLFamily_LM        .         Casing Collar locator         : 
TLFamily_MN        .                                       : 
TLFamily_TM        .         Temperature                   : 
group              .         second                        : 
~Curve Information
#_______________________________________________________________________________
#
#LOGNAME           .UNIT     LOG_ID                        : DESCRIPTION
#_______________________________________________________________________________
DEPT               .M                                      : Depth curve 
LM                 .е.ацп                                  : Локатор муфт,е.ацп 
MN                 .атм                                    : Манометрия, атм 
TM                 .град.C                                 : Термограмма по стволу скважины,град.C 
~Ascii
# ...
192.2      2886.02    19.707     17.722    
192.4      4433.03    19.728     17.726    
192.6      6835.92    19.749     17.73     
192.8      518.001    19.77      17.734    
193        617.999    19.791     17.737    
193.2      576        19.804     17.741    
193.4      583        19.819     17.745    
193.6      603        19.847     17.749    
193.8      599.001    19.852     17.753    
194        649        19.874     17.754    
194.2      681        19.895     17.757    
194.4      702.001    19.915     17.761    
194.6      815        19.936     17.765    
194.8      808.999    19.957     17.769    
195        712        19.979     17.773    
195.2      677.001    19.999     17.78     
195.4      749.002    20.022     17.782    
195.6      924.999    20.043     17.785    
195.8      882.998    20.063     17.792    
196        705.001    20.084     17.794    
196.2      753.001    20.105     17.797    
196.4      824.001    20.122     17.801    
196.6      900.002    20.125     17.805    
196.8      1034.999   20.146     17.809    
197        966.998    20.167     17.811    
197.2      777.999    20.189     17.813    
197.4      739.002    20.212     17.817    
197.6      858.999    20.233     17.821    
197.8      817        20.253     17.825    
198        840.001    20.274     17.827    
198.2      952.997    20.293     17.829    
198.4      733.999    20.294     17.833    
198.6      662        20.314     17.837    
198.8      699.002    20.336     17.841    
199        817        20.358     17.843    
199.2      820.998    20.378     17.845    
199.4      690.001    20.399     17.849    
199.6      763.998    20.42      17.853    
199.8      622.999    20.441     17.857    
200        535        20.462     17.861    
200.2      571.001    20.484     17.863    
200.4      640        20.506     17.865    
200.6      664.998    20.527     17.869    
200.8      547        20.545     17.873    
201        534        20.564     17.876    
201.2      565        20.584     17.88     
201.4      573        20.59      17.884    
201.6      557        20.606     17.888    
201.8      574        20.627     17.891    
202        608.999    20.647     17.892    
202.2      546.001    20.67      17.896    
202.4      627.002    20.675     17.9      
202.6      761.004    20.706     17.904    
202.8      1058.006   20.717     17.908    
203        1483.01    20.732     17.912    
203.2      2209.016   20.753     17.916    
203.4      3368.025   20.774     17.919    
203.6      5208.948   20.795     17.92     
203.8      1380.994   20.815     17.924    
204        945.998    20.837     17.928    
204.2      816.997    20.859     17.932    
204.4      627.999    20.88      17.936    
204.6      563        20.901     17.94     
204.8      534.001    20.923     17.944    
205        593        20.93      17.944    
205.2      593.001    20.942     17.948    
205.4      649.002    20.964     17.952    
205.6      804.002    20.985     17.952    
205.8      968.999    21.006     17.956    
206        899.997    21.027     17.956    
206.2      657        21.049     17.96     
206.4      646.998    21.07      17.964    
206.6      516.001    21.09      17.968    
206.8      584.001    21.111     17.972    
207        667.001    21.132     17.972    
207.2      711.002    21.153     17.979    
207.4      869.005    21.164     17.983    
207.6      1232.996   21.173     17.987    
207.8      964.993    21.196     17.988    
208        489        21.217     17.992    
208.2      523.999    21.238     17.996    
208.4      467        21.259     18        
208.6      464        21.279     18.004    
208.8      439        21.3       18.008    
209        439        21.321     18.012    
209.2      445.999    21.349     18.012    
209.4      380.001    21.378     18.015    
209.6      452        21.385     18.019    
209.8      478.999    21.399     18.02     
210        433        21.405     18.023    
210.2      437.999    21.428     18.028    
210.4      379        21.449     18.032    
210.6      385        21.47      18.036    
210.8      380        21.489     18.036    
211        377.001    21.505     18.042    
211.2      434        21.509     18.044    
211.4      454.001    21.549     18.047    
211.6      510        21.57      18.051    
211.8      490.001    21.59      18.054    
212        536        21.59      18.058    
212.2      512.001    21.613     18.063    
212.4      548        21.635     18.064    
212.6      546        21.655     18.067    
212.8      542.001    21.676     18.073    
213        609.999    21.697     18.079    
213.2      570        21.718     18.081    
213.4      590.001    21.738     18.082    
213.6      626.003    21.738     18.087    
213.8      804.003    21.779     18.091    
214        1030.007   21.781     18.094    
214.2      1525.011   21.8       18.097    
214.4      2282.017   21.824     18.098    
214.6      3491.027   21.844     18.103    
214.8      5401.041   21.865     18.107    
215        8300.89    21.886     18.111    
215.2      642.001    21.907     18.115    
215.4      722.999    21.928     18.117    
215.6      643.001    21.929     18.12     
215.8      700        21.947     18.126    
216        713.999    21.968     18.13     
216.2      675.999    21.99      18.134    
216.4      613        22.01      18.138    
216.6      611        22.03      18.142    
216.8      590        22.052     18.146    
217        556.999    22.074     18.149    
217.2      477.999    22.094     18.15     
217.4      420        22.115     18.154    
217.6      421.001    22.12      18.158    
217.8      505.001    22.151     18.162    
218        558.001    22.179     18.166    
218.2      606.001    22.184     18.17     
218.4      656.999    22.2       18.174    
218.6      600.001    22.22      18.178    
218.8      637.001    22.241     18.181    
219        737.001    22.262     18.183    
219.2      817        22.283     18.189    
219.4      842        22.304     18.19     
219.6      826        22.311     18.194    
219.8      826.001    22.324     18.198    
220        877.001    22.345     18.202    
220.2      920.002    22.368     18.206    
220.4      1085.003   22.389     18.21     
220.6      1298       22.409     18.214    
220.8      1309.998   22.417     18.218    
221        1145.001   22.438     18.222    
221.2      1185.002   22.47      18.226    
221.4      1302.002   22.49      18.229    
221.6      1412.002   22.502     18.233    
221.8      1572.007   22.511     18.238    
222        2016       22.531     18.238    
222.2      2006.997   22.552     18.241    
222.4      1834.995   22.573     18.245    
222.6      1499.999   22.594     18.249    
222.8      1425.003   22.615     18.253    
223        1636.992   22.636     18.254    
223.2      1115.001   22.651     18.26     
223.4      1163       22.657     18.262    
223.6      1191.004   22.677     18.265    
223.8      1476.998   22.698     18.269    
224        1372.001   22.718     18.273    
224.2      1417.999   22.74      18.277    
224.4      1366       22.761     18.281    
224.6      1355.999   22.781     18.285    
224.8      1278.003   22.803     18.292    
225        1501.001   22.824     18.297    
225.2      1571.003   22.844     18.301    
225.4      1799.003   22.862     18.305    
225.6      1976.013   22.864     18.309    
225.8      2808.023   22.887     18.313    
226        4331.036   22.907     18.317    
226.2      6729.908   22.927     18.321    
226.4      658.001    22.949     18.327    
226.6      730.999    22.971     18.33     
226.8      653.002    22.989     18.333    
227        781.997    22.99      18.339    
227.2      606.001    23.031     18.345    
227.4      685.002    23.032     18.349    
227.6      848        23.073     18.353    
227.8      823.998    23.072     18.356    
228        671        23.094     18.36     
228.2      682        23.115     18.365    
228.4      656.002    23.135     18.369    
