~Version
 VERS              .         2.0                           : CWLS LOG ASCII STANDARD - VERSION 2.0
 WRAP              .         NO                            : ONE LINE PER DEPTH STEP
 DLM               .         SPACE                         : DELIMITING CHARACTER(SPACE TAB OR COMMA)
~Well Information
#_______________________________________________________________________________
#
#PARAMETER_NAME    .UNIT     VALUE                         : DESCRIPTION
#_______________________________________________________________________________
STRT               .M        2659.8                        : First reference value
STOP               .M        2768.999945                   : Last reference value
STEP               .M        0.1999999                     : Step increment
NULL               .         -9999                         : Missing value
COMP               .                                       : Company
WELL               .         616                           : Well name
FLD                .                                       : Field
LOC                .                                       : Location
CNTY               .                                       : County
STAT               .                                       : State
CTRY               .                                       : Country
SRVC               .                                       : Service Company
DATE               .                                       : Date
API                .                                       : API number
PROJECT_UPGRADE_TIME .         2021-03-18T21_24_50           : 
group              .         Good                          : 
~Parameter Information Block
#_______________________________________________________________________________
#
#PARAMETER_NAME    .UNIT     VALUE                         : DESCRIPTION
#_______________________________________________________________________________
SET                .         D1169_D                       : 
OTHER              .         Программное обеспечение станции MONITOR-386EX 25/12/99 15_08_10   BGF V52 22/08/01 16_56_30   3.2_BGF_N_3070031: 
OTHER_10           .         Тарировки_                    : 
OTHER_11           .         TM.GRD = 0.00403*TM$.UE + -1.19: 
OTHER_12           .         MN.ATM = (7.1e-006*TM.GRD + 0.02017)*(MN$.UE + -3.03*TM.GRD + -1833): 
OTHER_13           .         Id error                      : 
OTHER_2            .         Kedr.exe версия 3.4.2.51      : 
OTHER_3            .         KedrData.dll версия 3.4.2.24  : 
OTHER_4            .         Драйвер версия 2.1.1.8        : 
OTHER_5            .         Мнемоники версия 3.3 S        : 
OTHER_6            .         Прибор_ КСА-М1                : 
OTHER_7            .         Номер прибора_ 265            : 
OTHER_8            .         Режим_ КСА-М1                 : 
OTHER_9            .         Форма_ ТЕРМОМЕТР              : 
PROJECT_UPGRADE_TIME .         2021-03-18T21_24_49           : 
TLFamily_DEPT      .         Measured Depth                : 
TLFamily_GK        .         Gamma Ray                     : 
TLFamily_GK$       .                                       : 
TLFamily_LM        .         Casing Collar locator         : 
TLFamily_METKA     .                                       : 
TLFamily_MN        .                                       : 
TLFamily_MN$       .                                       : 
TLFamily_RCOR      .                                       : 
TLFamily_SPID      .         Spontaneous Potential         : 
TLFamily_STD       .                                       : 
TLFamily_TENS      .         Cable Tension                 : 
TLFamily_TIME      .         Time                          : 
TLFamily_TM        .         Temperature                   : 
TLFamily_TM$       .         Temperature                   : 
TLFamily_VGD       .         Gas Volume                    : 
group              .         prim                          : 
~Curve Information
#_______________________________________________________________________________
#
#LOGNAME           .UNIT     LOG_ID                        : DESCRIPTION
#_______________________________________________________________________________
DEPT               .M                                      : 1 Глубина, м -    0.0 см 
GK                 .MKR/H                                  : 15 Гамма-активность, мкр./ч -  110.0 см 
GK$                .UE                                     : 12 Гамма-активность, усл.ед. -  110.0 см 
LM                 .                                       : 10 Локатор муфт,  -   20.0 см 
METKA              .                                       : 3 Метки,  -    0.0 см 
MN                 .ATM                                    : 14 Давление, атм. -  160.0 см 
MN$                .UE                                     : 8 Давление, усл.ед. -  160.0 см 
RCOR               .CM/KM                                  : 5 Коррекция по ролику, см/км -    0.0 см 
SPID               .M/H                                    : 2 Скорость, м/час -    0.0 см 
STD                .                                       : 11 Приток,  -  170.0 см 
TENS               .T                                      : 6 Натяжение кабеля, т -    0.0 см 
TIME               .S                                      : 4 Время, сек -    0.0 см 
TM                 .GRD                                    : 13 Температура, °C -  180.0 см 
TM$                .UE                                     : 7 Температура, усл.ед. -  180.0 см 
VGD                .                                       : 9 Влагомер,  -  170.0 см 
~Ascii
# ...
2757.799951 6.05       253        1          0          264.489    14816      -1400      587        32374      0          26157.57   90.024     22634      6562      
2757.999951 6.26       273        1          0          264.51     14817      -1400      593        32373      0          26158.77   90.028     22635      6562      
2758.199951 6.35       273        1          0          264.531    14818      -1400      588        32374      0          26160.02   90.029     22635      6562      
2758.399951 7.25       335        1          0          264.546    14819      -1400      585        32374      0          26161.22   90.033     22636      6562      
2758.599951 7.66       335        1          0          264.573    14820      -1400      585        32374      0          26162.45   90.037     22637      6562      
2758.799951 8.02       354        1          0          264.594    14821      -1400      584        32374      0          26163.65   90.041     22638      6561      
2758.99995 8.2        354        1583       0          264.615    14822      -1400      583        32373      0          26164.89   90.053     22641      6562      
2759.19995 7.83       314        883        0          264.628    14823      -1400      587        32373      0          26166.13   90.072     22646      6562      
2759.39995 7.49       314        44         0          264.646    14823      -1400      585        32373      0          26167.38   90.1       22653      6562      
2759.59995 7.19       300        1          0          264.68     14825      -1400      584        32374      0          26168.62   90.129     22660      6562      
2759.79995 7.07       300        1          0          264.702    14826      -1400      583        32374      0          26169.8    90.152     22666      6562      
2759.99995 7.65       349        1          2          264.723    14827      -1400      587        32374      0          26171.09   90.186     22674      6562      
2760.19995 8          349        1          0          264.736    14828      -1400      585        32374      0          26172.37   90.212     22681      6562      
2760.39995 8.18       356        1          0          264.754    14828      -1400      578        32374      0          26173.61   90.25      22690      6561      
2760.59995 8.28       356        1          0          264.79     14830      -1400      584        32375      0          26174.89   90.302     22703      6562      
2760.79995 8.07       326        1          0          264.813    14831      -1400      583        32375      0          26176.09   90.372     22720      6562      
2760.999949 7.76       326        1          0          264.815    14831      -1400      582        32374      0          26177.33   90.44      22737      6561      
2761.199949 7.57       319        1          0          264.852    14833      -1400      591        32375      0          26178.51   90.51      22754      6561      
2761.399949 7.49       319        1          0          264.859    14833      -1400      588        32373      0          26179.76   90.565     22768      6563      
2761.599949 7.67       337        1          0          264.881    14834      -1400      592        32374      0          26180.95   90.607     22778      6562      
2761.799949 7.82       337        1          0          264.902    14835      -1400      577        32373      0          26182.2    90.638     22786      6562      
2761.999949 8.15       370        1          0          264.923    14836      -1400      581        32374      0          26183.49   90.656     22791      6562      
2762.199949 8.5        370        1          0          264.944    14837      -1400      587        32374      0          26184.68   90.671     22794      6561      
2762.399949 8.53       361        1          0          264.945    14837      -1400      585        32373      0          26185.92   90.683     22797      6562      
2762.599949 8.44       359        1          0          264.966    14838      -1400      584        32374      0          26187.15   90.693     22800      6563      
2762.799949 8.06       327        1          0          264.975    14838      -1400      589        32374      0          26188.35   90.702     22802      6563      
2762.999948 7.78       327        1          0          264.993    14839      -1400      587        32374      0          26189.55   90.708     22803      6564      
2763.199948 7.29       281        1          0          265.029    14841      -1400      583        32374      0          26190.84   90.719     22806      6564      
2763.399948 6.8        281        1          0          265.05     14842      -1400      583        32374      0          26192.09   90.726     22808      6564      
2763.599948 6.52       266        1          0          265.05     14842      -1400      582        32373      0          26193.31   90.734     22810      6565      
2763.799948 6.28       264        1          0          265.071    14843      -1400      585        32374      0          26194.58   90.746     22813      6564      
2763.999948 6.26       269        1          0          265.101    14844      -1400      591        32374      0          26195.76   90.753     22815      6563      
2764.199948 6.28       269        1          0          265.113    14845      -1400      588        32373      0          26197.01   90.76      22816      6564      
2764.399948 6.34       275        1          0          265.134    14846      -1400      590        32374      0          26198.19   90.768     22818      6564      
2764.599948 6.4        275        1          0          265.15     14847      -1400      583        32373      0          26199.5    90.775     22820      6565      
2764.799948 6.59       296        1          0          265.176    14848      -1400      588        32373      0          26200.68   90.782     22822      6565      
2764.999947 6.97       305        1          0          265.197    14849      -1400      586        32374      0          26201.92   90.787     22823      6565      
2765.199947 7.09       306        1          0          265.218    14850      -1400      583        32374      0          26203.17   90.793     22825      6565      
2765.399947 7.17       308        1          0          265.23     14851      -1400      576        32374      0          26204.37   90.796     22825      6565      
2765.599947 7.23       312        1          0          265.26     14852      -1400      588        32374      0          26205.6    90.803     22827      6565      
2765.799947 7.28       312        1          0          265.278    14853      -1400      588        32374      0          26206.82   90.807     22828      6565      
2765.999947 7.5        338        1          0          265.302    14854      -1400      587        32374      0          26208.09   90.814     22830      6565      
2766.199947 7.94       348        1          0          265.323    14855      -1400      586        32374      0          26209.33   90.819     22831      6565      
2766.399947 8.05       344        1          0          265.35     14856      -1400      590        32373      0          26210.52   90.829     22834      6565      
2766.599947 7.95       338        1          0          265.365    14857      -1400      587        32374      0          26211.81   90.835     22835      6565      
2766.799947 7.92       338        1          0          265.386    14858      -1400      585        32374      0          26213.01   90.839     22836      6565      
2766.999946 7.36       304        1          0          265.401    14859      -1400      584        32374      0          26214.25   90.843     22837      6566      
2767.199946 7.21       307        1          0          265.419    14860      -1400      583        32374      0          26215.48   90.847     22838      6566      
2767.399946 7.21       308        1          -9999      265.449    14861      -9999      -9999      32374      -9999      -9999      90.851     22839      6566      
