~Version
 VERS              .         2.0                           : CWLS LOG ASCII STANDARD - VERSION 2.0
 WRAP              .         NO                            : ONE LINE PER DEPTH STEP
 DLM               .         SPACE                         : DELIMITING CHARACTER(SPACE TAB OR COMMA)
~Well Information
#_______________________________________________________________________________
#
#PARAMETER_NAME    .UNIT     VALUE                         : DESCRIPTION
#_______________________________________________________________________________
STRT               .M        47.8                          : First reference value
STOP               .M        2693.8                        : Last reference value
STEP               .M        0.2                           : Step increment
NULL               .         -9999                         : Missing value
COMP               .                                       : Company
WELL               .         616                           : Well name
FLD                .                                       : Field
LOC                .                                       : Location
CNTY               .                                       : County
STAT               .                                       : State
CTRY               .                                       : Country
SRVC               .                                       : Service Company
DATE               .                                       : Date
API                .                                       : API number
PROJECT_UPGRADE_TIME .         2021-03-18T21_24_50           : 
group              .         Good                          : 
~Parameter Information Block
#_______________________________________________________________________________
#
#PARAMETER_NAME    .UNIT     VALUE                         : DESCRIPTION
#_______________________________________________________________________________
SET                .         D1172_D                       : 
OTHER              .         Программное обеспечение станции MONITOR-386EX 25/12/99 15_08_10   BGF V52 22/08/01 16_56_30   3.2_BGF_N_3070031: 
OTHER_10           .         Тарировки_                    : 
OTHER_11           .         TM.GRD = 0.00403*TM$.UE + -1.19: 
OTHER_12           .         MN.ATM = (7.1e-006*TM.GRD + 0.02017)*(MN$.UE + -3.03*TM.GRD + -1833): 
OTHER_13           .         Id error                      : 
OTHER_2            .         Kedr.exe версия 3.4.2.51      : 
OTHER_3            .         KedrData.dll версия 3.4.2.24  : 
OTHER_4            .         Драйвер версия 2.1.1.8        : 
OTHER_5            .         Мнемоники версия 3.3 S        : 
OTHER_6            .         Прибор_ КСА-М1                : 
OTHER_7            .         Номер прибора_ 265            : 
OTHER_8            .         Режим_ КСА-М1                 : 
OTHER_9            .         Форма_ ТЕРМОМЕТР              : 
PROJECT_UPGRADE_TIME .         2021-03-18T21_24_49           : 
TLFamily_DEPT      .         Measured Depth                : 
TLFamily_GK        .         Gamma Ray                     : 
TLFamily_GK$       .                                       : 
TLFamily_LM        .         Casing Collar locator         : 
TLFamily_METKA     .                                       : 
TLFamily_MN        .                                       : 
TLFamily_MN$       .                                       : 
TLFamily_RCOR      .                                       : 
TLFamily_SPID      .         Spontaneous Potential         : 
TLFamily_STD       .                                       : 
TLFamily_TENS      .         Cable Tension                 : 
TLFamily_TIME      .         Time                          : 
TLFamily_TM        .         Temperature                   : 
TLFamily_TM$       .         Temperature                   : 
TLFamily_VGD       .         Gas Volume                    : 
group              .         prim                          : 
~Curve Information
#_______________________________________________________________________________
#
#LOGNAME           .UNIT     LOG_ID                        : DESCRIPTION
#_______________________________________________________________________________
DEPT               .M                                      : 1 Глубина, м -    0.0 см 
GK                 .MKR/H                                  : 15 Гамма-активность, мкр./ч -  110.0 см 
GK$                .UE                                     : 12 Гамма-активность, усл.ед. -  110.0 см 
LM                 .                                       : 10 Локатор муфт,  -   20.0 см 
METKA              .                                       : 3 Метки,  -    0.0 см 
MN                 .ATM                                    : 14 Давление, атм. -  160.0 см 
MN$                .UE                                     : 8 Давление, усл.ед. -  160.0 см 
RCOR               .CM/KM                                  : 5 Коррекция по ролику, см/км -    0.0 см 
SPID               .M/H                                    : 2 Скорость, м/час -    0.0 см 
STD                .                                       : 11 Приток,  -  170.0 см 
TENS               .T                                      : 6 Натяжение кабеля, т -    0.0 см 
TIME               .S                                      : 4 Время, сек -    0.0 см 
TM                 .GRD                                    : 13 Температура, °C -  180.0 см 
TM$                .UE                                     : 7 Температура, усл.ед. -  180.0 см 
VGD                .                                       : 9 Влагомер,  -  170.0 см 
~Ascii
# ...
2154.8     7.39       319        1          0          202.698    11853      -1400      -1830      24319      0          30253.84   68.545     17304      6591      
2155       7.35       319        1          0          202.71     11854      -1400      -1834      24322      0          30253.43   68.552     17306      6591      
2155.2     7.29       319        1          0          202.715    11854      -1400      -1832      24325      0          30253.02   68.56      17308      6591      
2155.4     7.22       319        1          0          202.738    11855      -1400      -1829      24327      0          30252.65   68.566     17309      6590      
2155.6     7.1        319        1          0          202.776    11857      -1400      -1826      24330      0          30252.26   68.571     17310      6590      
2155.8     6.93       305        1          0          202.795    11858      -1400      -1827      24332      0          30251.87   68.579     17312      6589      
2156       6.81       286        1          0          202.814    11859      -1400      -1827      24335      0          30251.48   68.586     17314      6590      
2156.2     6.88       286        1          0          202.834    11860      -1400      -1824      24337      0          30251.08   68.593     17316      6590      
2156.4     6.97       286        1          0          202.835    11860      -1400      -1823      24340      0          30250.69   68.601     17318      6591      
2156.6     7.09       286        1          0          202.87     11862      -1400      -1824      24343      0          30250.3    68.605     17319      6590      
2156.8     7.27       286        1          0          202.893    11863      -1400      -1820      24346      0          30249.9    68.612     17321      6589      
2157       7.54       286        1          0          202.911    11864      -1400      -1816      24349      0          30249.52   68.617     17322      6590      
2157.2     7.95       337        1          0          202.93     11865      -1400      -1812      24351      0          30249.13   68.623     17323      6590      
2157.4     7.98       340        1          0          202.949    11866      -1400      -1814      24354      0          30248.7    68.628     17325      6591      
2157.6     8          340        1          0          202.969    11866      -1400      -1809      24356      0          30248.32   68.634     17326      6590      
2157.8     8.02       340        1          0          202.988    11867      -1400      -1817      24359      0          30247.93   68.642     17328      6590      
2158       8.06       340        1          0          203.008    11868      -1400      -1826      24362      0          30247.54   68.649     17330      6591      
2158.2     8.1        340        1          0          203.027    11869      -1400      -1820      24365      0          30247.15   68.657     17332      6589      
2158.4     8.18       351        1          0          203.046    11870      -1400      -1820      24368      0          30246.77   68.664     17334      6591      
2158.6     8.17       359        1          0          203.065    11871      -1400      -1823      24371      0          30246.37   68.672     17335      6590      
2158.8     8.06       359        1          0          203.085    11872      -1400      -1826      24374      0          30245.96   68.68      17337      6590      
2159       7.91       359        1          0          203.124    11874      -1400      -1826      24377      0          30245.57   68.69      17340      6590      
2159.2     7.67       359        1          0          203.125    11874      -1400      -1826      24380      0          30245.19   68.695     17341      6590      
2159.4     7.34       359        1          0          203.162    11876      -1400      -1827      24382      0          30244.8    68.698     17342      6590      
2159.6     6.86       345        1          0          203.184    11877      -1400      -1823      24385      0          30244.4    68.709     17345      6590      
2159.8     6.23       266        1          0          203.203    11878      -1400      -1821      24388      0          30244      68.714     17346      6591      
2160       6.23       266        1          2          203.221    11879      -1400      -1825      24391      0          30243.58   68.717     17347      6592      
2160.2     6.24       266        1          0          203.241    11880      -1400      -1826      24394      0          30243.14   68.724     17348      6591      
2160.4     6.24       266        1          0          203.274    11881      -1400      -1823      24397      0          30242.76   68.732     17350      6592      
2160.6     6.25       266        1          0          203.301    11883      -1400      -1820      24400      0          30242.38   68.74      17352      6591      
2160.8     6.27       266        1          0          203.311    11883      -1400      -1823      24403      0          30241.99   68.745     17354      6591      
2161       6.29       264        1          0          203.327    11884      -1400      -1819      24405      0          30241.58   68.75      17355      6592      
2161.2     6.34       264        13         0          203.359    11885      -1400      -1822      24408      0          30241.2    68.758     17357      6592      
2161.4     6.42       264        83         0          203.373    11886      -1400      -1826      24411      0          30240.81   68.765     17359      6591      
2161.6     6.54       264        195        0          203.379    11886      -1400      -1829      24413      0          30240.41   68.772     17360      6592      
2161.8     6.71       264        382        0          203.407    11888      -1400      -1828      24416      0          30240.01   68.777     17362      6592      
2162       6.97       264        672        0          203.44     11889      -1400      -1830      24418      0          30239.61   68.785     17364      6591      
2162.2     7.36       294        1131       0          203.459    11890      -1400      -1834      24421      0          30239.21   68.793     17365      6591      
2162.4     7.61       324        1864       0          203.478    11891      -1400      -1830      24424      0          30238.82   68.8       17367      6591      
2162.6     7.63       324        3027       0          203.498    11892      -1400      -1831      24426      0          30238.44   68.807     17369      6590      
2162.8     7.65       324        3027       0          203.517    11893      -1400      -1836      24429      0          30238.06   68.815     17371      6591      
2163       7.68       324        2064       0          203.536    11894      -1400      -1833      24432      0          30237.67   68.819     17372      6591      
2163.2     7.73       324        1          0          203.555    11895      -1400      -1830      24435      0          30237.28   68.826     17374      6590      
2163.4     7.81       326        1          0          203.575    11896      -1400      -1829      24438      0          30236.89   68.834     17376      6590      
2163.6     7.9        337        1          0          203.595    11897      -1400      -1832      24440      0          30236.49   68.838     17377      6590      
2163.8     7.91       337        1          0          203.615    11898      -1400      -1829      24442      0          30236.07   68.845     17378      6590      
2164       7.93       337        1          0          203.634    11899      -1400      -1826      24444      0          30235.71   68.853     17380      6591      
2164.2     7.95       337        1          0          203.652    11900      -1400      -1829      24447      0          30235.31   68.858     17382      6591      
2164.4     7.99       337        1          0          203.671    11900      -1400      -1826      24448      0          30234.91   68.863     17383      6591      
