~Version
 VERS              .         2.0                           : CWLS LOG ASCII STANDARD - VERSION 2.0
 WRAP              .         NO                            : ONE LINE PER DEPTH STEP
 DLM               .         SPACE                         : DELIMITING CHARACTER(SPACE TAB OR COMMA)
~Well Information
#_______________________________________________________________________________
#
#PARAMETER_NAME    .UNIT     VALUE                         : DESCRIPTION
#_______________________________________________________________________________
STRT               .M        3.8                           : First reference value
STOP               .M        216                           : Last reference value
STEP               .M        0.2                           : Step increment
NULL               .         -9999                         : Missing value
COMP               .                                       : Company
WELL               .         616                           : Well name
FLD                .                                       : Field
LOC                .                                       : Location
CNTY               .                                       : County
STAT               .                                       : State
CTRY               .                                       : Country
SRVC               .                                       : Service Company
DATE               .                                       : Date
API                .                                       : API number
PROJECT_UPGRADE_TIME .         2021-03-18T21_24_50           : 
group              .         Good                          : 
~Parameter Information Block
#_______________________________________________________________________________
#
#PARAMETER_NAME    .UNIT     VALUE                         : DESCRIPTION
#_______________________________________________________________________________
SET                .         D1350_D                       : 
OTHER              .         Программное обеспечение станции MONITOR-386EX 25/12/99 15_08_10   BGF V52 22/08/01 16_56_30   3.1_SNGF__BGF_								111238: 
OTHER_10           .         Тарировки_                    : 
OTHER_11           .         <_techsia_sc_> Постоянная времени фильтра  0.5 сек, kf=0.181269: 
OTHER_12           .         TM.GRD = 0.00428968*TM$.UE + -0.3284: 
OTHER_13           .         GK.MKR/H = GK$.UE / 40.16     : 
OTHER_14           .         NKT. = NKT$.UE / 1            : 
OTHER_2            .         Kedr.exe версия 3.3.2.43      : 
OTHER_3            .         KedrData.dll версия 3.3.2.22  : 
OTHER_4            .         Драйвер версия 2.1.1.3        : 
OTHER_5            .         Мнемоники версия 3.3 S        : 
OTHER_6            .         Прибор_ РК4-38                : 
OTHER_7            .         Номер прибора_ 35с            : 
OTHER_8            .         Режим_ РК4-38                 : 
OTHER_9            .         Форма_ 3                      : 
PROJECT_UPGRADE_TIME .         2021-03-18T21_24_49           : 
TLFamily_DEPT      .         Measured Depth                : 
TLFamily_GK        .         Gamma Ray                     : 
TLFamily_GK$       .                                       : 
TLFamily_LM        .         Casing Collar locator         : 
TLFamily_METKA     .                                       : 
TLFamily_NKT       .         Neutron Far                   : 
TLFamily_NKT$      .         Neutron Far                   : 
TLFamily_RCOR      .                                       : 
TLFamily_SPID      .         Spontaneous Potential         : 
TLFamily_TENS      .         Cable Tension                 : 
TLFamily_TIME      .         Time                          : 
TLFamily_TM        .         Temperature                   : 
TLFamily_TM$       .         Temperature                   : 
group              .         prim                          : 
~Curve Information
#_______________________________________________________________________________
#
#LOGNAME           .UNIT     LOG_ID                        : DESCRIPTION
#_______________________________________________________________________________
DEPT               .M                                      : 1 Глубина, м -    0.0 см 
GK                 .MKR/H                                  : 12 Гамма-активность, мкр./ч -   23.0 см 
GK$                .UE                                     : 10 Гамма-активность, усл.ед. -   23.0 см 
LM                 .                                       : 8 Локатор муфт,  -  180.0 см 
METKA              .                                       : 3 Метки,  -    0.0 см 
NKT                .                                       : 13 НКТ, прив. -  160.0 см 
NKT$               .UE                                     : 9 НКТ, усл.ед. -  160.0 см 
RCOR               .CM/KM                                  : 5 Коррекция по ролику, см/км -    0.0 см 
SPID               .M/H                                    : 2 Скорость, м/час -    0.0 см 
TENS               .T                                      : 6 Натяжение кабеля, т -    0.0 см 
TIME               .S                                      : 4 Время, сек -    0.0 см 
TM                 .GRD                                    : 11 Температура, °C -  193.0 см 
TM$                .UE                                     : 7 Температура, усл.ед. -  193.0 см 
~Ascii
# ...
138.2      3.87       149        148        0          0          0          7013       -319       0          2634.61    5.806      1430      
138.4      4.12       154        362        0          0          0          7013       -318       0          2632.29    5.787      1426      
138.6      4.44       173        119        0          0          0          7013       -318       0          2630.08    5.764      1420      
138.8      4.49       186        84         0          0          0          7013       -322       0          2627.87    5.737      1414      
139        4.21       178        58         0          0          0          7013       -326       0          2625.56    5.763      1420      
139.2      3.69       151        107        0          0          0          7013       -323       0          2623.44    5.711      1408      
139.4      3.5        140        130        0          0          0          7013       -322       0          2621.18    5.699      1405      
139.6      3.53       145        225        0          0          0          7013       -335       0          2618.9     5.73       1412      
139.8      3.25       133        319        0          0          0          7013       -317       0          2616.7     5.724      1411      
140        3.44       127        115        2          0          0          7013       -327       0          2614.53    5.656      1395      
140.2      3.79       137        128        0          0          0          7013       -329       0          2612.54    5.65       1394      
140.4      4.1        162        111        0          0          0          7013       -311       0          2611.67    5.609      1384      
140.6      4.15       163        73         0          0          0          7013       -322       0          2609.35    5.568      1375      
140.8      4.27       166        79         0          0          0          7013       -318       0          2607.04    5.548      1370      
141        4.16       179        109        0          0          0          7013       -319       0          2604.88    5.536      1367      
141.2      3.8        161        89         0          0          0          7013       -320       0          2602.71    5.518      1363      
141.4      3.7        140        119        0          0          0          7013       -320       0          2600.4     5.523      1364      
141.6      4          160        99         0          0          0          7013       -320       0          2598.23    5.476      1353      
141.8      4.02       164        75         0          0          0          7013       -321       0          2595.96    5.484      1355      
142        3.87       151        91         0          0          0          7013       -321       0          2593.7     5.438      1344      
142.2      4.21       169        85         0          0          0          7013       -323       0          2591.44    5.454      1348      
142.4      4.23       170        233        0          0          0          7013       -330       0          2589.32    5.377      1330      
142.6      4.13       171        290        0          0          0          7013       -325       0          2587.06    5.355      1325      
142.8      4.14       162        206        0          0          0          7013       -329       0          2584.81    5.338      1321      
143        4.15       171        148        0          0          0          7013       -310       0          2582.68    5.33       1319      
143.2      3.94       166        113        0          0          0          7013       -319       0          2580.37    5.306      1314      
143.4      3.61       148        145        0          0          0          7013       -329       0          2578.16    5.324      1318      
143.6      3.46       141        169        0          0          0          7013       -318       0          2575.92    5.295      1311      
143.8      3.35       130        86         0          0          0          7013       -325       0          2573.75    5.237      1297      
144        3.69       144        106        0          0          0          7013       -325       0          2571.38    5.247      1300      
144.2      4.05       144        166        0          0          0          7013       -317       0          2569.07    5.21       1291      
144.4      4          169        40         0          0          0          7013       -320       0          2566.95    5.181      1284      
144.6      3.58       164        56         0          0          0          7013       -320       0          2564.74    5.188      1286      
144.8      3.28       135        170        0          0          0          7013       -321       0          2562.52    5.171      1282      
145        3.3        127        1016       0          0          0          7013       -321       0          2560.31    5.098      1265      
145.2      3.47       141        6152       0          0          0          7013       -323       0          2558       5.119      1270      
145.4      3.4        138        3226       0          0          0          7013       -327       0          2555.68    5.057      1255      
145.6      3.31       134        88         0          0.001      0          7013       -319       0          2553.56    5.064      1257      
145.8      3.23       134        87         0          0.005      0          7013       -321       0          2551.35    5.01       1244      
146        2.91       124        146        0          0.022      0          7013       -312       0          2549.14    5.008      1244      
146.2      2.86       115        154        0          0.095      0          7013       -305       0          2546.82    4.965      1234      
146.4      2.98       113        107        0          0.412      0          7013       -322       0          2544.62    4.952      1231      
146.6      2.87       125        335        0          0.551      1          7013       -341       0          2542.3     4.91       1221      
146.8      2.63       106        275        0          0          0          7013       -317       0          2540.19    4.896      1218      
147        2.69       103        283        0          0          0          7013       -324       0          2537.97    4.918      1223      
147.2      2.86       114        164        0          0          0          7013       -325       0          2535.66    4.892      1217      
147.4      2.87       118        214        0          0          0          7013       -313       0          2533.44    4.849      1207      
147.6      2.7        108        128        0          0          0          7013       -323       0          2531.23    4.849      1207      
147.8      2.74       112        175        0          0          0          7013       -330       0          2528.92    4.819      1200      
148        2.56       107        212        0          0          0          7013       -317       0          2526.73    4.787      1193      
148.2      2.35       105        167        0          0          0          7013       -313       0          2524.53    4.828      1202      
148.4      2.3        88         180        0          0          0          7013       -318       0          2522.27    4.805      1197      
148.6      2.32       96         215        0          0          0          7013       -321       0          2519.95    4.785      1192      
148.8      2.33       89         251        0          0          0          7013       -317       0          2517.82    4.768      1188      
149        2.5        96         233        0          0          0          7013       -313       0          2515.53    4.746      1183      
149.2      2.66       109        220        0          0          0          7013       -309       0          2513.21    4.725      1178      
