~Version
 VERS              .         2.0                           : CWLS LOG ASCII STANDARD - VERSION 2.0
 WRAP              .         NO                            : ONE LINE PER DEPTH STEP
 DLM               .         SPACE                         : DELIMITING CHARACTER(SPACE TAB OR COMMA)
~Well Information
#_______________________________________________________________________________
#
#PARAMETER_NAME    .UNIT     VALUE                         : DESCRIPTION
#_______________________________________________________________________________
STRT               .M        2649.4                        : First reference value
STOP               .M        2758.800164                   : Last reference value
STEP               .M        0.2000003                     : Step increment
NULL               .         -9999                         : Missing value
COMP               .                                       : Company
WELL               .         616                           : Well name
FLD                .                                       : Field
LOC                .                                       : Location
CNTY               .                                       : County
STAT               .                                       : State
CTRY               .                                       : Country
SRVC               .                                       : Service Company
DATE               .                                       : Date
API                .                                       : API number
PROJECT_UPGRADE_TIME .         2021-03-18T21_24_50           : 
group              .         Good                          : 
~Parameter Information Block
#_______________________________________________________________________________
#
#PARAMETER_NAME    .UNIT     VALUE                         : DESCRIPTION
#_______________________________________________________________________________
SET                .         D4417_D_2                     : 
COMM               .                                       : 
OTHER              .         Запись производится в присутствии: 
OTHER_10           .         Максимальная температура      : 
OTHER_11           .         Тип промывочной жидкости      : 
OTHER_12           .         Сопротивление ПЖ (Ом*м) при 20°C: 
OTHER_13           .         Плотность ПЖ(г/см3)           : 
OTHER_14           .         Вязкость ПЖ(с)                : 
OTHER_15           .         Водоотдача ПЖ(см3/30мин)      : 
OTHER_16           .         Уровень ПЖ                    : 
OTHER_17           .         Нефть ПЖ (%)                  : 
OTHER_18           .         Барит ПЖ (%)                  : 
OTHER_19           .         Гематит ПЖ (%)                : 
OTHER_2            .         Заказчик ННСН  ЦДНГ-1         : 
OTHER_20           .         КМЦ ПЖ (%)                    : 
OTHER_21           .         Разгазирование ПЖ (да,нет)    : 
OTHER_22           .         Подъемник                     : 
OTHER_23           .         Лаборатория                   : 
OTHER_24           .         Тип кабеля                    : 
OTHER_25           .         Длина кабеля (м)              : 
OTHER_26           .         Цена последней метки          : 
OTHER_27           .         Цена контрольной метки        : 
OTHER_28           .         Диаметр долота (мм)           : 
OTHER_29           .         Глубина бурения (м)           : 
OTHER_3            .         Площадь                       : 
OTHER_30           .         Искусственный забой (м)       : 
OTHER_31           .         Диаметр колонны (мм)          : 
OTHER_32           .         Толщина колонны (мм)          : 
OTHER_33           .         Башмак колонны (м)            : 
OTHER_34           .         Диаметр НКТ (мм)              : 
OTHER_35           .         Толщина НКТ (мм)              : 
OTHER_36           .         Воронка НКТ (м)               : 
OTHER_37           .         Дата цементожа                : 
OTHER_38           .         Тип, количество(т) и плотность цемента: 
OTHER_39           .         Интервалы перфорации (м)      : 
OTHER_4            .         Категория                     : 
OTHER_40           .         Направление, диаметр (мм)     : 
OTHER_41           .         Направление, глубина (м)      : 
OTHER_42           .         Кондуктор, диаметр (мм)       : 
OTHER_43           .         Кондуктор, глубина (м)        : 
OTHER_44           .         Техническая колонна, диаметр (мм): 
OTHER_45           .         Техническая колонна, глубина (м): 
OTHER_46           .         Эксплуатационная колонна, диаметр (мм): 
OTHER_47           .         Эксплуатационная колонна, глубина (м): 
OTHER_48           .         Программа Кедр-02 версия 3.4  : 
OTHER_49           .         Операционная система Windows NT 5.1 build 2600 Service Pack 2: 
OTHER_5            .         Назначение исследований       : 
OTHER_50           .         Программное обеспечение станции MONITOR-386EX 25/12/99 15_08_10   BGF V54 20/09/05 15_32_17   3.3__BGF_9030071: 
OTHER_51           .         Kedr.exe версия 3.4.2.74      : 
OTHER_52           .         KedrData.dll версия 3.4.2.29  : 
OTHER_53           .         Мнемоники версия 3.18 S       : 
OTHER_54           .         Драйвер версия 2.1.1.4        : 
OTHER_55           .         LasInf.dll 4.3.0.35           : 
OTHER_56           .         Прибор_ КСА-Т4                : 
OTHER_57           .         Номер прибора_ 160            : 
OTHER_58           .         Режим_ КСА-Т4                 : 
OTHER_59           .         Форма_ С.А.Б.                 : 
OTHER_6            .         Альтитуда стола ротора        : 
OTHER_60           .         Тарировки_                    : 
OTHER_61           .         <_techsia_sc_> Дата тарировки температуры 25.05.2010: 
OTHER_62           .         Ручной ввод коэффициентов     : 
OTHER_63           .         TM.DEGC = 0.00402*RTM.E.ACP + -0.994: 
OTHER_64           .         <_techsia_sc_> Дата тарировки давления 25.05.2010: 
OTHER_65           .         Ручной ввод коэффициентов     : 
OTHER_66           .         MN.ATM = (2.27521e-006*TM.DEGC + 0.02078)*(RMN.E.ACP + 6.2*TM.DEGC + -1688): 
OTHER_67           .         <_techsia_sc_> Дата тарировки ГК 25.05.2010: 
OTHER_68           .         Ручной ввод коэффициентов     : 
OTHER_69           .         GR.UR/H = RGR.IMP/MIN / 45.5144: 
OTHER_7            .         Вид исследований 3  6         : 
OTHER_70           .         GK.FLT = 0.1*GR.UR/H[-1] + (1-0.1)*GR.UR/H[0]: 
OTHER_8            .         Начало бурения интервала каротажа: 
OTHER_9            .         Окончание бурения интервала каротажа: 
PROJECT_UPGRADE_TIME .         2021-03-18T21_24_50           : 
PRTY               .         ПП-601-1                      : N партии
SRVC               .         Барковский                    : Начальник партии
TLFamily_DEPT      .         Measured Depth                : 
TLFamily_LM        .         Casing Collar locator         : 
TLFamily_MN        .                                       : 
TLFamily_TM        .         Temperature                   : 
group              .         second                        : 
~Curve Information
#_______________________________________________________________________________
#
#LOGNAME           .UNIT     LOG_ID                        : DESCRIPTION
#_______________________________________________________________________________
DEPT               .M                                      : Depth curve 
LM                 .е.ацп                                  : Локатор муфт,е.ацп 
MN                 .атм                                    : 12 Давление, атм. -  160.0 см 
TM                 .град.C                                 : Термограмма по стволу скважины,град.C 
~Ascii
# ...
2721.000107 100.019    244.824    57.591    
2721.200108 84.008     244.816    57.549    
2721.400108 61.011     244.85     57.487    
2721.600108 74.993     244.864    57.449    
2721.800109 94.99      244.876    57.399    
2722.000109 62.016     244.911    57.343    
2722.200109 90.986     244.925    57.301    
2722.400109 96.997     244.949    57.255    
2722.60011 127.985    244.969    57.174    
2722.80011 82.022     244.992    57.163    
2723.00011 79.001     245.019    57.177    
2723.200111 126.977    245.042    57.178    
2723.400111 329.902    245.073    57.159    
2723.600111 324.003    245.09     57.142    
2723.800112 306.009    245.104    57.107    
2724.000112 2427.975   245.138    57.061    
2724.200112 1049.666   245.152    57.011    
2724.400112 573.23     245.183    56.969    
2724.600113 453.058    245.183    56.935    
2724.800113 317.066    245.199    56.905    
2725.000113 319.999    245.227    56.873    
2725.200114 160.077    245.25     56.837    
2725.400114 186.987    245.271    56.787    
2725.600114 90.047     245.299    56.747    
2725.800115 83.003     245.321    56.711    
2726.000115 68.007     245.354    56.692    
2726.200115 132.969    245.353    56.678    
2726.400116 224.956    245.384    56.657    
2726.600116 145.039    245.404    56.617    
2726.800116 176.985    245.412    56.55     
2727.000116 112.031    245.456    56.51     
2727.200117 158.977    245.484    56.553    
2727.400117 253.954    245.511    56.582    
2727.600117 153.049    245.546    56.576    
2727.800118 188.983    245.562    56.554    
2728.000118 123.032    245.558    56.517    
2728.200118 117.003    245.586    56.456    
2728.400119 134.991    245.598    56.391    
2728.600119 185.975    245.631    56.342    
2728.800119 189.998    245.624    56.246    
2729.000119 149.02     245.627    56.009    
2729.20012 160.994    245.603    55.82     
2729.40012 84.037     245.623    55.653    
2729.60012 119.983    245.625    55.525    
2729.800121 158.981    245.63     55.421    
2730.000121 108.025    245.655    55.321    
2730.200121 191.959    245.656    55.187    
2730.400122 168.012    245.667    55.093    
2730.600122 82.041     245.687    55.061    
2730.800122 58.012     245.72     55.101    
2731.000122 78.99      245.772    55.178    
2731.200123 62.008     245.782    55.211    
2731.400123 46.008     245.774    55.084    
2731.600123 90.978     245.744    54.797    
2731.800124 72.009     245.727    54.464    
2732.000124 114.979    245.719    54.189    
2732.200124 63.025     245.696    53.928    
2732.400124 71.996     245.686    53.646    
2732.600125 479.803    245.694    53.456    
2732.800125 218.126    245.688    53.288    
2733.000125 71.071     245.686    53.119    
2733.200126 68.001     245.708    52.999    
2733.400126 62.003     245.7      52.864    
2733.600126 538.77     245.682    52.579    
2733.800127 167.179    245.655    52.267    
2734.000127 104.03     245.608    51.819    
2734.200127 312.899    245.587    51.377    
2734.400128 118.094    245.568    51.074    
2734.600128 95.011     245.577    50.816    
2734.800128 61.016     245.583    50.691    
2735.000128 97.982     245.59     50.614    
2735.200129 9211.606   245.62     50.526    
2735.400129 2694.144   245.639    50.488    
2735.600129 539.037    245.67     50.474    
2735.80013 123.2      245.697    50.43     
2736.00013 69.026     245.717    50.34     
2736.20013 62.003     245.731    50.284    
2736.400131 69.996     245.767    50.238    
2736.600131 64.003     245.783    50.214    
2736.800131 59.002     245.798    50.177    
2737.000131 89.985     245.853    50.16     
2737.200132 79.005     245.862    50.163    
2737.400132 65.007     245.899    50.154    
2737.600132 60.002     245.92     50.124    
2737.800133 72.994     245.956    50.1      
2738.000133 63.005     245.982    50.108    
2738.200133 60.001     246.017    50.099    
2738.400134 113.974    246.034    50.076    
2738.600134 132.991    246.079    50.06     
2738.800134 87.022     246.116    50.06     
2739.000134 68.009     246.134    50.048    
2739.200135 70.999     246.168    50.02     
2739.400135 80.995     246.19     50.009    
2739.600135 116.983    246.23     49.984    
2739.800136 104.006    246.25     49.98     
2740.000136 114.995    246.292    49.972    
2740.200136 66.024     246.324    49.972    
2740.400136 55.005     246.348    49.968    
2740.600137 65.995     246.382    49.968    
2740.800137 77.994     246.416    49.966    
2741.000137 82.998     246.457    49.964    
2741.200138 65.009     246.479    49.964    
2741.400138 81.992     246.5      49.968    
2741.600138 93.994     246.542    49.972    
2741.800139 87.003     246.569    49.976    
2742.000139 61.013     246.628    49.98     
2742.200139 98.982     246.65     49.992    
2742.40014 72.013     246.677    50        
2742.60014 65.003     246.717    50.016    
2742.80014 140.963    246.741    50.032    
2743.00014 105.017    246.765    50.052    
2743.200141 54.025     246.81     50.067    
2743.400141 63.995     246.838    50.088    
2743.600141 59.002     246.897    50.115    
2743.800142 75.992     246.926    50.147    
2744.000142 77.999     246.965    50.173    
2744.200142 86.996     246.991    50.198    
2744.400143 104.991    247.025    50.232    
2744.600143 93.006     247.066    50.276    
2744.800143 79.007     247.102    50.324    
2745.000143 57.011     247.149    50.361    
2745.200144 120.969    247.185    50.394    
2745.400144 92.014     247.207    50.419    
2745.600144 82.005     247.229    50.441    
2745.800145 70.006     247.272    50.484    
2746.000145 59.005     247.302    50.513    
2746.200145 780.653    247.346    50.549    
2746.400146 9431.836   247.373    50.585    
2746.600146 1765.692   247.421    50.631    
2746.800146 350.679    247.45     50.671    
2747.000146 108.116    247.497    50.719    
2747.200147 167.971    247.523    50.749    
2747.400147 122.022    247.55     50.786    
2747.600147 64.028     247.587    50.822    
2747.800148 54.005     247.619    50.846    
2748.000148 216.922    247.648    50.885    
2748.200148 244.987    247.686    50.917    
2748.400148 122.059    247.718    50.935    
2748.600149 130.996    247.738    50.948    
2748.800149 92.019     247.768    50.939    
2749.000149 62.014     247.805    50.948    
2749.20015 45.008     247.833    50.985    
2749.40015 70.987     247.874    51.066    
2749.60015 68.001     247.925    51.152    
2749.800151 55.006     248.082    51.547    
2750.000151 51.002     248.166    52.356    
2750.200151 61.995     248.243    52.573    
2750.400151 90.986     248.293    52.786    
2750.600152 63.013     248.358    52.999    
2750.800152 80.991     248.403    53.315    
2751.000152 96.992     248.402    53.255    
2751.200153 78.009     248.399    53.104    
2751.400153 59.009     248.407    52.972    
2751.600153 54.002     248.426    52.953    
2751.800154 68.993     248.471    53.031    
2752.000154 68         248.509    53.148    
2752.200154 178.947    248.541    53.232    
2752.400155 143.017    248.603    53.321    
2752.600155 68.036     248.655    53.693    
2752.800155 33.017     248.678    53.722    
2753.000155 32         248.72     53.749    
2753.200156 31         248.734    53.758    
2753.400156 32         248.778    53.914    
2753.600156 32         248.804    53.999    
2753.800157 32         248.862    54.052    
2754.000157 32         248.921    54.361    
2754.200157 32         249.052    55.013    
2754.400158 33         249.102    55.577    
2754.600158 32         249.185    55.933    
2754.800158 32         249.154    56.158    
2755.000158 32         249.218    56.319    
2755.200159 32         249.211    56.433    
2755.400159 32         249.225    56.507    
2755.600159 33         249.229    56.562    
2755.80016 33         249.234    56.601    
2756.00016 33         249.234    56.634    
2756.20016 33         249.22     56.658    
2756.400161 32         249.243    56.673    
2756.600161 33         249.223    56.681    
