~Version
 VERS              .         2.0                           : CWLS LOG ASCII STANDARD - VERSION 2.0
 WRAP              .         NO                            : ONE LINE PER DEPTH STEP
 DLM               .         SPACE                         : DELIMITING CHARACTER(SPACE TAB OR COMMA)
~Well Information
#_______________________________________________________________________________
#
#PARAMETER_NAME    .UNIT     VALUE                         : DESCRIPTION
#_______________________________________________________________________________
STRT               .M        1149                          : First reference value
STOP               .M        2127.4                        : Last reference value
STEP               .M        0.2                           : Step increment
NULL               .         -9999                         : Missing value
COMP               .                                       : Company
WELL               .         616                           : Well name
FLD                .                                       : Field
LOC                .                                       : Location
CNTY               .                                       : County
STAT               .                                       : State
CTRY               .                                       : Country
SRVC               .                                       : Service Company
DATE               .                                       : Date
API                .                                       : API number
PROJECT_UPGRADE_TIME .         2021-03-18T21_24_50           : 
group              .         Good                          : 
~Parameter Information Block
#_______________________________________________________________________________
#
#PARAMETER_NAME    .UNIT     VALUE                         : DESCRIPTION
#_______________________________________________________________________________
SET                .         616_9                         : 
CONF               .         00                            : 
END                .         0                             : 
ERR                .         0                             : 
GS00               .M        2125.46                       : 
GS01               .M        1146.68                       : 
MM00               .M        2120.00                       : 
NOKG               .         0                             : 
NPR                .         990907                        : 
PART               .         Ивашин                        : 
PROJECT_UPGRADE_TIME .         2021-03-18T21_24_49           : 
PRZK               .         Шакиров                       : 
TLFamily_AZIMUTH   .         True Dip Azimuth              : 
TLFamily_DEPTH     .         Measured Depth                : 
TLFamily_METKA     .                                       : 
TLFamily_ROLL      .                                       : 
TLFamily_SPEED     .         Spontaneous Potential         : 
TLFamily_ZENIT     .                                       : 
VPRG               .         310                           : 
WAY                .         UP                            : 
group              .         prim                          : 
~Curve Information
#_______________________________________________________________________________
#
#LOGNAME           .UNIT     LOG_ID                        : DESCRIPTION
#_______________________________________________________________________________
DEPTH              .M                                      :  
AZIMUTH            .DEG                                    :  
METKA              .                                       :  
ROLL               .DEG                                    :  
SPEED              .M/H                                    :  
ZENIT              .DEG                                    :  
~Ascii
# ...
1710.2     340.24     0          326.23     684        22.93     
1710.4     339.18     0          326.35     648        22.87     
1710.6     291.62     1          325.96     648        22.88     
1710.8     268.63     0          324.81     1116       23        
1711       354.53     0          322.83     1116       23.47     
1711.2     359.03     0          322.22     648        23.22     
1711.4     354.86     0          324.94     684        23.35     
1711.6     11.25      0          326.72     648        23.29     
1711.8     355.75     0          328.67     684        23.42     
1712       355.18     0          330.66     648        23.32     
1712.2     351.09     1          332.39     684        23.22     
1712.4     1.52       0          334.03     684        23.19     
1712.6     8.25       0          333.59     648        23.11     
1712.8     348.17     0          332.82     648        23.25     
1713       342.24     0          332.26     684        23.2      
1713.2     1.28       0          331.82     648        23.09     
1713.4     354.96     0          331.58     684        23.19     
1713.6     352.3      0          331.57     648        23.08     
1713.8     346.61     0          331.54     684        23.1      
1714       8.62       0          331.63     648        23.08     
1714.2     358.08     0          331.6      684        23.01     
1714.4     357.97     0          331.52     684        23.09     
1714.6     349.73     0          331.32     648        23.2      
1714.8     13.26      0          331.81     648        23.16     
1715       0.45       0          333.28     684        23.16     
1715.2     8.37       0          334.5      648        23.08     
1715.4     14.91      0          334.64     684        23.06     
1715.6     14.49      0          334.83     648        23        
1715.8     13.19      0          335.15     648        22.95     
1716       4.65       0          335.08     684        23.09     
1716.2     359.02     0          334.42     648        23.01     
1716.4     2.47       0          333.67     684        22.96     
1716.6     346.39     0          333.28     684        23.15     
1716.8     14.48      0          333.08     648        22.92     
1717       7.63       0          332.92     684        22.85     
1717.2     5.25       0          332.49     648        23.15     
1717.4     11.74      0          331.82     648        22.94     
1717.6     4.86       0          331.31     684        23.05     
1717.8     358.74     0          331.03     648        23.03     
1718       4          0          330.71     684        22.92     
1718.2     2.13       0          330.14     648        23.01     
1718.4     13.11      0          329.37     684        22.91     
1718.6     6.35       0          328.68     648        22.95     
1718.8     13.7       0          328.54     684        23.12     
1719       14.96      0          328.6      684        22.86     
1719.2     31.44      0          328.29     648        22.99     
1719.4     25.45      0          327.94     684        23.15     
1719.6     40.17      0          327.99     648        23.04     
1719.8     35.68      0          328.43     648        23.07     
1720       19.89      0          328.69     684        23.22     
1720.2     358.71     0          328.37     648        23.29     
1720.4     7.37       0          328.18     684        23.47     
1720.6     4.74       0          327.69     648        23.28     
1720.8     311.87     0          326.32     648        23.22     
1721       198.63     0          325.09     684        23.32     
1721.2     180        0          323.16     648        23.56     
1721.4     180        0          322        648        23.2      
1721.6     180        0          321.66     684        22.97     
1721.8     180        0          321.95     648        22.69     
1722       193.87     1          322.25     684        22.68     
1722.2     13.23      0          322.21     648        22.13     
1722.4     23.08      0          322.12     684        22.25     
1722.6     358.1      0          322.4      648        22.15     
1722.8     56.46      0          323.78     684        22.09     
1723       123.75     0          325.34     648        21.38     
1723.2     13.35      0          324.9      684        22.8      
1723.4     10.16      0          325.27     648        22.6      
1723.6     12.25      0          326.1      684        22.59     
1723.8     32.77      0          326.59     648        22.49     
1724       26.39      0          327.24     684        22.51     
1724.2     17.48      0          327.6      648        22.57     
1724.4     20.48      0          327.7      648        22.42     
1724.6     28.98      0          327.81     648        22.52     
1724.8     52.03      0          327.87     648        22.58     
1725       143.06     0          328.92     684        22.42     
1725.2     17.07      0          329.64     648        22.46     
1725.4     31.63      0          329.3      684        22.43     
1725.6     6.61       0          328.9      648        22.43     
1725.8     20.84      0          328.8      684        22.47     
1726       12.05      0          329.01     648        22.38     
1726.2     356.34     0          329.04     648        22.42     
1726.4     356.53     0          328.28     684        22.4      
1726.6     1.45       0          327.84     648        22.34     
1726.8     20.03      0          327.7      684        22.45     
1727       7.62       0          327.42     648        22.35     
1727.2     17.55      0          327.43     684        22.33     
1727.4     357.3      0          327.07     648        22.37     
1727.6     356.46     0          326.6      684        22.23     
1727.8     348.63     0          326.44     684        22.29     
1728       359.88     0          326.07     648        22.34     
1728.2     1.71       0          325.72     684        22.24     
1728.4     3.69       0          325.56     648        22.31     
1728.6     7.16       0          325.41     648        22.29     
1728.8     18.87      0          325.1      684        22.2      
1729       10.23      0          324.83     648        22.3      
1729.2     4.63       0          324.6      684        22.18     
1729.4     11.14      0          324.52     648        22.3      
1729.6     0.84       0          324.73     684        22.44     
1729.8     312.2      0          324.98     648        22.28     
1730       124.13     0          325.14     684        22.31     
1730.2     71.88      0          325.15     648        22.32     
1730.4     100.84     0          325.29     684        22.2      
1730.6     105.72     0          325.98     648        22.24     
1730.8     180        0          327.46     648        22.13     
1731       180        0          328.54     684        22.18     
1731.2     180        0          328.6      648        22.2      
1731.4     180        0          328.39     684        22.03     
1731.6     180        0          328.31     648        22.16     
1731.8     180        0          328.6      684        22.06     
1732       152.75     1          329.25     684        22.3      
1732.2     1.65       0          329.22     252        22.46     
1732.4     11.91      0          328.78     684        22.16     
1732.6     359.61     0          328.32     648        22.24     
1732.8     8.96       0          327.53     684        22.72     
1733       17.29      0          327.38     648        22.43     
1733.2     11.84      0          326.4      684        22.76     
1733.4     3.26       0          325.7      648        22.57     
1733.6     337.19     0          326.06     648        22.23     
1733.8     338.6      0          327.1      684        21.92     
1734       341.4      0          327.68     648        21.69     
1734.2     336.21     0          328.28     684        21.55     
1734.4     332.62     0          328.91     648        21.37     
