~Version
 VERS              .         2.0                           : CWLS LOG ASCII STANDARD - VERSION 2.0
 WRAP              .         NO                            : ONE LINE PER DEPTH STEP
 DLM               .         SPACE                         : DELIMITING CHARACTER(SPACE TAB OR COMMA)
~Well Information
#_______________________________________________________________________________
#
#PARAMETER_NAME    .UNIT     VALUE                         : DESCRIPTION
#_______________________________________________________________________________
STRT               .M        2671                          : First reference value
STOP               .M        2773.4                        : Last reference value
STEP               .M        0.1999998                     : Step increment
NULL               .         -9999                         : Missing value
COMP               .                                       : Company
WELL               .         616                           : Well name
FLD                .                                       : Field
LOC                .                                       : Location
CNTY               .                                       : County
STAT               .                                       : State
CTRY               .                                       : Country
SRVC               .                                       : Service Company
DATE               .                                       : Date
API                .                                       : API number
PROJECT_UPGRADE_TIME .         2021-03-18T21_24_50           : 
group              .         Good                          : 
~Parameter Information Block
#_______________________________________________________________________________
#
#PARAMETER_NAME    .UNIT     VALUE                         : DESCRIPTION
#_______________________________________________________________________________
SET                .         D0402_D                       : 
OTHER              .         Kedr.exe версия 2.1.2.32      : 
OTHER_10           .         TM.GRD = 0.00379*TM$.UE + 7.11: 
OTHER_11           .         MN.ATM = (8e-006*TM.GRD + 0.02)*(MN$.UE + -8*TM.GRD + -1800): 
OTHER_12           .         GK.MKR/H = GK$.UE / 57.17 + 0 : 
OTHER_2            .         KedrData.dll версия 3.2.2.14  : 
OTHER_3            .         LasInf.dll версия 3.2.0.13    : 
OTHER_4            .         Драйвер версия 1.2.0.4        : 
OTHER_5            .         Прибор_ АКП4_90               : 
OTHER_6            .         Номер прибора_ 56             : 
OTHER_7            .         Режим_ АКП4_90 - все каналы   : 
OTHER_8            .         Форма_ Г-1                    : 
OTHER_9            .         Тарировки_                    : 
PROJECT_UPGRADE_TIME .         2021-03-18T21_24_49           : 
TLFamily_DEPT      .         Measured Depth                : 
TLFamily_GK        .         Gamma Ray                     : 
TLFamily_GK$       .                                       : 
TLFamily_LM        .         Casing Collar locator         : 
TLFamily_METKA     .                                       : 
TLFamily_METKA_1   .                                       : 
TLFamily_MN        .                                       : 
TLFamily_MN$       .                                       : 
TLFamily_RCOR      .                                       : 
TLFamily_SPID      .         Spontaneous Potential         : 
TLFamily_TIME      .         Time                          : 
TLFamily_TM        .         Temperature                   : 
TLFamily_TM$       .         Temperature                   : 
group              .         second                        : 
~Curve Information
#_______________________________________________________________________________
#
#LOGNAME           .UNIT     LOG_ID                        : DESCRIPTION
#_______________________________________________________________________________
DEPT               .M                                      : 1 Глубина, м -    0.0 см 
GK                 .MKR/H                                  : 12 Гамма-активность, мкр./ч -   65.0 см 
GK$                .UE                                     : 9 Гамма-активность, усл.ед. -   65.0 см 
LM                 .                                       : 8 Локатор муфт,  -   30.0 см 
METKA              .                                       : 3 Метки,  -    0.0 см 
METKA_1            .                                       : 13 Маркеры - 65 см 
MN                 .ATM                                    : 11 Давление, атм. -  140.0 см 
MN$                .UE                                     : 7 Давление, усл.ед. -  140.0 см 
RCOR               .CM/KM                                  : 5 Коррекция по ролику, см/км -    0.0 см 
SPID               .M/H                                    : 2 Скорость, м/час -    0.0 см 
TIME               .S                                      : 4 Время, сек -    0.0 см 
TM                 .GRD                                    : 10 Температура, °C -  145.0 см 
TM$                .UE                                     : 6 Температура, усл.ед. -  145.0 см 
~Ascii
# ...
2738.2     8.32       475        506        0          0          265.825    15334      0          -320       7505.42    84.926     20532     
2738.4     8.25       489        548        0          0          265.876    15336      0          -275       7503.14    84.93      20533     
2738.6     8          484        651        0          0          265.894    15337      0          -320       7500.78    84.934     20534     
2738.8     7.72       454        499        0          0          265.956    15340      0          -280       7498.48    84.941     20536     
2739       7.51       460        582        0          0          266.031    15344      0          -320       7496.19    84.949     20538     
2739.2     7.08       439        782        0          0          266.064    15346      0          -320       7493.87    84.96      20541     
2739.4     6.62       382        530        0          0          266.112    15348      0          -320       7491.53    84.968     20543     
2739.6     6.56       375        667        0          0          266.126    15349      0          -320       7489.21    84.968     20543     
2739.8     6.61       366        531        1          0          266.153    15350      0          -320       7486.84    84.968     20543     
2740       6.82       364        548        0          0          266.146    15350      0          -320       7483.75    84.972     20544     
2740.2     7.07       379        629        0          0          266.146    15350      0          -280       7481.36    84.976     20545     
2740.4     6.94       422        613        0          0          266.138    15349      0          -280       7479.05    84.979     20546     
2740.6     6.77       398        798        0          0          266.152    15350      0          -260       7476.59    84.989     20549     
2740.8     7.35       344        4586       0          0          266.102    15348      0          -320       7474.27    85.008     20554     
2741       8.02       401        4300       0          0          266.101    15348      0          -320       7471.93    85.017     20556     
2741.2     8.46       438        526        0          0          266.078    15346      0          -320       7469.63    85.021     20557     
2741.4     8.78       476        491        0          0          266.169    15351      0          -320       7467.21    85.035     20561     
2741.6     8.66       528        415        0          0          266.26     15355      0          -260       7464.87    85.044     20563     
2741.8     8.3        511        569        0          0          266.301    15357      0          -320       7462.54    85.051     20565     
2742       8.1        466        533        0          0          266.396    15362      0          -320       7460.11    85.056     20566     
2742.2     8.1        462        493        0          0          266.416    15363      0          -300       7457.79    85.063     20568     
2742.4     7.94       488        511        0          0          266.417    15363      0          -305       7455.44    85.063     20568     
2742.6     7.62       456        595        0          0          266.416    15363      0          -260       7453.03    85.069     20570     
2742.8     7.48       416        524        0          0          266.379    15361      0          -260       7450.71    85.07      20570     
2743       7.68       413        609        0          0          266.353    15360      0          -305       7448.3     85.077     20572     
2743.2     8.11       408        700        0          0          266.36     15360      0          -300       7445.95    85.085     20574     
2743.4     8.76       478        629        0          0          266.312    15358      0          -300       7443.63    85.089     20575     
2743.6     9.07       522        562        0          0          266.304    15358      0          -260       7441.18    85.097     20577     
2743.8     9.01       529        550        0          0          266.31     15358      0          -260       7438.88    85.101     20578     
2744       8.78       516        511        0          0          266.311    15358      0          -320       7436.44    85.106     20580     
2744.2     8.56       506        1026       0          0          266.331    15359      0          -320       7434.11    85.11      20580     
2744.4     8.29       504        1712       0          0          266.397    15362      0          -260       7431.8     85.115     20582     
2744.6     7.89       483        528        0          0          266.433    15364      0          -320       7429.34    85.138     20588     
2744.8     7.78       451        487        0          0          266.481    15366      0          -320       7427.02    85.15      20591     
2745       7.79       441        435        0          0          266.563    15370      0          -320       7424.59    85.161     20594     
2745.2     7.7        455        439        0          0          266.602    15372      0          -320       7422.26    85.168     20596     
2745.4     7.69       430        566        0          0          266.699    15377      0          -300       7419.95    85.173     20597     
2745.6     7.82       432        569        0          0          266.74     15379      0          -305       7417.61    85.178     20598     
2745.8     7.7        471        580        0          0          266.781    15381      0          -350       7415.1     85.182     20600     
2746       7.54       424        540        0          0          266.788    15381      0          -300       7412.75    85.184     20600     
2746.2     7.79       404        555        0          0          266.809    15382      0          -300       7410.43    85.188     20601     
2746.4     8.18       456        630        0          0          266.801    15382      0          -290       7408.05    85.192     20602     
2746.6     8.26       474        670        0          0          266.8      15382      0          -275       7405.64    85.203     20605     
2746.8     8.27       465        620        0          0          266.814    15383      0          -320       7403.32    85.207     20606     
2747       8.33       481        499        0          0          266.81     15382      0          -320       7400.91    85.214     20608     
2747.2     8.23       487        493        0          0          266.769    15381      0          -320       7398.59    85.218     20609     
2747.4     8.05       456        859        0          0          266.744    15379      0          -260       7396.18    85.233     20613     
2747.6     8.12       458        401        0          0          266.763    15380      0          -320       7393.83    85.248     20617     
2747.8     8.2        473        511        0          0          266.745    15379      0          -320       7391.46    85.26      20620     
2748       8.14       468        553        0          0          266.771    15381      0          -320       7389.07    85.264     20621     
2748.2     8.12       470        571        0          0          266.776    15381      0          -320       7386.76    85.269     20622     
2748.4     8.01       472        887        0          0          266.776    15381      0          -320       7384.32    85.275     20624     
2748.6     7.93       460        760        0          0          266.817    15383      0          -320       7381.99    85.275     20624     
2748.8     7.98       448        729        0          0          266.858    15385      0          -320       7379.59    85.283     20626     
2749       8.09       450        884        0          0          266.885    15386      0          -320       7377.25    85.293     20629     
2749.2     7.88       488        407        0          0          266.939    15389      0          -280       7374.92    85.298     20630     
