~Version
 VERS              .         2.0                           : CWLS LOG ASCII STANDARD - VERSION 2.0
 WRAP              .         NO                            : ONE LINE PER DEPTH STEP
 DLM               .         SPACE                         : DELIMITING CHARACTER(SPACE TAB OR COMMA)
~Well Information
#_______________________________________________________________________________
#
#PARAMETER_NAME    .UNIT     VALUE                         : DESCRIPTION
#_______________________________________________________________________________
STRT               .M        2659.6                        : First reference value
STOP               .M        2769.6                        : Last reference value
STEP               .M        0.2                           : Step increment
NULL               .         -9999                         : Missing value
COMP               .                                       : Company
WELL               .         616                           : Well name
FLD                .                                       : Field
LOC                .                                       : Location
CNTY               .                                       : County
STAT               .                                       : State
CTRY               .                                       : Country
SRVC               .                                       : Service Company
DATE               .                                       : Date
API                .                                       : API number
PROJECT_UPGRADE_TIME .         2021-03-18T21_24_50           : 
group              .         Good                          : 
~Parameter Information Block
#_______________________________________________________________________________
#
#PARAMETER_NAME    .UNIT     VALUE                         : DESCRIPTION
#_______________________________________________________________________________
SET                .         D1162_D                       : 
OTHER              .         Программное обеспечение станции MONITOR-386EX 25/12/99 15_08_10   BGF V52 22/08/01 16_56_30   3.2_BGF_N_3070031: 
OTHER_10           .         Тарировки_                    : 
OTHER_11           .         TM.GRD = 0.00403*TM$.UE + -1.19: 
OTHER_12           .         MN.ATM = (7.1e-006*TM.GRD + 0.02017)*(MN$.UE + -3.03*TM.GRD + -1833): 
OTHER_13           .         Id error                      : 
OTHER_2            .         Kedr.exe версия 3.4.2.51      : 
OTHER_3            .         KedrData.dll версия 3.4.2.24  : 
OTHER_4            .         Драйвер версия 2.1.1.8        : 
OTHER_5            .         Мнемоники версия 3.3 S        : 
OTHER_6            .         Прибор_ КСА-М1                : 
OTHER_7            .         Номер прибора_ 265            : 
OTHER_8            .         Режим_ КСА-М1                 : 
OTHER_9            .         Форма_ ТЕРМОМЕТР              : 
PROJECT_UPGRADE_TIME .         2021-03-18T21_24_49           : 
TLFamily_DEPT      .         Measured Depth                : 
TLFamily_GK        .         Gamma Ray                     : 
TLFamily_GK$       .                                       : 
TLFamily_LM        .         Casing Collar locator         : 
TLFamily_METKA     .                                       : 
TLFamily_MN        .                                       : 
TLFamily_MN$       .                                       : 
TLFamily_RCOR      .                                       : 
TLFamily_SPID      .         Spontaneous Potential         : 
TLFamily_STD       .                                       : 
TLFamily_TENS      .         Cable Tension                 : 
TLFamily_TIME      .         Time                          : 
TLFamily_TM        .         Temperature                   : 
TLFamily_TM$       .         Temperature                   : 
TLFamily_VGD       .         Gas Volume                    : 
group              .         prim                          : 
~Curve Information
#_______________________________________________________________________________
#
#LOGNAME           .UNIT     LOG_ID                        : DESCRIPTION
#_______________________________________________________________________________
DEPT               .M                                      : 1 Глубина, м -    0.0 см 
GK                 .MKR/H                                  : 15 Гамма-активность, мкр./ч -  110.0 см 
GK$                .UE                                     : 12 Гамма-активность, усл.ед. -  110.0 см 
LM                 .                                       : 10 Локатор муфт,  -   20.0 см 
METKA              .                                       : 3 Метки,  -    0.0 см 
MN                 .ATM                                    : 14 Давление, атм. -  160.0 см 
MN$                .UE                                     : 8 Давление, усл.ед. -  160.0 см 
RCOR               .CM/KM                                  : 5 Коррекция по ролику, см/км -    0.0 см 
SPID               .M/H                                    : 2 Скорость, м/час -    0.0 см 
STD                .                                       : 11 Приток,  -  170.0 см 
TENS               .T                                      : 6 Натяжение кабеля, т -    0.0 см 
TIME               .S                                      : 4 Время, сек -    0.0 см 
TM                 .GRD                                    : 13 Температура, °C -  180.0 см 
TM$                .UE                                     : 7 Температура, усл.ед. -  180.0 см 
VGD                .                                       : 9 Влагомер,  -  170.0 см 
~Ascii
# ...
2757.6     6.57       276        1          0          255.917    14404      -1400      617        32372      0          17996.07   90.052     22641      6499      
2757.8     6.44       269        1          0          255.899    14403      -1400      617        32373      0          17997.23   90.057     22642      6499      
2758       6.23       262        1          0          255.962    14406      -1400      623        32373      0          17998.37   90.061     22643      6499      
2758.2     6.39       290        1          0          255.956    14406      -1400      620        32372      0          17999.61   90.064     22644      6500      
2758.4     6.8        299        1          0          255.977    14407      -1400      614        32373      0          18000.73   90.066     22644      6500      
2758.6     6.97       304        1          0          256.021    14409      -1400      620        32373      0          18001.86   90.069     22645      6500      
2758.8     7.54       335        1          0          256.003    14408      -1400      622        32372      0          18003.06   90.073     22646      6500      
2759       7.74       335        1          0          256.058    14411      -1400      613        32373      0          18004.24   90.078     22647      6500      
2759.2     7.46       309        1982       0          256.043    14410      -1400      609        32373      0          18005.39   90.089     22650      6500      
2759.4     7.3        309        254        0          256.088    14412      -1400      615        32372      0          18006.54   90.11      22655      6500      
2759.6     7.35       316        1          0          256.112    14413      -1400      621        32373      0          18007.75   90.149     22665      6500      
2759.8     7.38       316        1          0          256.111    14413      -1400      615        32373      0          18008.9    90.191     22675      6499      
2760       7.94       362        1          2          256.169    14416      -1400      619        32373      0          18010.08   90.233     22686      6500      
2760.2     8.29       362        1          0          256.151    14415      -1400      616        32372      0          18011.26   90.264     22693      6501      
2760.4     8.34       353        1          0          256.195    14417      -1400      617        32373      0          18012.46   90.296     22701      6500      
2760.6     8.28       353        1          0          256.197    14417      -1400      617        32374      0          18013.61   90.362     22718      6499      
2760.8     8.22       348        1          0          256.214    14418      -1400      617        32373      0          18014.77   90.441     22737      6495      
2761       8.06       341        1          0          256.255    14420      -1400      618        32374      0          18015.96   90.533     22760      6492      
2761.2     8.02       343        1          0          256.246    14419      -1400      617        32374      0          18017.12   90.604     22778      6497      
2761.4     8.02       343        1          0          256.302    14422      -1400      622        32372      0          18018.27   90.664     22793      6497      
2761.6     8.03       344        1          0          256.287    14421      -1400      617        32373      0          18019.42   90.713     22805      6497      
2761.8     8.17       352        1          0          256.333    14423      -1400      616        32372      0          18020.62   90.748     22813      6497      
2762       8.21       352        1          0          256.333    14423      -1400      610        32372      0          18021.78   90.772     22819      6498      
2762.2     8.62       381        1          0          256.351    14424      -1400      612        32373      0          18022.97   90.798     22826      6498      
2762.4     8.81       381        1          0          256.393    14426      -1400      616        32372      0          18024.14   90.809     22829      6498      
2762.6     8.67       367        1          0          256.373    14425      -1400      613        32373      0          18025.29   90.823     22832      6499      
2762.8     8.61       367        1          0          256.425    14428      -1400      615        32373      0          18026.44   90.834     22835      6499      
2763       7.94       315        1          0          256.415    14427      -1400      616        32373      0          18027.61   90.845     22838      6500      
2763.2     7.57       315        1          0          256.452    14429      -1400      609        32372      0          18028.84   90.855     22840      6499      
2763.4     7.05       271        1          0          256.478    14430      -1400      616        32373      0          18029.95   90.863     22842      6499      
2763.6     6.57       271        1          0          256.462    14429      -1400      617        32373      0          18031.15   90.877     22846      6499      
2763.8     6.36       265        1          0          256.52     14432      -1400      621        32373      0          18032.31   90.884     22847      6499      
2764       6.25       265        1          0          256.499    14431      -1400      616        32373      0          18033.45   90.894     22850      6500      
2764.2     6.35       281        1          0          256.565    14434      -1400      619        32373      0          18034.65   90.902     22852      6501      
2764.4     6.54       284        1          0          256.567    14434      -1400      621        32373      0          18035.76   90.908     22853      6500      
2764.6     6.64       287        1          0          256.58     14435      -1400      615        32373      0          18037.01   90.915     22855      6500      
2764.8     6.98       306        1          0          256.62     14437      -1400      621        32373      0          18038.17   90.921     22856      6500      
2765       7.1        306        1          0          256.599    14436      -1400      620        32372      0          18039.31   90.929     22858      6501      
2765.2     7.36       322        1          0          256.677    14440      -1400      625        32373      0          18040.51   90.936     22860      6500      
2765.4     7.47       322        1          0          256.646    14438      -1400      615        32373      0          18041.67   90.944     22862      6500      
2765.6     7.14       297        1          0          256.703    14441      -1400      618        32373      0          18042.77   90.952     22864      6501      
2765.8     7.01       297        1          0          256.719    14441      -1400      619        32373      0          18043.98   90.956     22865      6500      
2766       7.24       319        1          0          256.709    14441      -1400      612        32373      0          18045.18   90.964     22867      6500      
2766.2     7.39       319        1          0          256.772    14444      -1400      618        32372      0          18046.33   90.968     22868      6500      
2766.4     7.78       358        1          0          256.751    14443      -1400      619        32373      0          18047.48   90.976     22870      6500      
2766.6     8.18       358        1          0          256.814    14446      -1400      621        32372      0          18048.65   90.982     22872      6501      
2766.8     8.14       342        1          0          256.793    14445      -1400      612        32373      0          18049.85   90.989     22873      6501      
2767       8.04       342        1          0          256.824    14447      -1400      613        32373      0          18050.99   90.996     22875      6501      
2767.2     7.84       320        1          0          256.855    14448      -1400      620        32372      0          18052.2    90.998     22876      6502      
