~Version
 VERS              .         2.0                           : CWLS LOG ASCII STANDARD - VERSION 2.0
 WRAP              .         NO                            : ONE LINE PER DEPTH STEP
 DLM               .         SPACE                         : DELIMITING CHARACTER(SPACE TAB OR COMMA)
~Well Information
#_______________________________________________________________________________
#
#PARAMETER_NAME    .UNIT     VALUE                         : DESCRIPTION
#_______________________________________________________________________________
STRT               .M        1549.2                        : First reference value
STOP               .M        2296.2                        : Last reference value
STEP               .M        0.2                           : Step increment
NULL               .         -9999                         : Missing value
COMP               .                                       : Company
WELL               .         616                           : Well name
FLD                .                                       : Field
LOC                .                                       : Location
CNTY               .                                       : County
STAT               .                                       : State
CTRY               .                                       : Country
SRVC               .                                       : Service Company
DATE               .                                       : Date
API                .                                       : API number
PROJECT_UPGRADE_TIME .         2021-03-18T21_24_50           : 
group              .         Good                          : 
~Parameter Information Block
#_______________________________________________________________________________
#
#PARAMETER_NAME    .UNIT     VALUE                         : DESCRIPTION
#_______________________________________________________________________________
SET                .         616_10                        : 
CONF               .         00                            : 
END                .         0                             : 
ERR                .         2                             : 
GS00               .M        2294.21                       : 
GS01               .M        1546.72                       : 
MM00               .M        2240.00                       : 
NOKG               .         0                             : 
NPR                .         980119                        : 
PART               .         Палагутин                     : 
PROJECT_UPGRADE_TIME .         2021-03-18T21_24_49           : 
PRZK               .         Якименко                      : 
TLFamily_AZIMUTH   .         True Dip Azimuth              : 
TLFamily_DEPTH     .         Measured Depth                : 
TLFamily_METKA     .                                       : 
TLFamily_ROLL      .                                       : 
TLFamily_SPEED     .         Spontaneous Potential         : 
TLFamily_ZENIT     .                                       : 
VPRG               .         310                           : 
WAY                .         UP                            : 
group              .         prim                          : 
~Curve Information
#_______________________________________________________________________________
#
#LOGNAME           .UNIT     LOG_ID                        : DESCRIPTION
#_______________________________________________________________________________
DEPTH              .M                                      :  
AZIMUTH            .DEG                                    :  
METKA              .                                       :  
ROLL               .DEG                                    :  
SPEED              .M/H                                    :  
ZENIT              .DEG                                    :  
~Ascii
# ...
1793.2     260.1      0          318.15     648        20.22     
1793.4     273.33     0          340.46     684        19.88     
1793.6     297.19     0          354.71     720        19.6      
1793.8     286.02     0          7.19       684        19.55     
1794       232.07     0          18.75      684        19.67     
1794.2     325.99     0          27.84      648        19.76     
1794.4     315.66     0          32.73      612        19.84     
1794.6     275.48     0          33.45      684        19.86     
1794.8     266.29     0          32.46      684        19.73     
1795       264.24     0          34.01      684        19.77     
1795.2     264.15     0          35.76      684        19.75     
1795.4     264.9      0          34.78      684        19.72     
1795.6     262.48     0          32.53      684        19.44     
1795.8     262        0          32.46      720        19.39     
1796       262.66     0          33.11      684        19.41     
1796.2     263.35     0          34.36      648        19.47     
1796.4     263.35     0          35.29      612        19.56     
1796.6     262.74     0          36.48      684        19.44     
1796.8     263.13     0          38.3       684        19.3      
1797       263.31     0          39.95      684        19.32     
1797.2     263.32     0          41.45      648        19.34     
1797.4     260.39     0          44.81      684        18.96     
1797.6     264.4      0          58.82      648        19.66     
1797.8     260.15     0          78.05      684        18.6      
1798       261.4      0          92.72      684        19.5      
1798.2     260.9      0          107.27     684        19.6      
1798.4     262.43     0          122.57     684        19.89     
1798.6     263.76     0          132.9      648        19.78     
1798.8     263.49     0          139.97     648        19.63     
1799       263.9      0          143.79     684        19.63     
1799.2     264.3      0          146.03     612        19.68     
1799.4     264.48     0          147.75     684        19.73     
1799.6     264.38     0          149.15     648        19.68     
1799.8     263.8      0          149.71     648        19.56     
1800       263.17     0          149.88     684        19.54     
1800.2     263.03     0          150.23     684        19.55     
1800.4     264.21     0          150.54     684        19.71     
1800.6     264.15     0          150.52     684        19.69     
1800.8     263.56     0          150.92     648        19.57     
1801       263.96     0          151.24     684        19.55     
1801.2     264.2      0          151.45     612        19.61     
1801.4     265.1      0          151.7      648        19.72     
1801.6     265.5      0          151.5      648        19.7      
1801.8     265.52     0          150.75     684        19.54     
1802       265.58     0          150.4      684        19.6      
1802.2     265.34     1          150.97     684        19.45     
1802.4     267.2      0          152.63     684        19.71     
1802.6     267.45     0          153.85     720        19.64     
1802.8     268.08     0          154.94     684        19.63     
1803       268.79     0          156.2      576        19.63     
1803.2     271.13     0          159.66     648        19.89     
1803.4     271.71     0          165.21     684        19.79     
1803.6     272.76     0          170.99     684        19.66     
1803.8     274.25     0          176.08     684        19.62     
1804       276.7      0          181.03     648        19.58     
1804.2     280.11     0          187.42     576        19.6      
1804.4     284.29     0          194.65     684        19.5      
1804.6     288.74     0          202.48     684        19.42     
1804.8     295.21     0          210.3      684        19.41     
1805       303.28     0          216.11     576        19.42     
1805.2     316.89     0          219.77     612        19.55     
1805.4     331.91     0          222.09     684        19.62     
1805.6     345.52     0          223.23     684        19.72     
1805.8     353.82     0          223.67     684        19.62     
1806       350.23     0          224.69     648        19.63     
1806.2     356.23     0          226.14     612        19.85     
1806.4     159.4      0          227.44     684        19.78     
1806.6     189.31     0          229.14     648        19.92     
1806.8     156.94     0          231.93     684        19.9      
1807       24.05      0          238.97     684        19.83     
1807.2     300.32     0          253.95     648        20.08     
1807.4     217.84     0          273.28     612        20.07     
1807.6     210.58     0          297.44     684        20.18     
1807.8     160.4      0          317.44     684        19.59     
1808       143.57     0          333.33     648        19.1      
1808.2     241.99     0          346.26     648        19        
1808.4     287.15     0          357        684        19        
1808.6     354.76     0          7.76       612        18.77     
1808.8     337.65     0          18.16      684        18.74     
1809       346.04     0          30.35      648        19.1      
1809.2     344.3      0          38.58      648        19.34     
1809.4     339.94     0          41.27      684        19.42     
1809.6     350.29     0          43.01      648        19.22     
1809.8     17.06      0          51.37      648        19.02     
1810       6.09       0          70.3       612        19.45     
1810.2     52.89      0          86.57      684        19.46     
1810.4     19.95      0          99.08      684        19.45     
1810.6     355.45     1          111.43     684        19.74     
1810.8     350.17     0          120.02     1224       19.76     
1811       341.32     0          127.6      612        19.68     
1811.2     336.16     0          138.93     648        19.62     
1811.4     335.6      0          144.58     684        19.55     
1811.6     344.76     0          147.4      684        19.51     
1811.8     346.52     0          148.91     684        19.53     
1812       0.03       0          149.29     648        19.57     
1812.2     355.03     1          149.82     576        19.43     
1812.4     3.32       0          150.9      612        19.37     
1812.6     355.74     0          151.74     684        19.37     
1812.8     359.69     0          151.74     684        19.42     
1813       353.79     0          151.75     612        19.33     
1813.2     3.26       0          151.35     612        19.38     
1813.4     347.39     0          151.12     684        19.32     
1813.6     348.55     0          151.33     648        19.5      
1813.8     345.77     0          152.06     720        19.58     
1814       334.05     0          152.63     648        19.52     
1814.2     345.37     0          153.31     576        19.49     
1814.4     341.31     0          154.88     684        19.41     
1814.6     356.25     0          156.9      684        19.41     
1814.8     349.32     0          159.83     684        19.78     
1815       340.8      0          165.41     612        19.44     
1815.2     343.59     0          170.41     612        19.48     
1815.4     349.04     0          174.22     684        19.34     
1815.6     344.65     0          180.07     648        19.47     
1815.8     346.04     0          187.82     684        19.5      
1816       337.05     0          197.15     684        19.42     
1816.2     342.3      0          206.95     612        19.32     
1816.4     337.92     0          213.25     684        19.31     
1816.6     349.56     0          217.27     648        19.32     
1816.8     324.68     0          219.89     684        19.46     
1817       332.55     0          221.66     684        19.42     
1817.2     327.42     0          223.24     648        19.57     
1817.4     332.77     0          223.86     684        19.5      
