~Version
 VERS              .         2.0                           : CWLS LOG ASCII STANDARD - VERSION 2.0
 WRAP              .         NO                            : ONE LINE PER DEPTH STEP
 DLM               .         SPACE                         : DELIMITING CHARACTER(SPACE TAB OR COMMA)
~Well Information
#_______________________________________________________________________________
#
#PARAMETER_NAME    .UNIT     VALUE                         : DESCRIPTION
#_______________________________________________________________________________
STRT               .M        1740.47                       : First reference value
STOP               .M        2787.78                       : Last reference value
STEP               .M        0                             : Step increment
NULL               .         -9999                         : Missing value
COMP               .                                       : Company
WELL               .         616                           : Well name
FLD                .                                       : Field
LOC                .                                       : Location
CNTY               .                                       : County
STAT               .                                       : State
CTRY               .                                       : Country
SRVC               .                                       : Service Company
DATE               .                                       : Date
API                .                                       : API number
PROJECT_UPGRADE_TIME .         2021-03-18T21_24_50           : 
group              .         Good                          : 
~Parameter Information Block
#_______________________________________________________________________________
#
#PARAMETER_NAME    .UNIT     VALUE                         : DESCRIPTION
#_______________________________________________________________________________
SET                .         D2664                         : 
NPR                .         980607                        : ЗАВ НОМЕР ПРИБОРА
NPRT               .         Мещеряков                     : НАЧ ПАРТИИ
PROJECT_UPGRADE_TIME .         2021-03-18T21_24_50           : 
TLFamily_AZIMUTH   .         True Dip Azimuth              : 
TLFamily_DEPTH     .         Measured Depth                : 
TLFamily_DRILL     .                                       : 
TLFamily_METKA     .                                       : 
TLFamily_ZENIT     .                                       : 
group              .         prim                          : 
~Curve Information
#_______________________________________________________________________________
#
#LOGNAME           .UNIT     LOG_ID                        : DESCRIPTION
#_______________________________________________________________________________
DEPTH              .M                                      : 1 ГЛУБИНА 
AZIMUTH            .ГРАД                                   : 4 АЗИМУТ 
DRILL              .ГРАД                                   : 2 ПОВОРОТ 
METKA              .                                       : 5 МАГН МЕТКА 
ZENIT              .ГРАД                                   : 3 ЗЕНИТ 
~Ascii
# ...
2228.78    258.65     73.6       0          5.91      
2229.18    258.77     75.13      0          5.88      
2229.58    258.84     76.52      0          5.84      
2229.98    259.08     77.72      0          5.81      
2230.38    259.19     78.73      0          5.77      
2230.78    259.28     79.65      0          5.74      
2231.18    259.42     80.5       0          5.71      
2231.58    259.53     81.26      0          5.68      
2231.98    259.67     81.91      0          5.64      
2232.38    259.79     82.47      0          5.61      
2232.78    259.91     83         0          5.58      
2233.18    259.99     83.6       0          5.55      
2233.58    260.1      84.27      0          5.52      
2233.97    260.23     85         0          5.49      
2234.37    260.33     85.71      0          5.46      
2234.77    260.47     86.35      0          5.43      
2235.17    260.6      86.87      0          5.4       
2235.57    260.74     87.25      0          5.37      
2235.97    260.86     87.52      0          5.35      
2236.37    260.95     87.78      0          5.32      
2236.77    261.02     88.13      0          5.3       
2237.17    261.14     88.55      0          5.27      
2237.57    261.23     88.97      0          5.25      
2237.97    261.33     89.36      0          5.23      
2238.37    261.42     89.71      0          5.2       
2238.76    261.53     90.01      0          5.18      
2239.16    261.61     90.28      0          5.15      
2239.56    261.69     90.59      0          5.13      
2239.96    261.75     90.97      0          5.11      
2240.36    261.83     91.44      0          5.09      
2240.76    261.9      91.94      0          5.06      
2241.16    261.95     92.21      0          5.05      
2241.56    262.09     92.48      0          5.04      
2241.96    262.15     92.79      0          5.04      
2242.36    262.24     93.2       0          5.02      
2242.76    262.33     93.67      0          5.01      
2243.16    262.39     94.2       0          5.01      
2243.56    262.5      94.73      0          5         
2243.96    262.58     95.21      0          4.99      
2244.36    262.64     95.62      0          4.98      
2244.76    262.67     95.96      0          4.96      
2245.16    262.71     96.28      0          4.95      
2245.56    262.79     96.61      0          4.94      
2245.96    262.82     96.95      0          4.93      
2246.36    262.89     97.32      0          4.92      
2246.76    262.93     97.74      0          4.91      
2247.15    262.97     98.23      0          4.89      
2247.55    263.01     98.73      0          4.88      
2247.95    263.05     99.25      0          4.86      
2248.35    263.13     99.69      0          4.85      
2248.75    263.21     100.04     0          4.84      
2249.15    263.27     100.35     0          4.82      
2249.55    263.35     100.65     0          4.81      
2249.95    263.44     100.96     0          4.8       
2250.35    263.54     101.24     0          4.79      
2250.75    263.61     101.5      0          4.78      
2251.15    263.68     101.75     0          4.76      
2251.55    263.76     101.95     0          4.75      
2251.94    263.8      102.11     0          4.74      
2252.34    263.88     102.25     0          4.73      
2252.74    263.95     102.41     0          4.72      
2253.14    264.14     102.48     0          4.71      
2253.53    264.26     102.49     0          4.7       
2253.93    264.37     102.47     0          4.68      
2254.32    264.54     102.37     0          4.67      
2254.72    264.72     102.17     0          4.67      
2255.11    264.86     101.99     0          4.66      
2255.51    264.95     101.9      0          4.65      
2255.9     265.1      101.93     0          4.64      
2256.3     265.25     102.05     0          4.63      
2256.69    265.47     102.13     0          4.62      
2257.09    265.67     102.07     0          4.62      
2257.48    265.84     101.87     0          4.61      
2257.87    266.03     101.64     0          4.6       
2258.27    266.2      101.44     0          4.59      
2258.66    266.37     101.33     0          4.58      
2259.06    266.57     101.36     0          4.58      
2259.45    266.77     101.49     0          4.57      
2259.84    266.99     101.63     0          4.56      
2260.24    267.18     101.71     0          4.55      
2260.63    267.39     101.74     0          4.55      
2261.03    267.55     101.74     0          4.54      
2261.42    267.72     101.78     0          4.53      
2261.81    267.9      101.9      0          4.52      
2262.2     268.07     102.08     0          4.52      
2262.6     268.28     102.27     0          4.51      
2262.99    268.51     102.38     0          4.5       
2263.38    268.72     102.37     0          4.49      
2263.77    268.95     102.27     0          4.49      
2264.17    269.15     102.13     0          4.48      
2264.56    269.35     102        0          4.47      
2264.75    269.42     101.87     0          4.47      
2264.94    269.49     101.81     0          4.47      
2265.33    269.64     101.85     0          4.45      
2265.72    269.83     101.92     0          4.44      
2266.11    269.99     102.02     0          4.42      
2266.5     270.2      102.1      0          4.4       
2266.89    270.44     102.08     0          4.39      
2267.28    270.63     101.97     0          4.38      
2267.67    270.8      101.81     0          4.37      
2268.06    270.91     101.72     0          4.35      
2268.45    271.03     101.82     0          4.34      
2268.84    271.25     102.03     0          4.32      
2269.23    271.43     102.18     0          4.31      
2269.62    271.6      102.13     0          4.3       
2270.01    271.76     101.95     0          4.28      
2270.4     271.88     101.7      0          4.27      
2270.79    272        101.48     0          4.25      
2271.18    272.12     101.38     0          4.24      
2271.57    272.24     101.42     0          4.22      
2271.96    272.39     101.53     0          4.21      
2272.35    272.55     101.59     0          4.19      
2272.74    272.7      101.57     0          4.18      
2273.13    272.82     101.5      0          4.16      
2273.52    272.94     101.43     0          4.14      
2273.91    273.05     101.41     0          4.12      
2274.3     273.15     101.46     0          4.1       
2274.69    273.26     101.6      0          4.08      
2275.08    273.41     101.77     0          4.06      
2275.47    273.56     101.88     0          4.04      
2275.86    273.69     101.9      0          4.02      
2276.25    273.82     101.9      0          3.99      
2276.64    273.96     101.93     0          3.97      
2276.83    274.01     101.95     0          3.96      
2277.02    274.03     102.01     0          3.95      
2277.21    274.08     102.1      0          3.93      
2277.4     274.09     102.17     0          3.92      
2277.79    274.13     102.43     0          3.88      
2278.18    274.21     102.74     0          3.84      
2278.57    274.3      103.05     0          3.8       
2278.96    274.38     103.37     0          3.76      
2279.35    274.48     103.6      0          3.72      
2279.74    274.47     103.75     0          3.69      
2280.13    274.47     103.96     0          3.65      
2280.52    274.51     104.35     0          3.61      
2280.91    274.59     104.85     0          3.58      
2281.3     274.65     105.34     0          3.55      
2281.69    274.72     105.76     0          3.51      
2282.07    274.76     106.11     0          3.47      
2282.46    274.83     106.43     0          3.44      
2282.85    274.86     106.76     0          3.41      
2283.24    274.9      107.15     0          3.37      
2283.63    274.93     107.59     0          3.33      
2284.02    274.97     108.06     0          3.3       
2284.41    275.01     108.51     0          3.27      
2284.8     275.05     108.93     0          3.23      
