~Version
 VERS              .         2.0                           : CWLS LOG ASCII STANDARD - VERSION 2.0
 WRAP              .         NO                            : ONE LINE PER DEPTH STEP
 DLM               .         SPACE                         : DELIMITING CHARACTER(SPACE TAB OR COMMA)
~Well Information
#_______________________________________________________________________________
#
#PARAMETER_NAME    .UNIT     VALUE                         : DESCRIPTION
#_______________________________________________________________________________
STRT               .M        2645.6                        : First reference value
STOP               .M        2754.199837                   : Last reference value
STEP               .M        0.1999997                     : Step increment
NULL               .         -9999                         : Missing value
COMP               .                                       : Company
WELL               .         616                           : Well name
FLD                .                                       : Field
LOC                .                                       : Location
CNTY               .                                       : County
STAT               .                                       : State
CTRY               .                                       : Country
SRVC               .                                       : Service Company
DATE               .                                       : Date
API                .                                       : API number
PROJECT_UPGRADE_TIME .         2021-03-18T21_24_50           : 
group              .         Good                          : 
~Parameter Information Block
#_______________________________________________________________________________
#
#PARAMETER_NAME    .UNIT     VALUE                         : DESCRIPTION
#_______________________________________________________________________________
SET                .         D7026_D                       : 
OTHER              .         Kedr.exe версия 2.1.2.32      : 
OTHER_10           .         TM.GRD = 0.00404*TM$.UE + 0.07: 
OTHER_11           .         MN.ATM = (6.33279e-006*TM.GRD + 0.02401)*(MN$.UE + 2.72*TM.GRD + -2018): 
OTHER_12           .         GK.MKR/H = GK$.UE / 43.5489 + 0: 
OTHER_13           .         RES.SM = 0.00476*CRES.UE - 1.51709: 
OTHER_14           .         PL.GSM3 = 0 + 0 * (PL.UE / 1) +  0 * (PL.UE / 1)^2: 
OTHER_15           .         Постоянная времени ГГП = 6 сек: 
OTHER_16           .         Постоянная времени ГК = 6 сек : 
OTHER_2            .         KedrData.dll версия 3.2.2.14  : 
OTHER_3            .         LasInf.dll версия 3.2.0.13    : 
OTHER_4            .         Драйвер версия 1.2.0.5        : 
OTHER_5            .         Прибор_ КСА-M1                : 
OTHER_6            .         Номер прибора_ 155+р204       : 
OTHER_7            .         Режим_ КСА-М1 + ГГП + Резистивиметр: 
OTHER_8            .         Форма_ 223\2                  : 
OTHER_9            .         Тарировки_                    : 
PROJECT_UPGRADE_TIME .         2021-03-18T21_24_50           : 
TLFamily_CRES      .                                       : 
TLFamily_DEPT      .         Measured Depth                : 
TLFamily_GK        .         Gamma Ray                     : 
TLFamily_GK$       .                                       : 
TLFamily_LM        .         Casing Collar locator         : 
TLFamily_METKA     .                                       : 
TLFamily_MN        .                                       : 
TLFamily_MN$       .                                       : 
TLFamily_PL        .                                       : 
TLFamily_PL_2      .                                       : 
TLFamily_RCOR      .                                       : 
TLFamily_RES       .         Mud Resistivity               : 
TLFamily_SPID      .         Spontaneous Potential         : 
TLFamily_STD       .                                       : 
TLFamily_TIME      .         Time                          : 
TLFamily_TM        .         Temperature                   : 
TLFamily_TM$       .         Temperature                   : 
TLFamily_VGD       .         Gas Volume                    : 
group              .         prim                          : 
~Curve Information
#_______________________________________________________________________________
#
#LOGNAME           .UNIT     LOG_ID                        : DESCRIPTION
#_______________________________________________________________________________
DEPT               .M                                      : 1 Глубина, м -    0.0 см 
CRES               .UE                                     : 9 Проводимость, усл.ед. -  222.0 см 
GK                 .MKR/H                                  : 16 Гамма-активность, мкр./ч -  106.0 см 
GK$                .UE                                     : 13 Гамма-активность, усл.ед. -  106.0 см 
LM                 .                                       : 11 Локатор муфт,  -   16.0 см 
METKA              .                                       : 3 Метки,  -    0.0 см 
MN                 .ATM                                    : 15 Давление, атм. -  160.0 см 
MN$                .UE                                     : 7 Давление, усл.ед. -  160.0 см 
PL                 .UE                                     : 10 Плотность, усл.ед. -  270.0 см 
PL_2               .GSM3                                   : 18 Плотность, г./см3 -  270.0 см 
RCOR               .CM/KM                                  : 5 Коррекция по ролику, см/км -    0.0 см 
RES                .SM                                     : 17 Проводимость,  -  222.0 см 
SPID               .M/H                                    : 2 Скорость, м/час -    0.0 см 
STD                .                                       : 12 Приток,  -  170.0 см 
TIME               .S                                      : 4 Время, сек -    0.0 см 
TM                 .GRD                                    : 14 Температура, °C -  180.0 см 
TM$                .UE                                     : 6 Температура, усл.ед. -  180.0 см 
VGD                .                                       : 8 Влагомер,  -  170.0 см 
~Ascii
# ...
2686.599939 1222       12.29      533        13         0          247.174    12010      14         0          0          4.2996     580        10976      17417.36   56.127     13875      6684      
2686.799938 1222       12.27      533        37         0          247.175    12010      14         0          0          4.2996     580        10970      17418.67   56.11      13871      6684      
2686.999938 1221       12.57      571        38         0          247.197    12011      14         0          0          4.2949     580        10966      17419.93   56.096     13868      6684      
2687.199938 1221       12.84      571        14         0          247.211    12012      14         0          0          4.2969     568        10964      17421.25   56.079     13864      6684      
2687.399937 1220       12.64      537        97         0          247.237    12013      14         0          0          4.2909     510        10960      17422.57   56.059     13859      6684      
2687.599937 1220       12.48      537        115        0          247.263    12014      14         0          0          4.2901     580        10957      17423.86   56.041     13854      6683      
2687.799937 1219       11.25      405        90         0          247.26     12014      14         0          0          4.2853     580        10955      17425.15   56.019     13849      6685      
2687.999936 1219       10.29      405        56         0          247.282    12015      14         0          0          4.283      510        10954      17426.47   56         13844      6684      
2688.199936 1218       9.09       336        55         0          247.304    12016      14         0          0          4.2814     580        10953      17427.73   55.978     13839      6685      
2688.399936 1218       8.41       336        57         0          247.31     12016      14         0          0          4.279      538        10951      17429.01   55.963     13835      6685      
2688.599935 1216       8.05       335        68         0          247.348    12018      14         0          0          4.2727     533        10951      17430.3    55.945     13830      6684      
2688.799935 1216       7.88       335        59         0          247.346    12018      14         0          0          4.2726     580        10950      17431.62   55.925     13825      6679      
2688.999935 1216       8.1        365        48         0          247.366    12019      14         0          0          4.2711     522        10946      17432.88   55.908     13821      6684      
2689.199935 1214       8.24       365        67         0          247.386    12020      14         0          0          4.2608     545        10940      17434.2    55.881     13815      6684      
2689.399934 1214       8.33       367        48         0          247.406    12021      14         0          0          4.2615     580        10928      17435.47   55.845     13806      6685      
2689.599934 1214       8.31       351        50         0          247.427    12022      14         0          0          4.2615     580        10920      17436.79   55.813     13798      6685      
2689.799934 1214       8.1        344        35         0          247.447    12023      14         0          0          4.2615     580        10913      17438.1    55.786     13791      6684      
2689.999933 1213       7.96       336        24         0          247.453    12023      14         0          0          4.2552     557        10903      17439.41   55.751     13782      6685      
2690.199933 1212       7.84       336        16         1          247.479    12025      14         0          0          4.252      580        10896      17441.33   55.722     13775      6686      
2690.399933 1211       7.93       372        116        0          247.506    12026      14         0          0          4.2473     510        10889      17442.62   55.689     13767      6685      
2690.599932 1211       8.31       379        57         0          247.5      12026      14         0          0          4.2472     510        10884      17443.92   55.644     13756      6684      
2690.799932 1210       8.66       407        63         0          247.507    12027      14         0          0          4.2425     580        10876      17445.23   55.598     13744      6685      
2690.999932 1209       9          407        62         0          247.513    12027      14         0          0          4.2393     580        10866      17446.5    55.557     13734      6685      
2691.199932 1209       9.4        422        63         0          247.533    12028      14         0          0          4.2378     522        10859      17447.81   55.511     13723      6686      
2691.399931 1208       9.54       422        61         0          247.553    12029      14         0          0          4.2322     580        10852      17449.13   55.479     13715      6686      
2691.599931 1207       9.9        449        70         0          247.576    12030      14         0          0          4.2282     450        10847      17450.49   55.448     13707      6686      
2691.799931 1205       10.1       449        70         0          247.596    12031      14         0          0          4.2203     568        10842      17451.78   55.431     13703      6676      
2691.99993 1203       10.19      448        63         0          247.619    12032      14         0          0          4.2092     580        10840      17453.08   55.4       13695      6676      
2692.19993 1203       10.28      457        73         0          247.64     12033      14         0          0          4.2108     580        10838      17454.34   55.387     13692      6675      
2692.39993 1204       10.4       458        78         0          247.661    12034      14         0          0          4.214      557        10835      17455.68   55.361     13686      6673      
2692.599929 1205       10.41      448        4596       0          247.67     12035      14         0          0          4.2187     521        10829      17456.95   55.336     13680      6673      
2692.799929 1205       10.26      440        1780       0          247.679    12035      14         0          0          4.2171     580        10829      17458.26   55.315     13674      6673      
2692.999929 1205       9.96       395        441        0          247.7      12036      14         0          0          4.2187     538        10824      17459.55   55.29      13668      6673      
2693.199929 1205       9.53       395        160        0          247.72     12037      14         0          0          4.2187     533        10818      17460.84   55.263     13662      6674      
2693.399928 1204       9.45       418        92         0          247.742    12038      14         0          0          4.214      580        10815      17462.16   55.231     13654      6674      
2693.599928 1204       9.52       418        63         0          247.786    12040      14         0          0          4.2147     524        10810      17463.44   55.213     13649      6673      
2693.799928 1204       9.92       461        73         0          247.787    12040      14         0          0          4.213      580        10809      17464.74   55.203     13647      6674      
2693.999927 1203       10.25      461        68         0          247.826    12042      14         0          0          4.2092     568        10806      17466.06   55.186     13643      6674      
2694.199927 1202       10.33      449        148        0          247.831    12042      14         0          0          4.2052     580        10804      17467.31   55.169     13638      6674      
2694.399927 1202       10.32      449        122        0          247.851    12043      14         0          0          4.2044     557        10802      17468.64   55.145     13633      6674      
2694.599927 1202       10.01      414        84         0          247.858    12043      14         0          0          4.2028     580        10797      17469.96   55.114     13625      6675      
