~Version
 VERS              .         2.0                           : CWLS LOG ASCII STANDARD - VERSION 2.0
 WRAP              .         NO                            : ONE LINE PER DEPTH STEP
 DLM               .         SPACE                         : DELIMITING CHARACTER(SPACE TAB OR COMMA)
~Well Information
#_______________________________________________________________________________
#
#PARAMETER_NAME    .UNIT     VALUE                         : DESCRIPTION
#_______________________________________________________________________________
STRT               .M        2656.6                        : First reference value
STOP               .M        2765.2                        : Last reference value
STEP               .M        0.1999997                     : Step increment
NULL               .         -9999                         : Missing value
COMP               .                                       : Company
WELL               .         616                           : Well name
FLD                .                                       : Field
LOC                .                                       : Location
CNTY               .                                       : County
STAT               .                                       : State
CTRY               .                                       : Country
SRVC               .                                       : Service Company
DATE               .                                       : Date
API                .                                       : API number
PROJECT_UPGRADE_TIME .         2021-03-18T21_24_50           : 
group              .         Good                          : 
~Parameter Information Block
#_______________________________________________________________________________
#
#PARAMETER_NAME    .UNIT     VALUE                         : DESCRIPTION
#_______________________________________________________________________________
SET                .         D8102_D                       : 
OTHER              .         Программное обеспечение станции MONITOR-386EX 25/12/99 15_08_10   BGF V52 22/08/01 16_56_30   4_SNGF_BGF_N_011645: 
OTHER_10           .         Тарировки_                    : 
OTHER_11           .         TM.GRD = 0.00412*TM$.UE + -2.13: 
OTHER_12           .         MN.ATM = (5.87652e-006*TM.GRD + 0.01993)*(MN$.UE + -2.72*TM.GRD + -1925): 
OTHER_13           .         GK.MKR/H = GK$.UE / 57.4657   : 
OTHER_2            .         Kedr.exe версия 3.4.2.51      : 
OTHER_3            .         KedrData.dll версия 3.4.2.24  : 
OTHER_4            .         Драйвер версия 2.1.0.2        : 
OTHER_5            .         Мнемоники версия 3.3 S        : 
OTHER_6            .         Прибор_ АКП4-90               : 
OTHER_7            .         Номер прибора_ 53             : 
OTHER_8            .         Режим_ АКП4_90                : 
OTHER_9            .         Форма_ ПК-53ое                : 
PROJECT_UPGRADE_TIME .         2021-03-18T21_24_50           : 
TLFamily_DEPT      .         Measured Depth                : 
TLFamily_GK        .         Gamma Ray                     : 
TLFamily_GK$       .                                       : 
TLFamily_LM        .         Casing Collar locator         : 
TLFamily_METKA     .                                       : 
TLFamily_METKA_1   .                                       : 
TLFamily_MN        .                                       : 
TLFamily_MN$       .                                       : 
TLFamily_RCOR      .                                       : 
TLFamily_SPID      .         Spontaneous Potential         : 
TLFamily_TENS      .         Cable Tension                 : 
TLFamily_TIME      .         Time                          : 
TLFamily_TM        .         Temperature                   : 
TLFamily_TM$       .         Temperature                   : 
group              .         prim                          : 
~Curve Information
#_______________________________________________________________________________
#
#LOGNAME           .UNIT     LOG_ID                        : DESCRIPTION
#_______________________________________________________________________________
DEPT               .M                                      : 1 Глубина, м -    0.0 см 
GK                 .MKR/H                                  : 13 Гамма-активность, мкр./ч -   65.0 см 
GK$                .UE                                     : 10 Гамма-активность, усл.ед. -   65.0 см 
LM                 .                                       : 9 Локатор муфт,  -   30.0 см 
METKA              .                                       : 3 Метки,  -    0.0 см 
METKA_1            .                                       : 14 Маркеры - 65 см 
MN                 .ATM                                    : 12 Давление, атм. -  140.0 см 
MN$                .UE                                     : 8 Давление, усл.ед. -  140.0 см 
RCOR               .CM/KM                                  : 5 Коррекция по ролику, см/км -    0.0 см 
SPID               .M/H                                    : 2 Скорость, м/час -    0.0 см 
TENS               .T                                      : 6 Натяжение кабеля, т -    0.0 см 
TIME               .S                                      : 4 Время, сек -    0.0 см 
TM                 .GRD                                    : 11 Температура, °C -  145.0 см 
TM$                .UE                                     : 7 Температура, усл.ед. -  145.0 см 
~Ascii
# ...
2750.2     6.28       361        661        0          0          252.134    14576      0          -310       0.71       294.47     58.282     14663     
2750.4     6.44       370        349        0          0          252.227    14581      0          -317       0.73       292.19     58.433     14700     
2750.6     6.38       367        251        2          0          252.247    14582      0          -313       0.71       289.4      58.607     14742     
2750.8     6.16       354        297        0          0          252.274    14583      0          -318       0.71       287.11     58.886     14810     
2751       6.02       346        267        0          0          252.294    14584      0          -315       0.71       284.83     59.04      14847     
2751.2     5.99       344        611        0          0          252.324    14586      0          -311       0.71       282.55     59.163     14877     
2751.4     5.9        339        216        0          0          252.354    14587      0          -304       0.71       280.26     59.398     14934     
2751.6     5.8        333        275        0          0          252.374    14588      0          -311       0.71       277.88     59.488     14956     
2751.8     5.62       323        262        0          0          252.413    14590      0          -318       0.71       275.56     59.573     14977     
2752       5.59       321        517        0          0          252.413    14590      0          -317       0.71       273.28     59.693     15006     
2752.2     5.72       329        707        0          0          252.473    14593      0          -316       0.71       270.99     59.733     15015     
2752.4     5.69       327        299        0          0          252.473    14593      0          -309       0.71       268.71     59.844     15042     
2752.6     5.86       337        518        0          0          252.473    14593      0          -311       0.71       266.43     59.894     15054     
2752.8     5.43       312        326        0          0          252.513    14595      0          -306       0.71       264.14     59.968     15072     
2753       5.69       327        709        0          0          252.533    14596      0          -314       0.71       261.8      60.015     15084     
2753.2     6.13       352        267        0          0          252.553    14597      0          -315       0.71       259.51     60.097     15104     
2753.4     6.08       349        575        0          0          252.56     14597      0          -318       0.71       257.23     60.207     15130     
2753.6     6.15       354        294        0          0          252.593    14599      0          -317       0.71       254.88     60.295     15152     
2753.8     6.25       359        631        0          0          252.606    14600      0          -315       0.71       252.66     60.332     15161     
2754       6.03       346        671        0          0          252.633    14601      0          -310       0.71       250.37     60.369     15170     
2754.2     5.47       314        968        0          0          252.673    14603      0          -305       0.71       248.02     60.408     15179     
2754.4     5.16       297        838        0          0          252.692    14604      0          -313       0.71       245.74     60.455     15190     
2754.6     5.11       294        461        0          0          252.712    14605      0          -307       0.71       243.46     60.515     15205     
2754.8     6          345        549        0          0          252.712    14605      0          -316       0.71       241.17     60.552     15214     
2755       6.83       393        485        0          0          252.746    14607      0          -312       0.71       238.89     60.609     15228     
2755.2     6.49       373        267        0          0          252.752    14607      0          -316       0.71       236.66     60.638     15235     
2755.4     6.18       355        764        0          0          252.762    14608      0          -316       0.71       234.32     60.692     15248     
2755.6     5.74       330        865        0          0          252.779    14608      0          -313       0.71       232.03     60.737     15259     
2755.8     5.38       309        575        0          0          252.832    14611      0          -318       0.71       229.75     60.782     15270     
2756       5.69       327        677        0          0          252.832    14611      0          -316       0.71       227.46     60.807     15276     
2756.2     6.59       379        582        0          0          252.832    14611      0          -313       0.71       225.18     60.825     15280     
2756.4     6.73       387        435        0          0          252.852    14612      0          -306       0.71       222.9      60.85      15286     
2756.6     5.8        333        674        0          0          252.885    14614      0          -308       0.71       220.61     60.877     15293     
2756.8     5.27       303        586        0          0          252.919    14615      0          -313       0.71       218.33     60.906     15300     
2757       5.72       329        858        0          0          252.925    14616      0          -306       0.71       216.05     60.924     15304     
2757.2     6.14       353        1028       0          0          252.932    14616      0          -321       0.71       213.76     60.914     15302     
2757.4     6.03       347        724        0          0          252.985    14619      0          -326       0.71       211.48     60.873     15292     
2757.6     5.6        322        678        0          0          252.991    14619      0          -323       0.71       209.06     60.757     15264     
2757.8     5.33       306        710        0          0          253.031    14621      0          -326       0.71       206.78     60.678     15245     
2758       5.46       314        978        0          0          253.045    14622      0          -320       0.71       204.62     60.636     15234     
2758.2     5.29       304        1155       0          0          253.064    14623      0          -316       0.71       202.33     60.602     15226     
2758.4     5.01       288        761        0          0          253.084    14624      0          -313       0.71       200.03     60.562     15217     
2758.6     4.82       277        2265       0          0          253.104    14625      0          -314       0.71       197.73     60.524     15207     
2758.8     4.88       281        3553       0          0          253.111    14625      0          -309       0.71       195.44     60.496     15200     
2759       4.87       280        3241       0          0          253.131    14626      0          -316       0.68       193.15     60.476     15196     
2759.2     5.11       294        307        0          0          253.151    14627      0          -320       0.65       190.74     60.509     15204     
2759.4     5.74       330        1          0          0          253.197    14629      0          -321       0.65       188.46     60.594     15224     
2759.6     5.5        316        1          0          0          253.244    14632      0          -321       0.64       186.3      60.71      15252     
2759.8     5.68       326        1          0          0          253.257    14632      0          -322       0.63       184.02     60.84      15284     
2760       5.95       342        1          0          0          253.251    14632      0          -324       0.62       181.8      60.877     15293     
2760.2     5.92       340        1          0          0          253.251    14632      0          -327       0.63       179.51     60.885     15295     
2760.4     5.72       329        1          0          0          253.27     14633      0          -326       0.65       177.42     60.89      15296     
