~Version
 VERS              .         2.0                           : CWLS LOG ASCII STANDARD - VERSION 2.0
 WRAP              .         NO                            : ONE LINE PER DEPTH STEP
 DLM               .         SPACE                         : DELIMITING CHARACTER(SPACE TAB OR COMMA)
~Well Information
#_______________________________________________________________________________
#
#PARAMETER_NAME    .UNIT     VALUE                         : DESCRIPTION
#_______________________________________________________________________________
STRT               .M        2697.8                        : First reference value
STOP               .M        2752.8                        : Last reference value
STEP               .M        0.2                           : Step increment
NULL               .         -9999                         : Missing value
COMP               .                                       : Company
WELL               .         616                           : Well name
FLD                .                                       : Field
LOC                .                                       : Location
CNTY               .                                       : County
STAT               .                                       : State
CTRY               .                                       : Country
SRVC               .                                       : Service Company
DATE               .                                       : Date
API                .                                       : API number
PROJECT_UPGRADE_TIME .         2021-03-18T21_24_50           : 
group              .         Good                          : 
~Parameter Information Block
#_______________________________________________________________________________
#
#PARAMETER_NAME    .UNIT     VALUE                         : DESCRIPTION
#_______________________________________________________________________________
SET                .         D1170_D                       : 
OTHER              .         Программное обеспечение станции MONITOR-386EX 25/12/99 15_08_10   BGF V52 22/08/01 16_56_30   3.2_BGF_N_3070031: 
OTHER_10           .         Тарировки_                    : 
OTHER_11           .         RGD.M3/SUT = 0.603482 * RGD.UE + 9.9644: 
OTHER_2            .         Kedr.exe версия 3.4.2.51      : 
OTHER_3            .         KedrData.dll версия 3.4.2.24  : 
OTHER_4            .         Драйвер версия 2.1.0.2        : 
OTHER_5            .         Мнемоники версия 3.3 S        : 
OTHER_6            .         Прибор_ Гранат                : 
OTHER_7            .         Номер прибора_ 257            : 
OTHER_8            .         Режим_ КСА_Гранат             : 
OTHER_9            .         Форма_ РАСХОД                 : 
PROJECT_UPGRADE_TIME .         2021-03-18T21_24_49           : 
TLFamily_DEPT      .         Measured Depth                : 
TLFamily_METKA     .                                       : 
TLFamily_RCOR      .                                       : 
TLFamily_RGD       .                                       : 
TLFamily_RGD_2     .                                       : 
TLFamily_SPID      .         Spontaneous Potential         : 
TLFamily_TENS      .         Cable Tension                 : 
TLFamily_TIME      .         Time                          : 
group              .         prim                          : 
~Curve Information
#_______________________________________________________________________________
#
#LOGNAME           .UNIT     LOG_ID                        : DESCRIPTION
#_______________________________________________________________________________
DEPT               .M                                      : 1 Глубина, м -    0.0 см 
METKA              .                                       : 3 Метки,  -    0.0 см 
RCOR               .CM/KM                                  : 5 Коррекция по ролику, см/км -    0.0 см 
RGD                .UE                                     : 7 Расход, имп/мин -  232.0 см 
RGD_2              .M3/SUT                                 : 8 Расход, м3/сут -  232.0 см 
SPID               .M/H                                    : 2 Скорость, м/час -    0.0 см 
TENS               .T                                      : 6 Натяжение кабеля, т -    0.0 см 
TIME               .S                                      : 4 Время, сек -    0.0 см 
~Ascii
# ...
2716       0          -1400      79         57.65      -173       0          27083.41  
2716.2     0          -1400      70         52.15      -180       0          27079.32  
2716.4     0          -1400      69         51.85      -179       0          27075.22  
2716.6     0          -1400      65         49.31      -170       0          27070.93  
2716.8     0          -1400      65         49.47      -176       0          27066.84  
2717       0          -1400      60         46.16      -166       0          27062.75  
2717.2     0          -1400      65         49.48      -152       0          27058.55  
2717.4     0          -1400      74         54.37      -174       0          27054.25  
2717.6     0          -1400      72         53.12      -177       0          27050.16  
2717.8     0          -1400      71         52.83      -162       0          27046.07  
2718       0          -1400      75         55.04      -169       0          27041.78  
2718.2     0          -1400      80         57.94      -176       0          27037.68  
2718.4     0          -1400      72         53.24      -173       0          27033.58  
2718.6     0          -1400      75         55.37      -155       0          27029.48  
2718.8     0          -1400      78         57.29      -170       0          27025.09  
2719       0          -1400      76         55.63      -167       0          27021.01  
2719.2     0          -1400      85         61.16      -167       0          27016.91  
2719.4     0          -1400      80         58.27      -172       0          27012.61  
2719.6     0          -1400      76         56.1       -177       0          27008.52  
2719.8     0          -1400      79         57.63      -160       0          27004.42  
2720       2          -1400      72         53.35      -149       0          27000.33  
2720.2     0          -1400      74         54.56      -159       0          26995.44  
2720.4     0          -1400      80         58.1       -168       0          26991.34  
2720.6     0          -1400      71         52.91      -172       0          26987.14  
2720.8     0          -1400      74         54.49      -168       0          26982.85  
2721       0          -1400      79         57.93      -166       0          26978.75  
2721.2     0          -1400      73         54.15      -170       0          26974.67  
2721.4     0          -1400      79         57.53      -151       0          26970.57  
2721.6     0          -1400      82         59.48      -160       0          26966.27  
2721.8     0          -1400      79         57.8       -166       0          26962.18  
2722       0          -1400      74         54.7       -173       0          26958.08  
2722.2     0          -1400      83         60.27      -170       0          26953.69  
2722.4     0          -1400      80         58.44      -160       0          26949.6   
2722.6     0          -1400      76         55.68      -186       0          26945.5   
2722.8     0          -1400      84         60.61      -148       0          26941.41  
2723       0          -1400      92         65.7       -158       0          26937.12  
2723.2     0          -1400      81         59.12      -171       0          26933.02  
2723.4     0          -1400      90         64.15      -162       0          26928.92  
2723.6     0          -1400      87         62.73      -167       0          26924.54  
2723.8     0          -1400      88         62.95      -160       0          26920.44  
2724       0          -1400      89         63.8       -187       0          26916.34  
2724.2     0          -1400      90         64.08      -151       0          26912.25  
2724.4     0          -1400      90         63.99      -160       0          26907.95  
2724.6     0          -1400      88         63.03      -170       0          26903.85  
2724.8     0          -1400      83         60.16      -170       0          26899.77  
2725       0          -1400      84         60.52      -167       0          26895.38  
2725.2     0          -1400      91         65.12      -179       0          26891.28  
2725.4     0          -1400      94         66.41      -181       0          26887.18  
2725.6     0          -1400      91         64.71      -146       0          26883.08  
2725.8     0          -1400      83         60.32      -184       0          26878.79  
2726       0          -1400      84         60.68      -186       0          26874.71  
2726.2     0          -1400      82         59.65      -178       0          26870.61  
2726.4     0          -1400      86         61.71      -168       0          26866.31  
2726.6     0          -1400      93         66.04      -179       0          26862.12  
2726.8     0          -1400      100        70.19      -179       0          26858.02  
2727       0          -1400      92         65.23      -155       0          26853.92  
2727.2     0          -1400      98         69.06      -157       0          26849.74  
2727.4     0          -1400      98         68.81      -166       0          26845.64  
2727.6     0          -1400      86         61.91      -176       0          26841.44  
2727.8     0          -1400      88         62.79      -184       0          26837.15  
2728       0          -1400      92         65.27      -184       0          26832.96  
2728.2     0          -1400      91         65.03      -185       0          26828.96  
2728.4     0          -1400      98         68.83      -154       0          26824.77  
2728.6     0          -1400      90         64.15      -185       0          26820.47  
2728.8     0          -1400      81         59.11      -177       0          26816.38  
2729       0          -1400      87         62.31      -174       0          26812.29  
2729.2     0          -1400      70         52.22      -170       0          26807.89  
2729.4     0          -1400      70         52.51      -180       0          26803.79  
2729.6     0          -1400      83         59.91      -179       0          26799.71  
2729.8     0          -1400      78         57.29      -171       0          26795.61  
2730       2          -1400      104        72.6       -185       0          26791.37  
2730.2     0          -1400      89         63.72      -179       0          26786.82  
2730.4     0          -1400      88         63.31      -175       0          26782.72  
2730.6     0          -1400      85         61.14      -178       0          26778.43  
2730.8     0          -1400      78         57.33      -169       0          26774.24  
2731       0          -1400      70         52.23      -172       0          26770.14  
2731.2     0          -1400      83         60         -164       0          26766.05  
2731.4     0          -1400      75         55.48      -175       0          26761.75  
2731.6     0          -1400      76         55.88      -170       0          26757.65  
2731.8     0          -1400      99         69.48      -176       0          26753.57  
2732       0          -1400      95         67.52      -180       0          26749.27  
2732.2     0          -1400      86         62.16      -183       0          26745.18  
2732.4     0          -1400      85         61.51      -177       0          26741.08  
2732.6     0          -1400      86         61.79      -164       0          26736.88  
2732.8     0          -1400      85         61.29      -175       0          26732.59  
2733       0          -1400      90         64.47      -184       0          26728.6   
2733.2     0          -1400      92         65.24      -182       0          26724.51  
2733.4     0          -1400      77         56.27      -178       0          26720.11  
2733.6     0          -1400      73         54.05      -181       0          26716.01  
2733.8     0          -1400      77         56.58      -174       0          26711.92  
2734       0          -1400      80         58.51      -175       0          26707.82  
