~Version
 VERS              .         2.0                           : CWLS LOG ASCII STANDARD - VERSION 2.0
 WRAP              .         NO                            : ONE LINE PER DEPTH STEP
 DLM               .         SPACE                         : DELIMITING CHARACTER(SPACE TAB OR COMMA)
~Well Information
#_______________________________________________________________________________
#
#PARAMETER_NAME    .UNIT     VALUE                         : DESCRIPTION
#_______________________________________________________________________________
STRT               .M        2648.8                        : First reference value
STOP               .M        2753.600052                   : Last reference value
STEP               .M        0.2000001                     : Step increment
NULL               .         -9999                         : Missing value
COMP               .                                       : Company
WELL               .         616                           : Well name
FLD                .                                       : Field
LOC                .                                       : Location
CNTY               .                                       : County
STAT               .                                       : State
CTRY               .                                       : Country
SRVC               .                                       : Service Company
DATE               .                                       : Date
API                .                                       : API number
PROJECT_UPGRADE_TIME .         2021-03-18T21_24_50           : 
group              .         Good                          : 
~Parameter Information Block
#_______________________________________________________________________________
#
#PARAMETER_NAME    .UNIT     VALUE                         : DESCRIPTION
#_______________________________________________________________________________
SET                .         D7027_D                       : 
OTHER              .         Kedr.exe версия 2.1.2.32      : 
OTHER_10           .         TM.GRD = 0.00404*TM$.UE + 0.07: 
OTHER_11           .         MN.ATM = (6.33279e-006*TM.GRD + 0.02401)*(MN$.UE + 2.72*TM.GRD + -2018): 
OTHER_12           .         GK.MKR/H = GK$.UE / 43.5489 + 0: 
OTHER_13           .         RES.SM = 0.00476*CRES.UE - 1.51709: 
OTHER_14           .         PL.GSM3 = 0 + 0 * (PL.UE / 1) +  0 * (PL.UE / 1)^2: 
OTHER_15           .         Постоянная времени ГГП = 6 сек: 
OTHER_16           .         Постоянная времени ГК = 6 сек : 
OTHER_2            .         KedrData.dll версия 3.2.2.14  : 
OTHER_3            .         LasInf.dll версия 3.2.0.13    : 
OTHER_4            .         Драйвер версия 1.2.0.5        : 
OTHER_5            .         Прибор_ КСА-M1                : 
OTHER_6            .         Номер прибора_ 155+р204       : 
OTHER_7            .         Режим_ КСА-М1 + ГГП + Резистивиметр: 
OTHER_8            .         Форма_ 223\2                  : 
OTHER_9            .         Тарировки_                    : 
PROJECT_UPGRADE_TIME .         2021-03-18T21_24_50           : 
TLFamily_CRES      .                                       : 
TLFamily_DEPT      .         Measured Depth                : 
TLFamily_GK        .         Gamma Ray                     : 
TLFamily_GK$       .                                       : 
TLFamily_LM        .         Casing Collar locator         : 
TLFamily_METKA     .                                       : 
TLFamily_MN        .                                       : 
TLFamily_MN$       .                                       : 
TLFamily_PL        .                                       : 
TLFamily_PL_2      .                                       : 
TLFamily_RCOR      .                                       : 
TLFamily_RES       .         Mud Resistivity               : 
TLFamily_SPID      .         Spontaneous Potential         : 
TLFamily_STD       .                                       : 
TLFamily_TIME      .         Time                          : 
TLFamily_TM        .         Temperature                   : 
TLFamily_TM$       .         Temperature                   : 
TLFamily_VGD       .         Gas Volume                    : 
group              .         prim                          : 
~Curve Information
#_______________________________________________________________________________
#
#LOGNAME           .UNIT     LOG_ID                        : DESCRIPTION
#_______________________________________________________________________________
DEPT               .M                                      : 1 Глубина, м -    0.0 см 
CRES               .UE                                     : 9 Проводимость, усл.ед. -  222.0 см 
GK                 .MKR/H                                  : 16 Гамма-активность, мкр./ч -  106.0 см 
GK$                .UE                                     : 13 Гамма-активность, усл.ед. -  106.0 см 
LM                 .                                       : 11 Локатор муфт,  -   16.0 см 
METKA              .                                       : 3 Метки,  -    0.0 см 
MN                 .ATM                                    : 15 Давление, атм. -  160.0 см 
MN$                .UE                                     : 7 Давление, усл.ед. -  160.0 см 
PL                 .UE                                     : 10 Плотность, усл.ед. -  270.0 см 
PL_2               .GSM3                                   : 18 Плотность, г./см3 -  270.0 см 
RCOR               .CM/KM                                  : 5 Коррекция по ролику, см/км -    0.0 см 
RES                .SM                                     : 17 Проводимость,  -  222.0 см 
SPID               .M/H                                    : 2 Скорость, м/час -    0.0 см 
STD                .                                       : 12 Приток,  -  170.0 см 
TIME               .S                                      : 4 Время, сек -    0.0 см 
TM                 .GRD                                    : 14 Температура, °C -  180.0 см 
TM$                .UE                                     : 6 Температура, усл.ед. -  180.0 см 
VGD                .                                       : 8 Влагомер,  -  170.0 см 
~Ascii
# ...
2681.600016 1173       10.64      469        71         0          246.52     11988      14         0          0          4.0664     510        10783      18211.68   55.146     13633      6627      
2681.800017 1173       10.72      470        1280       0          246.553    11990      14         0          0          4.064      580        10772      18212.99   55.119     13626      6618      
2682.000017 1173       10.48      420        791        0          246.573    11991      14         0          0          4.0664     545        10766      18214.26   55.062     13612      6618      
2682.200017 1244       10.08      420        123        0          246.585    11992      14         0          0          4.4042     522        10760      18215.58   55.029     13604      6618      
2682.400017 1244       10.06      447        42         0          246.612    11993      14         0          0          4.403      570        10758      18216.88   54.996     13596      6624      
2682.600017 1244       10.16      447        32         0          246.62     11993      14         0          0          4.4043     580        10755      18218.16   54.979     13591      6630      
2682.800017 1243       10.57      518        32         0          246.635    11994      14         0          0          4.3996     533        10754      18219.48   54.96      13587      6619      
2683.000017 1245       11.23      518        28         0          246.676    11996      14         0          0          4.4091     580        10750      18220.73   54.943     13582      6618      
2683.200017 1245       11.68      535        33         0          246.675    11996      14         0          0          4.4091     522        10742      18222.05   54.911     13574      6619      
2683.400017 1245       11.99      535        29         0          246.694    11997      14         0          0          4.4083     545        10734      18223.38   54.873     13565      6619      
2683.600017 1244       12.09      530        31         0          246.715    11998      14         0          0          4.402      580        10728      18224.62   54.838     13556      6618      
2683.800018 1243       12.13      530        42         0          246.737    11999      14         0          0          4.3996     580        10722      18225.94   54.812     13550      6619      
2684.000018 1243       11.88      495        22         0          246.739    11999      14         0          0          4.3996     522        10715      18227.21   54.788     13544      6620      
2684.200018 1243       11.63      495        20         0          246.781    12001      14         0          0          4.3996     540        10709      18228.55   54.779     13542      6619      
2684.400018 1243       11.46      491        24         0          246.795    12002      14         0          0          4.3996     580        10707      18229.84   54.758     13537      6620      
2684.600018 1243       11.37      491        36         0          246.8      12002      14         0          0          4.3996     580        10705      18231.11   54.738     13532      6621      
2684.800018 1244       11.33      492        29         0          246.822    12003      14         0          0          4.4043     510        10701      18232.42   54.716     13526      6620      
2685.000018 1243       11.3       489        27         0          246.844    12004      14         0          0          4.398      580        10702      18233.74   54.698     13522      6621      
2685.200018 1242       11.17      481        23         0          246.866    12005      14         0          0          4.3948     510        10702      18235.07   54.675     13516      6621      
2685.400018 1243       11.11      481        16         0          246.889    12006      14         0          0          4.3996     510        10700      18236.32   54.66      13512      6620      
2685.600018 1242       11.01      475        18         0          246.911    12007      14         0          0          4.3948     580        10697      18237.64   54.646     13509      6620      
2685.800019 1242       11.03      491        34         0          246.931    12008      14         0          0          4.3964     580        10690      18238.96   54.629     13505      6623      
2686.000019 1242       11.53      524        37         0          246.948    12009      14         0          0          4.3948     580        10685      18240.22   54.595     13496      6622      
2686.200019 1242       11.78      522        29         0          246.95     12009      14         0          0          4.3955     580        10679      18241.52   54.57      13490      6624      
2686.400019 1241       11.88      522        15         0          246.97     12010      14         0          0          4.3914     580        10671      18242.8    54.557     13487      6625      
2686.600019 1243       11.93      521        15         0          246.992    12011      14         0          0          4.3972     521        10664      18244.12   54.526     13479      6625      
2686.800019 1242       11.93      520        33         0          247.013    12012      14         0          0          4.3962     580        10656      18245.43   54.506     13474      6625      
2687.000019 1242       12.23      587        38         0          247.034    12013      14         0          0          4.3948     580        10649      18246.7    54.481     13468      6625      
2687.200019 1242       12.85      587        18         0          247.054    12014      14         0          0          4.3948     557        10643      18248.02   54.452     13461      6625      
2687.400019 1241       12.9       545        85         0          247.07     12015      14         0          0          4.3901     510        10639      18249.33   54.424     13454      6622      
2687.600019 1242       12.71      545        164        0          247.096    12016      14         0          0          4.3941     580        10637      18250.58   54.397     13447      6623      
2687.800019 1241       12         421        155        0          247.099    12016      14         0          0          4.3901     538        10632      18251.88   54.368     13440      6624      
2688.00002 1240       10.85      421        81         0          247.126    12018      14         0          0          4.3834     580        10627      18253.16   54.338     13433      6626      
2688.20002 1239       9.71       337        47         0          247.134    12018      14         0          0          4.3821     580        10623      18254.48   54.319     13428      6623      
2688.40002 1238       8.72       337        48         0          247.155    12019      13         0          0          4.3758     540        10620      18255.85   54.289     13421      6624      
2688.60002 1238       8.13       323        60         0          247.177    12020      14         0          0          4.3742     533        10618      18257.13   54.262     13414      6621      
2688.80002 1237       7.78       323        45         0          247.189    12021      14         0          0          4.371      580        10614      18258.45   54.24      13408      6632      
2689.00002 1236       7.83       346        47         0          247.219    12022      14         0          0          4.3671     580        10615      18259.77   54.209     13401      6632      
2689.20002 1236       7.89       346        75         0          247.24     12023      14         0          0          4.3663     545        10612      18261.03   54.19      13396      6621      
2689.40002 1237       7.99       354        52         0          247.246    12023      14         0          0          4.371      522        10607      18262.35   54.168     13391      6622      
2689.60002 1229       8.06       354        53         0          247.256    12024      14         0          0          4.3312     568        10599      18263.68   54.141     13384      6620      
