~Version
 VERS              .         2.0                           : CWLS LOG ASCII STANDARD - VERSION 2.0
 WRAP              .         NO                            : ONE LINE PER DEPTH STEP
 DLM               .         SPACE                         : DELIMITING CHARACTER(SPACE TAB OR COMMA)
~Well Information
#_______________________________________________________________________________
#
#PARAMETER_NAME    .UNIT     VALUE                         : DESCRIPTION
#_______________________________________________________________________________
STRT               .M        2645.4                        : First reference value
STOP               .M        2753.4                        : Last reference value
STEP               .M        0.2                           : Step increment
NULL               .         -9999                         : Missing value
COMP               .                                       : Company
WELL               .         616                           : Well name
FLD                .                                       : Field
LOC                .                                       : Location
CNTY               .                                       : County
STAT               .                                       : State
CTRY               .                                       : Country
SRVC               .                                       : Service Company
DATE               .                                       : Date
API                .                                       : API number
PROJECT_UPGRADE_TIME .         2021-03-18T21_24_50           : 
group              .         Good                          : 
~Parameter Information Block
#_______________________________________________________________________________
#
#PARAMETER_NAME    .UNIT     VALUE                         : DESCRIPTION
#_______________________________________________________________________________
SET                .         D4410_D                       : 
OTHER              .         Запись производится в присутствии: 
OTHER_10           .         Максимальная температура      : 
OTHER_11           .         Тип промывочной жидкости      : 
OTHER_12           .         Сопротивление ПЖ (Ом*м) при 20°C: 
OTHER_13           .         Плотность ПЖ(г/см3)           : 
OTHER_14           .         Вязкость ПЖ(с)                : 
OTHER_15           .         Водоотдача ПЖ(см3/30мин)      : 
OTHER_16           .         Уровень ПЖ                    : 
OTHER_17           .         Нефть ПЖ (%)                  : 
OTHER_18           .         Барит ПЖ (%)                  : 
OTHER_19           .         Гематит ПЖ (%)                : 
OTHER_2            .         Заказчик ННСН  ЦДНГ-1         : 
OTHER_20           .         КМЦ ПЖ (%)                    : 
OTHER_21           .         Разгазирование ПЖ (да,нет)    : 
OTHER_22           .         Подъемник                     : 
OTHER_23           .         Лаборатория                   : 
OTHER_24           .         Тип кабеля                    : 
OTHER_25           .         Длина кабеля (м)              : 
OTHER_26           .         Цена последней метки          : 
OTHER_27           .         Цена контрольной метки        : 
OTHER_28           .         Диаметр долота (мм)           : 
OTHER_29           .         Глубина бурения (м)           : 
OTHER_3            .         Площадь                       : 
OTHER_30           .         Искусственный забой (м)       : 
OTHER_31           .         Диаметр колонны (мм)          : 
OTHER_32           .         Толщина колонны (мм)          : 
OTHER_33           .         Башмак колонны (м)            : 
OTHER_34           .         Диаметр НКТ (мм)              : 
OTHER_35           .         Толщина НКТ (мм)              : 
OTHER_36           .         Воронка НКТ (м)               : 
OTHER_37           .         Дата цементожа                : 
OTHER_38           .         Тип, количество(т) и плотность цемента: 
OTHER_39           .         Интервалы перфорации (м)      : 
OTHER_4            .         Категория                     : 
OTHER_40           .         Направление, диаметр (мм)     : 
OTHER_41           .         Направление, глубина (м)      : 
OTHER_42           .         Кондуктор, диаметр (мм)       : 
OTHER_43           .         Кондуктор, глубина (м)        : 
OTHER_44           .         Техническая колонна, диаметр (мм): 
OTHER_45           .         Техническая колонна, глубина (м): 
OTHER_46           .         Эксплуатационная колонна, диаметр (мм): 
OTHER_47           .         Эксплуатационная колонна, глубина (м): 
OTHER_48           .         Программа Кедр-02 версия 3.4  : 
OTHER_49           .         Операционная система Windows NT 5.1 build 2600 Service Pack 2: 
OTHER_5            .         Назначение исследований       : 
OTHER_50           .         Программное обеспечение станции MONITOR-386EX 25/12/99 15_08_10   BGF V54 20/09/05 15_32_17   3.3__BGF_9030071: 
OTHER_51           .         Kedr.exe версия 3.4.2.74      : 
OTHER_52           .         KedrData.dll версия 3.4.2.29  : 
OTHER_53           .         Мнемоники версия 3.18 S       : 
OTHER_54           .         Драйвер версия 2.1.1.4        : 
OTHER_55           .         LasInf.dll 4.3.0.35           : 
OTHER_56           .         Прибор_ КСА-Т4                : 
OTHER_57           .         Номер прибора_ 160            : 
OTHER_58           .         Режим_ КСА-Т4                 : 
OTHER_59           .         Форма_ С.А.Б.                 : 
OTHER_6            .         Альтитуда стола ротора        : 
OTHER_60           .         Тарировки_                    : 
OTHER_61           .         <_techsia_sc_> Дата тарировки температуры 25.05.2010: 
OTHER_62           .         Ручной ввод коэффициентов     : 
OTHER_63           .         TM.DEGC = 0.00402*RTM.E.ACP + -0.994: 
OTHER_64           .         <_techsia_sc_> Дата тарировки давления 25.05.2010: 
OTHER_65           .         Ручной ввод коэффициентов     : 
OTHER_66           .         MN.ATM = (2.27521e-006*TM.DEGC + 0.02078)*(RMN.E.ACP + 6.2*TM.DEGC + -1688): 
OTHER_67           .         <_techsia_sc_> Дата тарировки ГК 25.05.2010: 
OTHER_68           .         Ручной ввод коэффициентов     : 
OTHER_69           .         GR.UR/H = RGR.IMP/MIN / 45.5144: 
OTHER_7            .         Вид исследований 3  6         : 
OTHER_70           .         GK.FLT = 0.1*GR.UR/H[-1] + (1-0.1)*GR.UR/H[0]: 
OTHER_8            .         Начало бурения интервала каротажа: 
OTHER_9            .         Окончание бурения интервала каротажа: 
PROJECT_UPGRADE_TIME .         2021-03-18T21_24_50           : 
TLFamily_CCLC      .                                       : 
TLFamily_DEPT      .         Measured Depth                : 
TLFamily_GK        .         Gamma Ray                     : 
TLFamily_GR        .         Gamma Ray                     : 
TLFamily_METKA     .                                       : 
TLFamily_MN        .                                       : 
TLFamily_RCOR      .                                       : 
TLFamily_RGR       .                                       : 
TLFamily_RMN       .                                       : 
TLFamily_RTEN      .                                       : 
TLFamily_RTM       .                                       : 
TLFamily_SPEE      .         Cable Speed                   : 
TLFamily_TIME      .         Time                          : 
TLFamily_TM        .         Temperature                   : 
group              .         prim                          : 
~Curve Information
#_______________________________________________________________________________
#
#LOGNAME           .UNIT     LOG_ID                        : DESCRIPTION
#_______________________________________________________________________________
DEPT               .M                                      : 1 Глубина, м -    0.0 см 
CCLC               .E.ACP                                  : 9 Локатор муфт,  -   20.0 см 
GK                 .FLT                                    : 14 Гамма-активность фильтрованная, мкр./ч -  110.0 см 
GR                 .UR/H                                   : 13 Гамма-активность, мкр./ч -  110.0 см 
METKA              .CU                                     : 3 Метки,  -    0.0 см 
MN                 .ATM                                    : 12 Давление, атм. -  160.0 см 
RCOR               .CM/KM                                  : 5 Коррекция по ролику, см/км -    0.0 см 
RGR                .IMP/MIN                                : 10 Гамма-активность, усл.ед. -  110.0 см 
RMN                .E.ACP                                  : 8 Давление, усл.ед. -  160.0 см 
RTEN               .T                                      : 6 Натяжение кабеля, т -    0.0 см 
RTM                .E.ACP                                  : 7 Температура, усл.ед. -  170.0 см 
SPEE               .M/H                                    : 2 Скорость, м/час -    0.0 см 
TIME               .S                                      : 4 Время, сек -    0.0 см 
TM                 .DEGC                                   : 11 Температура, °C -  170.0 см 
~Ascii
# ...
2739       42         8.09       8.09       0          371.855    -1097      368        19174      0.2        12720      635        542.05     50.14     
2739.2     36         8.09       8.09       0          371.827    -1097      368        19173      0.2        12722      636        543.16     50.147    
2739.4     50         8.44       8.44       0          372.122    -1097      384        19187      0.2        12722      635        544.37     50.148    
2739.6     67         8.5        8.5        0          372.13     -1097      387        19188      0.2        12720      636        545.48     50.14     
2739.8     76         11.31      11.31      0          372.27     -1097      515        19194      0.2        12714      635        546.63     50.117    
2740       60         11.32      11.32      0          372.348    -1097      515        19198      0.2        12712      636        547.77     50.109    
2740.2     52         11.32      11.32      0          372.367    -1097      515        19199      0.2        12711      635        548.86     50.104    
2740.4     43         12.46      12.46      0          372.582    -1097      567        19209      0.2        12708      635        550.05     50.092    
2740.6     60         12.46      12.46      0          372.808    -1097      567        19220      0.2        12710      635        551.19     50.1      
2740.8     47         12.88      12.88      0          372.923    -1097      586        19226      0.2        12705      635        552.3      50.081    
2741       66         12.88      12.88      0          372.919    -1097      586        19226      0.2        12698      632        553.5      50.053    
2741.2     54         13.89      13.89      0          373.04     -1097      632        19232      0.2        12693      624        554.71     50.032    
2741.4     66         13.89      13.89      0          373.102    -1097      632        19235      0.2        12693      616        555.92     50.032    
2741.6     54         13.42      13.42      0          373.233    -1097      611        19241      0.2        12694      610        557.13     50.035    
2741.8     56         13.42      13.42      0          373.226    -1097      611        19241      0.19       12698      607        558.37     50.051    
2742       42         12.99      12.99      0          373.368    -1097      591        19247      0.19       12701      604        559.57     50.064    
2742.2     40         12.92      12.92      0          373.431    -1097      588        19250      0.19       12702      601        560.82     50.068    
2742.4     42         12.43      12.43      0          373.329    -1097      566        19245      0.19       12703      600        562.01     50.071    
2742.6     40         11.78      11.78      0          373.199    -1097      536        19239      0.19       12707      599        563.2      50.088    
2742.8     63         11.32      11.32      0          373.39     -1097      515        19248      0.2        12710      598        564.41     50.1      
2743       51         11.1       11.1       0          373.328    -1097      505        19245      0.2        12714      597        565.69     50.118    
2743.2     48         11         11         0          373.627    -1097      501        19259      0.2        12721      596        566.89     50.144    
2743.4     37         10.52      10.52      0          373.622    -1097      479        19259      0.2        12726      595        568.09     50.166    
2743.6     55         10.34      10.34      0          373.766    -1097      470        19265      0.2        12732      596        569.3      50.187    
2743.8     42         10.08      10.08      0          373.679    -1097      459        19261      0.2        12737      596        570.5      50.21     
2744       25         10.08      10.08      0          373.758    -1097      459        19264      0.2        12745      596        571.77     50.241    
2744.2     20         10.06      10.06      0          373.859    -1097      458        19269      0.2        12752      597        572.98     50.27     
2744.4     20         9.91       9.91       0          373.935    -1097      451        19272      0.2        12761      598        574.19     50.304    
2744.6     50         9.51       9.51       0          374.007    -1097      433        19275      0.2        12770      597        575.39     50.34     
2744.8     48         9.51       9.51       0          374.029    -1097      433        19276      0.2        12777      596        576.64     50.371    
2745       52         9.32       9.32       0          374.126    -1097      424        19281      0.2        12783      596        577.86     50.392    
2745.2     100        9.32       9.32       0          374.136    -1097      424        19281      0.2        12790      596        579.07     50.421    
2745.4     100        9.71       9.71       0          374.2      -1097      442        19284      0.2        12800      596        580.25     50.463    
2745.6     50         9.71       9.71       0          374.33     -1097      442        19289      0.2        12814      596        581.43     50.518    
2745.8     34         10.02      10.02      0          374.367    -1097      456        19291      0.2        12822      595        582.69     50.55     
2746       52         10.02      10.02      0          374.431    -1097      456        19294      0.2        12830      594        583.89     50.584    
2746.2     83         9.91       9.91       0          374.545    -1097      451        19299      0.2        12838      595        585.09     50.613    
2746.4     63         9.91       9.91       0          374.584    -1097      451        19300      0.2        12849      596        586.32     50.659    
2746.6     136        9.32       9.32       0          374.523    -1097      424        19297      0.2        12864      596        587.56     50.72     
2746.8     78         9.32       9.32       0          374.587    -1097      424        19300      0.2        12878      597        588.77     50.776    
2747       49         9.49       9.49       0          374.644    -1097      432        19302      0.2        12889      596        589.97     50.821    
2747.2     9411       9.49       9.49       0          374.611    -1097      432        19300      0.2        12901      596        591.18     50.868    
2747.4     6059       9.21       9.21       0          374.695    -1097      419        19304      0.2        12910      596        592.39     50.903    
2747.6     1699       9.21       9.21       0          374.738    -1097      419        19306      0.2        12918      597        593.63     50.935    
2747.8     326        10.55      10.55      0          374.785    -1097      480        19307      0.2        12927      596        594.88     50.973    
2748       126        10.55      10.55      0          374.779    -1097      480        19307      0.2        12942      596        596.08     51.032    
2748.2     154        12.24      12.24      0          374.813    -1097      557        19308      0.2        12955      596        597.24     51.085    
2748.4     88         12.24      12.24      0          374.75     -1097      557        19305      0.2        12967      595        598.49     51.133    
2748.6     44         11.84      11.84      0          374.752    -1097      539        19304      0.2        12979      594        599.72     51.182    
2748.8     55         11.84      11.84      0          374.712    -1097      539        19302      0.2        12987      595        600.92     51.212    
2749       239        11.43      11.43      0          374.726    -1097      520        19303      0.2        12994      595        602.13     51.242    
2749.2     215        11.23      11.23      0          374.704    -1097      511        19301      0.2        13003      595        603.33     51.277    
