~Version
 VERS              .         2.0                           : CWLS LOG ASCII STANDARD - VERSION 2.0
 WRAP              .         NO                            : ONE LINE PER DEPTH STEP
 DLM               .         SPACE                         : DELIMITING CHARACTER(SPACE TAB OR COMMA)
~Well Information
#_______________________________________________________________________________
#
#PARAMETER_NAME    .UNIT     VALUE                         : DESCRIPTION
#_______________________________________________________________________________
STRT               .M        2669.2                        : First reference value
STOP               .M        2776.2                        : Last reference value
STEP               .M        0.2                           : Step increment
NULL               .         -9999                         : Missing value
COMP               .                                       : Company
WELL               .         616                           : Well name
FLD                .                                       : Field
LOC                .                                       : Location
CNTY               .                                       : County
STAT               .                                       : State
CTRY               .                                       : Country
SRVC               .                                       : Service Company
DATE               .                                       : Date
API                .                                       : API number
PROJECT_UPGRADE_TIME .         2021-03-18T21_24_50           : 
group              .         Good                          : 
~Parameter Information Block
#_______________________________________________________________________________
#
#PARAMETER_NAME    .UNIT     VALUE                         : DESCRIPTION
#_______________________________________________________________________________
SET                .         D1809_D                       : 
OTHER              .         Программное обеспечение станции MONITOR-386EX 25/12/99 15_08_10   BGF V52 22/08/01 16_56_30   3.1_SNGF___BGF_N_092049: 
OTHER_10           .         Тарировки_                    : 
OTHER_11           .         TM.GRD = 0.00403*TM$.UE + -1.07: 
OTHER_12           .         MN.ATM = (9.34907e-006*TM.GRD + 0.02171)*(MN$.UE + -7.93*TM.GRD + -1787): 
OTHER_13           .         GK.MKR/H = LM. / 42.4676      : 
OTHER_14           .         GK.FLT = 0.1*GK.MKR/H[-1] + (1-0.1)*GK.MKR/H[0]: 
OTHER_2            .         Kedr.exe версия 3.4.2.51      : 
OTHER_3            .         KedrData.dll версия 3.4.2.24  : 
OTHER_4            .         Драйвер версия 2.1.1.3        : 
OTHER_5            .         Мнемоники версия 3.3 S        : 
OTHER_6            .         Прибор_ КСА-Т4                : 
OTHER_7            .         Номер прибора_ 03             : 
OTHER_8            .         Режим_ КСА-Т4                 : 
OTHER_9            .         Форма_ КВА.                   : 
PROJECT_UPGRADE_TIME .         2021-03-18T21_24_49           : 
TLFamily_DEPT      .         Measured Depth                : 
TLFamily_GK        .         Gamma Ray                     : 
TLFamily_GK$       .                                       : 
TLFamily_GK_2      .         Gamma Ray                     : 
TLFamily_LM        .         Casing Collar locator         : 
TLFamily_METKA     .                                       : 
TLFamily_MN        .                                       : 
TLFamily_MN$       .                                       : 
TLFamily_RCOR      .                                       : 
TLFamily_SPID      .         Spontaneous Potential         : 
TLFamily_TENS      .         Cable Tension                 : 
TLFamily_TIME      .         Time                          : 
TLFamily_TM        .         Temperature                   : 
TLFamily_TM$       .         Temperature                   : 
group              .         prim                          : 
~Curve Information
#_______________________________________________________________________________
#
#LOGNAME           .UNIT     LOG_ID                        : DESCRIPTION
#_______________________________________________________________________________
DEPT               .M                                      : 1 Глубина, м -    0.0 см 
GK                 .MKR/H                                  : 13 Гамма-активность, мкр./ч -  110.0 см 
GK$                .UE                                     : 10 Гамма-активность, усл.ед. -  110.0 см 
GK_2               .FLT                                    : 14 Гамма-активность фильтрованная, мкр./ч -  110.0 см 
LM                 .                                       : 9 Локатор муфт,  -   20.0 см 
METKA              .                                       : 3 Метки,  -    0.0 см 
MN                 .ATM                                    : 12 Давление, атм. -  160.0 см 
MN$                .UE                                     : 8 Давление, усл.ед. -  160.0 см 
RCOR               .CM/KM                                  : 5 Коррекция по ролику, см/км -    0.0 см 
SPID               .M/H                                    : 2 Скорость, м/час -    0.0 см 
TENS               .T                                      : 6 Натяжение кабеля, т -    0.0 см 
TIME               .S                                      : 4 Время, сек -    0.0 см 
TM                 .GRD                                    : 11 Температура, °C -  170.0 см 
TM$                .UE                                     : 7 Температура, усл.ед. -  170.0 см 
~Ascii
# ...
2700.4     9.04       384        8.69       175        0          249.314    13432      -644       578        0.05       6464.11    52.112     13197     
2700.6     9.04       384        9.03       188        0          249.337    13433      -644       578        0.05       6465.36    52.099     13193     
2700.8     9.11       387        9.09       153        0          249.351    13434      -644       583        0.05       6466.56    52.086     13190     
2701       9.11       387        9.11       169        0          249.361    13434      -644       584        0.05       6467.91    52.077     13188     
2701.2     8.9        378        8.95       185        0          249.384    13435      -644       588        0.05       6469.11    52.059     13183     
2701.4     8.9        378        8.9        169        0          249.4      13436      -644       592        0.05       6470.36    52.041     13179     
2701.6     9.07       385        9.05       215        0          249.409    13436      -644       595        0.05       6471.58    52.028     13176     
2701.8     9.07       385        9.07       232        0          249.432    13437      -644       598        0.05       6472.86    52.01      13171     
2702       9.16       389        9.15       244        0          249.455    13438      -644       593        0.05       6474.05    51.997     13168     
2702.2     9.16       389        9.16       206        0          249.479    13439      -644       589        0.05       6475.3     51.98      13164     
2702.4     9.98       424        9.81       155        0          249.48     13439      -644       586        0.05       6476.55    51.966     13160     
2702.6     9.98       424        9.98       172        0          249.503    13440      -644       573        0.05       6477.88    51.953     13157     
2702.8     10.46      444        10.4       171        0          249.526    13441      -644       575        0.05       6479.13    51.943     13155     
2703       10.46      444        10.45      210        0          249.534    13441      -644       576        0.05       6480.38    51.926     13150     
2703.2     10.81      459        10.75      189        0          249.55     13442      -644       578        0.05       6481.61    51.912     13147     
2703.4     10.81      459        10.81      183        0          249.573    13443      -644       578        0.05       6482.84    51.902     13144     
2703.6     11.09      471        11.03      176        0          249.596    13444      -644       579        0.05       6484.06    51.886     13140     
2703.8     11.09      471        11.09      2986       0          249.597    13444      -644       579        0.05       6485.32    51.873     13137     
2704       9.73       413        9.87       1203       0          249.621    13445      -644       575        0.05       6486.6     51.855     13133     
2704.2     9.73       413        9.73       358        0          249.644    13446      -644       585        0.05       6487.83    51.837     13128     
2704.4     9.8        416        9.79       167        0          249.667    13447      -644       589        0.05       6489.08    51.824     13125     
2704.6     9.8        416        9.8        166        0          249.668    13447      -644       589        0.05       6490.33    51.81      13122     
2704.8     10.29      437        10.16      211        0          249.691    13448      -644       588        0.05       6491.58    51.801     13119     
2705       10.29      437        10.29      228        0          249.702    13448      -644       589        0.05       6492.83    51.787     13116     
2705.2     9.4        399        9.49       171        0          249.715    13449      -644       595        0.05       6494.08    51.773     13112     
2705.4     9.4        399        9.4        155        0          249.739    13450      -644       591        0.05       6495.29    51.758     13109     
2705.6     9.58       407        9.55       166        0          249.752    13451      -644       579        0.05       6496.6     51.744     13105     
2705.8     9.58       407        9.58       145        0          249.763    13451      -644       575        0.05       6497.84    51.727     13101     
2706       10.71      455        10.43      172        0          249.789    13452      -644       577        0.05       6499.09    51.719     13099     
2706.2     10.71      455        10.7       161        0          249.809    13453      -644       578        0.05       6500.28    51.708     13096     
2706.4     10.74      456        10.73      146        0          249.832    13454      -644       578        0.05       6501.53    51.693     13093     
2706.6     10.74      456        10.74      183        0          249.832    13454      -644       579        0.05       6502.78    51.681     13090     
2706.8     11.11      472        11.05      177        0          249.855    13455      -644       579        0.05       6504.03    51.671     13087     
2707       11.11      472        11.11      174        0          249.872    13456      -644       579        0.05       6505.28    51.667     13086     
2707.2     11.8       501        11.61      164        0          249.901    13457      -644       573        0.05       6506.59    51.652     13083     
2707.4     11.8       501        11.79      101        0          249.902    13457      -644       572        0.05       6507.84    51.642     13080     
2707.6     11.4       484        11.45      95         0          249.925    13458      -644       566        0.05       6509.07    51.63      13077     
2707.8     11.4       484        11.4       121        0          249.926    13458      -644       560        0.05       6510.29    51.621     13075     
2708       11.21      476        11.25      110        0          249.926    13458      -644       556        0.05       6511.55    51.607     13071     
2708.2     11.21      476        11.21      156        0          249.972    13460      -644       568        0.05       6512.78    51.594     13068     
2708.4     11         467        11.05      157        0          249.995    13461      -644       571        0.05       6514.01    51.585     13066     
2708.6     11         467        11         153        0          249.996    13461      -644       573        0.05       6515.35    51.574     13063     
2708.8     10.9       463        10.91      145        1          250.019    13462      -644       564        0.04       6516.55    51.557     13059     
2709       10.9       463        10.9       193        0          250.042    13463      -644       569        0.05       6517.8     51.548     13056     
2709.2     11.16      474        11.1       149        0          250.052    13463      -644       572        0.05       6519.05    51.538     13054     
2709.4     11.16      474        11.16      174        0          250.08     13465      -644       574        0.05       6520.3     51.525     13051     
2709.6     11.82      502        11.62      163        0          250.089    13465      -644       576        0.05       6521.55    51.516     13049     
2709.8     11.82      502        11.81      173        0          250.096    13465      -644       577        0.05       6522.74    51.507     13046     
2710       11.68      496        11.7       167        2          250.112    13466      -644       578        0.05       6524       51.493     13043     
2710.2     11.68      496        11.68      122        0          250.135    13467      -652       579        0.05       6525.81    51.484     13041     
2710.4     11.04      469        11.18      127        0          250.143    13467      -652       579        0.05       6527.05    51.47      13037     
2710.6     11.04      469        11.05      132        0          250.174    13469      -652       581        0.05       6528.28    51.461     13035     
