~Version
 VERS              .         2.0                           : CWLS LOG ASCII STANDARD - VERSION 2.0
 WRAP              .         NO                            : ONE LINE PER DEPTH STEP
 DLM               .         SPACE                         : DELIMITING CHARACTER(SPACE TAB OR COMMA)
~Well Information
#_______________________________________________________________________________
#
#PARAMETER_NAME    .UNIT     VALUE                         : DESCRIPTION
#_______________________________________________________________________________
STRT               .M        1740.47                       : First reference value
STOP               .M        2787.78                       : Last reference value
STEP               .M        0                             : Step increment
NULL               .         -9999                         : Missing value
COMP               .                                       : Company
WELL               .         616                           : Well name
FLD                .                                       : Field
LOC                .                                       : Location
CNTY               .                                       : County
STAT               .                                       : State
CTRY               .                                       : Country
SRVC               .                                       : Service Company
DATE               .                                       : Date
API                .                                       : API number
PROJECT_UPGRADE_TIME .         2021-03-18T21_24_50           : 
group              .         Good                          : 
~Parameter Information Block
#_______________________________________________________________________________
#
#PARAMETER_NAME    .UNIT     VALUE                         : DESCRIPTION
#_______________________________________________________________________________
SET                .         D2664                         : 
NPR                .         980607                        : ЗАВ НОМЕР ПРИБОРА
NPRT               .         Мещеряков                     : НАЧ ПАРТИИ
PROJECT_UPGRADE_TIME .         2021-03-18T21_24_50           : 
TLFamily_AZIMUTH   .         True Dip Azimuth              : 
TLFamily_DEPTH     .         Measured Depth                : 
TLFamily_DRILL     .                                       : 
TLFamily_METKA     .                                       : 
TLFamily_ZENIT     .                                       : 
group              .         prim                          : 
~Curve Information
#_______________________________________________________________________________
#
#LOGNAME           .UNIT     LOG_ID                        : DESCRIPTION
#_______________________________________________________________________________
DEPTH              .M                                      : 1 ГЛУБИНА 
AZIMUTH            .ГРАД                                   : 4 АЗИМУТ 
DRILL              .ГРАД                                   : 2 ПОВОРОТ 
METKA              .                                       : 5 МАГН МЕТКА 
ZENIT              .ГРАД                                   : 3 ЗЕНИТ 
~Ascii
# ...
2501.1     62.46      341.97     0          0.42      
2501.3     62.68      344.09     0          0.42      
2501.49    62.89      346.21     0          0.42      
2501.69    63.07      348.35     0          0.43      
2501.88    63.21      350.53     0          0.43      
2502.08    63.48      352.59     0          0.43      
2502.27    63.78      354.61     0          0.44      
2502.47    64.08      356.67     0          0.44      
2502.66    64.53      358.56     0          0.44      
2502.86    65.15      0.28       0          0.44      
2503.05    65.68      2.06       0          0.45      
2503.25    66.15      3.88       0          0.45      
2503.44    66.75      5.56       0          0.45      
2503.64    67.25      7.28       0          0.46      
2503.83    67.71      8.95       0          0.46      
2504.02    68.11      10.61      0          0.47      
2504.22    68.53      12.23      0          0.47      
2504.41    68.83      13.91      0          0.47      
2504.61    69.11      15.58      0          0.48      
2504.8     69.29      17.3       0          0.48      
2505       69.54      18.91      0          0.48      
2505.19    69.72      20.54      0          0.49      
2505.39    69.92      22.11      0          0.49      
2505.58    70.11      23.63      0          0.49      
2505.78    70.25      25.13      0          0.49      
2505.97    70.39      26.59      0          0.5       
2506.17    70.39      28.16      0          0.5       
2506.37    70.4       29.67      0          0.51      
2506.56    70.67      30.9       0          0.51      
2506.76    71.13      31.92      0          0.51      
2506.95    71.34      33.15      0          0.51      
2507.15    71.4       34.51      0          0.52      
2507.34    71.32      35.95      0          0.52      
2507.54    71.26      37.38      0          0.52      
2507.73    71.05      38.95      0          0.52      
2507.93    70.75      40.59      0          0.52      
2508.13    70.35      42.29      0          0.52      
2508.32    69.83      44.06      0          0.52      
2508.52    69.27      45.86      0          0.52      
2508.71    68.49      47.88      0          0.52      
2508.91    68.01      49.63      0          0.53      
2509.1     67.42      51.49      0          0.53      
2509.3     66.82      53.36      0          0.53      
2509.49    66.18      55.3       0          0.53      
2509.69    65.62      57.21      0          0.54      
2509.88    64.93      59.29      0          0.54      
2510.08    64.35      61.3       0          0.54      
2510.27    63.74      63.31      0          0.54      
2510.47    63.17      65.25      0          0.55      
2510.66    62.68      67.1       0          0.55      
2510.86    62.01      69.1       0          0.55      
2511.05    61.48      70.93      0          0.56      
2511.25    60.97      72.71      0          0.56      
2511.44    60.32      74.6       0          0.56      
2511.64    59.71      76.45      0          0.57      
2511.83    59.15      78.26      0          0.57      
2512.03    58.71      79.94      0          0.58      
2512.22    58.31      81.58      0          0.58      
2512.42    57.84      83.25      0          0.58      
2512.61    57.23      85.02      0          0.59      
2512.81    56.8       86.59      0          0.59      
2513       56.36      88.2       0          0.6       
2513.2     56.04      89.72      0          0.6       
2513.39    55.68      91.24      0          0.61      
2513.59    55.39      92.69      0          0.61      
2513.78    55.2       94.05      0          0.61      
2513.98    55.03      95.38      0          0.62      
2514.17    54.92      96.65      0          0.62      
2514.37    54.65      98.03      0          0.62      
2514.56    54.58      99.19      0          0.62      
2514.76    54.34      100.51     0          0.62      
2514.95    54.02      101.89     0          0.62      
2515.15    53.74      103.25     0          0.62      
2515.34    53.49      104.55     0          0.62      
2515.54    53.24      105.83     0          0.62      
2515.73    53         107.02     0          0.62      
2515.93    52.8       108.13     0          0.62      
2516.12    52.55      109.29     0          0.62      
2516.32    52.31      110.44     0          0.62      
2516.51    52.04      111.61     0          0.62      
2516.71    51.82      112.72     0          0.62      
2516.9     51.46      114.01     0          0.62      
2517.1     51.07      115.33     0          0.62      
2517.29    50.7       116.64     0          0.62      
2517.49    50.48      117.78     0          0.62      
2517.68    50.28      118.86     0          0.62      
2517.88    49.96      120.03     0          0.62      
2518.07    49.68      121.15     0          0.62      
2518.27    49.36      122.36     0          0.62      
2518.46    49         123.65     0          0.62      
2518.66    48.71      124.92     0          0.62      
2518.86    48.49      126.13     0          0.62      
2519.05    48.27      127.38     0          0.61      
2519.25    48.14      128.55     0          0.61      
2519.44    47.91      129.86     0          0.61      
2519.64    47.78      131.08     0          0.61      
2519.83    47.51      132.46     0          0.61      
2520.03    47.37      133.75     0          0.61      
2520.22    47.37      134.99     0          0.6       
2520.42    47.28      136.37     0          0.6       
2520.61    47.26      137.76     0          0.6       
2520.81    47.45      138.99     0          0.59      
2521       47.56      140.34     0          0.59      
2521.2     47.61      141.77     0          0.59      
2521.39    47.77      143.14     0          0.59      
2521.59    47.93      144.61     0          0.59      
2521.78    47.86      146.35     0          0.59      
2521.98    47.85      148.12     0          0.59      
2522.17    47.89      149.91     0          0.59      
2522.37    47.83      151.85     0          0.59      
2522.56    47.9       153.73     0          0.59      
2522.76    47.91      155.69     0          0.59      
2522.95    48.09      157.6      0          0.6       
2523.15    48.28      159.56     0          0.6       
2523.35    48.43      161.63     0          0.6       
2523.54    48.62      163.74     0          0.61      
2523.74    48.86      165.83     0          0.61      
2523.93    48.98      168.08     0          0.61      
2524.13    49.14      170.3      0          0.62      
2524.32    49.37      172.48     0          0.62      
2524.52    49.36      174.9      0          0.62      
2524.71    49.46      177.24     0          0.62      
2524.91    49.47      179.68     0          0.63      
2525.1     49.48      182.16     0          0.63      
2525.3     49.59      184.57     0          0.63      
2525.49    49.7       187.01     0          0.64      
2525.69    50.05      189.22     0          0.64      
2525.88    50.29      191.53     0          0.65      
2526.08    50.52      193.81     0          0.65      
2526.27    50.77      196.05     0          0.65      
2526.47    51.05      198.18     0          0.66      
2526.66    51.19      200.4      0          0.66      
2526.86    51.47      202.41     0          0.66      
2527.05    51.64      204.53     0          0.66      
2527.25    51.81      206.62     0          0.66      
2527.45    51.94      208.68     0          0.66      
2527.64    52.13      210.61     0          0.66      
2527.84    52.3       212.53     0          0.66      
2528.03    52.47      214.36     0          0.66      
2528.23    52.65      216.13     0          0.66      
2528.42    52.75      217.95     0          0.66      
2528.62    53.07      219.48     0          0.66      
2528.81    53.31      220.98     0          0.66      
2529.01    53.44      222.52     0          0.65      
2529.2     53.58      224.01     0          0.65      
2529.4     53.67      225.56     0          0.65      
