~Version
 VERS              .         2.0                           : CWLS LOG ASCII STANDARD - VERSION 2.0
 WRAP              .         NO                            : ONE LINE PER DEPTH STEP
 DLM               .         SPACE                         : DELIMITING CHARACTER(SPACE TAB OR COMMA)
~Well Information
#_______________________________________________________________________________
#
#PARAMETER_NAME    .UNIT     VALUE                         : DESCRIPTION
#_______________________________________________________________________________
STRT               .M        10.2                          : First reference value
STOP               .M        2757.4                        : Last reference value
STEP               .M        0.2                           : Step increment
NULL               .         -9999                         : Missing value
COMP               .                                       : Company
WELL               .         616                           : Well name
FLD                .                                       : Field
LOC                .                                       : Location
CNTY               .                                       : County
STAT               .                                       : State
CTRY               .                                       : Country
SRVC               .                                       : Service Company
DATE               .                                       : Date
API                .                                       : API number
PROJECT_UPGRADE_TIME .         2021-03-18T21_24_50           : 
group              .         Good                          : 
~Parameter Information Block
#_______________________________________________________________________________
#
#PARAMETER_NAME    .UNIT     VALUE                         : DESCRIPTION
#_______________________________________________________________________________
SET                .         D7016_D                       : 
OTHER              .         Kedr.exe версия 2.1.2.32      : 
OTHER_10           .         TM.GRD = 0.00404*TM$.UE + 0.07: 
OTHER_11           .         MN.ATM = (6.33279e-006*TM.GRD + 0.02401)*(MN$.UE + 2.72*TM.GRD + -2018): 
OTHER_12           .         GK.MKR/H = GK$.UE / 43.5489 + 0: 
OTHER_13           .         RES.SM = 0.00476*CRES.UE - 1.51709: 
OTHER_14           .         PL.GSM3 = 0 + 0 * (PL.UE / 1) +  0 * (PL.UE / 1)^2: 
OTHER_15           .         Постоянная времени ГГП = 6 сек: 
OTHER_16           .         Постоянная времени ГК = 6 сек : 
OTHER_2            .         KedrData.dll версия 3.2.2.14  : 
OTHER_3            .         LasInf.dll версия 3.2.0.13    : 
OTHER_4            .         Драйвер версия 1.2.0.5        : 
OTHER_5            .         Прибор_ КСА-M1                : 
OTHER_6            .         Номер прибора_ 155+р204       : 
OTHER_7            .         Режим_ КСА-М1 + ГГП + Резистивиметр: 
OTHER_8            .         Форма_ 223\2                  : 
OTHER_9            .         Тарировки_                    : 
PROJECT_UPGRADE_TIME .         2021-03-18T21_24_50           : 
TLFamily_CRES      .                                       : 
TLFamily_DEPT      .         Measured Depth                : 
TLFamily_GK        .         Gamma Ray                     : 
TLFamily_GK$       .                                       : 
TLFamily_LM        .         Casing Collar locator         : 
TLFamily_METKA     .                                       : 
TLFamily_MN        .                                       : 
TLFamily_MN$       .                                       : 
TLFamily_PL        .                                       : 
TLFamily_PL_2      .                                       : 
TLFamily_RCOR      .                                       : 
TLFamily_RES       .         Mud Resistivity               : 
TLFamily_SPID      .         Spontaneous Potential         : 
TLFamily_STD       .                                       : 
TLFamily_TIME      .         Time                          : 
TLFamily_TM        .         Temperature                   : 
TLFamily_TM$       .         Temperature                   : 
TLFamily_VGD       .         Gas Volume                    : 
group              .         prim                          : 
~Curve Information
#_______________________________________________________________________________
#
#LOGNAME           .UNIT     LOG_ID                        : DESCRIPTION
#_______________________________________________________________________________
DEPT               .M                                      : 1 Глубина, м -    0.0 см 
CRES               .UE                                     : 9 Проводимость, усл.ед. -  270.0 см 
GK                 .MKR/H                                  : 16 Гамма-активность, мкр./ч -  106.0 см 
GK$                .UE                                     : 13 Гамма-активность, усл.ед. -  106.0 см 
LM                 .                                       : 11 Локатор муфт,  -   16.0 см 
METKA              .                                       : 3 Метки,  -    0.0 см 
MN                 .ATM                                    : 15 Давление, атм. -  160.0 см 
MN$                .UE                                     : 7 Давление, усл.ед. -  160.0 см 
PL                 .UE                                     : 10 Плотность, усл.ед. -  270.0 см 
PL_2               .GSM3                                   : 18 Плотность, г./см3 -  270.0 см 
RCOR               .CM/KM                                  : 5 Коррекция по ролику, см/км -    0.0 см 
RES                .SM                                     : 17 Проводимость,  -  270.0 см 
SPID               .M/H                                    : 2 Скорость, м/час -    0.0 см 
STD                .                                       : 12 Приток,  -  170.0 см 
TIME               .S                                      : 4 Время, сек -    0.0 см 
TM                 .GRD                                    : 14 Температура, °C -  180.0 см 
TM$                .UE                                     : 6 Температура, усл.ед. -  180.0 см 
VGD                .                                       : 8 Влагомер,  -  170.0 см 
~Ascii
# ...
2749       1483       8.16       329        879        0          254.34     12299      14         0          0          5.5418     1660       10998      7629.88    56.852     14055      6635      
2749.2     1488       8.04       329        563        0          254.387    12300      14         0          0          5.5637     1660       11031      7630.31    57.024     14098      6637      
2749.4     1487       7.94       329        390        0          254.408    12300      14         0          0          5.561      1660       11063      7630.77    57.196     14140      6637      
2749.6     1487       7.81       319        281        0          254.454    12301      14         0          0          5.5626     1660       11096      7631.19    57.35      14178      6634      
2749.8     1490       7.71       319        175        0          254.485    12301      14         0          0          5.5773     1603       11128      7631.64    57.518     14220      6629      
2750       1493       7.63       319        143        0          254.545    12303      14         0          0          5.5875     1660       11160      7632.15    57.673     14258      6629      
2750.2     1495       7.57       319        122        1          254.577    12303      14         0          0          5.5983     1660       11194      7632.73    57.839     14299      6633      
2750.4     1496       7.52       319        83         0          254.609    12304      14         0          0          5.6039     1660       11227      7633.17    58         14339      6636      
2750.6     1497       7.54       332        95         0          254.622    12304      14         0          0          5.6068     1600       11259      7633.62    58.135     14372      6634      
2750.8     1498       7.59       340        85         0          254.652    12305      14         0          0          5.6151     1603       11291      7634.04    58.235     14397      6632      
2751       1500       7.64       340        88         0          254.694    12306      14         0          0          5.6219     1660       11322      7634.48    58.325     14419      6630      
2751.2     1502       7.69       340        70         0          254.734    12307      14         0          0          5.6314     1643       11352      7634.92    58.433     14446      6630      
2751.4     1503       7.71       340        213        0          254.774    12308      14         0          0          5.6372     1600       11380      7635.36    58.54      14473      6632      
2751.6     1475       7.87       372        134        0          254.794    12308      14         0          0          5.5021     1630       11408      7635.81    58.65      14500      6631      
2751.8     1215       8.08       388        84         0          254.85     12310      14         0          0          4.2676     1660       11447      7636.23    58.74      14522      6626      
2752       1083       8.25       388        53         0          254.898    12311      14         0          0          3.6391     1660       11476      7636.68    58.892     14560      6627      
2752.2     1076       8.39       388        38         0          254.946    12312      14         0          0          3.6049     1660       11509      7637.12    59.054     14600      6628      
2752.4     1066       8.49       388        31         0          254.965    12312      14         0          0          3.5547     1660       11546      7637.56    59.212     14639      6627      
2752.6     1047       8.58       388        27         0          255.012    12313      14         0          0          3.4655     1603       11587      7638       59.344     14672      6628      
2752.8     1027       8.71       403        30         0          255.056    12314      14         0          0          3.3709     1600       11627      7638.42    59.492     14708      6627      
2753       1020       9.08       459        27         0          255.086    12314      14         0          0          3.3397     1667       11663      7638.87    59.674     14753      6625      
2753.2     1011       9.38       459        25         0          255.114    12314      14         0          0          3.2953     1730       11700      7639.29    59.897     14809      6625      
2753.4     1003       9.61       459        24         0          255.139    12314      14         0          0          3.2564     1712       11730      7639.73    60.11      14861      6626      
2753.6     998        9.81       459        23         0          255.163    12314      14         0          0          3.2313     1660       11760      7640.15    60.297     14908      6625      
2753.8     993        9.95       459        23         0          255.182    12314      14         0          0          3.2101     1660       11791      7640.58    60.481     14953      6625      
2754       990        10.06      457        24         0          255.194    12314      14         0          0          3.1969     1660       11819      7641.03    60.62      14988      6624      
2754.2     989        10.14      456        23         0          255.179    12313      14         0          0          3.1906     1660       11844      7641.47    60.714     15011      6624      
2754.4     988        10.21      456        23         0          255.183    12313      14         0          0          3.1858     1619       11866      7641.9     60.776     15026      6624      
2754.6     988        10.26      456        24         0          255.185    12313      14         0          0          3.1855     1600       11886      7642.32    60.811     15035      6623      
2754.8     987        10.3       456        25         0          255.191    12313      14         0          0          3.181      1656       11902      7642.8     60.829     15039      6622      
2755       987        10.34      457        -9999      -9999      255.205    12314      14         0          -9999      3.1797     -9999      11918      -9999      60.84      15042      6621      
2755.2     986        10.38      459        -9999      -9999      255.178    12313      14         0          -9999      3.1763     -9999      11931      -9999      60.843     15043      6621      
2755.4     986        10.41      459        -9999      -9999      255.16     12312      14         0          -9999      3.1763     -9999      11942      -9999      60.837     15041      6622      
2755.6     986        10.44      459        -9999      -9999      255.158    12312      14         0          -9999      3.1763     -9999      11952      -9999      60.827     15039      6621      
2755.8     985        10.46      459        -9999      -9999      255.171    12313      14         0          -9999      3.1733     -9999      11959      -9999      60.811     15035      6621      
2756       985        -9999      -9999      -9999      -9999      255.16     12312      14         0          -9999      3.1715     -9999      11966      -9999      60.791     15030      6621      
2756.2     985        -9999      -9999      -9999      -9999      255.15     12312      14         0          -9999      3.1715     -9999      11974      -9999      60.769     15025      6622      
2756.4     985        -9999      -9999      -9999      -9999      255.145    12312      14         0          -9999      3.1715     -9999      11980      -9999      60.745     15019      6621      
2756.6     984        -9999      -9999      -9999      -9999      -9999      -9999      14         0          -9999      3.167      -9999      -9999      -9999      60.712     15010      -9999     
2756.8     984        -9999      -9999      -9999      -9999      -9999      -9999      14         0          -9999      3.1665     -9999      -9999      -9999      -9999      -9999      -9999     
2757       983        -9999      -9999      -9999      -9999      -9999      -9999      14         0          -9999      3.162      -9999      -9999      -9999      -9999      -9999      -9999     
