~Version
 VERS              .         2.0                           : CWLS LOG ASCII STANDARD - VERSION 2.0
 WRAP              .         NO                            : ONE LINE PER DEPTH STEP
 DLM               .         SPACE                         : DELIMITING CHARACTER(SPACE TAB OR COMMA)
~Well Information
#_______________________________________________________________________________
#
#PARAMETER_NAME    .UNIT     VALUE                         : DESCRIPTION
#_______________________________________________________________________________
STRT               .M        2650.6                        : First reference value
STOP               .M        2759.999891                   : Last reference value
STEP               .M        0.1999998                     : Step increment
NULL               .         -9999                         : Missing value
COMP               .                                       : Company
WELL               .         616                           : Well name
FLD                .                                       : Field
LOC                .                                       : Location
CNTY               .                                       : County
STAT               .                                       : State
CTRY               .                                       : Country
SRVC               .                                       : Service Company
DATE               .                                       : Date
API                .                                       : API number
PROJECT_UPGRADE_TIME .         2021-03-18T21_24_50           : 
group              .         Good                          : 
~Parameter Information Block
#_______________________________________________________________________________
#
#PARAMETER_NAME    .UNIT     VALUE                         : DESCRIPTION
#_______________________________________________________________________________
SET                .         D4417_D                       : 
OTHER              .         Запись производится в присутствии: 
OTHER_10           .         Максимальная температура      : 
OTHER_11           .         Тип промывочной жидкости      : 
OTHER_12           .         Сопротивление ПЖ (Ом*м) при 20°C: 
OTHER_13           .         Плотность ПЖ(г/см3)           : 
OTHER_14           .         Вязкость ПЖ(с)                : 
OTHER_15           .         Водоотдача ПЖ(см3/30мин)      : 
OTHER_16           .         Уровень ПЖ                    : 
OTHER_17           .         Нефть ПЖ (%)                  : 
OTHER_18           .         Барит ПЖ (%)                  : 
OTHER_19           .         Гематит ПЖ (%)                : 
OTHER_2            .         Заказчик ННСН  ЦДНГ-1         : 
OTHER_20           .         КМЦ ПЖ (%)                    : 
OTHER_21           .         Разгазирование ПЖ (да,нет)    : 
OTHER_22           .         Подъемник                     : 
OTHER_23           .         Лаборатория                   : 
OTHER_24           .         Тип кабеля                    : 
OTHER_25           .         Длина кабеля (м)              : 
OTHER_26           .         Цена последней метки          : 
OTHER_27           .         Цена контрольной метки        : 
OTHER_28           .         Диаметр долота (мм)           : 
OTHER_29           .         Глубина бурения (м)           : 
OTHER_3            .         Площадь                       : 
OTHER_30           .         Искусственный забой (м)       : 
OTHER_31           .         Диаметр колонны (мм)          : 
OTHER_32           .         Толщина колонны (мм)          : 
OTHER_33           .         Башмак колонны (м)            : 
OTHER_34           .         Диаметр НКТ (мм)              : 
OTHER_35           .         Толщина НКТ (мм)              : 
OTHER_36           .         Воронка НКТ (м)               : 
OTHER_37           .         Дата цементожа                : 
OTHER_38           .         Тип, количество(т) и плотность цемента: 
OTHER_39           .         Интервалы перфорации (м)      : 
OTHER_4            .         Категория                     : 
OTHER_40           .         Направление, диаметр (мм)     : 
OTHER_41           .         Направление, глубина (м)      : 
OTHER_42           .         Кондуктор, диаметр (мм)       : 
OTHER_43           .         Кондуктор, глубина (м)        : 
OTHER_44           .         Техническая колонна, диаметр (мм): 
OTHER_45           .         Техническая колонна, глубина (м): 
OTHER_46           .         Эксплуатационная колонна, диаметр (мм): 
OTHER_47           .         Эксплуатационная колонна, глубина (м): 
OTHER_48           .         Программа Кедр-02 версия 3.4  : 
OTHER_49           .         Операционная система Windows NT 5.1 build 2600 Service Pack 2: 
OTHER_5            .         Назначение исследований       : 
OTHER_50           .         Программное обеспечение станции MONITOR-386EX 25/12/99 15_08_10   BGF V54 20/09/05 15_32_17   3.3__BGF_9030071: 
OTHER_51           .         Kedr.exe версия 3.4.2.74      : 
OTHER_52           .         KedrData.dll версия 3.4.2.29  : 
OTHER_53           .         Мнемоники версия 3.18 S       : 
OTHER_54           .         Драйвер версия 2.1.1.4        : 
OTHER_55           .         LasInf.dll 4.3.0.35           : 
OTHER_56           .         Прибор_ КСА-Т4                : 
OTHER_57           .         Номер прибора_ 160            : 
OTHER_58           .         Режим_ КСА-Т4                 : 
OTHER_59           .         Форма_ С.А.Б.                 : 
OTHER_6            .         Альтитуда стола ротора        : 
OTHER_60           .         Тарировки_                    : 
OTHER_61           .         <_techsia_sc_> Дата тарировки температуры 25.05.2010: 
OTHER_62           .         Ручной ввод коэффициентов     : 
OTHER_63           .         TM.DEGC = 0.00402*RTM.E.ACP + -0.994: 
OTHER_64           .         <_techsia_sc_> Дата тарировки давления 25.05.2010: 
OTHER_65           .         Ручной ввод коэффициентов     : 
OTHER_66           .         MN.ATM = (2.27521e-006*TM.DEGC + 0.02078)*(RMN.E.ACP + 6.2*TM.DEGC + -1688): 
OTHER_67           .         <_techsia_sc_> Дата тарировки ГК 25.05.2010: 
OTHER_68           .         Ручной ввод коэффициентов     : 
OTHER_69           .         GR.UR/H = RGR.IMP/MIN / 45.5144: 
OTHER_7            .         Вид исследований 3  6         : 
OTHER_70           .         GK.FLT = 0.1*GR.UR/H[-1] + (1-0.1)*GR.UR/H[0]: 
OTHER_8            .         Начало бурения интервала каротажа: 
OTHER_9            .         Окончание бурения интервала каротажа: 
PROJECT_UPGRADE_TIME .         2021-03-18T21_24_50           : 
TLFamily_CCLC      .                                       : 
TLFamily_DEPT      .         Measured Depth                : 
TLFamily_GK        .         Gamma Ray                     : 
TLFamily_GR        .         Gamma Ray                     : 
TLFamily_METKA     .                                       : 
TLFamily_MN        .                                       : 
TLFamily_RCOR      .                                       : 
TLFamily_RGR       .                                       : 
TLFamily_RMN       .                                       : 
TLFamily_RTEN      .                                       : 
TLFamily_RTM       .                                       : 
TLFamily_SPEE      .         Cable Speed                   : 
TLFamily_TIME      .         Time                          : 
TLFamily_TM        .         Temperature                   : 
group              .         prim                          : 
~Curve Information
#_______________________________________________________________________________
#
#LOGNAME           .UNIT     LOG_ID                        : DESCRIPTION
#_______________________________________________________________________________
DEPT               .M                                      : 1 Глубина, м -    0.0 см 
CCLC               .E.ACP                                  : 9 Локатор муфт,  -   20.0 см 
GK                 .FLT                                    : 14 Гамма-активность фильтрованная, мкр./ч -  110.0 см 
GR                 .UR/H                                   : 13 Гамма-активность, мкр./ч -  110.0 см 
METKA              .CU                                     : 3 Метки,  -    0.0 см 
MN                 .ATM                                    : 12 Давление, атм. -  160.0 см 
RCOR               .CM/KM                                  : 5 Коррекция по ролику, см/км -    0.0 см 
RGR                .IMP/MIN                                : 10 Гамма-активность, усл.ед. -  110.0 см 
RMN                .E.ACP                                  : 8 Давление, усл.ед. -  160.0 см 
RTEN               .T                                      : 6 Натяжение кабеля, т -    0.0 см 
RTM                .E.ACP                                  : 7 Температура, усл.ед. -  170.0 см 
SPEE               .M/H                                    : 2 Скорость, м/час -    0.0 см 
TIME               .S                                      : 4 Время, сек -    0.0 см 
TM                 .DEGC                                   : 11 Температура, °C -  170.0 см 
~Ascii
# ...
2744.199906 105        9.54       9.54       0          246.765    -1088      434        13188      0.25       12698      488        667.69     50.052    
2744.399906 54         9.73       9.73       0          246.81     -1088      443        13190      0.25       12702      487        669.12     50.067    
2744.599906 64         9.73       9.73       0          246.838    -1088      443        13191      0.25       12707      487        670.69     50.088    
2744.799906 59         9.4        9.4        0          246.897    -1088      428        13194      0.25       12714      487        672.16     50.115    
2744.999906 76         9.4        9.4        0          246.926    -1088      428        13195      0.25       12722      487        673.62     50.147    
2745.199905 78         9.4        9.4        0          246.965    -1088      428        13197      0.25       12728      489        675.04     50.173    
2745.399905 87         10.61      10.61      0          246.991    -1088      483        13198      0.25       12734      489        676.54     50.198    
2745.599905 105        10.61      10.61      0          247.025    -1088      483        13199      0.25       12743      490        678.04     50.232    
2745.799905 93         10.55      10.55      0          247.066    -1088      480        13201      0.25       12754      490        679.54     50.276    
2745.999905 79         10.32      10.32      0          247.102    -1088      470        13202      0.25       12766      489        680.97     50.324    
2746.199904 57         9.97       9.97       0          247.149    -1088      454        13204      0.25       12775      489        682.49     50.361    
2746.399904 121        9.78       9.78       0          247.185    -1088      445        13206      0.25       12783      489        683.99     50.394    
2746.599904 92         9.78       9.78       0          247.207    -1088      445        13206      0.25       12789      490        685.49     50.419    
2746.799904 82         9.82       9.82       0          247.229    -1088      447        13207      0.25       12795      489        686.92     50.441    
2746.999904 70         9.77       9.77       0          247.272    -1088      444        13209      0.25       12805      489        688.41     50.484    
2747.199903 59         9.49       9.49       0          247.302    -1088      432        13210      0.25       12813      490        689.84     50.513    
2747.399903 781        9.21       9.21       0          247.346    -1088      419        13212      0.25       12822      488        691.43     50.549    
2747.599903 9436       9.21       9.21       0          247.373    -1088      419        13213      0.25       12831      488        692.87     50.585    
2747.799903 1762       9.12       9.12       0          247.421    -1088      415        13215      0.25       12842      488        694.37     50.631    
2747.999903 350        9.12       9.12       0          247.45     -1088      415        13216      0.25       12852      488        695.79     50.671    
2748.199902 108        10.46      10.46      0          247.497    -1088      476        13218      0.25       12864      489        697.37     50.719    
2748.399902 168        11.99      11.99      0          247.523    -1088      546        13219      0.25       12872      489        698.79     50.749    
2748.599902 122        12.37      12.37      0          247.55     -1088      563        13220      0.24       12881      489        700.3      50.786    
2748.799902 64         11.27      11.27      0          247.587    -1088      513        13222      0.24       12890      489        701.73     50.822    
2748.999902 54         11.27      11.27      0          247.619    -1088      513        13223      0.24       12896      490        703.23     50.846    
2749.199901 217        10.68      10.68      0          247.648    -1088      486        13224      0.24       12905      490        704.73     50.885    
2749.399901 245        10.99      10.99      0          247.686    -1088      500        13226      0.25       12913      490        706.16     50.917    
2749.599901 122        11.45      11.45      0          247.718    -1088      521        13227      0.24       12918      490        707.66     50.935    
2749.799901 131        12.02      12.02      0          247.738    -1088      547        13228      0.24       12921      490        709.16     50.948    
2749.999901 92         12.02      12.02      0          247.768    -1088      547        13229      0.24       12919      489        710.66     50.939    
2750.1999  62         11.89      11.89      0          247.805    -1088      541        13231      0.24       12921      488        712.16     50.948    
2750.3999  45         11.75      11.75      0          247.833    -1088      535        13232      0.24       12930      488        713.59     50.985    
2750.5999  71         11.23      11.23      0          247.874    -1088      511        13233      0.24       12950      488        715.08     51.066    
2750.7999  68         11.84      11.84      0          247.925    -1088      539        13235      0.24       12972      488        716.57     51.152    
2750.9999  55         11.84      11.84      0          248.082    -1088      539        13236      0.24       13070      488        718.09     51.547    
2751.199899 51         12.68      12.68      0          248.166    -1088      577        13237      0.24       13271      488        719.52     52.356    
2751.399899 62         12.68      12.68      0          248.243    -1088      577        13239      0.24       13325      488        721.02     52.573    
2751.599899 91         11.86      11.86      0          248.293    -1088      540        13240      0.24       13378      488        722.49     52.786    
2751.799899 63         11.23      11.23      0          248.358    -1088      511        13241      0.24       13431      487        723.98     52.999    
2751.999899 81         10.92      10.92      0          248.403    -1088      497        13242      0.24       13510      488        725.52     53.315    
2752.199898 97         10.92      10.92      0          248.402    -1088      497        13243      0.24       13495      487        726.95     53.255    
2752.399898 78         10.92      10.92      0          248.399    -1088      497        13244      0.24       13457      487        728.45     53.104    
2752.599898 59         10.63      10.63      0          248.407    -1088      484        13245      0.24       13424      488        729.92     52.972    
2752.799898 54         10.5       10.5       0          248.426    -1088      478        13246      0.24       13420      487        731.45     52.953    
2752.999898 69         10.37      10.37      0          248.471    -1088      472        13247      0.24       13439      486        732.95     53.031    
2753.199897 68         10.55      10.55      0          248.509    -1088      480        13248      0.24       13468      487        734.39     53.148    
2753.399897 179        10.55      10.55      0          248.541    -1088      480        13249      0.24       13489      486        735.89     53.232    
2753.599897 143        10.44      10.44      0          248.603    -1088      475        13250      0.24       13511      486        737.41     53.321    
2753.799897 68         10.67      10.67      0          248.655    -1088      485        13251      0.24       13604      486        738.89     53.693    
2753.999897 33         11.01      11.01      0          248.678    -1088      501        13252      0.24       13611      487        740.39     53.722    
2754.199896 32         11.56      11.56      0          248.72     -1088      526        13254      0.24       13618      487        741.89     53.749    
2754.399896 31         11.56      11.56      0          248.734    -1088      526        13254      0.24       13620      486        743.31     53.758    
