~Version
 VERS              .         2.0                           : CWLS LOG ASCII STANDARD - VERSION 2.0
 WRAP              .         NO                            : ONE LINE PER DEPTH STEP
 DLM               .         SPACE                         : DELIMITING CHARACTER(SPACE TAB OR COMMA)
~Well Information
#_______________________________________________________________________________
#
#PARAMETER_NAME    .UNIT     VALUE                         : DESCRIPTION
#_______________________________________________________________________________
STRT               .M        1.8                           : First reference value
STOP               .M        2776                          : Last reference value
STEP               .M        0.2                           : Step increment
NULL               .         -9999                         : Missing value
COMP               .                                       : Company
WELL               .         616                           : Well name
FLD                .                                       : Field
LOC                .                                       : Location
CNTY               .                                       : County
STAT               .                                       : State
CTRY               .                                       : Country
SRVC               .                                       : Service Company
DATE               .                                       : Date
API                .                                       : API number
PROJECT_UPGRADE_TIME .         2021-03-18T21_24_50           : 
group              .         Good                          : 
~Parameter Information Block
#_______________________________________________________________________________
#
#PARAMETER_NAME    .UNIT     VALUE                         : DESCRIPTION
#_______________________________________________________________________________
SET                .         D1799_D                       : 
OTHER              .         Программное обеспечение станции MONITOR-386EX 25/12/99 15_08_10   BGF V52 22/08/01 16_56_30   3.1_SNGF___BGF_N_092049: 
OTHER_10           .         Тарировки_                    : 
OTHER_11           .         TM.GRD = 0.00403*TM$.UE + -1.07: 
OTHER_12           .         MN.ATM = (9.34907e-006*TM.GRD + 0.02171)*(MN$.UE + -7.93*TM.GRD + -1787): 
OTHER_13           .         GK.MKR/H = LM. / 42.4676      : 
OTHER_14           .         GK.FLT = 0.1*GK.MKR/H[-1] + (1-0.1)*GK.MKR/H[0]: 
OTHER_2            .         Kedr.exe версия 3.4.2.51      : 
OTHER_3            .         KedrData.dll версия 3.4.2.24  : 
OTHER_4            .         Драйвер версия 2.1.1.3        : 
OTHER_5            .         Мнемоники версия 3.3 S        : 
OTHER_6            .         Прибор_ КСА-Т4                : 
OTHER_7            .         Номер прибора_ 03             : 
OTHER_8            .         Режим_ КСА-Т4                 : 
OTHER_9            .         Форма_ КВА.                   : 
PROJECT_UPGRADE_TIME .         2021-03-18T21_24_49           : 
TLFamily_DEPT      .         Measured Depth                : 
TLFamily_GK        .         Gamma Ray                     : 
TLFamily_GK$       .                                       : 
TLFamily_GK_2      .         Gamma Ray                     : 
TLFamily_LM        .         Casing Collar locator         : 
TLFamily_METKA     .                                       : 
TLFamily_MN        .                                       : 
TLFamily_MN$       .                                       : 
TLFamily_RCOR      .                                       : 
TLFamily_SPID      .         Spontaneous Potential         : 
TLFamily_TENS      .         Cable Tension                 : 
TLFamily_TIME      .         Time                          : 
TLFamily_TM        .         Temperature                   : 
TLFamily_TM$       .         Temperature                   : 
group              .         prim                          : 
~Curve Information
#_______________________________________________________________________________
#
#LOGNAME           .UNIT     LOG_ID                        : DESCRIPTION
#_______________________________________________________________________________
DEPT               .M                                      : 1 Глубина, м -    0.0 см 
GK                 .MKR/H                                  : 13 Гамма-активность, мкр./ч -  110.0 см 
GK$                .UE                                     : 10 Гамма-активность, усл.ед. -  110.0 см 
GK_2               .FLT                                    : 14 Гамма-активность фильтрованная, мкр./ч -  110.0 см 
LM                 .                                       : 9 Локатор муфт,  -   20.0 см 
METKA              .                                       : 3 Метки,  -    0.0 см 
MN                 .ATM                                    : 12 Давление, атм. -  160.0 см 
MN$                .UE                                     : 8 Давление, усл.ед. -  160.0 см 
RCOR               .CM/KM                                  : 5 Коррекция по ролику, см/км -    0.0 см 
SPID               .M/H                                    : 2 Скорость, м/час -    0.0 см 
TENS               .T                                      : 6 Натяжение кабеля, т -    0.0 см 
TIME               .S                                      : 4 Время, сек -    0.0 см 
TM                 .GRD                                    : 11 Температура, °C -  170.0 см 
TM$                .UE                                     : 7 Температура, усл.ед. -  170.0 см 
~Ascii
# ...
1104.2     4.85       206        4.86       1476       0          99.504     6615       -964       1993       -0.09      2351.12    40.845     10401     
1104.4     4.85       206        4.86       1200       0          99.509     6615       -964       1986       -0.09      2351.49    40.849     10402     
1104.6     4.85       206        4.85       1368       0          99.53      6616       -964       1980       -0.09      2351.83    40.853     10403     
1104.8     4.85       206        4.85       1297       0          99.546     6617       -964       1981       -0.09      2352.2     40.857     10404     
1105       4.91       209        4.89       1220       0          99.55      6617       -964       1987       -0.09      2352.55    40.861     10405     
1105.2     4.94       210        4.92       1111       0          99.558     6618       -964       1993       -0.09      2352.9     40.865     10406     
1105.4     4.94       210        4.94       1158       0          99.543     6617       -964       1992       -0.09      2353.26    40.869     10407     
1105.6     4.94       210        4.94       1179       0          99.633     6621       -964       1997       -0.09      2353.62    40.87      10407     
1105.8     4.94       210        4.94       1460       0          99.636     6621       -964       2003       -0.09      2353.99    40.873     10408     
1106       4.94       210        4.94       1239       0          99.657     6622       -964       2001       -0.09      2354.34    40.877     10409     
1106.2     4.94       210        4.94       1101       0          99.677     6623       -964       1999       -0.09      2354.71    40.881     10410     
1106.4     5.15       219        5.07       1220       0          99.698     6624       -964       1997       -0.09      2355.07    40.885     10411     
1106.6     5.39       229        5.27       1333       0          99.719     6625       -964       1996       -0.09      2355.41    40.888     10412     
1106.8     5.39       229        5.35       1352       0          99.739     6626       -964       1999       -0.09      2355.76    40.892     10412     
1107       5.39       229        5.38       1253       0          99.74      6626       -964       2004       -0.09      2356.12    40.894     10413     
1107.2     5.39       229        5.39       1235       0          99.76      6627       -964       2008       -0.09      2356.48    40.896     10413     
1107.4     5.39       229        5.39       1231       0          99.781     6628       -964       2005       -0.09      2356.84    40.9       10414     
1107.6     5.39       229        5.39       1115       0          99.801     6629       -964       1996       -0.09      2357.21    40.904     10415     
1107.8     5.34       227        5.36       1158       0          99.805     6629       -964       1996       -0.09      2357.57    40.908     10416     
1108       5.13       218        5.22       1213       0          99.822     6630       -964       1998       -0.09      2357.92    40.912     10417     
1108.2     5.13       218        5.17       1193       0          99.842     6631       -964       1996       -0.09      2358.28    40.916     10418     
1108.4     5.13       218        5.15       1289       0          99.862     6632       -964       1994       -0.09      2358.65    40.919     10419     
1108.6     5.13       218        5.14       1157       0          99.883     6633       -964       1996       -0.09      2358.99    40.923     10420     
1108.8     5.13       218        5.13       1157       1          99.89      6633       -964       2001       -0.09      2359.33    40.927     10421     
1109       5.13       218        5.13       1160       0          99.903     6634       -964       2003       -0.09      2359.71    40.931     10422     
1109.2     5.13       218        5.13       1355       0          99.925     6635       -964       1999       -0.09      2360.08    40.935     10423     
1109.4     4.69       199        4.85       1285       0          99.946     6636       -964       1992       -0.09      2360.43    40.939     10424     
1109.6     4.69       199        4.75       1172       0          99.966     6637       -964       1988       -0.09      2360.78    40.943     10425     
1109.8     4.69       199        4.71       1170       0          99.987     6637       -964       1994       -0.09      2361.15    40.947     10426     
1110       4.69       199        4.7        1349       0          99.998     6638       -964       1999       -0.09      2361.51    40.951     10427     
1110.2     4.69       199        4.69       1344       2          100.006    6638       -966       2005       -0.09      2361.88    40.955     10428     
1110.4     4.69       199        4.69       1249       0          100.027    6639       -966       2008       -0.09      2362.26    40.958     10429     
1110.6     4.52       192        4.58       1255       0          100.049    6640       -966       2005       -0.09      2362.63    40.959     10429     
1110.8     4.47       190        4.52       1419       0          100.07     6641       -966       2003       -0.09      2362.96    40.962     10430     
1111       4.47       190        4.49       1598       0          100.09     6642       -966       2001       -0.09      2363.32    40.969     10432     
1111.2     4.47       190        4.48       1501       0          100.105    6643       -966       2006       -0.09      2363.69    40.974     10433     
1111.4     4.47       190        4.48       1454       0          100.11     6643       -966       2010       -0.09      2364.05    40.975     10433     
1111.6     4.47       190        4.47       10083      0          100.131    6644       -966       2007       -0.09      2364.41    40.981     10434     
1111.8     4.47       190        4.47       6447       0          100.152    6645       -966       2011       -0.09      2364.75    40.986     10436     
1112       4.37       186        4.41       4401       0          100.175    6646       -966       2015       -0.09      2365.12    40.987     10436     
1112.2     4.31       183        4.35       3530       0          100.196    6647       -966       2012       -0.09      2365.46    40.993     10438     
1112.4     4.31       183        4.32       2817       0          100.212    6648       -966       2004       -0.09      2365.82    40.998     10439     
1112.6     4.31       183        4.31       2166       0          100.214    6648       -966       1996       -0.09      2366.19    41.002     10440     
1112.8     4.31       183        4.31       1830       0          100.236    6649       -966       1999       -0.09      2366.55    41.006     10441     
1113       4.31       183        4.31       1619       0          100.255    6650       -966       2003       -0.09      2366.89    41.01      10442     
1113.2     4.31       183        4.31       1674       0          100.254    6650       -966       2008       -0.09      2367.24    41.015     10443     
1113.4     4.4        187        4.37       1997       0          100.274    6651       -966       2007       -0.09      2367.63    41.021     10444     
1113.6     4.62       196        4.52       1849       0          100.295    6652       -966       2005       -0.09      2368       41.025     10445     
1113.8     4.62       196        4.58       1742       0          100.315    6653       -966       2002       -0.09      2368.34    41.029     10446     
1114       4.62       196        4.6        1697       0          100.335    6654       -966       2000       -0.09      2368.68    41.035     10448     
1114.2     4.62       196        4.61       1794       0          100.356    6655       -966       1998       -0.09      2369.05    41.045     10450     
1114.4     4.62       196        4.61       1835       0          100.36     6655       -966       2000       -0.09      2369.41    41.049     10451     
