~Version
 VERS              .         2.0                           : CWLS LOG ASCII STANDARD - VERSION 2.0
 WRAP              .         NO                            : ONE LINE PER DEPTH STEP
 DLM               .         SPACE                         : DELIMITING CHARACTER(SPACE TAB OR COMMA)
~Well Information
#_______________________________________________________________________________
#
#PARAMETER_NAME    .UNIT     VALUE                         : DESCRIPTION
#_______________________________________________________________________________
STRT               .M        749.69                        : First reference value
STOP               .M        1410.72                       : Last reference value
STEP               .M        0                             : Step increment
NULL               .         -9999                         : Missing value
COMP               .                                       : Company
WELL               .         616                           : Well name
FLD                .                                       : Field
LOC                .                                       : Location
CNTY               .                                       : County
STAT               .                                       : State
CTRY               .                                       : Country
SRVC               .                                       : Service Company
DATE               .                                       : Date
API                .                                       : API number
PROJECT_UPGRADE_TIME .         2021-03-18T21_24_50           : 
group              .         Good                          : 
~Parameter Information Block
#_______________________________________________________________________________
#
#PARAMETER_NAME    .UNIT     VALUE                         : DESCRIPTION
#_______________________________________________________________________________
SET                .         D0928                         : 
NPR                .         210404                        : ЗАВ НОМЕР ПРИБОРА
NPRT               .         Каштанов                      : НАЧ ПАРТИИ
PROJECT_UPGRADE_TIME .         2021-03-18T21_24_49           : 
TLFamily_AZIMUTH   .         True Dip Azimuth              : 
TLFamily_DEPTH     .         Measured Depth                : 
TLFamily_DRILL     .                                       : 
TLFamily_METKA     .                                       : 
TLFamily_ZENIT     .                                       : 
group              .         prim                          : 
~Curve Information
#_______________________________________________________________________________
#
#LOGNAME           .UNIT     LOG_ID                        : DESCRIPTION
#_______________________________________________________________________________
DEPTH              .M                                      : 1 ГЛУБИНА 
AZIMUTH            .ГРАД                                   : 4 АЗИМУТ 
DRILL              .ГРАД                                   : 2 ПОВОРОТ 
METKA              .                                       : 5 МАГН МЕТКА 
ZENIT              .ГРАД                                   : 3 ЗЕНИТ 
~Ascii
# ...
1319.08    283.71     234.5      0          33.96     
1319.26    285.36     232.95     0          33.96     
1319.44    286.53     231.08     0          33.93     
1319.62    287.42     228.66     0          33.89     
1319.81    284.54     225.77     0          33.91     
1319.99    281.65     222.56     0          33.87     
1320.17    278.97     219.17     0          33.89     
1320.35    276.55     215.83     0          33.85     
1320.53    274.28     212.68     0          33.86     
1320.72    272.39     209.84     0          33.84     
1320.9     270.77     207.55     0          33.83     
1321.08    268.47     206.38     0          32.81     
1321.26    268.19     204.13     0          33.3      
1321.45    267.74     203.49     0          33.28     
1321.63    267.18     203.21     0          33.28     
1321.81    266.52     202.99     0          33.26     
1321.99    265.36     202.87     0          33.12     
1322.17    264.87     202.76     0          33.11     
1322.35    264.48     202.6      0          33.12     
1322.53    264.1      202.36     0          33.12     
1322.72    263.75     202.04     0          33.12     
1322.9     263.44     201.74     0          33.13     
1323.08    262.98     201.52     0          33.11     
1323.26    262.71     201.28     0          33.09     
1323.44    262.26     201.15     0          33.1      
1323.63    262.05     201.14     0          33.09     
1324.01    261.84     201.99     0          33.1      
1324.39    261.65     202.79     0          33.09     
1324.78    261.29     203.67     0          33.09     
1325.16    261.16     204.73     0          33.13     
1325.54    260.89     205.75     0          33.1      
1325.92    260.8      206.65     0          33.12     
1326.31    260.52     207.5      0          33.1      
1326.69    260.41     208.48     0          33.12     
1327.08    260.29     209.51     0          33.12     
1327.46    260.26     210.5      0          33.13     
1327.84    260.16     211.45     0          33.14     
1328.23    260.07     212.36     0          33.15     
1328.61    260.05     213.28     0          33.17     
1329       259.91     214.22     0          33.18     
1329.38    259.85     215.21     0          33.2      
1329.77    259.79     216.26     0          33.2      
1330.15    259.61     217.33     0          33.19     
1330.54    259.56     218.36     0          33.2      
1330.92    259.45     219.33     0          33.21     
1331.31    259.47     220.25     0          33.23     
1331.7     259.39     221.06     0          33.23     
1332.08    259.27     221.8      0          33.22     
1332.47    259.15     222.54     0          33.23     
1332.86    259.15     223.31     0          33.25     
1333.24    259.09     224.18     0          33.25     
1333.63    258.91     225.08     0          33.23     
1334.02    258.89     225.94     0          33.25     
1334.41    258.68     226.8      0          33.24     
1334.79    258.6      227.68     0          33.24     
1335.18    258.5      228.53     0          33.24     
1335.37    258.44     228.5      0          33.24     
1335.56    258.4      228.53     0          33.24     
1335.94    258.3      228.81     0          33.21     
1336.32    258.28     229.07     0          33.2      
1336.7     258.11     229.34     0          33.17     
1337.09    258.09     229.66     0          33.18     
1337.47    258.1      230.02     0          33.18     
1337.85    258.06     230.37     0          33.18     
1338.23    257.98     230.74     0          33.17     
1338.62    257.84     231.19     0          33.16     
1339       257.8      231.7      0          33.15     
1339.38    257.77     232.21     0          33.15     
1339.77    257.75     232.71     0          33.15     
1340.15    257.75     233.16     0          33.14     
1340.53    257.69     233.59     0          33.13     
1341.24    257.72     233.48     0          33.12     
1341.96    257.81     233.35     0          33.12     
1342.67    257.68     233.24     0          33.08     
1343.38    257.55     233.22     0          33.08     
1344.1     257.62     233.24     0          33.07     
1344.81    257.56     233.29     0          33.05     
1345.52    257.71     233.33     0          33.07     
1346.23    257.75     233.3      0          33.05     
1346.94    257.75     233.2      0          33.05     
1347.66    257.79     233.01     0          33.05     
1348.37    257.9      232.75     0          33.05     
1349.08    257.99     232.48     0          33.06     
1349.79    258.09     232.17     0          33.06     
1350.5     258.16     231.88     0          33.08     
1351.21    258.26     231.67     0          33.07     
1351.92    258.31     231.52     0          33.08     
1352.64    258.38     231.38     0          33.09     
1353.15    258.56     231        0          33.12     
1353.67    258.56     230.65     0          33.11     
1354.18    258.76     230.34     0          33.15     
1354.7     258.7      230.08     0          33.13     
1355.21    258.75     229.87     0          33.15     
1355.73    258.77     229.74     0          33.14     
1356.25    258.85     229.64     0          33.16     
1356.76    258.96     229.57     0          33.17     
1357.28    259.01     229.51     0          33.17     
1357.79    259        229.45     0          33.16     
1358.31    259.05     229.36     0          33.15     
1358.82    259.12     229.24     0          33.16     
1359.34    259.18     229.11     0          33.16     
1359.52    259.27     229.44     0          33.18     
1359.91    259.23     229.92     0          33.17     
1360.29    259.41     230.38     0          33.21     
1360.67    259.53     230.8      0          33.19     
1361.06    259.39     231.2      0          33.16     
1361.44    259.48     231.59     0          33.17     
1361.83    259.43     231.99     0          33.17     
1362.21    259.43     232.48     0          33.17     
1362.59    259.31     233.03     0          33.14     
1362.98    259.31     233.56     0          33.14     
1363.36    259.3      234.07     0          33.14     
1363.74    259.21     234.58     0          33.12     
1364.12    259.28     235.08     0          33.13     
1364.5     259.27     235.51     0          33.11     
1364.89    259.23     235.85     0          33.11     
1365.27    259.22     236.12     0          33.11     
1365.65    259.17     236.34     0          33.08     
1366.03    259.22     236.55     0          33.09     
1366.41    259.16     236.74     0          33.07     
1366.79    259.18     236.91     0          33.07     
1367.17    259.15     237.05     0          33.06     
1367.55    259.16     237.13     0          33.05     
1367.93    259.15     237.13     0          33.04     
1368.31    259.18     237.08     0          33.03     
1368.69    259.2      236.99     0          33.04     
1369.07    259.12     236.91     0          33.02     
1369.45    259.19     236.86     0          33.03     
1369.83    258.97     236.9      0          32.99     
1370.21    258.93     236.99     0          32.99     
1370.59    259.3      237.08     0          33.07     
1370.97    259.29     237.2      0          33.06     
1371.15    259.3      237.17     0          33.07     
1371.32    259.34     237.13     0          33.08     
1371.5     259.49     236.98     0          33.09     
1371.68    259.59     236.83     0          33.12     
1371.85    259.48     236.75     0          33.1      
1372.03    259.44     236.67     0          33.09     
1372.21    259.43     236.57     0          33.09     
1372.59    259.58     236.64     0          33.11     
1372.96    259.57     236.73     0          33.09     
1373.34    259.62     236.86     0          33.1      
1373.71    259.84     237.01     0          33.13     
1374.09    259.81     237.22     0          33.11     
1374.47    259.76     237.46     0          33.09     
1374.84    259.76     237.71     0          33.08     
