~Version
 VERS              .         2.0                           : CWLS LOG ASCII STANDARD - VERSION 2.0
 WRAP              .         NO                            : ONE LINE PER DEPTH STEP
 DLM               .         SPACE                         : DELIMITING CHARACTER(SPACE TAB OR COMMA)
~Well Information
#_______________________________________________________________________________
#
#PARAMETER_NAME    .UNIT     VALUE                         : DESCRIPTION
#_______________________________________________________________________________
STRT               .M        1549.2                        : First reference value
STOP               .M        2296.2                        : Last reference value
STEP               .M        0.2                           : Step increment
NULL               .         -9999                         : Missing value
COMP               .                                       : Company
WELL               .         616                           : Well name
FLD                .                                       : Field
LOC                .                                       : Location
CNTY               .                                       : County
STAT               .                                       : State
CTRY               .                                       : Country
SRVC               .                                       : Service Company
DATE               .                                       : Date
API                .                                       : API number
PROJECT_UPGRADE_TIME .         2021-03-18T21_24_50           : 
group              .         Good                          : 
~Parameter Information Block
#_______________________________________________________________________________
#
#PARAMETER_NAME    .UNIT     VALUE                         : DESCRIPTION
#_______________________________________________________________________________
SET                .         616_10                        : 
CONF               .         00                            : 
END                .         0                             : 
ERR                .         2                             : 
GS00               .M        2294.21                       : 
GS01               .M        1546.72                       : 
MM00               .M        2240.00                       : 
NOKG               .         0                             : 
NPR                .         980119                        : 
PART               .         Палагутин                     : 
PROJECT_UPGRADE_TIME .         2021-03-18T21_24_49           : 
PRZK               .         Якименко                      : 
TLFamily_AZIMUTH   .         True Dip Azimuth              : 
TLFamily_DEPTH     .         Measured Depth                : 
TLFamily_METKA     .                                       : 
TLFamily_ROLL      .                                       : 
TLFamily_SPEED     .         Spontaneous Potential         : 
TLFamily_ZENIT     .                                       : 
VPRG               .         310                           : 
WAY                .         UP                            : 
group              .         prim                          : 
~Curve Information
#_______________________________________________________________________________
#
#LOGNAME           .UNIT     LOG_ID                        : DESCRIPTION
#_______________________________________________________________________________
DEPTH              .M                                      :  
AZIMUTH            .DEG                                    :  
METKA              .                                       :  
ROLL               .DEG                                    :  
SPEED              .M/H                                    :  
ZENIT              .DEG                                    :  
~Ascii
# ...
1988.4     338.18     0          39.38      576        17.05     
1988.6     4.31       0          39.59      684        17.08     
1988.8     0.12       0          39.11      648        17.15     
1989       348.17     0          38.77      684        17.17     
1989.2     312.21     0          38.36      576        17.22     
1989.4     282.13     0          38.16      648        17.25     
1989.6     294.08     0          37.78      684        17.13     
1989.8     309.42     0          37.16      612        16.88     
1990       319.86     0          35.95      684        16.7      
1990.2     327.2      0          34.95      648        16.56     
1990.4     332.01     0          35.65      576        16.42     
1990.6     323.48     0          36.51      684        16.32     
1990.8     357.74     0          37.01      648        16.05     
1991       317.69     0          40.81      684        16.28     
1991.2     11.83      0          44.42      576        16.22     
1991.4     335.97     0          47.86      648        16.36     
1991.6     357.9      0          53.2       648        16.43     
1991.8     355.77     0          65         684        16.48     
1992       9.46       0          78.03      648        16.49     
1992.2     10.3       1          84.95      648        16.58     
1992.4     29.13      0          89.45      684        16.52     
1992.6     347.66     0          92.23      684        16.68     
1992.8     16.73      0          95.93      648        16.69     
1993       25.22      0          101.29     648        16.66     
1993.2     39.9       0          108.88     576        16.61     
1993.4     6.37       0          119.3      648        16.72     
1993.6     6.37       0          129.76     648        16.68     
1993.8     352.97     0          138.36     684        16.54     
1994       50.22      0          144.32     648        16.54     
1994.2     0.66       0          147.76     576        16.42     
1994.4     339.3      0          150.32     648        16.5      
1994.6     346.56     0          152.06     684        16.5      
1994.8     3.91       0          153.02     648        16.44     
1995       14.2       0          152.58     684        16.46     
1995.2     3.65       0          151.51     648        16.45     
1995.4     355.26     0          149.99     612        16.42     
1995.6     4.83       0          147.51     648        16.47     
1995.8     6.12       0          144.93     684        16.55     
1996       335.33     0          144        648        16.45     
1996.2     347.58     0          145        612        16.53     
1996.4     10.65      0          146.69     612        16.54     
1996.6     15.66      0          148.63     648        16.54     
1996.8     345.82     0          149.61     684        16.53     
1997       5.54       0          150.14     648        16.54     
1997.2     8.7        0          150.89     648        16.62     
1997.4     24.04      0          152.1      648        16.6      
1997.6     5.39       0          152.94     648        16.61     
1997.8     341.56     0          154.12     684        16.61     
1998       10.89      0          155.21     648        16.64     
1998.2     6.61       0          155.91     576        16.68     
1998.4     8.45       0          157.25     648        16.63     
1998.6     348.51     0          160.93     648        16.7      
1998.8     357.69     0          167.12     684        16.58     
1999       187.16     0          173.56     648        16.67     
1999.2     317.21     0          178.51     648        16.55     
1999.4     330.28     0          183.8      648        16.6      
1999.6     344.66     0          190.14     648        16.53     
1999.8     344.51     0          197.81     684        16.61     
2000       321.18     0          204.9      648        16.6      
2000.2     310.77     0          212.17     576        16.47     
2000.4     104.49     0          219.46     648        16.69     
2000.6     57.34      0          223.29     684        17.01     
2000.8     18.82      0          225.15     648        16.89     
2001       6.15       0          227.84     648        16.93     
2001.2     7.84       0          232.46     648        16.95     
2001.4     4.59       0          239.54     684        16.91     
2001.6     352.3      0          251.63     648        17.02     
2001.8     294.97     0          266.09     684        17.49     
2002       324.84     0          282.82     612        17.38     
2002.2     333.23     1          302.45     612        17.11     
2002.4     284.94     0          326.89     684        16.71     
2002.6     296.17     0          342.94     648        16.42     
2002.8     334.52     0          358.68     684        16.2      
2003       358.81     0          11.66      540        16.02     
2003.2     355.94     0          21.18      648        16.19     
2003.4     23.1       0          26.6       684        16.3      
2003.6     343.68     0          30.16      684        16.37     
2003.8     325.96     0          35.19      684        16.39     
2004       5.65       0          39.07      540        16.52     
2004.2     321.86     0          40.69      684        16.5      
2004.4     324.26     0          41.83      684        16.43     
2004.6     305.68     0          42.79      648        16.44     
2004.8     326.08     0          43.34      684        16.46     
2005       302.12     0          43.85      576        16.38     
2005.2     343.65     0          44.1       648        16.48     
2005.4     331.44     0          44.44      684        16.46     
2005.6     341.84     0          45.12      684        16.43     
2005.8     357        0          46.34      648        16.37     
2006       352.46     0          49.13      576        16.48     
2006.2     354.59     0          56.73      684        16.4      
2006.4     3.64       0          67.77      648        16.43     
2006.6     350.03     0          80.53      648        16.64     
2006.8     339.47     0          92.07      648        16.6      
2007       344.36     0          102.13     648        16.67     
2007.2     323.82     0          110.44     648        16.65     
2007.4     352.23     0          117.46     648        16.63     
2007.6     336.55     0          121.32     684        16.57     
2007.8     348.87     0          123.9      648        16.6      
2008       346.62     0          127.78     612        16.68     
2008.2     350.6      0          133.98     648        16.67     
2008.4     349.68     0          139.53     684        16.78     
2008.6     356.42     0          145.05     648        16.63     
2008.8     351.98     0          149.48     648        16.64     
2009       341.9      0          151.42     648        16.59     
2009.2     347.83     0          152.45     648        16.62     
2009.4     340.85     0          153.78     648        16.6      
2009.6     352.7      0          155.1      648        16.59     
2009.8     344.6      0          156.48     648        16.63     
2010       341.67     0          158.45     612        16.75     
2010.2     310.62     0          160.6      648        16.63     
2010.4     344.31     0          163.25     648        16.59     
2010.6     322.14     1          166.72     612        16.71     
2010.8     347.67     0          172.3      1008       16.7      
2011       339.79     0          176.52     1008       16.72     
2011.2     327.97     0          182.16     648        16.65     
2011.4     340.8      0          187        648        16.74     
2011.6     291.43     0          190.84     684        16.65     
2011.8     338.29     0          195.72     612        16.6      
2012       309.11     0          214.98     180        16.55     
2012.2     294.2      1          223.77     648        16.82     
2012.4     4.01       0          227.67     684        16.97     
2012.6     7.7        0          232.15     612        16.9      
