~Version
 VERS              .         2.0                           : CWLS LOG ASCII STANDARD - VERSION 2.0
 WRAP              .         NO                            : ONE LINE PER DEPTH STEP
 DLM               .         SPACE                         : DELIMITING CHARACTER(SPACE TAB OR COMMA)
~Well Information
#_______________________________________________________________________________
#
#PARAMETER_NAME    .UNIT     VALUE                         : DESCRIPTION
#_______________________________________________________________________________
STRT               .M        2667.6                        : First reference value
STOP               .M        2774.399786                   : Last reference value
STEP               .M        0.1999996                     : Step increment
NULL               .         -9999                         : Missing value
COMP               .                                       : Company
WELL               .         616                           : Well name
FLD                .                                       : Field
LOC                .                                       : Location
CNTY               .                                       : County
STAT               .                                       : State
CTRY               .                                       : Country
SRVC               .                                       : Service Company
DATE               .                                       : Date
API                .                                       : API number
PROJECT_UPGRADE_TIME .         2021-03-18T21_24_50           : 
group              .         Good                          : 
~Parameter Information Block
#_______________________________________________________________________________
#
#PARAMETER_NAME    .UNIT     VALUE                         : DESCRIPTION
#_______________________________________________________________________________
SET                .         D1809_D_2                     : 
NPR                .                                       : 
OTHER              .         Программное обеспечение станции MONITOR-386EX 25/12/99 15_08_10   BGF V52 22/08/01 16_56_30   3.1_SNGF___BGF_N_092049: 
OTHER_10           .         Тарировки_                    : 
OTHER_11           .         TM.GRD = 0.00403*TM$.UE + -1.07: 
OTHER_12           .         MN.ATM = (9.34907e-006*TM.GRD + 0.02171)*(MN$.UE + -7.93*TM.GRD + -1787): 
OTHER_13           .         GK.MKR/H = LM. / 42.4676      : 
OTHER_14           .         GK.FLT = 0.1*GK.MKR/H[-1] + (1-0.1)*GK.MKR/H[0]: 
OTHER_2            .         Kedr.exe версия 3.4.2.51      : 
OTHER_3            .         KedrData.dll версия 3.4.2.24  : 
OTHER_4            .         Драйвер версия 2.1.1.3        : 
OTHER_5            .         Мнемоники версия 3.3 S        : 
OTHER_6            .         Прибор_ КСА-Т4                : 
OTHER_7            .         Номер прибора_ 03             : 
OTHER_8            .         Режим_ КСА-Т4                 : 
OTHER_9            .         Форма_ КВА.                   : 
PR                 .                                       : 
PROJECT_UPGRADE_TIME .         2021-03-18T21_24_49           : 
PRTY               .         ПП-603-1                      : N партии
SRV                .                                       : 
SRVC               .         Карпов                        : Начальник партии
TLFamily_DEPT      .         Measured Depth                : 
TLFamily_LM        .         Casing Collar locator         : 
TLFamily_MN        .                                       : 
TLFamily_TM        .         Temperature                   : 
group              .         second                        : 
~Curve Information
#_______________________________________________________________________________
#
#LOGNAME           .UNIT     LOG_ID                        : DESCRIPTION
#_______________________________________________________________________________
DEPT               .M                                      : Depth curve 
LM                 .е.ацп                                  : Локатор муфт,е.ацп 
MN                 .атм                                    : Манометрия, атм 
TM                 .град.C                                 : Термограмма по стволу скважины,град.C 
~Ascii
2667.6000977 -9999      -9999      -9999     
2667.8     -9999      -9999      -9999     
2667.999999 34.149     -9999      -9999     
2668.199999 339.232    -9999      -9999     
2668.399998 814.847    -9999      -9999     
2668.599998 502.041    -9999      -9999     
2668.799998 586.619    -9999      -9999     
2668.999997 3898.584   -9999      -9999     
2669.199997 999.718    -9999      -9999     
2669.399996 421.966    246.751    -9999     
2669.599996 353.001    246.753    55.917    
2669.799996 354.993    246.767    55.899    
2669.999995 341.004    246.777    55.878    
2670.199995 348.984    246.788    55.864    
2670.399994 315.993    246.819    55.834    
2670.599994 302.008    246.829    55.8      
2670.799994 317.996    246.853    55.765    
2670.999993 310.053    246.855    55.733    
2671.199993 417.983    246.902    55.712    
2671.399992 382.977    246.903    55.686    
2671.599992 335.978    246.905    55.659    
2671.799992 291.007    246.947    55.638    
2671.999991 304.996    246.953    55.617    
2672.199991 296.995    246.977    55.59     
2672.39999 286.01     247.001    55.562    
2672.59999 307.002    246.981    55.536    
2672.79999 310.991    247.028    55.51     
2672.999989 292.983    247.052    55.478    
2673.199989 259.021    247.069    55.447    
2673.399988 301.985    247.078    55.416    
2673.599988 271.012    247.103    55.382    
2673.799988 296.006    247.128    55.354    
2673.999987 308.98     247.13     55.321    
2674.199987 268.005    247.155    55.285    
2674.399986 278.005    247.176    55.249    
2674.599986 288.999    247.205    55.213    
2674.799986 286.993    247.207    55.175    
2674.999985 272.997    247.229    55.138    
2675.199985 265.996    247.257    55.098    
2675.399984 258.017    247.272    55.058    
2675.599984 291.999    247.285    55.018    
2675.799984 289.989    247.31     54.981    
2675.999983 267.003    247.336    54.941    
2676.199983 274.008    247.36     54.903    
2676.399982 289.976    247.363    54.865    
2676.599982 240.019    247.388    54.826    
2676.799982 279.006    247.391    54.79     
2676.999981 290.961    247.423    54.75     
2677.199981 212.023    247.44     54.717    
2677.39998 259.006    247.465    54.681    
2677.59998 270.975    247.49     54.645    
2677.79998 219.019    247.492    54.611    
2677.999979 258.001    247.517    54.578    
2678.199979 259.997    247.542    54.541    
2678.399978 252.991    247.563    54.502    
2678.599978 235.011    247.569    54.467    
2678.799978 257.001    247.594    54.433    
2678.999977 259.979    247.619    54.398    
2679.199977 217.019    247.629    54.361    
2679.399976 255.984    247.647    54.322    
2679.599976 222.999    247.671    54.287    
2679.799976 220.007    247.689    54.257    
2679.999975 235.703    247.72     54.222    
2680.199975 1671.51    247.666    54.183    
2680.399974 669.807    247.754    54.146    
2680.599974 274.979    247.772    54.118    
2680.799974 232.979    247.775    54.082    
2680.999973 190.02     247.799    54.051    
2681.199973 230.993    247.824    54.016    
2681.399972 217.002    247.849    53.982    
2681.599972 220.987    247.851    53.952    
2681.799972 194.008    247.875    53.917    
2681.999971 211.025    247.897    53.881    
2682.199971 262.954    247.907    53.851    
2682.39997 170.023    247.927    53.815    
2682.59997 216.999    247.951    53.792    
2682.79997 214.989    247.961    53.761    
2682.999969 193.02     247.992    53.734    
2683.199969 232.997    248.002    53.702    
2683.399968 225.989    248.011    53.676    
2683.599968 203.009    248.028    53.655    
2683.799968 222.005    248.052    53.623    
2683.999967 231.982    248.077    53.588    
2684.199967 195        248.093    53.561    
2684.399966 194.999    248.103    53.531    
2684.599966 192.979    248.127    53.508    
2684.799966 150.022    248.142    53.476    
2684.999965 195.017    248.152    53.458    
2685.199965 228.989    248.176    53.434    
2685.399964 206.003    248.192    53.405    
2685.599964 213.005    248.202    53.381    
2685.799964 224        248.226    53.358    
2685.999963 223.98     248.243    53.331    
2686.199963 183.003    248.252    53.304    
2686.399962 188.999    248.276    53.28     
2686.599962 187.004    248.3      53.258    
2686.799962 194.989    248.324    53.229    
2686.999961 173.013    248.348    53.212    
2687.199961 199.01     248.349    53.175    
2687.39996 219.987    248.373    53.167    
2687.59996 193.999    248.375    53.14     
2687.79996 192.015    248.399    53.117    
2687.999959 222.983    248.423    53.096    
2688.199959 189.007    248.446    53.071    
2688.399958 203.984    248.448    53.058    
2688.599958 172.001    248.472    53.031    
2688.799958 174.024    248.481    53.007    
2688.999957 224.005    248.497    52.984    
2689.199957 234.996    248.521    52.963    
2689.399956 227.006    248.486    52.943    
2689.599956 239.987    248.546    52.92     
2689.799956 213.983    248.57     52.894    
2689.999955 179.02     248.578    52.881    
2690.199955 218.98     248.595    52.854    
2690.399954 179.034    248.626    52.831    
2690.599954 248.995    248.632    52.811    
2690.799954 237.992    248.666    52.791    
2690.999953 221.989    248.667    52.775    
2691.199953 199.612    248.691    52.76     
2691.399952 1446.58    248.715    52.741    
2691.599952 589.811    248.705    52.716    
2691.799952 203.993    248.74     52.695    
2691.999951 189.007    248.763    52.675    
2692.199951 202.998    248.787    52.656    
2692.39995 198.983    248.799    52.643    
2692.59995 165.029    248.811    52.621    
2692.79995 224.995    248.816    52.608    
2692.999949 214.996    248.845    52.59     
2693.199949 205.996    248.86     52.569    
2693.399948 197.992    248.865    52.549    
2693.599948 180.995    248.885    52.534    
2693.799948 171.011    248.908    52.516    
2693.999947 193.01     248.909    52.498    
2694.199947 213.972    248.933    52.478    
2694.399946 156.023    248.956    52.465    
2694.599946 203.006    248.957    52.447    
2694.799946 215.994    248.98     52.433    
2694.999945 202.986    249.004    52.419    
2695.199945 174.023    249.027    52.402    
2695.399944 221        249.028    52.386    
2695.599944 220.971    249.052    52.363    
2695.799944 161.999    249.075    52.348    
2695.999943 159.004    249.085    52.332    
2696.199943 168.014    249.099    52.319    
2696.399942 195.983    249.126    52.301    
2696.599942 162.02     249.133    52.281    
2696.799942 201.981    249.166    52.266    
2696.999941 163.014    249.171    52.252    
2697.199941 190.995    249.194    52.236    
2697.39994 181.016    249.21     52.223    
2697.59994 213.987    249.218    52.209    
2697.79994 186.999    249.241    52.195    
2697.999939 184.008    249.261    52.182    
2698.199939 200.969    249.266    52.164    
2698.399938 136.993    249.29     52.143    
2698.599938 123.026    249.313    52.129    
2698.799938 175.006    249.314    52.112    
2698.999937 187.983    249.337    52.099    
2699.199937 153.008    249.351    52.086    
2699.399936 169.008    249.361    52.077    
2699.599936 184.992    249.384    52.059    
2699.799936 169.023    249.4      52.041    
2699.999935 215.008    249.409    52.028    
2700.199935 232.006    249.432    52.01     
2700.399934 243.981    249.455    51.997    
2700.599934 205.975    249.479    51.98     
2700.799934 155.008    249.48     51.966    
2700.999933 172        249.503    51.953    
2701.199933 171.019    249.526    51.943    
2701.399932 209.99     249.534    51.926    
2701.599932 188.997    249.55     51.912    
2701.799932 182.997    249.573    51.902    
2701.999931 177.379    249.596    51.886    
2702.199931 2985.125   249.597    51.873    
2702.39993 1202.585   249.621    51.855    
2702.59993 357.906    249.644    51.837    
2702.79993 167        249.667    51.824    
2702.999929 166.022    249.668    51.81     
2703.199929 211.008    249.691    51.801    
