~Version
 VERS              .         2.0                           : CWLS LOG ASCII STANDARD - VERSION 2.0
 WRAP              .         NO                            : ONE LINE PER DEPTH STEP
 DLM               .         SPACE                         : DELIMITING CHARACTER(SPACE TAB OR COMMA)
~Well Information
#_______________________________________________________________________________
#
#PARAMETER_NAME    .UNIT     VALUE                         : DESCRIPTION
#_______________________________________________________________________________
STRT               .M        2656.6                        : First reference value
STOP               .M        2765.2                        : Last reference value
STEP               .M        0.1999997                     : Step increment
NULL               .         -9999                         : Missing value
COMP               .                                       : Company
WELL               .         616                           : Well name
FLD                .                                       : Field
LOC                .                                       : Location
CNTY               .                                       : County
STAT               .                                       : State
CTRY               .                                       : Country
SRVC               .                                       : Service Company
DATE               .                                       : Date
API                .                                       : API number
PROJECT_UPGRADE_TIME .         2021-03-18T21_24_50           : 
group              .         Good                          : 
~Parameter Information Block
#_______________________________________________________________________________
#
#PARAMETER_NAME    .UNIT     VALUE                         : DESCRIPTION
#_______________________________________________________________________________
SET                .         D8102_D                       : 
OTHER              .         Программное обеспечение станции MONITOR-386EX 25/12/99 15_08_10   BGF V52 22/08/01 16_56_30   4_SNGF_BGF_N_011645: 
OTHER_10           .         Тарировки_                    : 
OTHER_11           .         TM.GRD = 0.00412*TM$.UE + -2.13: 
OTHER_12           .         MN.ATM = (5.87652e-006*TM.GRD + 0.01993)*(MN$.UE + -2.72*TM.GRD + -1925): 
OTHER_13           .         GK.MKR/H = GK$.UE / 57.4657   : 
OTHER_2            .         Kedr.exe версия 3.4.2.51      : 
OTHER_3            .         KedrData.dll версия 3.4.2.24  : 
OTHER_4            .         Драйвер версия 2.1.0.2        : 
OTHER_5            .         Мнемоники версия 3.3 S        : 
OTHER_6            .         Прибор_ АКП4-90               : 
OTHER_7            .         Номер прибора_ 53             : 
OTHER_8            .         Режим_ АКП4_90                : 
OTHER_9            .         Форма_ ПК-53ое                : 
PROJECT_UPGRADE_TIME .         2021-03-18T21_24_50           : 
TLFamily_DEPT      .         Measured Depth                : 
TLFamily_GK        .         Gamma Ray                     : 
TLFamily_GK$       .                                       : 
TLFamily_LM        .         Casing Collar locator         : 
TLFamily_METKA     .                                       : 
TLFamily_METKA_1   .                                       : 
TLFamily_MN        .                                       : 
TLFamily_MN$       .                                       : 
TLFamily_RCOR      .                                       : 
TLFamily_SPID      .         Spontaneous Potential         : 
TLFamily_TENS      .         Cable Tension                 : 
TLFamily_TIME      .         Time                          : 
TLFamily_TM        .         Temperature                   : 
TLFamily_TM$       .         Temperature                   : 
group              .         prim                          : 
~Curve Information
#_______________________________________________________________________________
#
#LOGNAME           .UNIT     LOG_ID                        : DESCRIPTION
#_______________________________________________________________________________
DEPT               .M                                      : 1 Глубина, м -    0.0 см 
GK                 .MKR/H                                  : 13 Гамма-активность, мкр./ч -   65.0 см 
GK$                .UE                                     : 10 Гамма-активность, усл.ед. -   65.0 см 
LM                 .                                       : 9 Локатор муфт,  -   30.0 см 
METKA              .                                       : 3 Метки,  -    0.0 см 
METKA_1            .                                       : 14 Маркеры - 65 см 
MN                 .ATM                                    : 12 Давление, атм. -  140.0 см 
MN$                .UE                                     : 8 Давление, усл.ед. -  140.0 см 
RCOR               .CM/KM                                  : 5 Коррекция по ролику, см/км -    0.0 см 
SPID               .M/H                                    : 2 Скорость, м/час -    0.0 см 
TENS               .T                                      : 6 Натяжение кабеля, т -    0.0 см 
TIME               .S                                      : 4 Время, сек -    0.0 см 
TM                 .GRD                                    : 11 Температура, °C -  145.0 см 
TM$                .UE                                     : 7 Температура, усл.ед. -  145.0 см 
~Ascii
# ...
2729.4     5.71       328        180        0          0          250.281    14483      -6         -309       0.73       535.31     45.849     11645     
2729.6     4.87       280        178        0          0          250.301    14484      -6         -315       0.73       532.92     45.868     11650     
2729.8     5.2        299        198        0          0          250.301    14484      -6         -310       0.73       530.65     45.904     11659     
2730       6.18       355        243        0          0          250.361    14487      -6         -310       0.73       528.38     45.97      11675     
2730.2     6.45       371        283        0          0          250.387    14488      -6         -303       0.73       526.02     46.03      11689     
2730.4     7.95       457        175        0          0          250.381    14488      -6         -307       0.75       523.72     46.07      11699     
2730.6     9.41       541        194        2          0          250.401    14489      -2         -303       0.73       520.95     46.136     11715     
2730.8     9.05       520        321        0          0          250.44     14491      -2         -306       0.73       518.67     46.208     11733     
2731       9.35       537        346        0          0          250.46     14492      -2         -310       0.73       516.28     46.27      11748     
2731.2     10.13      582        234        0          0          250.46     14492      -2         -312       0.73       514.01     46.314     11758     
2731.4     10.01      575        211        0          0          250.46     14492      -2         -313       0.73       511.75     46.399     11779     
2731.6     10.04      577        166        0          0          250.52     14495      -2         -307       0.73       509.35     46.468     11796     
2731.8     9.78       562        251        0          0          250.527    14495      -2         -313       0.73       507.08     46.551     11816     
2732       10.25      589        242        0          0          250.533    14496      -2         -315       0.73       504.75     46.593     11826     
2732.2     10.66      612        127        0          0          250.56     14497      -2         -310       0.73       502.48     46.659     11842     
2732.4     11.01      633        151        0          0          250.56     14497      -2         -310       0.73       500.15     46.784     11872     
2732.6     10.18      585        309        0          0          250.62     14500      -2         -318       0.73       497.76     46.842     11887     
2732.8     8.85       509        256        0          0          250.6      14499      -2         -317       0.73       495.49     46.9       11900     
2733       8.65       497        109        0          0          250.64     14501      -2         -314       0.73       493.22     46.964     11916     
2733.2     7.95       457        153        0          0          250.653    14502      -2         -309       0.73       490.95     47.067     11941     
2733.4     7.41       426        169        0          0          250.699    14504      -2         -308       0.73       488.56     47.149     11961     
2733.6     7.85       451        457        0          0          250.689    14503      -2         -313       0.73       486.29     47.219     11978     
2733.8     7.74       445        246        0          0          250.686    14503      -2         -314       0.75       483.89     47.286     11994     
2734       7.19       413        265        0          0          250.719    14505      -2         -308       0.73       481.63     47.357     12011     
2734.2     7.08       407        194        0          0          250.719    14505      -2         -311       0.73       479.36     47.476     12040     
2734.4     7.55       434        221        0          0          250.719    14505      -2         -318       0.73       476.97     47.564     12062     
2734.6     7.43       427        159        0          0          250.759    14507      -2         -317       0.73       474.69     47.583     12066     
2734.8     7.38       424        161        0          0          250.786    14508      -2         -314       0.73       472.43     47.68      12090     
2735       7.33       421        253        0          0          250.819    14510      -2         -308       0.73       470.16     47.759     12109     
2735.2     7.28       418        197        0          0          250.819    14510      -2         -313       0.73       467.77     47.846     12130     
2735.4     7.2        414        99         0          0          250.832    14511      -2         -314       0.73       465.49     47.89      12141     
2735.6     6.97       400        142        0          0          250.852    14512      -2         -308       0.73       463.17     47.983     12163     
2735.8     6.56       377        309        0          0          250.859    14512      -2         -313       0.73       460.83     48.071     12185     
2736       6.26       360        448        0          0          250.879    14513      -2         -315       0.73       458.56     48.142     12202     
2736.2     7.07       407        217        0          0          250.899    14514      -2         -310       0.73       456.17     48.251     12228     
2736.4     7.6        437        344        0          0          250.919    14515      -2         -310       0.73       453.9      48.333     12248     
2736.6     7.32       421        376        0          0          250.959    14517      -2         -317       0.73       451.5      48.405     12266     
2736.8     6.82       392        102        0          0          250.965    14517      -2         -315       0.73       449.24     48.488     12286     
2737       6.8        391        97         0          0          250.968    14517      -2         -317       0.73       446.97     48.546     12300     
2737.2     6.67       383        173        0          0          251.018    14520      -2         -315       0.73       444.7      48.688     12334     
2737.4     6.18       355        275        0          0          251.038    14521      -2         -308       0.73       442.37     48.801     12362     
2737.6     6.26       360        216        0          0          251.038    14521      -2         -303       0.73       440.04     48.874     12380     
2737.8     6.63       381        338        0          0          251.038    14521      -2         -308       0.73       437.77     48.924     12392     
2738       6.49       373        709        0          0          251.091    14524      -2         -306       0.73       435.38     49.057     12424     
2738.2     5.88       338        668        0          0          251.125    14525      -2         -303       0.73       433.08     49.152     12447     
2738.4     6.58       378        8841       0          0          251.111    14525      -2         -310       0.73       430.77     49.244     12469     
2738.6     7.56       434        21901      0          0          251.151    14527      -2         -315       0.73       428.5      49.359     12497     
2738.8     7.67       441        515        0          0          251.168    14527      -2         -311       0.73       426.23     49.49      12529     
2739       8.11       466        230        0          0          251.198    14529      -2         -311       0.73       423.84     49.58      12551     
2739.2     8.23       473        478        0          0          251.191    14529      -2         -303       0.73       421.57     49.653     12569     
2739.4     7.81       449        134        0          0          251.198    14529      -2         -308       0.73       419.3      49.808     12606     
2739.6     7.19       413        213        0          0          251.258    14532      -2         -315       0.73       416.91     49.862     12619     
