~Version
 VERS              .         2.0                           : CWLS LOG ASCII STANDARD - VERSION 2.0
 WRAP              .         NO                            : ONE LINE PER DEPTH STEP
 DLM               .         SPACE                         : DELIMITING CHARACTER(SPACE TAB OR COMMA)
~Well Information
#_______________________________________________________________________________
#
#PARAMETER_NAME    .UNIT     VALUE                         : DESCRIPTION
#_______________________________________________________________________________
STRT               .M        2654.8                        : First reference value
STOP               .M        2761.6                        : Last reference value
STEP               .M        0.2000001                     : Step increment
NULL               .         -9999                         : Missing value
COMP               .                                       : Company
WELL               .         616                           : Well name
FLD                .                                       : Field
LOC                .                                       : Location
CNTY               .                                       : County
STAT               .                                       : State
CTRY               .                                       : Country
SRVC               .                                       : Service Company
DATE               .                                       : Date
API                .                                       : API number
PROJECT_UPGRADE_TIME .         2021-03-18T21_24_50           : 
group              .         Good                          : 
~Parameter Information Block
#_______________________________________________________________________________
#
#PARAMETER_NAME    .UNIT     VALUE                         : DESCRIPTION
#_______________________________________________________________________________
SET                .         D8107_D                       : 
OTHER              .         Программное обеспечение станции MONITOR-386EX 25/12/99 15_08_10   BGF V52 22/08/01 16_56_30   4_SNGF_BGF_N_011645: 
OTHER_10           .         Тарировки_                    : 
OTHER_11           .         TM.GRD = 0.00412*TM$.UE + -2.13: 
OTHER_12           .         MN.ATM = (5.87652e-006*TM.GRD + 0.01993)*(MN$.UE + -2.72*TM.GRD + -1925): 
OTHER_13           .         GK.MKR/H = GK$.UE / 57.4657   : 
OTHER_2            .         Kedr.exe версия 3.4.2.51      : 
OTHER_3            .         KedrData.dll версия 3.4.2.24  : 
OTHER_4            .         Драйвер версия 2.1.0.2        : 
OTHER_5            .         Мнемоники версия 3.3 S        : 
OTHER_6            .         Прибор_ АКП4-90               : 
OTHER_7            .         Номер прибора_ 53             : 
OTHER_8            .         Режим_ АКП4_90                : 
OTHER_9            .         Форма_ ПК-53ое                : 
PROJECT_UPGRADE_TIME .         2021-03-18T21_24_50           : 
TLFamily_DEPT      .         Measured Depth                : 
TLFamily_GK        .         Gamma Ray                     : 
TLFamily_GK$       .                                       : 
TLFamily_LM        .         Casing Collar locator         : 
TLFamily_METKA     .                                       : 
TLFamily_METKA_1   .                                       : 
TLFamily_MN        .                                       : 
TLFamily_MN$       .                                       : 
TLFamily_RCOR      .                                       : 
TLFamily_SPID      .         Spontaneous Potential         : 
TLFamily_TENS      .         Cable Tension                 : 
TLFamily_TIME      .         Time                          : 
TLFamily_TM        .         Temperature                   : 
TLFamily_TM$       .         Temperature                   : 
group              .         prim                          : 
~Curve Information
#_______________________________________________________________________________
#
#LOGNAME           .UNIT     LOG_ID                        : DESCRIPTION
#_______________________________________________________________________________
DEPT               .M                                      : 1 Глубина, м -    0.0 см 
GK                 .MKR/H                                  : 13 Гамма-активность, мкр./ч -   65.0 см 
GK$                .UE                                     : 10 Гамма-активность, усл.ед. -   65.0 см 
LM                 .                                       : 9 Локатор муфт,  -   30.0 см 
METKA              .                                       : 3 Метки,  -    0.0 см 
METKA_1            .                                       : 14 Маркеры - 65 см 
MN                 .ATM                                    : 12 Давление, атм. -  140.0 см 
MN$                .UE                                     : 8 Давление, усл.ед. -  140.0 см 
RCOR               .CM/KM                                  : 5 Коррекция по ролику, см/км -    0.0 см 
SPID               .M/H                                    : 2 Скорость, м/час -    0.0 см 
TENS               .T                                      : 6 Натяжение кабеля, т -    0.0 см 
TIME               .S                                      : 4 Время, сек -    0.0 см 
TM                 .GRD                                    : 11 Температура, °C -  145.0 см 
TM$                .UE                                     : 7 Температура, усл.ед. -  145.0 см 
~Ascii
# ...
2675.6     5.79       333        574        0          0          244.98     14217      -21        -628       1.03       15690.96   60.981     15318     
2675.8     5.86       337        338        0          0          244.974    14217      -21        -627       1.03       15689.8    60.935     15307     
2676       5.88       338        361        0          0          244.991    14218      -21        -630       1.05       15688.63   60.838     15283     
2676.2     5.9        339        755        0          0          245.051    14221      -21        -626       1.05       15687.53   60.741     15260     
2676.4     5.96       343        1226       0          0          245.011    14219      -21        -629       1.04       15686.34   60.642     15236     
2676.6     6.09       350        513        0          0          245.068    14221      -21        -624       1.05       15685.2    60.541     15211     
2676.8     6.1        351        862        0          0          245.089    14222      -21        -626       1.05       15684.03   60.489     15199     
2677       6.19       356        614        0          0          245.079    14222      -21        -627       1.05       15682.89   60.394     15176     
2677.2     6.16       354        735        0          0          245.139    14225      -21        -623       1.05       15681.76   60.258     15143     
2677.4     5.97       343        327        0          0          245.139    14225      -21        -622       1.03       15680.61   60.203     15129     
2677.6     5.98       344        197        0          0          245.13     14225      -21        -625       1.05       15679.48   60.107     15106     
2677.8     6.21       357        445        0          0          245.193    14228      -21        -625       1.05       15678.29   60.012     15083     
2678       6.21       357        157        0          0          245.165    14226      -21        -628       1.03       15677.16   59.971     15073     
2678.2     6.2        357        429        0          0          245.215    14229      -21        -624       1.05       15675.97   59.859     15046     
2678.4     6.2        356        387        0          0          245.272    14232      -21        -625       1.03       15674.83   59.781     15027     
2678.6     6.2        356        190        0          0          245.222    14229      -21        -627       1.03       15673.69   59.699     15007     
2678.8     6.2        356        583        0          0          245.279    14232      -21        -622       1.03       15672.56   59.574     14977     
2679       6.22       357        863        0          0          245.301    14233      -21        -623       1.03       15671.42   59.472     14952     
2679.2     6.32       363        580        0          0          245.279    14232      -21        -631       1.03       15670.28   59.348     14922     
2679.4     6.35       365        767        0          0          245.358    14236      -21        -628       1.03       15669.08   59.25      14898     
2679.6     6.7        385        495        0          0          245.338    14235      -21        -631       1.05       15667.92   59.169     14878     
2679.8     6.74       387        219        2          0          245.341    14235      -20        -627       1.03       15666.67   59.052     14850     
2680       7.13       410        324        0          0          245.395    14238      -19        -629       1.03       15665.54   58.96      14828     
2680.2     7.12       409        412        0          0          245.382    14237      -19        -625       1.03       15664.37   58.874     14807     
2680.4     6.82       392        370        0          0          245.401    14238      -19        -620       1.05       15663.23   58.754     14778     
2680.6     6.75       388        731        0          0          245.458    14241      -19        -625       1.05       15662.08   58.644     14751     
2680.8     6.72       386        407        0          0          245.433    14240      -19        -629       1.03       15660.9    58.519     14721     
2681       6.73       387        729        0          0          245.478    14242      -19        -624       1.03       15659.77   58.416     14696     
2681.2     6.97       400        721        0          0          245.503    14243      -19        -626       1.03       15658.63   58.349     14679     
2681.4     7.26       417        480        0          0          245.512    14244      -19        -620       1.03       15657.45   58.236     14652     
2681.6     7.25       417        808        0          0          245.594    14248      -19        -620       1.05       15656.36   58.129     14626     
2681.8     7.24       416        741        0          0          245.56     14246      -19        -613       1.05       15655.18   58.02      14600     
2682       7.17       412        513        0          0          245.577    14247      -19        -625       1.05       15654.03   57.893     14569     
2682.2     6.92       398        1101       0          0          245.637    14250      -19        -626       1.03       15652.84   57.778     14541     
2682.4     6.9        397        3712       0          0          245.617    14249      -19        -620       1.03       15651.67   57.671     14515     
2682.6     6.61       380        10921      0          0          245.657    14251      -19        -615       1.05       15650.53   57.561     14488     
2682.8     6.61       380        4372       0          0          245.677    14252      -19        -621       1.04       15649.4    57.464     14465     
2683       6.63       381        382        0          0          245.598    14248      -19        -627       1.05       15648.18   57.434     14457     
2683.2     6.64       381        527        0          0          245.723    14254      -19        -622       1.04       15647.05   57.349     14437     
2683.4     6.73       387        473        0          0          245.737    14255      -19        -620       1.03       15645.89   57.271     14418     
2683.6     6.76       389        215        0          0          245.737    14255      -19        -630       1.04       15644.74   57.141     14386     
2683.8     6.61       380        541        0          0          245.777    14257      -19        -626       1.05       15643.62   56.968     14344     
2684       6.3        362        505        0          0          245.777    14257      -19        -628       1.03       15642.45   56.904     14329     
2684.2     6.34       364        250        0          0          245.79     14258      -19        -624       1.03       15641.32   56.789     14301     
2684.4     6.4        368        547        0          0          245.848    14261      -19        -625       1.03       15640.13   56.678     14274     
2684.6     6.41       368        330        0          0          245.845    14260      -19        -626       1.03       15639.01   56.601     14255     
2684.8     6.42       369        460        0          0          245.89     14263      -19        -621       1.03       15637.82   56.495     14229     
2685       6.46       371        734        0          0          245.916    14264      -19        -621       1.03       15636.7    56.382     14202     
2685.2     7.01       403        314        0          0          245.911    14264      -19        -621       1.05       15635.52   56.287     14179     
2685.4     7.05       405        511        0          0          245.953    14266      -19        -616       1.05       15634.39   56.193     14156     
2685.6     7.52       432        541        0          0          245.976    14267      -19        -623       1.03       15633.25   56.135     14142     
2685.8     7.52       432        227        0          0          245.976    14267      -19        -629       1.05       15632.09   56.026     14116     
