~Version
 VERS              .         2.0                           : CWLS LOG ASCII STANDARD - VERSION 2.0
 WRAP              .         NO                            : ONE LINE PER DEPTH STEP
 DLM               .         SPACE                         : DELIMITING CHARACTER(SPACE TAB OR COMMA)
~Well Information
#_______________________________________________________________________________
#
#PARAMETER_NAME    .UNIT     VALUE                         : DESCRIPTION
#_______________________________________________________________________________
STRT               .M        2649.8                        : First reference value
STOP               .M        2761.600056                   : Last reference value
STEP               .M        0.2000001                     : Step increment
NULL               .         -9999                         : Missing value
COMP               .                                       : Company
WELL               .         616                           : Well name
FLD                .                                       : Field
LOC                .                                       : Location
CNTY               .                                       : County
STAT               .                                       : State
CTRY               .                                       : Country
SRVC               .                                       : Service Company
DATE               .                                       : Date
API                .                                       : API number
PROJECT_UPGRADE_TIME .         2021-03-18T21_24_50           : 
group              .         Good                          : 
~Parameter Information Block
#_______________________________________________________________________________
#
#PARAMETER_NAME    .UNIT     VALUE                         : DESCRIPTION
#_______________________________________________________________________________
SET                .         D8106_D                       : 
OTHER              .         Программное обеспечение станции MONITOR-386EX 25/12/99 15_08_10   BGF V52 22/08/01 16_56_30   4_SNGF_BGF_N_011645: 
OTHER_10           .         Тарировки_                    : 
OTHER_11           .         TM.GRD = 0.00412*TM$.UE + -2.13: 
OTHER_12           .         MN.ATM = (5.87652e-006*TM.GRD + 0.01993)*(MN$.UE + -2.72*TM.GRD + -1925): 
OTHER_13           .         GK.MKR/H = GK$.UE / 57.4657   : 
OTHER_2            .         Kedr.exe версия 3.4.2.51      : 
OTHER_3            .         KedrData.dll версия 3.4.2.24  : 
OTHER_4            .         Драйвер версия 2.1.0.2        : 
OTHER_5            .         Мнемоники версия 3.3 S        : 
OTHER_6            .         Прибор_ АКП4-90               : 
OTHER_7            .         Номер прибора_ 53             : 
OTHER_8            .         Режим_ АКП4_90                : 
OTHER_9            .         Форма_ ПК-53ое                : 
PROJECT_UPGRADE_TIME .         2021-03-18T21_24_50           : 
TLFamily_DEPT      .         Measured Depth                : 
TLFamily_GK        .         Gamma Ray                     : 
TLFamily_GK$       .                                       : 
TLFamily_LM        .         Casing Collar locator         : 
TLFamily_METKA     .                                       : 
TLFamily_METKA_1   .                                       : 
TLFamily_MN        .                                       : 
TLFamily_MN$       .                                       : 
TLFamily_RCOR      .                                       : 
TLFamily_SPID      .         Spontaneous Potential         : 
TLFamily_TENS      .         Cable Tension                 : 
TLFamily_TIME      .         Time                          : 
TLFamily_TM        .         Temperature                   : 
TLFamily_TM$       .         Temperature                   : 
group              .         prim                          : 
~Curve Information
#_______________________________________________________________________________
#
#LOGNAME           .UNIT     LOG_ID                        : DESCRIPTION
#_______________________________________________________________________________
DEPT               .M                                      : 1 Глубина, м -    0.0 см 
GK                 .MKR/H                                  : 13 Гамма-активность, мкр./ч -   65.0 см 
GK$                .UE                                     : 10 Гамма-активность, усл.ед. -   65.0 см 
LM                 .                                       : 9 Локатор муфт,  -   30.0 см 
METKA              .                                       : 3 Метки,  -    0.0 см 
METKA_1            .                                       : 14 Маркеры - 65 см 
MN                 .ATM                                    : 12 Давление, атм. -  140.0 см 
MN$                .UE                                     : 8 Давление, усл.ед. -  140.0 см 
RCOR               .CM/KM                                  : 5 Коррекция по ролику, см/км -    0.0 см 
SPID               .M/H                                    : 2 Скорость, м/час -    0.0 см 
TENS               .T                                      : 6 Натяжение кабеля, т -    0.0 см 
TIME               .S                                      : 4 Время, сек -    0.0 см 
TM                 .GRD                                    : 11 Температура, °C -  145.0 см 
TM$                .UE                                     : 7 Температура, усл.ед. -  145.0 см 
~Ascii
# ...
2733.000042 9.41       541        709        0          0          250.556    14497      -15        481        0.55       14979.63   46.088     11703     
2733.200042 9.4        540        688        0          0          250.66     14502      -15        486        0.55       14981.1    46.151     11719     
2733.400042 10.03      576        866        0          0          250.6      14499      -15        486        0.55       14982.62   46.202     11731     
2733.600042 10.18      585        420        0          0          250.699    14504      -15        489        0.55       14984.09   46.272     11748     
2733.800042 9.69       557        484        0          0          250.62     14500      -15        489        0.55       14985.58   46.284     11751     
2734.000042 9.22       530        532        0          0          250.735    14506      -15        492        0.55       14987.09   46.331     11762     
2734.200042 8.34       479        311        0          0          250.646    14501      -15        485        0.55       14988.55   46.361     11770     
2734.400042 7.62       438        412        0          0          250.759    14507      -15        488        0.55       14989.99   46.429     11786     
2734.600042 7.37       423        477        0          0          250.7      14504      -15        490        0.55       14991.5    46.494     11802     
2734.800043 7.22       415        774        0          0          250.789    14508      -15        487        0.55       14993.01   46.595     11827     
2735.000043 7.18       413        438        0          0          250.743    14506      -15        489        0.55       14994.52   46.656     11841     
2735.200043 7.02       403        553        0          0          250.826    14510      -15        492        0.55       14996.03   46.699     11852     
2735.400043 7.01       403        336        0          0          250.786    14508      -15        488        0.55       14997.47   46.741     11862     
2735.600043 7.01       403        580        0          0          250.871    14513      -15        490        0.53       14998.98   46.849     11888     
2735.800043 7.36       423        403        0          0          250.819    14510      -15        486        0.55       15000.45   46.922     11906     
2736.000043 7.38       424        517        0          0          250.859    14512      -15        479        0.55       15002.01   47.019     11929     
2736.200043 6.77       389        348        0          0          250.879    14513      -15        478        0.55       15003.45   47.1       11949     
2736.400043 6.58       378        681        0          0          250.919    14515      -15        476        0.55       15004.96   47.261     11988     
2736.600043 6.42       369        381        0          0          250.859    14512      -15        472        0.55       15006.47   47.496     12045     
2736.800044 6.76       388        358        0          0          250.943    14516      -15        469        0.55       15007.98   47.707     12096     
2737.000044 6.79       390        345        0          0          250.951    14517      -15        478        0.55       15009.42   47.828     12126     
2737.200044 6.69       384        605        0          0          250.959    14517      -15        474        0.55       15010.97   47.904     12144     
2737.400044 6.59       379        613        0          0          251.014    14520      -15        470        0.54       15012.46   48.01      12170     
2737.600044 6.56       377        772        0          0          250.986    14518      -15        476        0.55       15014.02   48.099     12192     
2737.800044 6.67       383        299        0          0          251.05     14522      -15        480        0.55       15015.47   48.199     12216     
2738.000044 6.68       384        229        0          0          251.014    14520      -15        472        0.55       15016.98   48.276     12234     
2738.200044 6.38       367        302        0          0          251.118    14525      -15        472        0.55       15018.42   48.378     12259     
2738.400044 6.45       370        141        0          0          251.038    14521      -15        480        0.55       15019.94   48.457     12279     
2738.600044 6.47       372        497        0          0          251.158    14527      -15        475        0.55       15021.47   48.536     12298     
2738.800045 7.04       405        12149      0          0          251.106    14524      -15        472        0.55       15022.95   48.592     12311     
2739.000045 7.12       409        19253      0          0          251.218    14530      -15        475        0.55       15024.47   48.681     12333     
2739.200045 6.55       376        3801       0          0          251.146    14526      -15        476        0.55       15025.99   48.766     12353     
2739.400045 6.83       392        697        0          0          251.241    14531      -15        483        0.55       15027.5    48.858     12376     
2739.600045 6.98       401        809        0          0          251.206    14529      -15        476        0.55       15029.02   48.923     12391     
2739.800045 7.97       458        1016       2          0          251.253    14532      -15        482        0.55       15030.46   49.003     12411     
2740.000045 8.12       467        305        0          0          251.281    14533      -16        477        0.55       15032.04   49.079     12429     
2740.200045 8.02       461        185        0          0          251.277    14533      -16        483        0.55       15033.56   49.159     12449     
2740.400045 7.77       447        102        0          0          251.337    14536      -16        482        0.55       15035.1    49.288     12480     
2740.600045 7.54       433        215        0          0          251.317    14535      -16        476        0.55       15036.58   49.428     12514     
2740.800046 6.59       379        134        0          0          251.357    14537      -16        478        0.55       15038.03   49.555     12545     
2741.000046 6.54       376        71         0          0          251.357    14537      -16        473        0.55       15039.54   49.642     12566     
2741.200046 6.63       381        183        0          0          251.397    14539      -16        475        0.55       15041.05   49.731     12588     
2741.400046 7.08       407        253        0          0          251.417    14540      -16        473        0.55       15042.56   49.827     12611     
2741.600046 7.34       422        161        0          0          251.437    14541      -16        470        0.55       15044.07   49.951     12641     
2741.800046 7.89       453        106        0          0          251.457    14542      -16        467        0.55       15045.58   50.091     12675     
2742.000046 7.92       455        79         0          0          251.477    14543      -16        471        0.55       15047.09   50.223     12707     
2742.200046 7.99       459        86         0          0          251.477    14543      -16        469        0.55       15048.6    50.338     12735     
2742.400046 8.16       469        230        0          0          251.513    14545      -16        472        0.55       15050.13   50.454     12763     
2742.600046 8.2        471        646        0          0          251.517    14545      -16        470        0.55       15051.63   50.573     12792     
2742.800047 7.95       457        450        0          0          251.556    14547      -16        468        0.55       15053.22   50.683     12819     
2743.000047 7.93       456        275        0          0          251.556    14547      -16        466        0.55       15054.66   50.801     12847     
2743.200047 7.27       418        286        0          0          251.596    14549      -16        470        0.55       15056.18   50.949     12883     
