~Version
 VERS              .         2.0                           : CWLS LOG ASCII STANDARD - VERSION 2.0
 WRAP              .         NO                            : ONE LINE PER DEPTH STEP
 DLM               .         SPACE                         : DELIMITING CHARACTER(SPACE TAB OR COMMA)
~Well Information
#_______________________________________________________________________________
#
#PARAMETER_NAME    .UNIT     VALUE                         : DESCRIPTION
#_______________________________________________________________________________
STRT               .M        2648.8                        : First reference value
STOP               .M        2753.600052                   : Last reference value
STEP               .M        0.2000001                     : Step increment
NULL               .         -9999                         : Missing value
COMP               .                                       : Company
WELL               .         616                           : Well name
FLD                .                                       : Field
LOC                .                                       : Location
CNTY               .                                       : County
STAT               .                                       : State
CTRY               .                                       : Country
SRVC               .                                       : Service Company
DATE               .                                       : Date
API                .                                       : API number
PROJECT_UPGRADE_TIME .         2021-03-18T21_24_50           : 
group              .         Good                          : 
~Parameter Information Block
#_______________________________________________________________________________
#
#PARAMETER_NAME    .UNIT     VALUE                         : DESCRIPTION
#_______________________________________________________________________________
SET                .         D7027_D                       : 
OTHER              .         Kedr.exe версия 2.1.2.32      : 
OTHER_10           .         TM.GRD = 0.00404*TM$.UE + 0.07: 
OTHER_11           .         MN.ATM = (6.33279e-006*TM.GRD + 0.02401)*(MN$.UE + 2.72*TM.GRD + -2018): 
OTHER_12           .         GK.MKR/H = GK$.UE / 43.5489 + 0: 
OTHER_13           .         RES.SM = 0.00476*CRES.UE - 1.51709: 
OTHER_14           .         PL.GSM3 = 0 + 0 * (PL.UE / 1) +  0 * (PL.UE / 1)^2: 
OTHER_15           .         Постоянная времени ГГП = 6 сек: 
OTHER_16           .         Постоянная времени ГК = 6 сек : 
OTHER_2            .         KedrData.dll версия 3.2.2.14  : 
OTHER_3            .         LasInf.dll версия 3.2.0.13    : 
OTHER_4            .         Драйвер версия 1.2.0.5        : 
OTHER_5            .         Прибор_ КСА-M1                : 
OTHER_6            .         Номер прибора_ 155+р204       : 
OTHER_7            .         Режим_ КСА-М1 + ГГП + Резистивиметр: 
OTHER_8            .         Форма_ 223\2                  : 
OTHER_9            .         Тарировки_                    : 
PROJECT_UPGRADE_TIME .         2021-03-18T21_24_50           : 
TLFamily_CRES      .                                       : 
TLFamily_DEPT      .         Measured Depth                : 
TLFamily_GK        .         Gamma Ray                     : 
TLFamily_GK$       .                                       : 
TLFamily_LM        .         Casing Collar locator         : 
TLFamily_METKA     .                                       : 
TLFamily_MN        .                                       : 
TLFamily_MN$       .                                       : 
TLFamily_PL        .                                       : 
TLFamily_PL_2      .                                       : 
TLFamily_RCOR      .                                       : 
TLFamily_RES       .         Mud Resistivity               : 
TLFamily_SPID      .         Spontaneous Potential         : 
TLFamily_STD       .                                       : 
TLFamily_TIME      .         Time                          : 
TLFamily_TM        .         Temperature                   : 
TLFamily_TM$       .         Temperature                   : 
TLFamily_VGD       .         Gas Volume                    : 
group              .         prim                          : 
~Curve Information
#_______________________________________________________________________________
#
#LOGNAME           .UNIT     LOG_ID                        : DESCRIPTION
#_______________________________________________________________________________
DEPT               .M                                      : 1 Глубина, м -    0.0 см 
CRES               .UE                                     : 9 Проводимость, усл.ед. -  222.0 см 
GK                 .MKR/H                                  : 16 Гамма-активность, мкр./ч -  106.0 см 
GK$                .UE                                     : 13 Гамма-активность, усл.ед. -  106.0 см 
LM                 .                                       : 11 Локатор муфт,  -   16.0 см 
METKA              .                                       : 3 Метки,  -    0.0 см 
MN                 .ATM                                    : 15 Давление, атм. -  160.0 см 
MN$                .UE                                     : 7 Давление, усл.ед. -  160.0 см 
PL                 .UE                                     : 10 Плотность, усл.ед. -  270.0 см 
PL_2               .GSM3                                   : 18 Плотность, г./см3 -  270.0 см 
RCOR               .CM/KM                                  : 5 Коррекция по ролику, см/км -    0.0 см 
RES                .SM                                     : 17 Проводимость,  -  222.0 см 
SPID               .M/H                                    : 2 Скорость, м/час -    0.0 см 
STD                .                                       : 12 Приток,  -  170.0 см 
TIME               .S                                      : 4 Время, сек -    0.0 см 
TM                 .GRD                                    : 14 Температура, °C -  180.0 см 
TM$                .UE                                     : 6 Температура, усл.ед. -  180.0 см 
VGD                .                                       : 8 Влагомер,  -  170.0 см 
~Ascii
# ...
2665.200008 1196       6.59       302        83         0          245.109    11922      14         0          0          4.1759     580        11094      18104.03   56.683     14013      6612      
2665.400008 1194       7.09       332        96         0          245.128    11923      14         0          0          4.1663     568        11089      18105.36   56.666     14009      6613      
2665.600008 1193       7.25       305        80         0          245.123    11923      14         0          0          4.1632     570        11089      18106.66   56.652     14005      6610      
2665.800009 1194       7.05       298        82         0          245.149    11924      14         0          0          4.1663     580        11084      18107.94   56.639     14002      6611      
2666.000009 1194       6.96       301        71         0          245.171    11925      14         0          0          4.1656     557        11083      18109.26   56.626     13999      6612      
2666.200009 1192       6.94       301        77         0          245.186    11926      14         0          0          4.1589     580        11081      18110.51   56.611     13995      6609      
2666.400009 1194       7.01       321        73         0          245.215    11927      14         0          0          4.165      580        11077      18111.84   56.592     13991      6607      
2666.600009 1193       7.23       325        50         0          245.221    11927      14         0          0          4.1616     534        11074      18113.09   56.577     13987      6609      
2666.800009 1193       7.3        316        61         0          245.236    11928      14         0          0          4.1616     580        11069      18114.4    56.56      13983      6610      
2667.000009 1192       7.28       316        83         0          245.238    11928      14         0          0          4.1584     580        11069      18115.74   56.547     13979      6613      
2667.200009 1193       7.22       310        60         0          245.282    11930      14         0          0          4.1616     580        11066      18116.99   56.534     13976      6614      
2667.400009 1191       7.17       310        64         0          245.289    11930      14         0          0          4.1529     545        11063      18118.3    56.525     13974      6614      
2667.600009 1192       7.02       296        72         0          245.303    11931      14         0          0          4.1592     580        11063      18119.62   56.52      13973      6617      
2667.80001 1192       6.91       296        55         0          245.325    11932      14         0          0          4.1568     580        11061      18120.89   56.503     13969      6618      
2668.00001 1192       6.98       312        51         0          245.328    11932      14         0          0          4.1568     557        11059      18122.2    56.486     13964      6617      
2668.20001 1190       7.07       312        91         0          245.356    11933      14         0          0          4.1473     580        11055      18123.52   56.472     13961      6617      
2668.40001 1190       7.22       323        85         0          245.37     11934      14         0          0          4.1473     568        11052      18124.79   56.471     13961      6617      
2668.60001 1190       7.32       323        59         0          245.39     11935      14         0          0          4.1473     522        11050      18126.1    56.451     13956      6619      
2668.80001 1189       7.25       312        46         0          245.413    11936      14         0          0          4.1425     545        11045      18127.42   56.424     13949      6617      
2669.00001 1189       7.21       312        46         0          245.422    11937      14         0          0          4.1425     580        11042      18128.69   56.406     13945      6630      
2669.20001 1188       6.97       290        58         0          245.451    11938      14         0          0          4.1378     580        11036      18130      56.384     13939      6635      
2669.40001 1189       6.82       290        100        0          245.451    11938      14         0          0          4.1425     530        11029      18131.3    56.361     13934      6624      
2669.60001 1189       6.88       303        64         0          245.473    11939      14         0          0          4.1425     580        11024      18132.57   56.331     13926      6617      
2669.800011 1189       7.07       337        52         0          245.496    11940      14         0          0          4.1449     580        11021      18133.9    56.311     13921      6616      
2670.000011 1190       7.76       370        77         0          245.494    11940      14         0          0          4.1457     580        11019      18135.15   56.297     13918      6615      
2670.200011 1188       8.13       370        125        1          245.517    11941      14         0          0          4.1378     522        11015      18137.06   56.284     13914      6616      
2670.400011 1189       8.31       370        99         0          245.538    11942      14         0          0          4.141      580        11010      18138.33   56.27      13911      6615      
2670.600011 1188       8.3        346        5172       0          245.56     11943      14         0          0          4.1402     580        11006      18139.67   56.25      13906      6615      
2670.800011 1188       7.84       322        3192       0          245.582    11944      14         0          0          4.1355     557        11001      18140.98   56.227     13900      6613      
2671.000011 1186       7.58       312        501        0          245.604    11945      14         0          0          4.1283     510        11001      18142.3    56.214     13897      6612      
2671.200011 1186       7.32       312        163        0          245.602    11945      14         0          0          4.1299     568        10996      18143.56   56.19      13891      6615      
2671.400011 1185       7.8        380        78         0          245.623    11946      14         0          0          4.1219     580        10994      18144.88   56.18      13888      6612      
2671.600011 1185       8.25       380        79         0          245.645    11947      14         0          0          4.1235     569        10989      18146.2    56.155     13882      6615      
2671.800011 1185       8.73       405        84         0          245.666    11948      14         0          0          4.1243     510        10986      18147.46   56.133     13877      6616      
2672.000012 1186       9.01       405        99         0          245.69     11949      14         0          0          4.1283     557        10985      18148.78   56.109     13871      6615      
2672.200012 1185       9.09       399        104        0          245.711    11950      14         0          0          4.1219     580        10983      18150.1    56.101     13869      6616      
2672.400012 1184       9.12       398        180        0          245.725    11951      14         0          0          4.1211     580        10976      18151.35   56.082     13864      6615      
2672.600012 1186       9.11       396        128        0          245.731    11951      14         0          0          4.1269     522        10971      18152.68   56.058     13858      6617      
2672.800012 1186       9.09       393        102        0          245.755    11952      14         0          0          4.1283     580        10965      18153.97   56.048     13856      6616      
2673.000012 1185       8.89       378        134        0          245.777    11953      14         0          0          4.1235     510        10966      18155.25   56.039     13854      6612      
2673.200012 1186       8.8        381        101        0          245.795    11954      14         0          0          4.1264     580        10967      18156.58   56.022     13849      6616      
