~Version
 VERS              .         2.0                           : CWLS LOG ASCII STANDARD - VERSION 2.0
 WRAP              .         NO                            : ONE LINE PER DEPTH STEP
 DLM               .         SPACE                         : DELIMITING CHARACTER(SPACE TAB OR COMMA)
~Well Information
#_______________________________________________________________________________
#
#PARAMETER_NAME    .UNIT     VALUE                         : DESCRIPTION
#_______________________________________________________________________________
STRT               .M        749.69                        : First reference value
STOP               .M        1410.72                       : Last reference value
STEP               .M        0                             : Step increment
NULL               .         -9999                         : Missing value
COMP               .                                       : Company
WELL               .         616                           : Well name
FLD                .                                       : Field
LOC                .                                       : Location
CNTY               .                                       : County
STAT               .                                       : State
CTRY               .                                       : Country
SRVC               .                                       : Service Company
DATE               .                                       : Date
API                .                                       : API number
PROJECT_UPGRADE_TIME .         2021-03-18T21_24_50           : 
group              .         Good                          : 
~Parameter Information Block
#_______________________________________________________________________________
#
#PARAMETER_NAME    .UNIT     VALUE                         : DESCRIPTION
#_______________________________________________________________________________
SET                .         D0928                         : 
NPR                .         210404                        : ЗАВ НОМЕР ПРИБОРА
NPRT               .         Каштанов                      : НАЧ ПАРТИИ
PROJECT_UPGRADE_TIME .         2021-03-18T21_24_49           : 
TLFamily_AZIMUTH   .         True Dip Azimuth              : 
TLFamily_DEPTH     .         Measured Depth                : 
TLFamily_DRILL     .                                       : 
TLFamily_METKA     .                                       : 
TLFamily_ZENIT     .                                       : 
group              .         prim                          : 
~Curve Information
#_______________________________________________________________________________
#
#LOGNAME           .UNIT     LOG_ID                        : DESCRIPTION
#_______________________________________________________________________________
DEPTH              .M                                      : 1 ГЛУБИНА 
AZIMUTH            .ГРАД                                   : 4 АЗИМУТ 
DRILL              .ГРАД                                   : 2 ПОВОРОТ 
METKA              .                                       : 5 МАГН МЕТКА 
ZENIT              .ГРАД                                   : 3 ЗЕНИТ 
~Ascii
# ...
778.31     352.81     138.92     0          31.84     
778.5      352.73     138.99     0          31.86     
778.7      352.91     139.09     0          31.87     
778.89     353.15     139.16     0          31.89     
779.09     353.72     139.16     0          31.89     
779.28     354.05     139.13     0          31.91     
779.48     354.74     139.07     0          31.91     
779.67     355.15     138.92     0          31.93     
779.87     356.05     138.67     0          31.94     
780.06     356.7      138.35     0          31.93     
780.26     356.76     137.99     0          31.93     
780.45     357.63     137.64     0          31.93     
780.65     357.9      137.35     0          31.92     
780.84     358.63     137.08     0          31.91     
781.04     359.02     136.85     0          31.88     
781.23     359.6      136.68     0          31.86     
781.43     0.08       136.61     0          31.84     
781.62     0.58       136.61     0          31.82     
781.82     1.2        136.64     0          31.83     
782.01     1.82       136.68     0          31.82     
782.2      2.37       136.71     0          31.83     
782.4      3.46       136.69     0          31.81     
782.59     3.79       136.68     0          31.81     
782.78     4.32       136.66     0          31.8      
782.98     4.95       136.7      0          31.8      
783.17     4.76       136.81     0          31.78     
783.36     4.68       136.95     0          31.77     
783.56     5.26       137.11     0          31.76     
783.75     4.87       137.25     0          31.75     
783.94     4.22       137.36     0          31.74     
784.14     4.29       137.42     0          31.72     
784.33     4.22       137.44     0          31.7      
784.52     4.27       137.46     0          31.68     
784.71     4.3        137.5      0          31.67     
784.91     4.1        137.59     0          31.65     
785.1      3.81       137.74     0          31.64     
785.29     3.8        137.95     0          31.63     
785.48     3.36       138.22     0          31.62     
785.67     2.93       138.56     0          31.61     
785.87     2.53       138.94     0          31.61     
786.06     2.73       139.34     0          31.6      
786.25     2.27       139.73     0          31.6      
786.44     2.18       140.07     0          31.61     
786.63     2.1        140.38     0          31.61     
786.82     1.82       140.67     0          31.64     
787.01     1.87       140.9      0          31.66     
787.2      1.36       141.05     0          31.68     
787.39     1.93       141.13     0          31.69     
787.57     1.55       141.16     0          31.69     
787.76     1.83       141.18     0          31.69     
787.95     1.48       141.19     0          31.7      
788.14     1.65       141.2      0          31.7      
788.33     1.32       141.15     0          31.72     
788.52     1.3        141.08     0          31.72     
788.71     1.34       140.97     0          31.72     
788.9      1.37       140.84     0          31.72     
789.08     1.59       140.74     0          31.72     
789.27     1.1        140.69     0          31.71     
789.46     1.74       140.67     0          31.72     
789.65     1.46       140.66     0          31.7      
789.84     1.82       140.65     0          31.71     
790.03     0.54       140.68     0          31.71     
790.22     358.79     140.75     0          31.73     
790.41     359.56     140.85     0          31.73     
790.59     359.61     140.94     0          31.74     
790.78     359.6      141.06     0          31.74     
790.97     359.36     141.17     0          31.78     
791.16     359.77     141.25     0          31.79     
791.35     359.42     141.3      0          31.81     
791.54     359.35     141.38     0          31.78     
791.73     359.28     141.52     0          31.79     
791.92     359.52     141.66     0          31.79     
792.11     359.47     141.75     0          31.78     
792.3      359.15     141.84     0          31.81     
792.49     359.28     141.89     0          31.8      
792.69     358.99     141.9      0          31.81     
792.88     359.1      141.89     0          31.78     
793.07     358.56     141.91     0          31.79     
793.26     358.74     141.94     0          31.76     
793.45     358.54     142        0          31.75     
793.64     358.6      142.1      0          31.72     
793.83     358.66     142.21     0          31.7      
794.03     358.68     142.34     0          31.69     
794.22     358.56     142.5      0          31.68     
794.41     358.06     142.69     0          31.68     
794.6      358.42     142.89     0          31.68     
794.79     357.89     143.06     0          31.69     
794.99     358.26     143.18     0          31.69     
795.18     358.01     143.26     0          31.69     
795.37     358.05     143.34     0          31.69     
795.56     357.84     143.4      0          31.7      
795.75     359.34     143.43     0          31.7      
795.95     1.35       143.43     0          31.69     
796.14     0.42       143.44     0          31.69     
796.33     1.06       143.44     0          31.7      
796.52     0.88       143.38     0          31.7      
796.71     0.86       143.31     0          31.68     
796.91     359.94     143.28     0          31.67     
797.1      0.2        143.29     0          31.64     
797.29     359.87     143.27     0          31.67     
797.48     359.97     143.22     0          31.66     
797.68     0.33       143.16     0          31.66     
797.87     0.27       143.13     0          31.67     
798.06     0.68       143.07     0          31.68     
798.25     0.49       143.04     0          31.67     
798.44     0.66       143.07     0          31.68     
798.64     0.47       143.13     0          31.69     
798.83     0.73       143.18     0          31.71     
799.02     0.81       143.25     0          31.73     
799.21     1.02       143.32     0          31.76     
799.41     0.95       143.35     0          31.77     
799.6      0.95       143.38     0          31.81     
799.79     0.98       143.4      0          31.8      
799.98     1.03       143.39     0          31.82     
800.17     1.39       143.37     0          31.81     
800.37     1.11       143.37     0          31.82     
800.56     1.37       143.39     0          31.81     
800.75     0.85       143.44     0          31.81     
800.94     0.73       143.5      0          31.81     
801.13     0.51       143.57     0          31.82     
801.33     0.47       143.64     0          31.81     
801.52     0.25       143.7      0          31.82     
801.71     0.32       143.74     0          31.83     
801.9      0.47       143.77     0          31.84     
802.1      359.9      143.79     0          31.84     
802.29     358.15     143.81     0          31.83     
802.48     359.31     143.83     0          31.85     
802.67     0.48       143.86     0          31.85     
802.87     0.4        143.9      0          31.87     
803.06     0.82       143.97     0          31.86     
803.25     0.55       144.05     0          31.89     
803.44     0.3        144.15     0          31.9      
803.63     0.58       144.2      0          31.92     
803.83     0.5        144.26     0          31.89     
804.02     0.71       144.38     0          31.9      
804.21     0.95       144.49     0          31.9      
804.4      1.38       144.58     0          31.92     
804.59     1.58       144.61     0          31.9      
804.79     1.41       144.6      0          31.9      
804.98     1.24       144.57     0          31.89     
805.17     1.1        144.57     0          31.89     
805.36     0.85       144.63     0          31.88     
805.55     1.55       144.73     0          31.87     
805.75     2.29       144.84     0          31.88     
805.94     3.91       144.99     0          31.89     
806.13     5.74       145.07     0          31.9      
