~Version
 VERS              .         2.0                           : CWLS LOG ASCII STANDARD - VERSION 2.0
 WRAP              .         NO                            : ONE LINE PER DEPTH STEP
 DLM               .         SPACE                         : DELIMITING CHARACTER(SPACE TAB OR COMMA)
~Well Information
#_______________________________________________________________________________
#
#PARAMETER_NAME    .UNIT     VALUE                         : DESCRIPTION
#_______________________________________________________________________________
STRT               .M        1.8                           : First reference value
STOP               .M        2776                          : Last reference value
STEP               .M        0.2                           : Step increment
NULL               .         -9999                         : Missing value
COMP               .                                       : Company
WELL               .         616                           : Well name
FLD                .                                       : Field
LOC                .                                       : Location
CNTY               .                                       : County
STAT               .                                       : State
CTRY               .                                       : Country
SRVC               .                                       : Service Company
DATE               .                                       : Date
API                .                                       : API number
PROJECT_UPGRADE_TIME .         2021-03-18T21_24_50           : 
group              .         Good                          : 
~Parameter Information Block
#_______________________________________________________________________________
#
#PARAMETER_NAME    .UNIT     VALUE                         : DESCRIPTION
#_______________________________________________________________________________
SET                .         D1799_D                       : 
OTHER              .         Программное обеспечение станции MONITOR-386EX 25/12/99 15_08_10   BGF V52 22/08/01 16_56_30   3.1_SNGF___BGF_N_092049: 
OTHER_10           .         Тарировки_                    : 
OTHER_11           .         TM.GRD = 0.00403*TM$.UE + -1.07: 
OTHER_12           .         MN.ATM = (9.34907e-006*TM.GRD + 0.02171)*(MN$.UE + -7.93*TM.GRD + -1787): 
OTHER_13           .         GK.MKR/H = LM. / 42.4676      : 
OTHER_14           .         GK.FLT = 0.1*GK.MKR/H[-1] + (1-0.1)*GK.MKR/H[0]: 
OTHER_2            .         Kedr.exe версия 3.4.2.51      : 
OTHER_3            .         KedrData.dll версия 3.4.2.24  : 
OTHER_4            .         Драйвер версия 2.1.1.3        : 
OTHER_5            .         Мнемоники версия 3.3 S        : 
OTHER_6            .         Прибор_ КСА-Т4                : 
OTHER_7            .         Номер прибора_ 03             : 
OTHER_8            .         Режим_ КСА-Т4                 : 
OTHER_9            .         Форма_ КВА.                   : 
PROJECT_UPGRADE_TIME .         2021-03-18T21_24_49           : 
TLFamily_DEPT      .         Measured Depth                : 
TLFamily_GK        .         Gamma Ray                     : 
TLFamily_GK$       .                                       : 
TLFamily_GK_2      .         Gamma Ray                     : 
TLFamily_LM        .         Casing Collar locator         : 
TLFamily_METKA     .                                       : 
TLFamily_MN        .                                       : 
TLFamily_MN$       .                                       : 
TLFamily_RCOR      .                                       : 
TLFamily_SPID      .         Spontaneous Potential         : 
TLFamily_TENS      .         Cable Tension                 : 
TLFamily_TIME      .         Time                          : 
TLFamily_TM        .         Temperature                   : 
TLFamily_TM$       .         Temperature                   : 
group              .         prim                          : 
~Curve Information
#_______________________________________________________________________________
#
#LOGNAME           .UNIT     LOG_ID                        : DESCRIPTION
#_______________________________________________________________________________
DEPT               .M                                      : 1 Глубина, м -    0.0 см 
GK                 .MKR/H                                  : 13 Гамма-активность, мкр./ч -  110.0 см 
GK$                .UE                                     : 10 Гамма-активность, усл.ед. -  110.0 см 
GK_2               .FLT                                    : 14 Гамма-активность фильтрованная, мкр./ч -  110.0 см 
LM                 .                                       : 9 Локатор муфт,  -   20.0 см 
METKA              .                                       : 3 Метки,  -    0.0 см 
MN                 .ATM                                    : 12 Давление, атм. -  160.0 см 
MN$                .UE                                     : 8 Давление, усл.ед. -  160.0 см 
RCOR               .CM/KM                                  : 5 Коррекция по ролику, см/км -    0.0 см 
SPID               .M/H                                    : 2 Скорость, м/час -    0.0 см 
TENS               .T                                      : 6 Натяжение кабеля, т -    0.0 см 
TIME               .S                                      : 4 Время, сек -    0.0 см 
TM                 .GRD                                    : 11 Температура, °C -  170.0 см 
TM$                .UE                                     : 7 Температура, усл.ед. -  170.0 см 
~Ascii
# ...
2768.2     8.07       343        8.34       182        0          253.192    13639      -1321      563        0.05       5818.97    62.346     15736     
2768.4     7.37       313        7.4        237        0          253.235    13641      -1321      559        0.05       5820.22    62.382     15745     
2768.6     7.22       307        7.28       235        0          253.255    13642      -1321      549        0.05       5821.55    62.407     15751     
2768.8     6.5        276        6.53       199        0          253.275    13643      -1321      557        0.05       5822.81    62.437     15759     
2769       6.55       278        6.53       125        0          253.295    13644      -1321      564        0.05       5824.07    62.466     15766     
2769.2     6.55       278        6.55       153        0          253.333    13646      -1321      563        0.05       5825.33    62.506     15776     
2769.4     6.73       286        6.67       158        0          253.361    13647      -1321      565        0.05       5826.66    62.562     15789     
2769.6     6.83       290        6.82       171        0          253.394    13649      -1321      569        0.05       5827.91    62.632     15807     
2769.8     7.58       322        7.39       147        0          253.388    13649      -1321      572        0.05       5829.17    62.71      15826     
2770       7.58       322        7.58       124        2          253.429    13651      -1321      565        0.05       5830.46    62.769     15841     
2770.2     8.83       375        8.42       581        0          253.448    13652      -1321      559        0.05       5831.76    62.814     15852     
2770.4     8.83       375        8.82       2193       0          253.489    13654      -1321      565        0.05       5833.02    62.868     15865     
2770.6     8.83       375        8.83       893        0          253.493    13655      -1321      569        0.05       5834.28    62.948     15885     
2770.8     8.83       375        8.83       322        0          253.519    13656      -1321      573        0.05       5835.61    63.049     15911     
2771       8.41       357        8.5        212        0          253.558    13658      -1321      558        0.05       5836.86    63.152     15936     
2771.2     8.41       357        8.41       192        0          253.568    13659      -1321      560        0.05       5838.13    63.221     15953     
2771.4     9.23       392        9.02       186        0          253.592    13660      -1321      555        0.05       5839.33    63.293     15971     
2771.6     9.23       392        9.22       167        0          253.607    13661      -1321      556        0.05       5840.7     63.383     15993     
2771.8     8.81       374        8.86       204        0          253.621    13662      -1321      563        0.05       5841.96    63.489     16020     
2772       8.81       374        8.81       193        0          253.64     13663      -1321      562        0.05       5843.17    63.61      16050     
2772.2     7.61       323        7.77       234        0          253.673    13665      -1321      556        0.05       5844.45    63.719     16077     
2772.4     7.61       323        7.61       215        0          253.689    13666      -1321      557        0.05       5845.76    63.805     16098     
2772.6     8.1        344        8          200        0          253.667    13665      -1321      564        0.05       5847.05    63.895     16120     
2772.8     8.1        344        8.1        196        0          253.735    13669      -1321      569        0.05       5848.27    64.007     16148     
2773       8.95       380        8.86       221        0          253.761    13670      -1321      578        0.05       5849.59    64.08      16166     
2773.2     8.95       380        8.95       204        0          253.797    13672      -1321      568        0.05       5850.87    64.157     16185     
2773.4     9.35       397        9.3        256        0          253.811    13673      -1321      572        0.05       5852.11    64.28      16216     
2773.6     9.35       397        9.35       296        0          253.804    13673      -1321      574        0.05       5853.38    64.386     16242     
2773.8     9.96       423        9.92       97         0          253.841    13675      -1321      561        0.05       5854.72    64.499     16270     
2774       9.96       423        9.96       49         0          253.876    13677      -1321      558        0.05       5855.95    64.593     16294     
2774.2     9.16       389        9.21       39         0          253.9      13678      -1321      563        0.05       5857.26    64.696     16319     
2774.4     9.16       389        9.16       38         -9999      253.91     13679      -1321      559        0.05       5858.51    64.788     16342     
2774.6     7.89       335        8.02       -9999      -9999      253.949    13681      -9999      -9999      -9999      -9999      64.872     16363     
2774.8     7.89       335        7.89       -9999      -9999      253.953    13681      -9999      -9999      -9999      -9999      64.954     16383     
2775       7.28       309        7.3        -9999      -9999      253.991    13683      -9999      -9999      -9999      -9999      65.018     16399     
2775.2     7.28       309        7.28       -9999      -9999      253.972    13683      -9999      -9999      -9999      -9999      65.117     16424     
2775.4     7.02       298        7.03       -9999      -9999      253.978    13684      -9999      -9999      -9999      -9999      65.295     16468     
2775.6     -9999      -9999      -9999      -9999      -9999      253.986    13684      -9999      -9999      -9999      -9999      65.308     16471     
2775.8     -9999      -9999      -9999      -9999      -9999      254.011    13685      -9999      -9999      -9999      -9999      65.292     16467     
2776       -9999      -9999      -9999      -9999      -9999      254.001    13685      -9999      -9999      -9999      -9999      65.316     16473     
