~Version
 VERS              .         2.0                           : CWLS LOG ASCII STANDARD - VERSION 2.0
 WRAP              .         NO                            : ONE LINE PER DEPTH STEP
 DLM               .         SPACE                         : DELIMITING CHARACTER(SPACE TAB OR COMMA)
~Well Information
#_______________________________________________________________________________
#
#PARAMETER_NAME    .UNIT     VALUE                         : DESCRIPTION
#_______________________________________________________________________________
STRT               .M        3.8                           : First reference value
STOP               .M        216                           : Last reference value
STEP               .M        0.2                           : Step increment
NULL               .         -9999                         : Missing value
COMP               .                                       : Company
WELL               .         616                           : Well name
FLD                .                                       : Field
LOC                .                                       : Location
CNTY               .                                       : County
STAT               .                                       : State
CTRY               .                                       : Country
SRVC               .                                       : Service Company
DATE               .                                       : Date
API                .                                       : API number
PROJECT_UPGRADE_TIME .         2021-03-18T21_24_50           : 
group              .         Good                          : 
~Parameter Information Block
#_______________________________________________________________________________
#
#PARAMETER_NAME    .UNIT     VALUE                         : DESCRIPTION
#_______________________________________________________________________________
SET                .         D1350_D                       : 
OTHER              .         Программное обеспечение станции MONITOR-386EX 25/12/99 15_08_10   BGF V52 22/08/01 16_56_30   3.1_SNGF__BGF_								111238: 
OTHER_10           .         Тарировки_                    : 
OTHER_11           .         <_techsia_sc_> Постоянная времени фильтра  0.5 сек, kf=0.181269: 
OTHER_12           .         TM.GRD = 0.00428968*TM$.UE + -0.3284: 
OTHER_13           .         GK.MKR/H = GK$.UE / 40.16     : 
OTHER_14           .         NKT. = NKT$.UE / 1            : 
OTHER_2            .         Kedr.exe версия 3.3.2.43      : 
OTHER_3            .         KedrData.dll версия 3.3.2.22  : 
OTHER_4            .         Драйвер версия 2.1.1.3        : 
OTHER_5            .         Мнемоники версия 3.3 S        : 
OTHER_6            .         Прибор_ РК4-38                : 
OTHER_7            .         Номер прибора_ 35с            : 
OTHER_8            .         Режим_ РК4-38                 : 
OTHER_9            .         Форма_ 3                      : 
PROJECT_UPGRADE_TIME .         2021-03-18T21_24_49           : 
TLFamily_DEPT      .         Measured Depth                : 
TLFamily_GK        .         Gamma Ray                     : 
TLFamily_GK$       .                                       : 
TLFamily_LM        .         Casing Collar locator         : 
TLFamily_METKA     .                                       : 
TLFamily_NKT       .         Neutron Far                   : 
TLFamily_NKT$      .         Neutron Far                   : 
TLFamily_RCOR      .                                       : 
TLFamily_SPID      .         Spontaneous Potential         : 
TLFamily_TENS      .         Cable Tension                 : 
TLFamily_TIME      .         Time                          : 
TLFamily_TM        .         Temperature                   : 
TLFamily_TM$       .         Temperature                   : 
group              .         prim                          : 
~Curve Information
#_______________________________________________________________________________
#
#LOGNAME           .UNIT     LOG_ID                        : DESCRIPTION
#_______________________________________________________________________________
DEPT               .M                                      : 1 Глубина, м -    0.0 см 
GK                 .MKR/H                                  : 12 Гамма-активность, мкр./ч -   23.0 см 
GK$                .UE                                     : 10 Гамма-активность, усл.ед. -   23.0 см 
LM                 .                                       : 8 Локатор муфт,  -  180.0 см 
METKA              .                                       : 3 Метки,  -    0.0 см 
NKT                .                                       : 13 НКТ, прив. -  160.0 см 
NKT$               .UE                                     : 9 НКТ, усл.ед. -  160.0 см 
RCOR               .CM/KM                                  : 5 Коррекция по ролику, см/км -    0.0 см 
SPID               .M/H                                    : 2 Скорость, м/час -    0.0 см 
TENS               .T                                      : 6 Натяжение кабеля, т -    0.0 см 
TIME               .S                                      : 4 Время, сек -    0.0 см 
TM                 .GRD                                    : 11 Температура, °C -  193.0 см 
TM$                .UE                                     : 7 Температура, усл.ед. -  193.0 см 
~Ascii
# ...
115.8      4.4        182        80         0          0          0          7013       -325       0          2881.34    7.756      1885      
116        3.96       158        99         0          0          0          7013       -319       0          2879.08    7.748      1883      
116.2      4.04       158        106        0          0          0          7013       -302       0          2876.89    7.726      1878      
116.4      4.14       163        97         0          0          0          7013       -318       0          2874.6     7.71       1874      
116.6      4.17       168        142        0          0          0          7013       -310       0          2872.29    7.691      1870      
116.8      4.11       168        228        0          0          0          7013       -325       0          2869.95    7.65       1860      
117        3.88       164        110        0          0          0          7013       -322       0          2867.66    7.646      1859      
117.2      3.58       148        111        0          0          0          7013       -324       0          2865.45    7.648      1859      
117.4      3.38       139        239        0          0          0          7013       -323       0          2863.3     7.646      1859      
117.6      3.21       130        185        0          0          0          7013       -309       0          2861.22    7.636      1857      
117.8      3.13       123        179        0          0          0          7013       -319       0          2858.91    7.62       1853      
118        3.47       121        118        0          0          0          7013       -322       0          2856.52    7.655      1861      
118.2      3.51       144        222        0          0          0          7013       -318       0          2854.33    7.612      1851      
118.4      3.34       143        400        0          0          0          7013       -333       0          2852.07    7.573      1842      
118.6      3.37       122        107        0          0          0          7013       -318       0          2849.8     7.559      1839      
118.8      3.82       141        142        0          0          0          7013       -319       0          2847.68    7.569      1841      
119        4.21       169        107        0          0          0          7013       -320       0          2845.42    7.539      1834      
119.2      4.23       167        122        0          0          0          7013       -318       0          2843.16    7.552      1837      
119.4      4.41       177        153        0          0          0          7013       -322       0          2840.97    7.535      1833      
119.6      4.4        184        339        0          0          0          7013       -325       0          2838.68    7.497      1824      
119.8      3.84       154        135        0          0          0          7013       -315       0          2836.46    7.522      1830      
120        3.87       155        210        2          0          0          7013       -319       0          2834.25    7.502      1825      
120.2      3.85       156        380        0          0          0          7013       -321       0          2832.1     7.479      1820      
120.4      3.8        155        248        0          0          0          7013       -311       0          2831.39    7.434      1810      
120.6      3.77       154        130        0          0          0          7013       -321       0          2829.22    7.42       1806      
120.8      3.7        152        195        0          0          0          7013       -313       0          2827.01    7.432      1809      
121        3.63       148        174        0          0          0          7013       -319       0          2824.74    7.436      1810      
121.2      3.68       141        138        0          0          0          7013       -313       0          2822.48    7.419      1806      
121.4      3.82       157        140        0          0          0          7013       -314       0          2820.35    7.425      1808      
121.6      3.62       152        129        0          0          0          7013       -325       0          2817.7     7.427      1808      
121.8      3.37       133        148        0          0          0          7013       -331       0          2815.49    7.419      1806      
122        3.52       137        100        0          0          0          7013       -312       0          2813.39    7.399      1801      
122.2      3.75       155        109        0          0          0          7013       -317       0          2811.12    7.404      1803      
122.4      3.44       142        124        0          0          0          7013       -311       0          2808.85    7.39       1799      
122.6      3.09       122        166        0          0          0          7013       -313       0          2806.74    7.362      1793      
122.8      3.28       122        495        0          0          0          7013       -328       0          2804.32    7.349      1790      
123        3.59       131        5992       0          0          0          7013       -323       0          2802.11    7.329      1785      
123.2      3.82       151        7854       0          0          0          7013       -313       0          2799.87    7.246      1766      
123.4      3.78       157        223        0          0          0          7013       -323       0          2797.58    7.23       1762      
123.6      3.62       149        232        0          0          0          7013       -324       0          2795.27    7.204      1756      
123.8      3.47       140        158        0          0          0          7013       -319       0          2793.05    7.197      1754      
124        3.45       137        218        0          0          0          7013       -324       0          2790.88    7.211      1758      
124.2      3.54       144        134        0          0          0          7013       -326       0          2788.62    7.18       1750      
124.4      3.36       136        201        0          0          0          7013       -316       0          2786.36    7.161      1746      
124.6      3.54       134        158        0          0          0          7013       -323       0          2784.24    7.179      1750      
124.8      3.89       139        153        0          0          0          7013       -324       0          2781.98    7.159      1745      
125        4.16       160        209        0          0          0          7013       -322       0          2779.71    7.17       1748      
125.2      4.29       171        210        0          0          0          7013       -328       0          2777.65    7.142      1742      
125.4      4.34       173        237        0          0          0          7013       -326       0          2775.43    7.11       1734      
125.6      4.42       174        216        0          0          0          7013       -319       0          2773.12    7.117      1736      
125.8      4.59       185        172        0          0          0          7013       -327       0          2770.91    7.093      1730      
126        4.52       185        405        0          0          0          7013       -330       0          2768.7     7.02       1713      
126.2      4.27       176        176        0          0          0          7013       -328       0          2766.48    6.994      1707      
126.4      4.21       171        172        0          0          0          7013       -318       0          2764.31    7.014      1712      
126.6      4.22       168        188        0          0          0          7013       -325       0          2762.15    7.01       1711      
126.8      4.09       173        183        0          0          0          7013       -325       0          2759.84    6.973      1702      
