~Version
 VERS              .         2.0                           : CWLS LOG ASCII STANDARD - VERSION 2.0
 WRAP              .         NO                            : ONE LINE PER DEPTH STEP
 DLM               .         SPACE                         : DELIMITING CHARACTER(SPACE TAB OR COMMA)
~Well Information
#_______________________________________________________________________________
#
#PARAMETER_NAME    .UNIT     VALUE                         : DESCRIPTION
#_______________________________________________________________________________
STRT               .M        1.8                           : First reference value
STOP               .M        2776                          : Last reference value
STEP               .M        0.2                           : Step increment
NULL               .         -9999                         : Missing value
COMP               .                                       : Company
WELL               .         616                           : Well name
FLD                .                                       : Field
LOC                .                                       : Location
CNTY               .                                       : County
STAT               .                                       : State
CTRY               .                                       : Country
SRVC               .                                       : Service Company
DATE               .                                       : Date
API                .                                       : API number
PROJECT_UPGRADE_TIME .         2021-03-18T21_24_50           : 
group              .         Good                          : 
~Parameter Information Block
#_______________________________________________________________________________
#
#PARAMETER_NAME    .UNIT     VALUE                         : DESCRIPTION
#_______________________________________________________________________________
SET                .         D1799_D                       : 
OTHER              .         Программное обеспечение станции MONITOR-386EX 25/12/99 15_08_10   BGF V52 22/08/01 16_56_30   3.1_SNGF___BGF_N_092049: 
OTHER_10           .         Тарировки_                    : 
OTHER_11           .         TM.GRD = 0.00403*TM$.UE + -1.07: 
OTHER_12           .         MN.ATM = (9.34907e-006*TM.GRD + 0.02171)*(MN$.UE + -7.93*TM.GRD + -1787): 
OTHER_13           .         GK.MKR/H = LM. / 42.4676      : 
OTHER_14           .         GK.FLT = 0.1*GK.MKR/H[-1] + (1-0.1)*GK.MKR/H[0]: 
OTHER_2            .         Kedr.exe версия 3.4.2.51      : 
OTHER_3            .         KedrData.dll версия 3.4.2.24  : 
OTHER_4            .         Драйвер версия 2.1.1.3        : 
OTHER_5            .         Мнемоники версия 3.3 S        : 
OTHER_6            .         Прибор_ КСА-Т4                : 
OTHER_7            .         Номер прибора_ 03             : 
OTHER_8            .         Режим_ КСА-Т4                 : 
OTHER_9            .         Форма_ КВА.                   : 
PROJECT_UPGRADE_TIME .         2021-03-18T21_24_49           : 
TLFamily_DEPT      .         Measured Depth                : 
TLFamily_GK        .         Gamma Ray                     : 
TLFamily_GK$       .                                       : 
TLFamily_GK_2      .         Gamma Ray                     : 
TLFamily_LM        .         Casing Collar locator         : 
TLFamily_METKA     .                                       : 
TLFamily_MN        .                                       : 
TLFamily_MN$       .                                       : 
TLFamily_RCOR      .                                       : 
TLFamily_SPID      .         Spontaneous Potential         : 
TLFamily_TENS      .         Cable Tension                 : 
TLFamily_TIME      .         Time                          : 
TLFamily_TM        .         Temperature                   : 
TLFamily_TM$       .         Temperature                   : 
group              .         prim                          : 
~Curve Information
#_______________________________________________________________________________
#
#LOGNAME           .UNIT     LOG_ID                        : DESCRIPTION
#_______________________________________________________________________________
DEPT               .M                                      : 1 Глубина, м -    0.0 см 
GK                 .MKR/H                                  : 13 Гамма-активность, мкр./ч -  110.0 см 
GK$                .UE                                     : 10 Гамма-активность, усл.ед. -  110.0 см 
GK_2               .FLT                                    : 14 Гамма-активность фильтрованная, мкр./ч -  110.0 см 
LM                 .                                       : 9 Локатор муфт,  -   20.0 см 
METKA              .                                       : 3 Метки,  -    0.0 см 
MN                 .ATM                                    : 12 Давление, атм. -  160.0 см 
MN$                .UE                                     : 8 Давление, усл.ед. -  160.0 см 
RCOR               .CM/KM                                  : 5 Коррекция по ролику, см/км -    0.0 см 
SPID               .M/H                                    : 2 Скорость, м/час -    0.0 см 
TENS               .T                                      : 6 Натяжение кабеля, т -    0.0 см 
TIME               .S                                      : 4 Время, сек -    0.0 см 
TM                 .GRD                                    : 11 Температура, °C -  170.0 см 
TM$                .UE                                     : 7 Температура, усл.ед. -  170.0 см 
~Ascii
1.8        -9999      -9999      -9999      -9999      -9999      -9999      -9999      -9999      -9999      -9999      -9999      -9999      -9999     
2          -9999      -9999      -9999      -9999      0          -9999      -9999      -600       25         -0.77      343.47     -9999      -9999     
2.2        -9999      -9999      -9999      2053       0          -9999      -9999      -600       174        -0.77      344.19     -9999      -9999     
2.4        -9999      -9999      -9999      4368       0          -9999      -9999      -600       332        -0.77      344.91     -9999      -9999     
2.6        -9999      -9999      -9999      10101      0          -9999      -9999      -600       440        -0.77      345.44     -9999      -9999     
2.8        -9999      -9999      -9999      13179      0          -9999      -9999      -600       597        -0.77      346.03     -9999      -9999     
3          -9999      -9999      -9999      9343       0          -9999      -9999      -600       693        -0.77      346.72     -9999      -9999     
3.2        0.48       21         0.47       3904       0          -9999      -9999      -600       764        -0.77      347.21     -9999      -9999     
3.4        0.52       22         0.51       1716       0          -9999      -9999      -600       850        -0.77      347.88     -9999      -9999     
3.6        0.52       22         0.52       1193       0          -2.336     1729       -600       871        -0.77      348.34     -9999      -9999     
3.8        0.52       22         0.52       2137       0          -2.298     1730       -600       946        -0.77      348.66     6.186      1801      
4          0.53       23         0.53       2647       0          -2.368     1731       -600       1051       -0.77      349.02     6.299      1829      
4.2        0.54       23         0.54       7765       0          -2.495     1732       -600       1151       -0.77      349.38     7.078      2022      
4.4        0.54       23         0.54       10955      0          -2.648     1733       -600       1247       -0.77      349.81     7.943      2236      
4.6        0.54       23         0.54       9437       0          -2.818     1733       -600       1284       -0.77      350.27     9.126      2530      
4.8        0.54       23         0.54       6869       0          -2.919     1734       -600       1309       -0.77      350.76     9.886      2719      
5          0.72       31         0.66       4394       0          -3.091     1735       -600       1323       -0.77      351.25     10.73      2928      
5.2        1.06       45         0.91       1849       0          -3.236     1735       -600       1313       -0.77      351.97     11.762     3184      
5.4        1.06       45         1.01       1207       0          -3.287     1737       -600       1258       -0.77      352.69     12.401     3343      
5.6        1.06       45         1.04       356        0          -3.37      1737       -600       1243       -0.77      353.2      12.904     3467      
5.8        1.06       45         1.06       277        0          -3.436     1738       -600       1257       -0.77      353.63     13.404     3592      
6          1.06       45         1.06       221        0          -3.493     1739       -600       1313       -0.77      354        13.88      3710      
6.2        1.63       69         1.42       165        0          -3.558     1739       -600       1374       -0.77      354.36     14.324     3820      
6.4        1.74       74         1.71       122        0          -3.581     1741       -600       1427       -0.77      354.71     14.703     3914      
6.6        1.74       74         1.74       112        0          -3.613     1741       -600       1488       -0.77      355.04     14.938     3972      
6.8        1.74       74         1.74       96         0          -3.607     1743       -600       1558       -0.77      355.41     15.151     4025      
7          1.73       74         1.74       116        0          -3.614     1744       -600       1603       -0.77      355.87     15.356     4076      
7.2        1.7        72         1.71       178        0          -3.62      1744       -600       1623       -0.77      356.29     15.482     4107      
7.4        1.7        72         1.7        138        0          -3.617     1745       -600       1620       -0.77      356.73     15.548     4124      
7.6        1.7        72         1.7        110        0          -3.61      1746       -600       1617       -0.77      357.24     15.598     4136      
7.8        1.7        72         1.7        141        0          -3.595     1747       -600       1598       -0.77      357.65     15.639     4146      
8          1.7        72         1.7        154        0          -3.583     1748       -600       1627       -0.77      358.03     15.685     4158      
8.2        1.7        72         1.7        149        0          -3.573     1749       -600       1659       -0.77      358.45     15.74      4171      
8.4        1.45       61         1.54       123        0          -3.574     1749       -600       1668       -0.77      358.83     15.799     4186      
8.6        1.34       57         1.39       101        0          -3.566     1750       -600       1681       -0.77      359.23     15.862     4202      
8.8        1.34       57         1.36       103        0          -3.551     1751       -600       1698       -0.77      359.66     15.928     4218      
9          1.34       57         1.35       104        0          -3.533     1752       -600       1721       -0.77      360.19     15.984     4232      
9.2        1.34       57         1.34       69         0          -3.526     1753       -600       1677       -0.77      360.62     16.033     4244      
9.4        1.34       57         1.34       81         1          -3.51      1754       -600       1675       -0.77      361.1      16.063     4251      
9.6        1.49       63         1.43       89         0          -3.491     1755       -600       1651       -0.77      361.56     16.084     4257      
9.8        1.53       65         1.5        73         0          -3.469     1756       -600       1656       -0.77      361.97     16.109     4263      
10         1.53       65         1.52       160        0          -3.45      1757       -600       1657       -0.77      362.45     16.132     4268      
10.2       1.53       65         1.53       146        0          -3.438     1758       -600       1629       -0.77      362.98     16.16      4275      
10.4       1.53       65         1.53       140        0          -3.431     1759       -600       1605       -0.77      363.39     16.188     4282      
10.6       1.55       66         1.55       213        0          -3.406     1760       -600       1619       -0.77      363.82     16.22      4290      
10.8       1.62       69         1.6        187        0          -3.388     1761       -600       1630       -0.77      364.25     16.251     4298      
11         1.62       69         1.62       167        1          -3.367     1762       -600       1643       -0.77      364.64     16.27      4303      
11.2       1.62       69         1.62       203        0          -3.353     1763       -600       1664       -0.77      365        16.3       4310      
11.4       1.62       69         1.62       191        0          -3.336     1764       -600       1690       -0.77      365.32     16.326     4317      
11.6       1.62       69         1.62       191        0          -3.311     1765       -600       1727       -0.77      365.63     16.352     4323      
11.8       1.45       62         1.52       196        0          -3.283     1767       -600       1772       -0.77      365.94     16.382     4331      
12         1.41       60         1.44       176        0          -3.259     1768       -600       1808       -0.77      366.21     16.4       4335      
