~Version
 VERS              .         2.0                           : CWLS LOG ASCII STANDARD - VERSION 2.0
 WRAP              .         NO                            : ONE LINE PER DEPTH STEP
 DLM               .         SPACE                         : DELIMITING CHARACTER(SPACE TAB OR COMMA)
~Well Information
#_______________________________________________________________________________
#
#PARAMETER_NAME    .UNIT     VALUE                         : DESCRIPTION
#_______________________________________________________________________________
STRT               .M        2644.6                        : First reference value
STOP               .M        2752.399784                   : Last reference value
STEP               .M        0.1999996                     : Step increment
NULL               .         -9999                         : Missing value
COMP               .                                       : Company
WELL               .         616                           : Well name
FLD                .                                       : Field
LOC                .                                       : Location
CNTY               .                                       : County
STAT               .                                       : State
CTRY               .                                       : Country
SRVC               .                                       : Service Company
DATE               .                                       : Date
API                .                                       : API number
PROJECT_UPGRADE_TIME .         2021-03-18T21_24_50           : 
group              .         Good                          : 
~Parameter Information Block
#_______________________________________________________________________________
#
#PARAMETER_NAME    .UNIT     VALUE                         : DESCRIPTION
#_______________________________________________________________________________
SET                .         D4410_D_2                     : 
COMM               .                                       : 
OTHER              .         Запись производится в присутствии: 
OTHER_10           .         Максимальная температура      : 
OTHER_11           .         Тип промывочной жидкости      : 
OTHER_12           .         Сопротивление ПЖ (Ом*м) при 20°C: 
OTHER_13           .         Плотность ПЖ(г/см3)           : 
OTHER_14           .         Вязкость ПЖ(с)                : 
OTHER_15           .         Водоотдача ПЖ(см3/30мин)      : 
OTHER_16           .         Уровень ПЖ                    : 
OTHER_17           .         Нефть ПЖ (%)                  : 
OTHER_18           .         Барит ПЖ (%)                  : 
OTHER_19           .         Гематит ПЖ (%)                : 
OTHER_2            .         Заказчик ННСН  ЦДНГ-1         : 
OTHER_20           .         КМЦ ПЖ (%)                    : 
OTHER_21           .         Разгазирование ПЖ (да,нет)    : 
OTHER_22           .         Подъемник                     : 
OTHER_23           .         Лаборатория                   : 
OTHER_24           .         Тип кабеля                    : 
OTHER_25           .         Длина кабеля (м)              : 
OTHER_26           .         Цена последней метки          : 
OTHER_27           .         Цена контрольной метки        : 
OTHER_28           .         Диаметр долота (мм)           : 
OTHER_29           .         Глубина бурения (м)           : 
OTHER_3            .         Площадь                       : 
OTHER_30           .         Искусственный забой (м)       : 
OTHER_31           .         Диаметр колонны (мм)          : 
OTHER_32           .         Толщина колонны (мм)          : 
OTHER_33           .         Башмак колонны (м)            : 
OTHER_34           .         Диаметр НКТ (мм)              : 
OTHER_35           .         Толщина НКТ (мм)              : 
OTHER_36           .         Воронка НКТ (м)               : 
OTHER_37           .         Дата цементожа                : 
OTHER_38           .         Тип, количество(т) и плотность цемента: 
OTHER_39           .         Интервалы перфорации (м)      : 
OTHER_4            .         Категория                     : 
OTHER_40           .         Направление, диаметр (мм)     : 
OTHER_41           .         Направление, глубина (м)      : 
OTHER_42           .         Кондуктор, диаметр (мм)       : 
OTHER_43           .         Кондуктор, глубина (м)        : 
OTHER_44           .         Техническая колонна, диаметр (мм): 
OTHER_45           .         Техническая колонна, глубина (м): 
OTHER_46           .         Эксплуатационная колонна, диаметр (мм): 
OTHER_47           .         Эксплуатационная колонна, глубина (м): 
OTHER_48           .         Программа Кедр-02 версия 3.4  : 
OTHER_49           .         Операционная система Windows NT 5.1 build 2600 Service Pack 2: 
OTHER_5            .         Назначение исследований       : 
OTHER_50           .         Программное обеспечение станции MONITOR-386EX 25/12/99 15_08_10   BGF V54 20/09/05 15_32_17   3.3__BGF_9030071: 
OTHER_51           .         Kedr.exe версия 3.4.2.74      : 
OTHER_52           .         KedrData.dll версия 3.4.2.29  : 
OTHER_53           .         Мнемоники версия 3.18 S       : 
OTHER_54           .         Драйвер версия 2.1.1.4        : 
OTHER_55           .         LasInf.dll 4.3.0.35           : 
OTHER_56           .         Прибор_ КСА-Т4                : 
OTHER_57           .         Номер прибора_ 160            : 
OTHER_58           .         Режим_ КСА-Т4                 : 
OTHER_59           .         Форма_ С.А.Б.                 : 
OTHER_6            .         Альтитуда стола ротора        : 
OTHER_60           .         Тарировки_                    : 
OTHER_61           .         <_techsia_sc_> Дата тарировки температуры 25.05.2010: 
OTHER_62           .         Ручной ввод коэффициентов     : 
OTHER_63           .         TM.DEGC = 0.00402*RTM.E.ACP + -0.994: 
OTHER_64           .         <_techsia_sc_> Дата тарировки давления 25.05.2010: 
OTHER_65           .         Ручной ввод коэффициентов     : 
OTHER_66           .         MN.ATM = (2.27521e-006*TM.DEGC + 0.02078)*(RMN.E.ACP + 6.2*TM.DEGC + -1688): 
OTHER_67           .         <_techsia_sc_> Дата тарировки ГК 25.05.2010: 
OTHER_68           .         Ручной ввод коэффициентов     : 
OTHER_69           .         GR.UR/H = RGR.IMP/MIN / 45.5144: 
OTHER_7            .         Вид исследований 3  6         : 
OTHER_70           .         GK.FLT = 0.1*GR.UR/H[-1] + (1-0.1)*GR.UR/H[0]: 
OTHER_8            .         Начало бурения интервала каротажа: 
OTHER_9            .         Окончание бурения интервала каротажа: 
PROJECT_UPGRADE_TIME .         2021-03-18T21_24_50           : 
PRTY               .         ПП-601-1                      : N партии
SRVC               .         Барковский                    : Начальник партии
TLFamily_DEPT      .         Measured Depth                : 
TLFamily_LM        .         Casing Collar locator         : 
TLFamily_MN        .                                       : 
TLFamily_TM        .         Temperature                   : 
group              .         second                        : 
~Curve Information
#_______________________________________________________________________________
#
#LOGNAME           .UNIT     LOG_ID                        : DESCRIPTION
#_______________________________________________________________________________
DEPT               .M                                      : Depth curve 
LM                 .е.ацп                                  : Локатор муфт,е.ацп 
MN                 .атм                                    : 12 Давление, атм. -  160.0 см 
TM                 .град.C                                 : Термограмма по стволу скважины,град.C 
~Ascii
2644.6000977 -9999      -9999      -9999     
2644.8     26         -9999      -9999     
2644.999999 26         -9999      -9999     
2645.199999 26         -9999      -9999     
2645.399998 26.078     -9999      -9999     
2645.599998 184.977    -9999      -9999     
2645.799998 137.271    -9999      -9999     
2645.999997 692.125    -9999      -9999     
2646.199997 947.944    -9999      -9999     
2646.399996 834.052    364.175    64.355    
2646.599996 942.054    363.291    64.347    
2646.799996 3098.536   362.845    64.339    
2646.999995 2149.307   362.64     64.341    
2647.199995 732.008    362.422    64.339    
2647.399994 749.001    362.266    64.332    
2647.599994 752.067    362.032    64.322    
2647.799994 889.993    361.864    64.315    
2647.999993 876.113    361.867    64.315    
2648.199993 1106.801   361.979    64.319    
2648.399992 699.097    361.927    64.319    
2648.599992 897.21     361.854    64.323    
2648.799992 1326.795   361.882    64.323    
2648.999991 906.914    361.93     64.327    
2649.199991 730.895    361.904    64.327    
2649.39999 517.022    361.919    64.331    
2649.59999 563.007    361.961    64.334    
2649.79999 576.992    361.982    64.335    
2649.999989 560.988    361.989    64.339    
2650.199989 537.01     361.993    64.346    
2650.399988 557.948    361.88     64.351    
2650.599988 450.989    361.88     64.351    
2650.799988 428.035    361.91     64.351    
2650.999987 499.989    361.923    64.353    
2651.199987 477.974    361.889    64.358    
2651.399986 424.987    361.883    64.363    
2651.599986 398.981    361.887    64.371    
2651.799986 360.082    361.916    64.375    
2651.999985 526.949    362.011    64.38     
2652.199985 422        362.11     64.387    
2652.399984 421.025    362.159    64.395    
2652.599984 472.94     362.202    64.395    
2652.799984 351.045    362.361    64.399    
2652.999983 443.996    362.455    64.403    
2653.199983 436.1      362.519    64.413    
2653.399982 639.907    362.534    64.419    
2653.599982 450.051    362.639    64.427    
2653.799982 553.901    362.749    64.432    
2653.999981 351.067    362.886    64.436    
2654.199981 486.94     362.879    64.44     
2654.39998 364.938    362.901    64.448    
2654.59998 239.068    362.964    64.45     
2654.79998 378.002    363.016    64.456    
2654.999979 381.932    363.026    64.461    
2655.199979 243.094    363.092    64.466    
2655.399978 434.883    363.128    64.471    
2655.599978 196.119    363.24     64.476    
2655.799978 438.953    363.241    64.48     
2655.999977 343.058    363.262    64.478    
2656.199977 463.973    363.263    64.483    
2656.399976 4494.216   363.284    64.484    
2656.599976 2891.992   363.263    64.488    
2656.799976 832.795    363.32     64.492    
2656.999975 414.015    363.385    64.496    
2657.199975 444.88     363.413    64.501    
2657.399974 200.074    363.393    64.508    
2657.599974 350.974    363.401    64.515    
2657.799974 297.031    363.469    64.52     
2657.999973 361.019    363.494    64.528    
2658.199973 398.859    363.501    64.532    
2658.399972 110.102    363.544    64.54     
2658.599972 319.032    363.566    64.542    
2658.799972 383.896    363.567    64.548    
2658.999971 172.11     363.575    64.555    
2659.199971 395.929    363.611    64.56     
2659.39997 249.977    363.632    64.568    
2659.59997 204.111    363.63     64.568    
2659.79997 430.997    363.655    64.572    
2659.999969 424.852    363.677    64.578    
2660.199969 122.142    363.72     64.584    
2660.399968 413.018    363.762    64.588    
2660.599968 449.876    363.795    64.592    
2660.799968 195.991    363.826    64.592    
2660.999967 177.102    363.862    64.597    
2661.199967 386.005    363.89     64.602    
2661.399966 396.881    363.894    64.607    
2661.599966 153.039    363.954    64.612    
2661.799966 232.085    364.022    64.616    
2661.999965 404.937    364.068    64.62     
2662.199965 276.929    364.103    64.624    
2662.399964 132.002    364.071    64.629    
2662.599964 137.016    364.098    64.637    
2662.799964 169.086    364.163    64.641    
2662.999963 343.966    364.191    64.649    
2663.199963 273.982    364.154    64.658    
2663.399962 237.052    364.207    64.661    
2663.599962 343.981    364.236    64.665    
2663.799962 305.065    364.236    64.67     
2663.999961 437.925    364.298    64.675    
2664.199961 283.972    364.345    64.681    
2664.39996 226.032    364.408    64.685    
2664.59996 290.972    364.43     64.685    
2664.79996 233.062    364.491    64.691    
2664.999959 358.964    364.488    64.697    
2665.199959 285.927    364.393    64.697    
2665.399958 137.037    364.412    64.697    
2665.599958 213.04     364.5      64.701    
2665.799958 296.147    364.577    64.705    
2665.999957 4674.702   364.584    64.712    
2666.199957 2025.293   364.62     64.716    
2666.399956 582.793    364.66     64.717    
2666.599956 159.998    364.73     64.724    
2666.799956 156.011    364.728    64.728    
2666.999955 178.027    364.791    64.729    
2667.199955 234.037    364.854    64.733    
2667.399954 308.968    364.918    64.739    
2667.599954 243.914    364.94     64.745    
2667.799954 69.008     364.941    64.749    
2667.999953 85.005     364.997    64.753    
2668.199953 95.008     365.088    64.757    
2668.399952 112.073    365.088    64.757    
2668.599952 260        365.205    64.757    
2668.799952 260.98     365.377    64.761    
2668.999951 220.951    365.466    64.765    
2669.199951 120.979    365.395    64.771    
2669.39995 78.997     365.288    64.774    
2669.59995 72.007     365.231    64.774    
2669.79995 87.016     365.288    64.773    
2669.999949 120.019    365.492    64.777    
2670.199949 158.984    365.497    64.782    
2670.399948 126.041    365.342    64.793    
2670.599948 210        365.337    64.797    
2670.799948 208.967    365.486    64.797    
2670.999947 141.956    365.546    64.797    
2671.199947 53.008     365.504    64.801    
2671.399946 69.006     365.574    64.797    
2671.599946 81.996     365.72     64.801    
2671.799946 74.054     365.738    64.801    
2671.999945 184.988    365.688    64.805    
2672.199945 160.974    365.794    64.812    
2672.399944 107.076    365.806    64.816    
2672.599944 262.965    365.706    64.817    
2672.799944 190.979    365.559    64.824    
2672.999943 148.009    365.56     64.824    
2673.199943 165.978    365.561    64.832    
2673.399942 121.985    365.619    64.838    
2673.599942 92.084     365.606    64.836    
2673.799942 263.034    365.683    64.829    
2673.999941 331.958    365.669    64.829    
2674.199941 247.074    365.615    64.829    
2674.39994 398.041    365.583    64.838    
2674.59994 481.951    365.597    64.838    
2674.79994 381.932    365.637    64.842    
2674.999939 243.945    365.663    64.838    
2675.199939 131.981    365.696    64.838    
2675.399938 93.066     365.73     64.841    
2675.599938 228.178    365.71     64.846    
2675.799938 592.603    365.716    64.85     
2675.999937 5893.879   365.734    64.85     
2676.199937 1571.507   365.773    64.85     
2676.399936 566.974    365.815    64.85     
2676.599936 512.952    365.836    64.852    
2676.799936 416.024    365.889    64.854    
2676.999935 463.968    365.9      64.854    
2677.199935 399.012    365.9      64.858    
2677.399934 424.057    365.922    64.862    
2677.599934 540.06     365.94     64.866    
2677.799934 661.932    365.944    64.87     
2677.999933 524.075    365.953    64.871    
2678.199933 675.917    366.025    64.874    
2678.399932 506.96     366.05     64.878    
2678.599932 424.93     366.092    64.878    
2678.799932 282.966    366.092    64.882    
2678.999931 213        366.03     64.886    
2679.199931 214.034    366.06     64.882    
2679.39993 283.002    366.102    64.882    
2679.59993 287.986    366.135    64.886    
2679.79993 259.007    366.135    64.886    
2679.999929 274.005    366.142    64.888    
2680.199929 283.953    366.178    64.89     
