~Version
 VERS              .         2.0                           : CWLS LOG ASCII STANDARD - VERSION 2.0
 WRAP              .         NO                            : ONE LINE PER DEPTH STEP
 DLM               .         SPACE                         : DELIMITING CHARACTER(SPACE TAB OR COMMA)
~Well Information
#_______________________________________________________________________________
#
#PARAMETER_NAME    .UNIT     VALUE                         : DESCRIPTION
#_______________________________________________________________________________
STRT               .M        47.8                          : First reference value
STOP               .M        2693.8                        : Last reference value
STEP               .M        0.2                           : Step increment
NULL               .         -9999                         : Missing value
COMP               .                                       : Company
WELL               .         616                           : Well name
FLD                .                                       : Field
LOC                .                                       : Location
CNTY               .                                       : County
STAT               .                                       : State
CTRY               .                                       : Country
SRVC               .                                       : Service Company
DATE               .                                       : Date
API                .                                       : API number
PROJECT_UPGRADE_TIME .         2021-03-18T21_24_50           : 
group              .         Good                          : 
~Parameter Information Block
#_______________________________________________________________________________
#
#PARAMETER_NAME    .UNIT     VALUE                         : DESCRIPTION
#_______________________________________________________________________________
SET                .         D1172_D                       : 
OTHER              .         Программное обеспечение станции MONITOR-386EX 25/12/99 15_08_10   BGF V52 22/08/01 16_56_30   3.2_BGF_N_3070031: 
OTHER_10           .         Тарировки_                    : 
OTHER_11           .         TM.GRD = 0.00403*TM$.UE + -1.19: 
OTHER_12           .         MN.ATM = (7.1e-006*TM.GRD + 0.02017)*(MN$.UE + -3.03*TM.GRD + -1833): 
OTHER_13           .         Id error                      : 
OTHER_2            .         Kedr.exe версия 3.4.2.51      : 
OTHER_3            .         KedrData.dll версия 3.4.2.24  : 
OTHER_4            .         Драйвер версия 2.1.1.8        : 
OTHER_5            .         Мнемоники версия 3.3 S        : 
OTHER_6            .         Прибор_ КСА-М1                : 
OTHER_7            .         Номер прибора_ 265            : 
OTHER_8            .         Режим_ КСА-М1                 : 
OTHER_9            .         Форма_ ТЕРМОМЕТР              : 
PROJECT_UPGRADE_TIME .         2021-03-18T21_24_49           : 
TLFamily_DEPT      .         Measured Depth                : 
TLFamily_GK        .         Gamma Ray                     : 
TLFamily_GK$       .                                       : 
TLFamily_LM        .         Casing Collar locator         : 
TLFamily_METKA     .                                       : 
TLFamily_MN        .                                       : 
TLFamily_MN$       .                                       : 
TLFamily_RCOR      .                                       : 
TLFamily_SPID      .         Spontaneous Potential         : 
TLFamily_STD       .                                       : 
TLFamily_TENS      .         Cable Tension                 : 
TLFamily_TIME      .         Time                          : 
TLFamily_TM        .         Temperature                   : 
TLFamily_TM$       .         Temperature                   : 
TLFamily_VGD       .         Gas Volume                    : 
group              .         prim                          : 
~Curve Information
#_______________________________________________________________________________
#
#LOGNAME           .UNIT     LOG_ID                        : DESCRIPTION
#_______________________________________________________________________________
DEPT               .M                                      : 1 Глубина, м -    0.0 см 
GK                 .MKR/H                                  : 15 Гамма-активность, мкр./ч -  110.0 см 
GK$                .UE                                     : 12 Гамма-активность, усл.ед. -  110.0 см 
LM                 .                                       : 10 Локатор муфт,  -   20.0 см 
METKA              .                                       : 3 Метки,  -    0.0 см 
MN                 .ATM                                    : 14 Давление, атм. -  160.0 см 
MN$                .UE                                     : 8 Давление, усл.ед. -  160.0 см 
RCOR               .CM/KM                                  : 5 Коррекция по ролику, см/км -    0.0 см 
SPID               .M/H                                    : 2 Скорость, м/час -    0.0 см 
STD                .                                       : 11 Приток,  -  170.0 см 
TENS               .T                                      : 6 Натяжение кабеля, т -    0.0 см 
TIME               .S                                      : 4 Время, сек -    0.0 см 
TM                 .GRD                                    : 13 Температура, °C -  180.0 см 
TM$                .UE                                     : 7 Температура, усл.ед. -  180.0 см 
VGD                .                                       : 9 Влагомер,  -  170.0 см 
~Ascii
# ...
2507.6     8.26       381        1          0          239.376    13618      -1400      -1781      29169      0          29542.37   80.309     20223      6600      
2507.8     7.94       364        1          0          239.377    13618      -1400      -1781      29172      0          29541.97   80.313     20224      6600      
2508       7.65       331        1          0          239.396    13619      -1400      -1780      29175      0          29541.56   80.321     20226      6600      
2508.2     7.6        331        1          0          239.433    13621      -1400      -1779      29176      0          29541.18   80.328     20228      6599      
2508.4     7.53       331        1          0          239.456    13622      -1400      -1777      29179      0          29540.79   80.332     20229      6599      
2508.6     7.43       331        1          1          239.476    13623      -1400      -1778      29183      0          29540.38   80.336     20230      6599      
2508.8     7.3        331        1          0          239.495    13624      -1400      -1780      29184      0          29539.96   80.346     20232      6599      
2509       7.07       331        1          0          239.515    13625      -1400      -1772      29187      0          29539.56   80.352     20234      6599      
2509.2     6.75       289        1          0          239.534    13626      -1400      -1763      29190      0          29539.18   80.358     20235      6599      
2509.4     6.74       285        1          0          239.554    13627      -1400      -1767      29190      0          29538.77   80.363     20237      6600      
2509.6     6.77       285        1          0          239.574    13627      -1400      -1764      29195      0          29538.33   80.367     20238      6599      
2509.8     6.83       285        1          2          239.593    13628      -1400      -1768      29195      0          29537.94   80.373     20239      6600      
2510       6.9        285        1          0          239.612    13629      -1400      -1772      29197      0          29537.48   80.38      20241      6599      
2510.2     7.02       285        1          0          239.632    13630      -1400      -1777      29200      0          29537.05   80.388     20243      6599      
2510.4     7.18       299        1          0          239.652    13631      -1400      -1776      29201      0          29536.64   80.394     20244      6600      
2510.6     7.28       311        1          0          239.671    13632      -1400      -1780      29204      0          29536.25   80.399     20245      6600      
2510.8     7.29       311        1          0          239.69     13633      -1400      -1785      29206      0          29535.85   80.407     20247      6601      
2511       7.3        311        1          0          239.71     13634      -1400      -1786      29208      0          29535.44   80.414     20249      6601      
2511.2     7.31       311        1          0          239.731    13635      -1400      -1780      29213      0          29535.03   80.417     20250      6600      
2511.4     7.33       311        1          0          239.731    13635      -1400      -1781      29215      0          29534.66   80.426     20252      6600      
2511.6     7.35       312        1          0          239.794    13638      -1400      -1783      29218      0          29534.27   80.433     20254      6600      
2511.8     7.37       312        1          0          239.794    13638      -1400      -1782      29222      0          29533.85   80.438     20255      6601      
2512       7.4        312        1          0          239.814    13639      -1400      -1784      29222      0          29533.45   80.442     20256      6601      
2512.2     7.46       312        1          1          239.833    13640      -1400      -1784      29225      0          29533.05   80.446     20257      6602      
2512.4     7.53       312        1          0          239.852    13641      -1400      -1779      29227      0          29532.64   80.453     20259      6601      
2512.6     7.62       312        1          0          239.872    13642      -1400      -1777      29228      0          29532.24   80.457     20260      6600      
2512.8     7.79       328        1          0          239.907    13643      -1400      -1777      29232      0          29531.84   80.461     20261      6599      
2513       7.85       328        22         0          239.919    13644      -1400      -1781      29233      0          29531.44   80.465     20262      6599      
2513.2     7.93       328        128        0          239.929    13645      -1400      -1781      29236      0          29531.02   80.468     20263      6599      
2513.4     8.06       328        320        0          239.959    13646      -1400      -1780      29239      0          29530.63   80.474     20264      6599      
2513.6     8.25       328        634        0          239.981    13647      -1400      -1778      29240      0          29530.22   80.48      20265      6599      
2513.8     8.53       328        1144       0          239.995    13648      -1400      -1777      29245      0          29529.81   80.484     20266      6599      
2514       8.93       369        1969       0          240.029    13649      -1400      -1776      29248      0          29529.4    80.489     20268      6599      
2514.2     9.1        392        3360       0          240.044    13650      -1400      -1779      29252      0          29529.02   80.495     20269      6599      
2514.4     9.06       392        1          0          240.048    13650      -1400      -1785      29254      0          29528.63   80.499     20270      6600      
2514.6     9.01       392        1          0          240.067    13651      -1400      -1781      29254      0          29528.22   80.504     20272      6600      
2514.8     8.93       392        1          0          240.087    13652      -1400      -1778      29257      0          29527.82   80.515     20274      6599      
2515       8.81       392        1          0          240.106    13653      -1400      -1779      29260      0          29527.42   80.519     20275      6600      
2515.2     8.65       384        1          0          240.146    13655      -1400      -1782      29261      0          29527.02   80.526     20277      6600      
2515.4     8.47       367        1          0          240.167    13656      -1400      -1781      29264      0          29526.62   80.534     20279      6600      
2515.6     8.42       367        1          0          240.169    13656      -1400      -1782      29267      0          29526.21   80.538     20280      6600      
2515.8     8.34       367        1          0          240.184    13657      -1400      -1784      29269      0          29525.79   80.542     20281      6600      
2516       8.23       367        1          0          240.204    13658      -1400      -1777      29270      0          29525.39   80.551     20283      6600      
2516.2     8.06       367        1          0          240.224    13659      -1400      -1776      29272      0          29525      80.557     20285      6600      
2516.4     7.8        367        1          0          240.243    13660      -1400      -1775      29275      0          29524.59   80.561     20286      6600      
2516.6     7.41       321        1          0          240.262    13660      -1400      -1779      29274      0          29524.17   80.567     20287      6601      
2516.8     7.36       313        1          0          240.282    13661      -1400      -1771      29278      0          29523.77   80.574     20289      6600      
2517       7.38       313        1          0          240.302    13662      -1400      -1775      29278      0          29523.39   80.58      20290      6600      
2517.2     7.4        313        1          0          240.322    13663      -1400      -1780      29279      0          29522.98   80.584     20291      6600      
