~Version
 VERS              .         2.0                           : CWLS LOG ASCII STANDARD - VERSION 2.0
 WRAP              .         NO                            : ONE LINE PER DEPTH STEP
 DLM               .         SPACE                         : DELIMITING CHARACTER(SPACE TAB OR COMMA)
~Well Information
#_______________________________________________________________________________
#
#PARAMETER_NAME    .UNIT     VALUE                         : DESCRIPTION
#_______________________________________________________________________________
STRT               .M        10.2                          : First reference value
STOP               .M        2774.8                        : Last reference value
STEP               .M        0.2                           : Step increment
NULL               .         -9999                         : Missing value
COMP               .                                       : Company
WELL               .         616                           : Well name
FLD                .                                       : Field
LOC                .                                       : Location
CNTY               .                                       : County
STAT               .                                       : State
CTRY               .                                       : Country
SRVC               .                                       : Service Company
DATE               .                                       : Date
API                .                                       : API number
PROJECT_UPGRADE_TIME .         2021-03-18T21_24_50           : 
group              .         Good                          : 
~Parameter Information Block
#_______________________________________________________________________________
#
#PARAMETER_NAME    .UNIT     VALUE                         : DESCRIPTION
#_______________________________________________________________________________
SET                .         D1813_D_2                     : 
NPR                .                                       : 
OTHER              .         Программное обеспечение станции MONITOR-386EX 25/12/99 15_08_10   BGF V52 22/08/01 16_56_30   3.1_SNGF___BGF_N_092049: 
OTHER_10           .         Тарировки_                    : 
OTHER_11           .         TM.GRD = 0.00403*TM$.UE + -1.07: 
OTHER_12           .         MN.ATM = (9.34907e-006*TM.GRD + 0.02171)*(MN$.UE + -7.93*TM.GRD + -1787): 
OTHER_13           .         GK.MKR/H = LM. / 42.4676      : 
OTHER_14           .         GK.FLT = 0.1*GK.MKR/H[-1] + (1-0.1)*GK.MKR/H[0]: 
OTHER_2            .         Kedr.exe версия 3.4.2.51      : 
OTHER_3            .         KedrData.dll версия 3.4.2.24  : 
OTHER_4            .         Драйвер версия 2.1.1.3        : 
OTHER_5            .         Мнемоники версия 3.3 S        : 
OTHER_6            .         Прибор_ КСА-Т4                : 
OTHER_7            .         Номер прибора_ 03             : 
OTHER_8            .         Режим_ КСА-Т4                 : 
OTHER_9            .         Форма_ КВА.                   : 
PR                 .                                       : 
PROJECT_UPGRADE_TIME .         2021-03-18T21_24_49           : 
PRTY               .         ПП-603-1                      : N партии
SRV                .                                       : 
SRVC               .         Карпов                        : Начальник партии
TLFamily_DEPT      .         Measured Depth                : 
TLFamily_LM        .         Casing Collar locator         : 
TLFamily_MN        .                                       : 
TLFamily_TM        .         Temperature                   : 
group              .         second                        : 
~Curve Information
#_______________________________________________________________________________
#
#LOGNAME           .UNIT     LOG_ID                        : DESCRIPTION
#_______________________________________________________________________________
DEPT               .M                                      : Depth curve 
LM                 .е.ацп                                  : Локатор муфт,е.ацп 
MN                 .атм                                    : Манометрия, атм 
TM                 .град.C                                 : Термограмма по стволу скважины,град.C 
~Ascii
# ...
1284.2     2652       115.472    41.182    
1284.4     2656.981   115.49     41.185    
1284.6     2453.975   115.507    41.189    
1284.8     2187       115.524    41.192    
1285       2186.961   115.542    41.195    
1285.2     1767.975   115.559    41.198    
1285.4     1505.949   115.576    41.201    
1285.6     962.008    115.592    41.204    
1285.8     1047.006   115.61     41.208    
1286       1106       115.628    41.213    
1286.2     1105.992   115.645    41.218    
1286.4     1022.021   115.662    41.221    
1286.6     1245.034   115.679    41.225    
1286.8     1601.04    115.697    41.231    
1287       2030       115.713    41.235    
1287.2     2030.089   115.73     41.238    
1287.4     2975.158   115.748    41.242    
1287.6     4653.216   115.766    41.245    
1287.8     6941       115.784    41.248    
1288       6940.511   115.799    41.254    
1288.2     1754.953   115.817    41.257    
1288.4     1251.992   115.835    41.259    
1288.6     1172.002   115.852    41.265    
1288.8     1189       115.868    41.268    
1289       1189.023   115.885    41.271    
1289.2     1435.997   115.904    41.275    
1289.4     1409.017   115.921    41.278    
1289.6     1584.02    115.937    41.281    
1289.8     1791.052   115.954    41.287    
1290       2344       115.973    41.289    
1290.2     2344.078   115.989    41.293    
1290.4     3173.112   116.006    41.298    
1290.6     4359.836   116.024    41.301    
1290.8     2624.933   116.042    41.305    
1291       1913       116.058    41.31     
1291.2     1912.949   116.076    41.315    
1291.4     1377.014   116.079    41.32     
1291.6     1522.973   116.089    41.326    
1291.8     1237.011   116.106    41.326    
1292       1352       116.124    41.331    
1292.2     1352.019   116.16     41.334    
1292.4     1556.009   116.18     41.335    
1292.6     1647.007   116.197    41.338    
1292.8     1716.003   116.208    41.344    
1293       1752       116.212    41.348    
1293.2     1751.963   116.248    41.352    
1293.4     1361.999   116.266    41.355    
1293.6     1351.998   116.283    41.358    
1293.8     1327.007   116.295    41.361    
1294       1404       116.297    41.365    
1294.2     1403.988   116.313    41.368    
1294.4     1282.002   116.33     41.372    
1294.6     1302.024   116.348    41.378    
1294.8     1560.009   116.365    41.382    
1295       1652       116.381    41.385    
1295.2     1651.998   116.398    41.388    
1295.4     1634.984   116.417    41.392    
1295.6     1461.008   116.434    41.399    
1295.8     1545.978   116.451    41.402    
1296       1314       116.467    41.405    
1296.2     1314.02    116.486    41.408    
1296.4     1522.017   116.504    41.412    
1296.6     1705.973   116.52     41.415    
1296.8     1425.005   116.536    41.418    
1297       1482       116.555    41.424    
1297.2     1482.009   116.572    41.428    
1297.4     1582.018   116.588    41.432    
1297.6     1769.028   116.605    41.435    
1297.8     2060.032   116.617    41.438    
1298       2397       116.623    41.441    
1298.2     2397.056   116.658    41.445    
1298.4     2991.107   116.676    41.448    
1298.6     4119.179   116.681    41.451    
1298.8     5998.624   116.697    41.454    
1299       2043       116.728    41.461    
1299.2     2043.003   116.744    41.465    
1299.4     2076.031   116.745    41.468    
1299.6     2400.04    116.77     41.471    
1299.8     2822.068   116.789    41.475    
1300       3537.838   116.791    41.481    
1300.2     1835       116.809    41.485    
1300.4     1834.935   116.826    41.488    
1300.6     1149.002   116.855    41.491    
1300.8     1172.02    116.875    41.495    
1301       1380.012   116.885    41.498    
1301.2     1508       116.918    41.502    
1301.4     1508.01    116.918    41.505    
1301.6     1609.011   116.944    41.509    
1301.8     1725.024   116.971    41.515    
1302       1975.95    116.988    41.519    
1302.2     1448       117.004    41.522    
1302.4     1448.023   117.003    41.525    
1302.6     1685.957   117.032    41.528    
1302.8     1236.001   117.047    41.531    
1303       1247.027   117.052    41.535    
1303.2     1526       117.069    41.538    
1303.4     1526.012   117.087    41.541    
1303.6     1655.005   117.104    41.544    
1303.8     1710.959   117.121    41.548    
1304       1279.014   117.138    41.551    
1304.2     1425       117.156    41.557    
1304.4     1425       117.174    41.561    
1304.6     1425.012   117.19     41.565    
1304.8     1552.985   117.197    41.568    
1305       1394.99    117.203    41.571    
1305.2     1289       117.221    41.574    
1305.4     1289.012   117.237    41.579    
1305.6     1415.984   117.254    41.585    
1305.8     1246.001   117.283    41.588    
1306       1260.997   117.304    41.591    
1306.2     1225       117.307    41.594    
1306.4     1225.019   117.323    41.598    
1306.6     1426.013   117.341    41.601    
1306.8     1556.996   117.359    41.604    
1307       1518.984   117.376    41.604    
1307.2     1353       117.392    41.609    
1307.4     1352.986   117.41     41.614    
1307.6     1210.016   117.428    41.617    
1307.8     1374.03    117.445    41.62     
1308       1683.023   117.462    41.624    
1308.2     1918       117.48     41.627    
1308.4     1918.036   117.498    41.63     
1308.6     2293.08    117.515    41.635    
1308.8     3130.148   117.482    41.641    
1309       4675.014   117.482    41.644    
1309.2     4816.946   117.548    41.647    
1309.4     4256       117.584    41.65     
1309.6     4256.164   117.584    41.654    
1309.8     5965.511   117.596    41.657    
1310       864.005    117.614    41.66     
1310.2     917.004    117.631    41.667    
1310.4     960        117.648    41.668    
1310.6     959.998    117.665    41.67     
1310.8     934.002    117.699    41.674    
1311       950.006    117.724    41.681    
1311.2     1009.025   117.74     41.684    
1311.4     1268       117.757    41.687    
1311.6     1267.997   117.776    41.692    
1311.8     1234.98    117.792    41.698    
1312       1025.017   117.809    41.701    
1312.2     1199.017   117.826    41.704    
1312.4     1379       117.844    41.707    
1312.6     1379.007   117.861    41.71     
1312.8     1451.004   117.878    41.714    
1313       1491.975   117.896    41.721    
1313.2     1236.012   117.914    41.721    
1313.4     1359       117.932    41.727    
1313.6     1359.013   117.947    41.731    
1313.8     1492.999   117.965    41.734    
1314       1479.983   117.983    41.737    
1314.2     1304.002   118        41.741    
1314.4     1323       118.016    41.746    
1314.6     1323.013   118.034    41.749    
1314.8     1461.999   118.036    41.751    
1315       1447.029   118.059    41.757    
1315.2     1752.021   118.079    41.761    
1315.4     1967.019   118.081    41.764    
1315.6     2169       118.099    41.767    
1315.8     2169.065   118.117    41.77     
1316       2844.125   118.134    41.774    
1316.2     4143.815   118.15     41.777    
1316.4     2223.927   118.168    41.783    
1316.6     1462       118.186    41.787    
1316.8     1462.004   118.202    41.791    
1317       1504.978   118.22     41.794    
1317.2     1274.999   118.238    41.797    
1317.4     1268.989   118.254    41.804    
1317.6     1158       118.27     41.807    
1317.8     1158.018   118.288    41.811    
1318       1345.013   118.306    41.814    
1318.2     1482.997   118.323    41.817    
1318.4     1451       118.34     41.823    
1318.6     1451       118.357    41.828    
1318.8     1450.996   118.376    41.831    
1319       1408.024   118.393    41.834    
1319.2     1661.031   118.409    41.838    
1319.4     1977.035   118.426    41.844    
1319.6     2341       118.444    41.848    
1319.8     2341.021   118.462    41.851    
1320       2556.06    118.478    41.854    
1320.2     3179.037   118.496    41.858    
1320.4     3559.166   118.514    41.861    
