~Version
 VERS              .         2.0                           : CWLS LOG ASCII STANDARD - VERSION 2.0
 WRAP              .         NO                            : ONE LINE PER DEPTH STEP
 DLM               .         SPACE                         : DELIMITING CHARACTER(SPACE TAB OR COMMA)
~Well Information
#_______________________________________________________________________________
#
#PARAMETER_NAME    .UNIT     VALUE                         : DESCRIPTION
#_______________________________________________________________________________
STRT               .M        2733.1                        : First reference value
STOP               .M        2798.6                        : Last reference value
STEP               .M        0.1                           : Step increment
NULL               .         -9999                         : Missing value
COMP               .                                       : Company
WELL               .         616                           : Well name
FLD                .                                       : Field
LOC                .                                       : Location
CNTY               .                                       : County
STAT               .                                       : State
CTRY               .                                       : Country
SRVC               .                                       : Service Company
DATE               .                                       : Date
API                .                                       : API number
PROJECT_UPGRADE_TIME .         2021-03-18T21_24_50           : 
group              .         Good                          : 
~Parameter Information Block
#_______________________________________________________________________________
#
#PARAMETER_NAME    .UNIT     VALUE                         : DESCRIPTION
#_______________________________________________________________________________
SET                .         D2661_D                       : 
OTHER              .         Программное обеспечение станции MONITOR-386EX 25/12/99 15_08_10   BGF V50 26/12/00 07_26_01   3.1_SNGF___BGF_N_092085: 
OTHER_10           .         Тарировки_                    : 
OTHER_11           .         IK1.GRD = IK1$.UE - -5.96     : 
OTHER_12           .         IK5.GRD = IK5$.UE - -0.74     : 
OTHER_13           .         IK4.GRD = IK4$.UE - -0.9      : 
OTHER_14           .         IK3.GRD = IK3$.UE - -1.28     : 
OTHER_15           .         IK2.GRD = IK2$.UE - -3.55     : 
OTHER_2            .         Kedr.exe версия 3.3.2.32      : 
OTHER_3            .         KedrData.dll версия 3.3.2.17  : 
OTHER_4            .         Драйвер версия 2.1.0.4        : 
OTHER_5            .         Мнемоники версия 3.3 S        : 
OTHER_6            .         Прибор_ Викиз                 : 
OTHER_7            .         Номер прибора_ 0006012        : 
OTHER_8            .         Режим_ Викиз                  : 
OTHER_9            .         Форма_ ВИКИЗ                  : 
PROJECT_UPGRADE_TIME .         2021-03-18T21_24_49           : 
TLFamily_DEPT      .         Measured Depth                : 
TLFamily_IK1       .         Extra Shallow Resistivity     : 
TLFamily_IK1$      .         Extra Shallow Resistivity     : 
TLFamily_IK2       .         Shallow Resistivity           : 
TLFamily_IK2$      .         Shallow Resistivity           : 
TLFamily_IK3       .         Medium Resistivity            : 
TLFamily_IK3$      .         Medium Resistivity            : 
TLFamily_IK4       .         Deep Resistivity              : 
TLFamily_IK4$      .         Deep Resistivity              : 
TLFamily_IK5       .         Resistivity 20                : 
TLFamily_IK5$      .         Resistivity 20                : 
TLFamily_METKA     .                                       : 
TLFamily_PS        .         Spontaneous Potential         : 
TLFamily_RCOR      .                                       : 
TLFamily_SPID      .         Spontaneous Potential         : 
TLFamily_TENS      .         Cable Tension                 : 
TLFamily_TIME      .         Time                          : 
group              .         prim                          : 
~Curve Information
#_______________________________________________________________________________
#
#LOGNAME           .UNIT     LOG_ID                        : DESCRIPTION
#_______________________________________________________________________________
DEPT               .M                                      : 1 Глубина, м -    0.0 см 
IK1                .GRD                                    : 13 3Ф0.5, град. -  226.0 см 
IK1$               .UE                                     : 7 3Ф0.5, усл.ед. -  226.0 см 
IK2                .GRD                                    : 17 3Ф0.7, град. -  240.0 см 
IK2$               .UE                                     : 11 3Ф0.7, усл.ед. -  240.0 см 
IK3                .GRD                                    : 16 3Ф1.0, град. -  260.0 см 
IK3$               .UE                                     : 10 3Ф1.0, усл.ед. -  260.0 см 
IK4                .GRD                                    : 15 3Ф1.4, град. -  288.0 см 
IK4$               .UE                                     : 9 3Ф1.4, усл.ед. -  288.0 см 
IK5                .GRD                                    : 14 3Ф2.0, град. -  328.0 см 
IK5$               .UE                                     : 8 3Ф2.0, усл.ед. -  328.0 см 
METKA              .                                       : 3 Метки,  -    0.0 см 
PS                 .mV                                     : 12 ПС, мВ -  372.0 см 
RCOR               .CM/KM                                  : 5 Коррекция по ролику, см/км -    0.0 см 
SPID               .M/H                                    : 2 Скорость, м/час -    0.0 см 
TENS               .T                                      : 6 Натяжение кабеля, т -    0.0 см 
TIME               .S                                      : 4 Время, сек -    0.0 см 
~Ascii
# ...
2793.3     15.99      10.03      15.48      11.93      15.79      14.51      14.61      13.71      13.71      12.97      0          332.67     -286       -1236      0          34359.21  
2793.4     15.99      10.03      15.47      11.92      15.79      14.51      14.61      13.71      13.7       12.96      0          332.34     -286       -1220      0          34358.93  
2793.5     15.98      10.02      15.47      11.92      15.79      14.51      14.61      13.71      13.71      12.97      0          331.96     -286       -1210      0          34358.65  
2793.6     15.99      10.03      15.47      11.92      15.79      14.51      14.61      13.71      13.71      12.97      0          332.74     -286       -1206      0          34358.37  
2793.7     15.99      10.03      15.47      11.92      15.78      14.5       14.62      13.72      13.71      12.97      0          334.88     -286       -1201      0          34358.07  
2793.8     15.99      10.03      15.48      11.93      15.78      14.5       14.63      13.73      13.7       12.96      0          341.02     -286       -1194      0          34357.81  
2793.9     15.99      10.03      15.48      11.93      15.78      14.5       14.62      13.72      13.7       12.96      0          342.9      -286       -1172      0          34357.53  
2794       15.99      10.03      15.48      11.93      15.78      14.5       14.62      13.72      13.7       12.96      0          342.86     -286       -1122      0          34357.2   
2794.1     15.99      10.03      15.48      11.93      15.78      14.5       14.62      13.72      13.7       12.96      0          342.51     -286       -1071      0          34356.95  
2794.2     15.99      10.03      15.48      11.93      15.78      14.5       14.61      13.71      13.7       12.96      0          342.41     -286       -984       0          34356.63  
2794.3     15.99      10.03      15.47      11.92      15.79      14.51      14.61      13.71      13.7       12.96      0          342.39     -286       -890       0          34356.35  
2794.4     16         10.04      15.48      11.93      15.79      14.51      14.61      13.71      13.7       12.96      0          342.46     -286       -759       0          34356.05  
2794.5     15.99      10.03      15.48      11.93      15.79      14.51      14.62      13.72      13.71      12.97      0          342.31     -286       -609       0          34355.78  
2794.6     16         10.04      15.48      11.93      15.78      14.5       14.62      13.72      13.7       12.96      0          342.14     -286       -395       0          34355.48  
2794.7     16         10.04      15.47      11.92      15.79      14.51      14.62      13.72      13.69      12.95      0          341.85     -286       -247       0          34355.17  
2794.8     15.99      10.03      15.47      11.92      15.79      14.51      14.62      13.72      13.7       12.96      1          341.52     -286       -75        0          34354.84  
2794.9     15.99      10.03      15.47      11.92      15.79      14.51      14.61      13.71      13.7       12.96      0          341.49     -286       0          0          34353.02  
2795       15.99      10.03      15.47      11.92      15.78      14.5       14.62      13.72      13.7       12.96      -9999      341.46     -9999      -9999      -9999      -9999     
2795.1     15.99      10.03      15.47      11.92      15.78      14.5       14.62      13.72      13.69      12.95      -9999      341.32     -9999      -9999      -9999      -9999     
2795.2     15.99      10.03      15.47      11.92      15.79      14.51      14.62      13.72      13.7       12.96      -9999      341.31     -9999      -9999      -9999      -9999     
2795.3     16         10.04      15.47      11.92      15.79      14.51      14.62      13.72      13.7       12.96      -9999      341.67     -9999      -9999      -9999      -9999     
2795.4     16         10.04      15.48      11.93      15.79      14.51      14.61      13.71      13.7       12.96      -9999      341.61     -9999      -9999      -9999      -9999     
2795.5     15.99      10.03      15.48      11.93      15.79      14.51      14.61      13.71      13.7       12.96      -9999      341.58     -9999      -9999      -9999      -9999     
2795.6     15.99      10.03      15.47      11.92      15.79      14.51      14.62      13.72      13.7       12.96      -9999      341.58     -9999      -9999      -9999      -9999     
2795.7     15.99      10.03      15.48      11.93      15.79      14.51      14.62      13.72      13.7       12.96      -9999      341.48     -9999      -9999      -9999      -9999     
2795.8     15.99      10.03      15.48      11.93      15.79      14.51      14.62      13.72      13.7       12.96      -9999      341.29     -9999      -9999      -9999      -9999     
2795.9     15.99      10.03      15.48      11.93      15.79      14.51      14.62      13.72      13.69      12.95      -9999      341.24     -9999      -9999      -9999      -9999     
2796       16         10.04      15.47      11.92      15.79      14.51      14.62      13.72      13.69      12.95      -9999      341.32     -9999      -9999      -9999      -9999     
2796.1     16         10.04      15.48      11.93      15.79      14.51      14.62      13.72      13.69      12.95      -9999      341.12     -9999      -9999      -9999      -9999     
2796.2     16         10.04      15.47      11.92      15.79      14.51      14.62      13.72      13.69      12.95      -9999      341.12     -9999      -9999      -9999      -9999     
2796.3     15.99      10.03      15.47      11.92      15.79      14.51      14.62      13.72      13.69      12.95      -9999      341.08     -9999      -9999      -9999      -9999     
2796.4     15.98      10.02      15.48      11.93      15.79      14.51      14.62      13.72      13.69      12.95      -9999      341.06     -9999      -9999      -9999      -9999     
2796.5     15.98      10.02      15.47      11.92      15.79      14.51      14.62      13.72      13.69      12.95      -9999      340.54     -9999      -9999      -9999      -9999     
2796.6     15.98      10.02      15.46      11.91      15.78      14.5       14.62      13.72      13.69      12.95      -9999      340.32     -9999      -9999      -9999      -9999     
2796.7     15.98      10.02      15.47      11.92      15.78      14.5       14.62      13.72      13.69      12.95      -9999      340.11     -9999      -9999      -9999      -9999     
2796.8     15.98      10.02      15.47      11.92      15.78      14.5       14.61      13.71      13.69      12.95      -9999      339.99     -9999      -9999      -9999      -9999     
2796.9     15.98      10.02      15.47      11.92      15.78      14.5       14.61      13.71      13.69      12.95      -9999      339.71     -9999      -9999      -9999      -9999     
2797       15.99      10.03      15.47      11.92      15.78      14.5       14.61      13.71      13.68      12.94      -9999      339.63     -9999      -9999      -9999      -9999     
2797.1     15.99      10.03      15.49      11.94      15.78      14.5       14.62      13.72      13.68      12.94      -9999      339.59     -9999      -9999      -9999      -9999     
2797.2     -9999      -9999      15.48      11.93      15.78      14.5       14.62      13.72      13.69      12.95      -9999      339.47     -9999      -9999      -9999      -9999     
2797.3     -9999      -9999      15.49      11.94      15.78      14.5       14.62      13.72      13.69      12.95      -9999      339.3      -9999      -9999      -9999      -9999     
2797.4     -9999      -9999      -9999      -9999      15.78      14.5       14.62      13.72      13.69      12.95      -9999      339.39     -9999      -9999      -9999      -9999     
2797.5     -9999      -9999      -9999      -9999      15.78      14.5       14.62      13.72      13.7       12.96      -9999      339.38     -9999      -9999      -9999      -9999     
