~Version
 VERS              .         2.0                           : CWLS LOG ASCII STANDARD - VERSION 2.0
 WRAP              .         NO                            : ONE LINE PER DEPTH STEP
 DLM               .         SPACE                         : DELIMITING CHARACTER(SPACE TAB OR COMMA)
~Well Information
#_______________________________________________________________________________
#
#PARAMETER_NAME    .UNIT     VALUE                         : DESCRIPTION
#_______________________________________________________________________________
STRT               .M        2669.8                        : First reference value
STOP               .M        2775.8                        : Last reference value
STEP               .M        0.2                           : Step increment
NULL               .         -9999                         : Missing value
COMP               .                                       : Company
WELL               .         616                           : Well name
FLD                .                                       : Field
LOC                .                                       : Location
CNTY               .                                       : County
STAT               .                                       : State
CTRY               .                                       : Country
SRVC               .                                       : Service Company
DATE               .                                       : Date
API                .                                       : API number
PROJECT_UPGRADE_TIME .         2021-03-18T21_24_50           : 
group              .         Good                          : 
~Parameter Information Block
#_______________________________________________________________________________
#
#PARAMETER_NAME    .UNIT     VALUE                         : DESCRIPTION
#_______________________________________________________________________________
SET                .         D1812_D                       : 
OTHER              .         Программное обеспечение станции MONITOR-386EX 25/12/99 15_08_10   BGF V52 22/08/01 16_56_30   3.1_SNGF___BGF_N_092049: 
OTHER_10           .         Тарировки_                    : 
OTHER_11           .         TM.GRD = 0.00403*TM$.UE + -1.07: 
OTHER_12           .         MN.ATM = (9.34907e-006*TM.GRD + 0.02171)*(MN$.UE + -7.93*TM.GRD + -1787): 
OTHER_13           .         GK.MKR/H = LM. / 42.4676      : 
OTHER_14           .         GK.FLT = 0.1*GK.MKR/H[-1] + (1-0.1)*GK.MKR/H[0]: 
OTHER_2            .         Kedr.exe версия 3.4.2.51      : 
OTHER_3            .         KedrData.dll версия 3.4.2.24  : 
OTHER_4            .         Драйвер версия 2.1.1.3        : 
OTHER_5            .         Мнемоники версия 3.3 S        : 
OTHER_6            .         Прибор_ КСА-Т4                : 
OTHER_7            .         Номер прибора_ 03             : 
OTHER_8            .         Режим_ КСА-Т4                 : 
OTHER_9            .         Форма_ КВА.                   : 
PROJECT_UPGRADE_TIME .         2021-03-18T21_24_49           : 
TLFamily_DEPT      .         Measured Depth                : 
TLFamily_GK        .         Gamma Ray                     : 
TLFamily_GK$       .                                       : 
TLFamily_GK_2      .         Gamma Ray                     : 
TLFamily_LM        .         Casing Collar locator         : 
TLFamily_METKA     .                                       : 
TLFamily_MN        .                                       : 
TLFamily_MN$       .                                       : 
TLFamily_RCOR      .                                       : 
TLFamily_SPID      .         Spontaneous Potential         : 
TLFamily_TENS      .         Cable Tension                 : 
TLFamily_TIME      .         Time                          : 
TLFamily_TM        .         Temperature                   : 
TLFamily_TM$       .         Temperature                   : 
group              .         prim                          : 
~Curve Information
#_______________________________________________________________________________
#
#LOGNAME           .UNIT     LOG_ID                        : DESCRIPTION
#_______________________________________________________________________________
DEPT               .M                                      : 1 Глубина, м -    0.0 см 
GK                 .MKR/H                                  : 13 Гамма-активность, мкр./ч -  110.0 см 
GK$                .UE                                     : 10 Гамма-активность, усл.ед. -  110.0 см 
GK_2               .FLT                                    : 14 Гамма-активность фильтрованная, мкр./ч -  110.0 см 
LM                 .                                       : 9 Локатор муфт,  -   20.0 см 
METKA              .                                       : 3 Метки,  -    0.0 см 
MN                 .ATM                                    : 12 Давление, атм. -  160.0 см 
MN$                .UE                                     : 8 Давление, усл.ед. -  160.0 см 
RCOR               .CM/KM                                  : 5 Коррекция по ролику, см/км -    0.0 см 
SPID               .M/H                                    : 2 Скорость, м/час -    0.0 см 
TENS               .T                                      : 6 Натяжение кабеля, т -    0.0 см 
TIME               .S                                      : 4 Время, сек -    0.0 см 
TM                 .GRD                                    : 11 Температура, °C -  170.0 см 
TM$                .UE                                     : 7 Температура, усл.ед. -  170.0 см 
~Ascii
# ...
2732.2     6.9        293        6.89       691        0          251.203    13510      -640       533        0.05       7484.64    49.697     12597     
2732.4     6.94       295        6.93       226        0          251.233    13511      -640       538        0.05       7486.03    49.717     12602     
2732.6     7.16       304        7.15       1023       0          251.228    13511      -640       541        0.05       7487.35    49.769     12615     
2732.8     7.18       305        7.17       196        0          251.244    13512      -640       531        0.05       7488.72    49.853     12636     
2733       7.23       307        7.23       123        0          251.257    13513      -640       530        0.05       7490.09    49.964     12663     
2733.2     7.61       323        7.5        103        0          251.27     13514      -640       537        0.05       7491.41    50.098     12697     
2733.4     7.61       323        7.6        88         0          251.283    13515      -640       534        0.05       7492.72    50.24      12732     
2733.6     7.63       324        7.62       169        0          251.311    13517      -640       539        0.05       7494.1     50.347     12759     
2733.8     7.63       324        7.63       185        0          251.311    13517      -640       541        0.05       7495.38    50.454     12785     
2734       8.15       346        8.04       146        0          251.314    13518      -640       544        0.05       7496.73    50.674     12840     
2734.2     8.15       346        8.14       157        0          251.299    13518      -640       544        0.05       7498.09    50.928     12903     
2734.4     9.14       388        9.07       183        0          251.307    13519      -640       533        0.05       7499.45    51.145     12957     
2734.6     9.14       388        9.13       139        0          251.319    13520      -640       531        0.05       7500.8     51.3       12995     
2734.8     8.95       380        8.96       111        0          251.334    13521      -640       541        0.05       7502.11    51.417     13024     
2735       8.95       380        8.95       216        0          251.348    13522      -640       534        0.05       7503.42    51.527     13051     
2735.2     8.55       363        8.57       205        0          251.363    13523      -640       538        0.05       7504.8     51.65      13082     
2735.4     8.22       349        8.34       250        0          251.373    13524      -640       536        0.05       7506.11    51.712     13097     
2735.6     8.05       342        8.06       125        0          251.383    13524      -640       539        0.07       7507.42    51.764     13110     
2735.8     8.1        344        8.08       129        0          251.402    13525      -640       535        0.05       7508.82    51.779     13114     
2736       8.12       345        8.12       197        0          251.437    13526      -640       536        0.07       7510.17    51.735     13103     
2736.2     9.01       383        8.68       107        0          251.478    13528      -640       539        0.07       7511.49    51.671     13087     
2736.4     9.18       390        9.17       80         0          251.492    13528      -640       544        0.07       7512.8     51.61      13072     
2736.6     9.77       415        9.69       93         0          251.506    13529      -640       538        0.07       7514.16    51.559     13059     
2736.8     9.77       415        9.77       126        0          251.532    13530      -640       536        0.07       7515.5     51.52      13050     
2737       9.02       383        9.11       3015       0          251.555    13531      -640       533        0.07       7516.8     51.48      13040     
2737.2     9.02       383        9.02       1911       0          251.577    13532      -640       539        0.07       7518.14    51.481     13040     
2737.4     7.35       312        7.54       344        0          251.599    13533      -640       533        0.07       7519.58    51.489     13042     
2737.6     7.35       312        7.35       150        0          251.598    13533      -640       528        0.07       7520.85    51.501     13045     
2737.8     7.21       306        7.21       110        0          251.62     13534      -640       528        0.07       7522.2     51.505     13046     
2738       7.21       306        7.21       106        0          251.642    13535      -640       539        0.07       7523.55    51.51      13047     
2738.2     8.08       343        8.05       115        0          251.656    13536      -640       532        0.07       7524.83    51.51      13047     
2738.4     8.08       343        8.08       118        0          251.688    13537      -640       542        0.07       7526.2     51.492     13043     
2738.6     8.43       358        8.42       129        0          251.704    13538      -640       541        0.07       7527.52    51.47      13037     
2738.8     8.19       348        8.27       135        0          251.737    13539      -640       546        0.07       7528.83    51.433     13028     
2739       8.19       348        8.2        145        0          251.741    13539      -640       536        0.07       7530.27    51.389     13017     
2739.2     8.38       356        8.33       155        0          251.78     13541      -640       534        0.07       7531.58    51.335     13004     
2739.4     8.38       356        8.38       143        0          251.793    13541      -640       532        0.07       7532.91    51.28      12990     
2739.6     8.9        378        8.85       107        0          251.821    13542      -640       538        0.07       7534.28    51.214     12974     
2739.8     8.9        378        8.9        110        0          251.852    13543      -640       540        0.07       7535.57    51.106     12947     
2740       8.15       346        8.21       97         2          251.881    13544      -640       545        0.07       7536.91    50.994     12919     
2740.2     8.15       346        8.15       94         0          251.907    13545      -647       535        0.05       7538.72    50.924     12902     
2740.4     8.62       366        8.59       63         0          251.933    13546      -647       540        0.05       7540.09    50.861     12886     
2740.6     9.18       390        8.97       93         0          251.958    13547      -647       533        0.05       7541.41    50.813     12874     
2740.8     11.4       484        11.33      86         0          251.983    13548      -647       542        0.07       7542.77    50.774     12864     
2741       11.78      500        11.63      91         0          252.005    13549      -647       535        0.05       7544.04    50.756     12860     
2741.2     12.34      524        12.33      101        0          252.009    13549      -647       537        0.05       7545.42    50.752     12859     
2741.4     12.27      521        12.28      113        0          252.05     13551      -647       532        0.07       7546.75    50.752     12859     
2741.6     12.27      521        12.27      116        0          252.073    13552      -647       540        0.05       7548.05    50.742     12857     
2741.8     14.95      635        14.82      124        0          252.098    13553      -647       537        0.05       7549.42    50.714     12850     
2742       14.95      635        14.95      111        0          252.121    13554      -647       534        0.05       7550.81    50.697     12845     
2742.2     16.84      715        16.75      85         0          252.144    13555      -647       531        0.05       7552.11    50.677     12841     
2742.4     16.84      715        16.83      90         0          252.169    13556      -647       533        0.05       7553.49    50.655     12835     
