~Version
 VERS              .         2.0                           : CWLS LOG ASCII STANDARD - VERSION 2.0
 WRAP              .         NO                            : ONE LINE PER DEPTH STEP
 DLM               .         SPACE                         : DELIMITING CHARACTER(SPACE TAB OR COMMA)
~Well Information
#_______________________________________________________________________________
#
#PARAMETER_NAME    .UNIT     VALUE                         : DESCRIPTION
#_______________________________________________________________________________
STRT               .M        2650.4                        : First reference value
STOP               .M        2757.800161                   : Last reference value
STEP               .M        0.2000003                     : Step increment
NULL               .         -9999                         : Missing value
COMP               .                                       : Company
WELL               .         616                           : Well name
FLD                .                                       : Field
LOC                .                                       : Location
CNTY               .                                       : County
STAT               .                                       : State
CTRY               .                                       : Country
SRVC               .                                       : Service Company
DATE               .                                       : Date
API                .                                       : API number
PROJECT_UPGRADE_TIME .         2021-03-18T21_24_50           : 
group              .         Good                          : 
~Parameter Information Block
#_______________________________________________________________________________
#
#PARAMETER_NAME    .UNIT     VALUE                         : DESCRIPTION
#_______________________________________________________________________________
SET                .         D4412_D                       : 
OTHER              .         Запись производится в присутствии: 
OTHER_10           .         Максимальная температура      : 
OTHER_11           .         Тип промывочной жидкости      : 
OTHER_12           .         Сопротивление ПЖ (Ом*м) при 20°C: 
OTHER_13           .         Плотность ПЖ(г/см3)           : 
OTHER_14           .         Вязкость ПЖ(с)                : 
OTHER_15           .         Водоотдача ПЖ(см3/30мин)      : 
OTHER_16           .         Уровень ПЖ                    : 
OTHER_17           .         Нефть ПЖ (%)                  : 
OTHER_18           .         Барит ПЖ (%)                  : 
OTHER_19           .         Гематит ПЖ (%)                : 
OTHER_2            .         Заказчик ННСН  ЦДНГ-1         : 
OTHER_20           .         КМЦ ПЖ (%)                    : 
OTHER_21           .         Разгазирование ПЖ (да,нет)    : 
OTHER_22           .         Подъемник                     : 
OTHER_23           .         Лаборатория                   : 
OTHER_24           .         Тип кабеля                    : 
OTHER_25           .         Длина кабеля (м)              : 
OTHER_26           .         Цена последней метки          : 
OTHER_27           .         Цена контрольной метки        : 
OTHER_28           .         Диаметр долота (мм)           : 
OTHER_29           .         Глубина бурения (м)           : 
OTHER_3            .         Площадь                       : 
OTHER_30           .         Искусственный забой (м)       : 
OTHER_31           .         Диаметр колонны (мм)          : 
OTHER_32           .         Толщина колонны (мм)          : 
OTHER_33           .         Башмак колонны (м)            : 
OTHER_34           .         Диаметр НКТ (мм)              : 
OTHER_35           .         Толщина НКТ (мм)              : 
OTHER_36           .         Воронка НКТ (м)               : 
OTHER_37           .         Дата цементожа                : 
OTHER_38           .         Тип, количество(т) и плотность цемента: 
OTHER_39           .         Интервалы перфорации (м)      : 
OTHER_4            .         Категория                     : 
OTHER_40           .         Направление, диаметр (мм)     : 
OTHER_41           .         Направление, глубина (м)      : 
OTHER_42           .         Кондуктор, диаметр (мм)       : 
OTHER_43           .         Кондуктор, глубина (м)        : 
OTHER_44           .         Техническая колонна, диаметр (мм): 
OTHER_45           .         Техническая колонна, глубина (м): 
OTHER_46           .         Эксплуатационная колонна, диаметр (мм): 
OTHER_47           .         Эксплуатационная колонна, глубина (м): 
OTHER_48           .         Программа Кедр-02 версия 3.4  : 
OTHER_49           .         Операционная система Windows NT 5.1 build 2600 Service Pack 2: 
OTHER_5            .         Назначение исследований       : 
OTHER_50           .         Программное обеспечение станции MONITOR-386EX 25/12/99 15_08_10   BGF V54 20/09/05 15_32_17   3.3__BGF_9030071: 
OTHER_51           .         Kedr.exe версия 3.4.2.74      : 
OTHER_52           .         KedrData.dll версия 3.4.2.29  : 
OTHER_53           .         Мнемоники версия 3.18 S       : 
OTHER_54           .         Драйвер версия 2.1.1.4        : 
OTHER_55           .         LasInf.dll 4.3.0.35           : 
OTHER_56           .         Прибор_ КСА-Т4                : 
OTHER_57           .         Номер прибора_ 160            : 
OTHER_58           .         Режим_ КСА-Т4                 : 
OTHER_59           .         Форма_ С.А.Б.                 : 
OTHER_6            .         Альтитуда стола ротора        : 
OTHER_60           .         Тарировки_                    : 
OTHER_61           .         <_techsia_sc_> Дата тарировки температуры 25.05.2010: 
OTHER_62           .         Ручной ввод коэффициентов     : 
OTHER_63           .         TM.DEGC = 0.00402*RTM.E.ACP + -0.994: 
OTHER_64           .         <_techsia_sc_> Дата тарировки давления 25.05.2010: 
OTHER_65           .         Ручной ввод коэффициентов     : 
OTHER_66           .         MN.ATM = (2.27521e-006*TM.DEGC + 0.02078)*(RMN.E.ACP + 6.2*TM.DEGC + -1688): 
OTHER_67           .         <_techsia_sc_> Дата тарировки ГК 25.05.2010: 
OTHER_68           .         Ручной ввод коэффициентов     : 
OTHER_69           .         GR.UR/H = RGR.IMP/MIN / 45.5144: 
OTHER_7            .         Вид исследований 3  6         : 
OTHER_70           .         GK.FLT = 0.1*GR.UR/H[-1] + (1-0.1)*GR.UR/H[0]: 
OTHER_8            .         Начало бурения интервала каротажа: 
OTHER_9            .         Окончание бурения интервала каротажа: 
PROJECT_UPGRADE_TIME .         2021-03-18T21_24_50           : 
TLFamily_CCLC      .                                       : 
TLFamily_DEPT      .         Measured Depth                : 
TLFamily_GK        .         Gamma Ray                     : 
TLFamily_GR        .         Gamma Ray                     : 
TLFamily_METKA     .                                       : 
TLFamily_MN        .                                       : 
TLFamily_RCOR      .                                       : 
TLFamily_RGR       .                                       : 
TLFamily_RMN       .                                       : 
TLFamily_RTEN      .                                       : 
TLFamily_RTM       .                                       : 
TLFamily_SPEE      .         Cable Speed                   : 
TLFamily_TIME      .         Time                          : 
TLFamily_TM        .         Temperature                   : 
group              .         prim                          : 
~Curve Information
#_______________________________________________________________________________
#
#LOGNAME           .UNIT     LOG_ID                        : DESCRIPTION
#_______________________________________________________________________________
DEPT               .M                                      : 1 Глубина, м -    0.0 см 
CCLC               .E.ACP                                  : 9 Локатор муфт,  -   20.0 см 
GK                 .FLT                                    : 14 Гамма-активность фильтрованная, мкр./ч -  110.0 см 
GR                 .UR/H                                   : 13 Гамма-активность, мкр./ч -  110.0 см 
METKA              .CU                                     : 3 Метки,  -    0.0 см 
MN                 .ATM                                    : 12 Давление, атм. -  160.0 см 
RCOR               .CM/KM                                  : 5 Коррекция по ролику, см/км -    0.0 см 
RGR                .IMP/MIN                                : 10 Гамма-активность, усл.ед. -  110.0 см 
RMN                .E.ACP                                  : 8 Давление, усл.ед. -  160.0 см 
RTEN               .T                                      : 6 Натяжение кабеля, т -    0.0 см 
RTM                .E.ACP                                  : 7 Температура, усл.ед. -  170.0 см 
SPEE               .M/H                                    : 2 Скорость, м/час -    0.0 см 
TIME               .S                                      : 4 Время, сек -    0.0 см 
TM                 .DEGC                                   : 11 Температура, °C -  170.0 см 
~Ascii
# ...
2744.00014 51         11.01      11.01      0          375.226    -1081      501        19334      0.2        12756      574        585.49     50.286    
2744.200141 76         10.74      10.74      0          375.412    -1081      489        19343      0.2        12762      574        586.75     50.31     
2744.400141 57         10.74      10.74      0          375.515    -1081      489        19348      0.2        12770      575        587.95     50.341    
2744.600141 65         9.98       9.98       0          375.554    -1081      454        19349      0.2        12777      573        589.22     50.37     
2744.800142 51         9.97       9.97       0          375.573    -1081      454        19350      0.2        12785      573        590.53     50.401    
2745.000142 73         10.06      10.06      0          375.761    -1081      458        19359      0.2        12793      573        591.83     50.434    
2745.200142 95         10.06      10.06      0          375.716    -1081      458        19356      0.2        12802      573        593.03     50.47     
2745.400143 108        9.8        9.8        0          375.724    -1081      446        19356      0.2        12807      573        594.3      50.491    
2745.600143 65         9.8        9.8        0          375.845    -1081      446        19362      0.2        12814      573        595.56     50.517    
2745.800143 47         9.8        9.8        0          375.934    -1081      446        19366      0.2        12823      573        596.83     50.554    
2746.000143 44         9.8        9.8        2          375.939    -1083      446        19366      0.2        12830      573        598.1      50.584    
2746.200144 78         9.03       9.03       0          375.974    -1084      411        19367      0.2        12839      573        599.56     50.621    
2746.400144 70         9.03       9.03       0          376.025    -1084      411        19369      0.2        12849      574        600.79     50.661    
2746.600144 68         8.63       8.63       0          376.003    -1084      393        19368      0.2        12862      574        602.05     50.711    
2746.800145 47         8.63       8.63       0          376.055    -1084      393        19370      0.2        12872      575        603.36     50.751    
2747.000145 53         9.97       9.97       0          376.111    -1084      454        19373      0.2        12881      575        604.59     50.786    
2747.200145 8267       9.97       9.97       0          376.052    -1084      454        19369      0.2        12891      575        605.86     50.83     
2747.400146 3470       9.43       9.43       0          376.113    -1084      429        19372      0.2        12903      575        607.08     50.878    
2747.600146 992        9.43       9.43       0          376.154    -1084      429        19373      0.2        12914      574        608.41     50.922    
2747.800146 289        10.28      10.28      0          376.263    -1084      468        19378      0.2        12926      574        609.63     50.968    
2748.000146 100        10.28      10.28      0          376.127    -1084      468        19372      0.2        12935      575        610.88     51.005    
2748.200147 183        12.44      12.44      0          376.115    -1084      566        19371      0.2        12943      574        612.15     51.039    
2748.400147 74         12.44      12.44      0          376.219    -1084      566        19375      0.2        12953      575        613.38     51.078    
2748.600147 57         12.02      12.02      0          376.313    -1084      547        19380      0.2        12962      574        614.69     51.112    
2748.800148 50         12.02      12.02      0          376.234    -1084      547        19375      0.2        12974      575        615.95     51.163    
2749.000148 228        11.34      11.34      0          376.319    -1084      516        19379      0.2        12986      575        617.22     51.211    
2749.200148 153        11.34      11.34      0          376.417    -1084      516        19383      0.2        12995      573        618.44     51.247    
2749.400148 99         11.03      11.03      0          376.346    -1084      502        19380      0.2        13000      572        619.76     51.266    
2749.600149 96         11.03      11.03      0          376.283    -1084      502        19377      0.2        13002      573        621.03     51.274    
2749.800149 76         11.32      11.32      0          376.45     -1084      515        19385      0.2        13001      573        622.3      51.27     
2750.000149 47         11.32      11.32      0          376.513    -1084      515        19388      0.2        13000      574        623.52     51.266    
2750.20015 64         11.42      11.42      0          376.494    -1084      520        19387      0.2        13001      573        624.77     51.272    
2750.40015 96         11.42      11.42      0          376.5      -1084      520        19387      0.2        13012      573        626.11     51.314    
2750.60015 61         11.36      11.36      0          376.64     -1084      517        19392      0.2        13033      574        627.31     51.399    
2750.800151 90         11.36      11.36      0          376.671    -1084      517        19393      0.2        13069      574        628.58     51.542    
2751.000151 72         11.95      11.95      0          376.757    -1084      544        19396      0.2        13089      574        629.85     51.624    
2751.200151 74         11.95      11.95      0          376.831    -1084      544        19399      0.2        13118      574        631.11     51.74     
2751.400151 53         11.78      11.78      0          376.781    -1084      536        19396      0.2        13138      573        632.38     51.819    
2751.600152 64         11.78      11.78      0          376.782    -1084      536        19395      0.2        13157      575        633.65     51.898    
2751.800152 87         10.41      10.41      0          377.043    -1084      474        19402      0.2        13253      574        634.91     52.283    
2752.000152 78         10.44      10.44      0          377.209    -1084      475        19405      0.2        13436      573        636.13     53.02     
2752.200153 56         10.57      10.57      0          377.223    -1084      481        19403      0.2        13542      574        637.47     53.445    
2752.400153 38         10.57      10.57      0          377.244    -1084      481        19404      0.2        13583      573        638.72     53.61     
2752.600153 43         10.3       10.3       0          377.317    -1084      469        19408      0.2        13563      574        639.97     53.531    
2752.800154 102        10.3       10.3       0          377.34     -1084      469        19410      0.2        13540      574        641.2      53.436    
2753.000154 190        9.45       9.45       0          377.412    -1084      430        19415      0.2        13517      573        642.47     53.344    
2753.200154 223        9.45       9.45       0          377.365    -1084      430        19413      0.2        13490      574        643.74     53.236    
2753.400155 263        10.7       10.7       0          377.455    -1084      487        19417      0.2        13481      574        645.01     53.201    
2753.600155 309        10.7       10.7       0          377.503    -1084      487        19419      0.2        13488      573        646.28     53.228    
2753.800155 65         10.96      10.96      0          377.56     -1084      499        19421      0.2        13496      572        647.55     53.26     
2754.000155 35         10.65      10.65      0          377.62     -1084      485        19423      0.2        13541      574        648.83     53.439    
2754.200156 29         10.04      10.04      0          377.877    -1084      457        19434      0.2        13580      573        650.08     53.598    
