~Version
 VERS              .         2.0                           : CWLS LOG ASCII STANDARD - VERSION 2.0
 WRAP              .         NO                            : ONE LINE PER DEPTH STEP
 DLM               .         SPACE                         : DELIMITING CHARACTER(SPACE TAB OR COMMA)
~Well Information
#_______________________________________________________________________________
#
#PARAMETER_NAME    .UNIT     VALUE                         : DESCRIPTION
#_______________________________________________________________________________
STRT               .M        2645.6                        : First reference value
STOP               .M        2754.199837                   : Last reference value
STEP               .M        0.1999997                     : Step increment
NULL               .         -9999                         : Missing value
COMP               .                                       : Company
WELL               .         616                           : Well name
FLD                .                                       : Field
LOC                .                                       : Location
CNTY               .                                       : County
STAT               .                                       : State
CTRY               .                                       : Country
SRVC               .                                       : Service Company
DATE               .                                       : Date
API                .                                       : API number
PROJECT_UPGRADE_TIME .         2021-03-18T21_24_50           : 
group              .         Good                          : 
~Parameter Information Block
#_______________________________________________________________________________
#
#PARAMETER_NAME    .UNIT     VALUE                         : DESCRIPTION
#_______________________________________________________________________________
SET                .         D7026_D                       : 
OTHER              .         Kedr.exe версия 2.1.2.32      : 
OTHER_10           .         TM.GRD = 0.00404*TM$.UE + 0.07: 
OTHER_11           .         MN.ATM = (6.33279e-006*TM.GRD + 0.02401)*(MN$.UE + 2.72*TM.GRD + -2018): 
OTHER_12           .         GK.MKR/H = GK$.UE / 43.5489 + 0: 
OTHER_13           .         RES.SM = 0.00476*CRES.UE - 1.51709: 
OTHER_14           .         PL.GSM3 = 0 + 0 * (PL.UE / 1) +  0 * (PL.UE / 1)^2: 
OTHER_15           .         Постоянная времени ГГП = 6 сек: 
OTHER_16           .         Постоянная времени ГК = 6 сек : 
OTHER_2            .         KedrData.dll версия 3.2.2.14  : 
OTHER_3            .         LasInf.dll версия 3.2.0.13    : 
OTHER_4            .         Драйвер версия 1.2.0.5        : 
OTHER_5            .         Прибор_ КСА-M1                : 
OTHER_6            .         Номер прибора_ 155+р204       : 
OTHER_7            .         Режим_ КСА-М1 + ГГП + Резистивиметр: 
OTHER_8            .         Форма_ 223\2                  : 
OTHER_9            .         Тарировки_                    : 
PROJECT_UPGRADE_TIME .         2021-03-18T21_24_50           : 
TLFamily_CRES      .                                       : 
TLFamily_DEPT      .         Measured Depth                : 
TLFamily_GK        .         Gamma Ray                     : 
TLFamily_GK$       .                                       : 
TLFamily_LM        .         Casing Collar locator         : 
TLFamily_METKA     .                                       : 
TLFamily_MN        .                                       : 
TLFamily_MN$       .                                       : 
TLFamily_PL        .                                       : 
TLFamily_PL_2      .                                       : 
TLFamily_RCOR      .                                       : 
TLFamily_RES       .         Mud Resistivity               : 
TLFamily_SPID      .         Spontaneous Potential         : 
TLFamily_STD       .                                       : 
TLFamily_TIME      .         Time                          : 
TLFamily_TM        .         Temperature                   : 
TLFamily_TM$       .         Temperature                   : 
TLFamily_VGD       .         Gas Volume                    : 
group              .         prim                          : 
~Curve Information
#_______________________________________________________________________________
#
#LOGNAME           .UNIT     LOG_ID                        : DESCRIPTION
#_______________________________________________________________________________
DEPT               .M                                      : 1 Глубина, м -    0.0 см 
CRES               .UE                                     : 9 Проводимость, усл.ед. -  222.0 см 
GK                 .MKR/H                                  : 16 Гамма-активность, мкр./ч -  106.0 см 
GK$                .UE                                     : 13 Гамма-активность, усл.ед. -  106.0 см 
LM                 .                                       : 11 Локатор муфт,  -   16.0 см 
METKA              .                                       : 3 Метки,  -    0.0 см 
MN                 .ATM                                    : 15 Давление, атм. -  160.0 см 
MN$                .UE                                     : 7 Давление, усл.ед. -  160.0 см 
PL                 .UE                                     : 10 Плотность, усл.ед. -  270.0 см 
PL_2               .GSM3                                   : 18 Плотность, г./см3 -  270.0 см 
RCOR               .CM/KM                                  : 5 Коррекция по ролику, см/км -    0.0 см 
RES                .SM                                     : 17 Проводимость,  -  222.0 см 
SPID               .M/H                                    : 2 Скорость, м/час -    0.0 см 
STD                .                                       : 12 Приток,  -  170.0 см 
TIME               .S                                      : 4 Время, сек -    0.0 см 
TM                 .GRD                                    : 14 Температура, °C -  180.0 см 
TM$                .UE                                     : 6 Температура, усл.ед. -  180.0 см 
VGD                .                                       : 8 Влагомер,  -  170.0 см 
~Ascii
# ...
2694.799926 1200       9.77       414        41         0          247.877    12044      14         0          0          4.1973     570        10788      17471.22   55.093     13620      6674      
2694.999926 1198       10.19      468        33         0          247.915    12046      14         0          0          4.1854     568        10782      17472.54   55.065     13613      6674      
2695.199926 1199       10.46      468        35         0          247.937    12047      14         0          0          4.1901     580        10773      17473.79   55.042     13607      6673      
2695.399925 1199       10.73      483        44         0          247.971    12049      14         0          0          4.1917     557        10767      17475.11   55.029     13604      6673      
2695.599925 1199       10.91      483        50         0          247.976    12049      14         0          0          4.1901     510        10760      17476.44   55.008     13598      6673      
2695.799925 1199       11.01      484        47         0          247.976    12049      14         0          0          4.1895     560        10753      17477.74   54.983     13592      6677      
2695.999924 1199       11.07      486        89         0          247.988    12050      14         0          0          4.1894     580        10746      17479      54.949     13584      6687      
2696.199924 1197       11.22      495        86         0          248.009    12051      14         0          0          4.1806     580        10737      17480.32   54.918     13576      6687      
2696.399924 1193       11.29      495        27         0          248.038    12052      14         0          0          4.1632     580        10731      17481.59   54.891     13570      6687      
2696.599923 1198       11.13      476        21         0          248.059    12053      14         0          0          4.1854     580        10726      17482.9    54.866     13563      6676      
2696.799923 1199       11.02      474        15         0          248.082    12054      14         0          0          4.1901     510        10721      17484.23   54.844     13558      6683      
2696.999923 1198       10.9       469        14         0          248.095    12055      14         0          0          4.1847     580        10719      17485.55   54.831     13555      6687      
2697.199923 1198       10.77      455        69         0          248.099    12055      14         0          0          4.1854     522        10713      17486.8    54.807     13549      6686      
2697.399922 1198       10.58      452        71         0          248.12     12056      14         0          0          4.1854     510        10709      17488.13   54.78      13542      6687      
2697.599922 1199       10.5       456        80         0          248.152    12058      14         0          0          4.1885     580        10705      17489.46   54.753     13535      6687      
2697.799922 1198       10.59      465        57         0          248.179    12059      14         0          0          4.1854     522        10700      17490.77   54.717     13526      6687      
2697.999921 1198       10.67      474        59         0          248.181    12059      14         0          0          4.1854     510        10693      17492.02   54.676     13516      6688      
2698.199921 1197       10.8       476        46         0          248.202    12060      14         0          0          4.1806     580        10687      17493.35   54.654     13511      6687      
2698.399921 1196       10.82      469        48         0          248.225    12061      14         0          0          4.1735     510        10683      17494.6    54.629     13505      6687      
2698.59992 1196       10.8       469        49         0          248.223    12061      14         0          0          4.1759     510        10680      17495.92   54.622     13503      6686      
2698.79992 1195       10.69      458        51         0          248.271    12063      14         0          0          4.1711     510        10678      17497.25   54.61      13500      6686      
2698.99992 1195       10.61      458        39         0          248.293    12064      14         0          0          4.1711     580        10676      17498.5    54.601     13498      6687      
2699.19992 1195       10.7       479        33         0          248.31     12065      14         0          0          4.1711     580        10671      17499.81   54.58      13492      6688      
2699.399919 1195       10.85      479        35         0          248.315    12065      14         0          0          4.1711     510        10668      17501.14   54.555     13486      6687      
2699.599919 1195       11.21      514        33         0          248.332    12066      14         0          0          4.1703     580        10665      17502.4    54.533     13481      6686      
2699.799919 1195       11.51      514        39         0          248.354    12067      14         0          0          4.1711     580        10665      17503.67   54.51      13475      6687      
2699.999918 1195       12.09      558        42         0          248.375    12068      14         0          0          4.1703     510        10665      17504.96   54.487     13470      6687      
2700.199918 1194       12.45      558        37         1          248.396    12069      14         0          0          4.1663     510        10660      17506.9    54.466     13464      6687      
2700.399918 1193       12.9       589        24         0          248.418    12070      14         0          0          4.1632     568        10658      17508.21   54.44      13458      6687      
2700.599917 1192       13.2       589        36         0          248.44     12071      14         0          0          4.1592     580        10655      17509.46   54.42      13453      6687      
2700.799917 1192       13.01      554        54         0          248.462    12072      14         0          0          4.1568     510        10652      17510.79   54.401     13448      6687      
2700.999917 1191       12.87      554        42         0          248.458    12072      14         0          0          4.1521     580        10648      17512.11   54.384     13444      6687      
2701.199917 1192       11.77      485        50         0          248.504    12074      14         0          0          4.1552     580        10643      17513.36   54.357     13437      6687      
2701.399916 1191       11.32      458        41         0          248.519    12075      14         0          0          4.1505     580        10641      17514.68   54.337     13432      6686      
2701.599916 1190       10.93      458        56         0          248.548    12076      14         0          0          4.1473     510        10637      17516.01   54.317     13428      6687      
2701.799916 1190       11.35      552        47         0          248.565    12077      14         0          0          4.1465     510        10635      17517.32   54.295     13422      6687      
2701.999915 1189       12.02      552        42         0          248.587    12078      14         0          0          4.1405     580        10634      17518.57   54.272     13416      6688      
2702.199915 1188       12.85      611        58         0          248.597    12078      14         0          0          4.1362     580        10633      17519.91   54.254     13412      6688      
2702.399915 1186       13.43      611        44         0          248.61     12079      14         0          0          4.1306     520        10630      17521.17   54.236     13407      6689      
2702.599915 1186       13.26      565        51         0          248.631    12080      14         0          0          4.1283     580        10624      17522.47   54.211     13401      6688      
2702.799914 1186       13.12      565        63         0          248.652    12081      14         0          0          4.1283     580        10615      17523.73   54.19      13396      6687      
