~Version
 VERS              .         2.0                           : CWLS LOG ASCII STANDARD - VERSION 2.0
 WRAP              .         NO                            : ONE LINE PER DEPTH STEP
 DLM               .         SPACE                         : DELIMITING CHARACTER(SPACE TAB OR COMMA)
~Well Information
#_______________________________________________________________________________
#
#PARAMETER_NAME    .UNIT     VALUE                         : DESCRIPTION
#_______________________________________________________________________________
STRT               .M        2667.4                        : First reference value
STOP               .M        2776.000109                   : Last reference value
STEP               .M        0.2000002                     : Step increment
NULL               .         -9999                         : Missing value
COMP               .                                       : Company
WELL               .         616                           : Well name
FLD                .                                       : Field
LOC                .                                       : Location
CNTY               .                                       : County
STAT               .                                       : State
CTRY               .                                       : Country
SRVC               .                                       : Service Company
DATE               .                                       : Date
API                .                                       : API number
PROJECT_UPGRADE_TIME .         2021-03-18T21_24_50           : 
group              .         Good                          : 
~Parameter Information Block
#_______________________________________________________________________________
#
#PARAMETER_NAME    .UNIT     VALUE                         : DESCRIPTION
#_______________________________________________________________________________
SET                .         D1801_D                       : 
OTHER              .         Программное обеспечение станции MONITOR-386EX 25/12/99 15_08_10   BGF V52 22/08/01 16_56_30   3.1_SNGF___BGF_N_092049: 
OTHER_10           .         Тарировки_                    : 
OTHER_11           .         TM.GRD = 0.00403*TM$.UE + -1.07: 
OTHER_12           .         MN.ATM = (9.34907e-006*TM.GRD + 0.02171)*(MN$.UE + -7.93*TM.GRD + -1787): 
OTHER_13           .         GK.MKR/H = LM. / 42.4676      : 
OTHER_14           .         GK.FLT = 0.1*GK.MKR/H[-1] + (1-0.1)*GK.MKR/H[0]: 
OTHER_2            .         Kedr.exe версия 3.4.2.51      : 
OTHER_3            .         KedrData.dll версия 3.4.2.24  : 
OTHER_4            .         Драйвер версия 2.1.1.3        : 
OTHER_5            .         Мнемоники версия 3.3 S        : 
OTHER_6            .         Прибор_ КСА-Т4                : 
OTHER_7            .         Номер прибора_ 03             : 
OTHER_8            .         Режим_ КСА-Т4                 : 
OTHER_9            .         Форма_ КВА.                   : 
PROJECT_UPGRADE_TIME .         2021-03-18T21_24_49           : 
TLFamily_DEPT      .         Measured Depth                : 
TLFamily_GK        .         Gamma Ray                     : 
TLFamily_GK$       .                                       : 
TLFamily_GK_2      .         Gamma Ray                     : 
TLFamily_LM        .         Casing Collar locator         : 
TLFamily_METKA     .                                       : 
TLFamily_MN        .                                       : 
TLFamily_MN$       .                                       : 
TLFamily_RCOR      .                                       : 
TLFamily_SPID      .         Spontaneous Potential         : 
TLFamily_TENS      .         Cable Tension                 : 
TLFamily_TIME      .         Time                          : 
TLFamily_TM        .         Temperature                   : 
TLFamily_TM$       .         Temperature                   : 
group              .         prim                          : 
~Curve Information
#_______________________________________________________________________________
#
#LOGNAME           .UNIT     LOG_ID                        : DESCRIPTION
#_______________________________________________________________________________
DEPT               .M                                      : 1 Глубина, м -    0.0 см 
GK                 .MKR/H                                  : 13 Гамма-активность, мкр./ч -  110.0 см 
GK$                .UE                                     : 10 Гамма-активность, усл.ед. -  110.0 см 
GK_2               .FLT                                    : 14 Гамма-активность фильтрованная, мкр./ч -  110.0 см 
LM                 .                                       : 9 Локатор муфт,  -   20.0 см 
METKA              .                                       : 3 Метки,  -    0.0 см 
MN                 .ATM                                    : 12 Давление, атм. -  160.0 см 
MN$                .UE                                     : 8 Давление, усл.ед. -  160.0 см 
RCOR               .CM/KM                                  : 5 Коррекция по ролику, см/км -    0.0 см 
SPID               .M/H                                    : 2 Скорость, м/час -    0.0 см 
TENS               .T                                      : 6 Натяжение кабеля, т -    0.0 см 
TIME               .S                                      : 4 Время, сек -    0.0 см 
TM                 .GRD                                    : 11 Температура, °C -  170.0 см 
TM$                .UE                                     : 7 Температура, усл.ед. -  170.0 см 
~Ascii
# ...
2750.600083 10.55      448        10.55      107        0          251.929    13541      -656       575        0.05       8255.01    49.243     12485     
2750.800083 10.88      462        10.84      104        0          251.935    13542      -656       577        0.07       8256.26    49.371     12516     
2751.000084 10.88      462        10.88      88         0          251.935    13542      -656       573        0.07       8257.58    49.484     12544     
2751.200084 12.1       514        12.01      110        0          251.972    13544      -656       584        0.07       8258.77    49.578     12568     
2751.400084 12.1       514        12.1       80         0          251.966    13544      -656       583        0.07       8260.02    49.703     12599     
2751.600084 12.79      543        12.7       82         0          251.974    13545      -656       582        0.07       8261.2     49.854     12636     
2751.800084 12.79      543        12.78      79         0          252.006    13547      -656       581        0.07       8262.45    50.04      12682     
2752.000085 11.91      506        11.96      85         0          252.012    13548      -656       581        0.07       8263.7     50.155     12711     
2752.200085 11.91      506        11.92      100        0          252.038    13549      -656       586        0.07       8264.95    22.698     5898      
2752.400085 11.14      473        11.21      114        0          252.051    13550      -656       588        0.07       8266.18    50.347     12758     
2752.600085 11.14      473        11.14      123        0          252.053    13551      -656       578        0.07       8267.45    50.506     12798     
2752.800085 11.18      475        11.18      90         0          252.053    13551      -656       578        0.07       8268.66    50.683     12842     
2753.000086 11.18      475        11.18      84         0          252.085    13553      -656       574        0.07       8269.9     50.814     12875     
2753.200086 11.04      469        11.05      121        0          252.085    13553      -656       578        0.07       8271.16    50.943     12906     
2753.400086 11.04      469        11.04      96         0          252.09     13554      -656       579        0.07       8272.41    51.054     12934     
2753.600086 9.96       423        10.08      124        0          252.1      13555      -656       579        0.07       8273.66    51.215     12974     
2753.800086 9.96       423        9.96       111        0          252.11     13556      -656       579        0.07       8274.84    51.378     13014     
2754.000087 10.17      432        10.16      103        0          252.142    13558      -656       578        0.07       8276.15    51.582     13065     
2754.200087 10.17      432        10.17      106        0          252.153    13559      -656       588        0.07       8277.35    51.757     13108     
2754.400087 11.54      490        11.41      100        0          252.169    13560      -656       585        0.07       8278.59    51.86      13134     
2754.600087 11.54      490        11.53      122        0          252.173    13560      -656       584        0.07       8279.84    51.961     13159     
2754.800087 12.83      545        12.66      108        0          252.172    13561      -656       583        0.07       8281.08    52.075     13187     
2755.000088 12.83      545        12.83      113        0          252.182    13562      -656       577        0.07       8282.28    52.297     13243     
2755.200088 11.56      491        11.66      144        0          252.185    13563      -656       580        0.07       8283.5     52.528     13300     
2755.400088 11.56      491        11.56      117        0          252.193    13564      -656       580        0.07       8284.72    52.734     13351     
2755.600088 10.34      439        10.47      75         0          252.207    13565      -656       567        0.07       8286.05    52.909     13394     
2755.800088 10.34      439        10.34      102        0          252.224    13566      -656       571        0.07       8287.29    53.066     13433     
2756.000089 11.99      509        11.76      85         0          252.227    13567      -656       578        0.07       8288.55    53.214     13470     
2756.200089 11.99      509        11.98      70         0          252.261    13569      -656       588        0.07       8289.76    53.367     13508     
2756.400089 11.61      493        11.64      54         0          252.251    13569      -656       585        0.07       8290.96    53.515     13545     
2756.600089 11.61      493        11.61      59         0          252.257    13570      -656       584        0.07       8292.23    53.71      13593     
2756.800089 9.96       423        10.16      79         0          252.279    13572      -656       584        0.07       8293.42    53.947     13652     
2757.00009 9.96       423        9.97       98         0          252.272    13572      -656       585        0.07       8294.73    54.165     13706     
2757.20009 9.18       390        9.32       97         0          252.301    13574      -656       583        0.07       8295.98    54.357     13754     
2757.40009 9.18       390        9.19       175        0          252.303    13575      -656       582        0.07       8297.22    54.578     13808     
2757.60009 8.9        378        38.51      135        0          252.282    13575      -656       582        0.07       8298.43    54.81      13866     
2757.80009 8.9        378        10.03      121        0          252.304    13576      -656       575        0.07       8299.64    54.964     13904     
2758.000091 9.14       388        9.13       89         0          252.308    13577      -656       580        0.07       8300.88    55.185     13959     
2758.200091 9.14       388        9.14       169        0          252.312    13578      -656       580        0.07       8302.14    55.433     14021     
2758.400091 8.95       380        8.99       143        0          252.321    13579      -656       580        0.07       8303.34    55.686     14083     
2758.600091 8.95       380        8.95       216        0          252.345    13581      -656       574        0.07       8304.6     55.938     14146     
2758.800091 8.48       360        8.53       226        0          252.33     13581      -656       579        0.07       8305.86    56.163     14202     
2759.000092 8.48       360        8.48       150        0          252.361    13583      -656       588        0.07       8307.12    56.371     14253     
2759.200092 7.82       332        7.96       137        0          252.37     13584      -656       586        0.07       8308.43    56.549     14297     
2759.400092 7.82       332        7.82       5999       0          252.377    13585      -656       584        0.07       8309.53    56.715     14339     
2759.600092 7.21       306        7.38       2398       0          252.373    13585      -656       587        0.07       8310.8     56.849     14372     
2759.800092 7.21       306        7.21       642        0          252.387    13586      -656       594        0.07       8312.05    57.04      14419     
2760.000093 8.15       346        7.98       229        2          252.395    13588      -656       584        0.07       8313.3     57.272     14477     
2760.200093 8.15       346        8.14       179        0          252.409    13589      -662       571        0.05       8314.89    57.549     14546     
2760.400093 9.47       402        9.07       171        0          252.412    13590      -662       568        0.05       8316.15    57.812     14611     
2760.600093 9.47       402        9.45       110        0          252.418    13591      -662       574        0.06       8317.37    58.063     14673     
2760.800093 9.7        412        9.66       123        0          252.419    13592      -662       576        0.07       8318.61    58.281     14727     
