~Version
 VERS              .         2.0                           : CWLS LOG ASCII STANDARD - VERSION 2.0
 WRAP              .         NO                            : ONE LINE PER DEPTH STEP
 DLM               .         SPACE                         : DELIMITING CHARACTER(SPACE TAB OR COMMA)
~Well Information
#_______________________________________________________________________________
#
#PARAMETER_NAME    .UNIT     VALUE                         : DESCRIPTION
#_______________________________________________________________________________
STRT               .M        2298.8                        : First reference value
STOP               .M        2799.8                        : Last reference value
STEP               .M        0.2                           : Step increment
NULL               .         -9999                         : Missing value
COMP               .                                       : Company
WELL               .         616                           : Well name
FLD                .                                       : Field
LOC                .                                       : Location
CNTY               .                                       : County
STAT               .                                       : State
CTRY               .                                       : Country
SRVC               .                                       : Service Company
DATE               .                                       : Date
API                .                                       : API number
PROJECT_UPGRADE_TIME .         2021-03-18T21_24_50           : 
group              .         Good                          : 
~Parameter Information Block
#_______________________________________________________________________________
#
#PARAMETER_NAME    .UNIT     VALUE                         : DESCRIPTION
#_______________________________________________________________________________
SET                .         D2659_D                       : 
OTHER              .         Программное обеспечение станции MONITOR-386EX 25/12/99 15_08_10   BGF V50 26/12/00 07_26_01   3.1_SNGF___BGF_N_092085: 
OTHER_10           .         Тарировки_                    : 
OTHER_11           .         <_techsia_sc_> Постоянная времени фильтра ПС  0.5 сек, kf=0.139292: 
OTHER_2            .         Kedr.exe версия 3.3.2.32      : 
OTHER_3            .         KedrData.dll версия 3.3.2.17  : 
OTHER_4            .         Драйвер версия 2.1.0.7        : 
OTHER_5            .         Мнемоники версия 3.3 S        : 
OTHER_6            .         Прибор_ К1a-723м              : 
OTHER_7            .         Номер прибора_ 348/72         : 
OTHER_8            .         Режим_ K1A-723M               : 
OTHER_9            .         Форма_ БКЗ                    : 
PROJECT_UPGRADE_TIME .         2021-03-18T21_24_49           : 
TLFamily_BK        .         Lateral Log Resistivity       : 
TLFamily_DEPT      .         Measured Depth                : 
TLFamily_GZ1       .         Extra Shallow Resistivity     : 
TLFamily_GZ2       .         Shallow Resistivity           : 
TLFamily_GZ3       .         Medium Resistivity            : 
TLFamily_GZ4       .         Deep Resistivity              : 
TLFamily_GZ5       .         Extra Deep Resistivity        : 
TLFamily_GZ6       .         Medium Resistivity Inverted   : 
TLFamily_IBK       .                                       : 
TLFamily_IK        .         Conductivity                  : 
TLFamily_IPR       .                                       : 
TLFamily_METKA     .                                       : 
TLFamily_PS        .         Spontaneous Potential         : 
TLFamily_PZ        .         Potential Resistivity         : 
TLFamily_RCOR      .                                       : 
TLFamily_RES       .         Mud Resistivity               : 
TLFamily_SPID      .         Spontaneous Potential         : 
TLFamily_TENS      .         Cable Tension                 : 
TLFamily_TIME      .         Time                          : 
TLFamily_UBK       .         Uranium Concentration         : 
group              .         prim                          : 
~Curve Information
#_______________________________________________________________________________
#
#LOGNAME           .UNIT     LOG_ID                        : DESCRIPTION
#_______________________________________________________________________________
DEPT               .M                                      : 1 Глубина, м -    0.0 см 
BK                 .OHMM                                   : 20 БК, Ом*м - 1768.0 см 
GZ1                .OHMM                                   : 12 A0.4M0.1N, Ом*м - 1295.0 см 
GZ2                .OHMM                                   : 11 A1.0M0.1N, Ом*м - 1355.0 см 
GZ3                .OHMM                                   : 9 A2.0M0.5N, Ом*м - 1475.0 см 
GZ4                .OHMM                                   : 8 A4.0M0.5N, Ом*м - 1025.0 см 
GZ5                .OHMM                                   : 7 A8.0M1.0N, Ом*м - 1450.0 см 
GZ6                .OHMM                                   : 10 N0.5M2.0A, Ом*м - 1025.0 см 
IBK                .A                                      : 18 Ток БК, А - 1768.0 см 
IK                 .MSM/M                                  : 14 ИК, мСм/м - 1961.0 см 
IPR                .MA                                     : 17 Ток прибора, мA -    0.0 см 
METKA              .                                       : 3 Метки,  -    0.0 см 
PS                 .mV                                     : 16 ПС, мВ - 1210.0 см 
PZ                 .OHMM                                   : 13 N11M0.5A, Ом*м - 1225.0 см 
RCOR               .CM/KM                                  : 5 Коррекция по ролику, см/км -    0.0 см 
RES                .OHMM                                   : 15 Резистивиметр, Ом*м -  600.0 см 
SPID               .M/H                                    : 2 Скорость, м/час -    0.0 см 
TENS               .T                                      : 6 Натяжение кабеля, т -    0.0 см 
TIME               .S                                      : 4 Время, сек -    0.0 см 
UBK                .V                                      : 19 Напр. БК, В - 1768.0 см 
~Ascii
# ...
2565.2     4.92       6.2        5.8        5.6        6.2        6.7        5.6        0.028      172.6      430        0          556.87     6.7        -336       2.757      -1810      0          28898.5    0.58      
2565.4     5.35       6.1        5.7        5.6        6.4        6.8        5.7        0.025      172.4      428        0          556.4      6.6        -336       2.756      -1826      0          28898.09   0.573     
2565.6     5.83       6.4        5.7        5.8        6.3        6.9        5.6        0.023      172.9      431.19     0          555.78     6.4        -336       2.756      -1843      0          28897.74   0.565     
2565.8     5.49       7.3        6.1        5.8        6.3        6.8        5.5        0.024      172.9      429.333    0          556.41     6.2        -336       2.755      -1831      0          28897.32   0.561     
2566       5.28       7.1        6          5.7        6.2        6.8        5.6        0.025      176.2      430.667    0          556.99     6          -336       2.755      -1807      0          28896.91   0.565     
2566.2     5.37       6.7        5.8        5.4        5.7        6.6        5.3        0.025      176.6      430        0          557.2      5.9        -336       2.758      -1780      0          28896.55   0.567     
2566.4     4.72       6.6        5.8        5.3        5.7        6.3        5.5        0.029      180.1      432        0          556.75     6.1        -336       2.758      -1773      0          28896.14   0.567     
2566.6     4.45       6.3        5.7        5          5.4        6          5.7        0.03       184.1      430.699    0          557.24     6.4        -336       2.759      -1796      0          28895.73   0.561     
2566.8     4.55       5.5        5.4        5          5.4        5.9        6          0.029      187.2      430        0          557.22     6.4        -336       2.754      -1824      0          28895.35   0.553     
2567       5.29       5.2        5.1        5          5.2        5.8        6.2        0.024      187.1      428        0          556.22     6.2        -336       2.756      -1846      0          28894.97   0.545     
2567.2     5.87       5.9        5.4        5          5.2        5.6        6.5        0.022      184.9      428.8      0          555.04     5.9        -336       2.755      -1836      0          28894.53   0.541     
2567.4     5.27       6.9        5.4        4.9        5          5.4        6.7        0.024      184.2      430        0          556.11     5.7        -336       2.757      -1817      0          28894.14   0.539     
2567.6     4.97       6.7        5.3        5          4.7        5.1        6.9        0.026      184.2      431.488    0          556.82     5.6        -336       2.756      -1794      0          28893.81   0.543     
2567.8     4.49       6.3        5.4        4.9        4.7        4.9        6.9        0.029      186.3      429.333    0          557.52     5.8        -336       2.758      -1796      0          28893.36   0.555     
2568       4.37       5.4        5.1        4.7        4.4        4.9        6.7        0.031      185.9      430        0          557.83     6.2        -336       2.754      -1801      0          28892.96   0.564     
2568.2     4.35       5.1        5.1        4.5        4.4        4.8        6.3        0.031      186.4      430.5      0          557.91     6.8        -336       2.758      -1810      0          28892.58   0.574     
2568.4     4.44       4.9        4.6        4.5        4.4        4.7        6.1        0.032      180.7      428        0          557.4      7.3        -336       2.756      -1827      0          28892.19   0.591     
2568.6     5.21       4.8        4.4        4.5        4.3        4.8        5.6        0.028      172.7      432        0          554.56     8          -336       2.755      -1857      0          28891.76   0.613     
2568.8     5.59       5.5        4.6        4.3        4.4        4.8        5.6        0.027      161.8      430        0          553.21     9.2        -336       2.754      -1832      0          28891.37   0.643     
2569       5.49       6.4        4.8        4.3        4.3        4.9        5.6        0.03       152.7      429.2      0          551.26     11.1       -336       2.755      -1791      0          28891.04   0.684     
2569.2     5.4        6.5        4.6        4.3        4.3        5.2        5.6        0.032      144.3      428        0          546.62     13.4       -336       2.756      -1792      0          28890.62   0.728     
2569.4     7.07       6.4        4.7        4.5        4.5        5.8        6.2        0.026      136.7      430        0          538.22     15.7       -336       2.759      -1793      0          28890.22   0.781     
2569.6     8.96       7.9        5.9        5.1        5.5        7.1        7.4        0.022      129.6      430        0          530.78     17.1       -336       2.759      -1796      0          28889.87   0.83      
2569.8     10.13      11.4       7.9        6.8        7.3        8.8        9.4        0.021      122.6      429.344    1          528.95     18.8       -336       2.757      -1801      0          28889.43   0.892     
2570       16.02      13.7       10.2       9.1        9.8        10.3       11.2       0.014      117.8      429.6      0          528.2      18.5       -333       2.757      -1813      0          28888.94   0.974     
2570.2     13.03      18.5       13.6       10.7       11.5       11         12         0.019      114.5      430        0          524.77     19.6       -333       2.757      -1830      0          28888.55   1.05      
2570.4     14.31      20.6       15.8       10.6       10.9       11.1       11         0.019      114.1      430        0          520.87     20.6       -333       2.758      -1844      0          28888.16   1.13      
2570.6     11.91      22.6       16.9       9.4        8.9        10.8       10.3       0.024      119.1      428        0          517.12     21.7       -333       2.759      -1832      0          28887.78   1.187     
2570.8     8.26       19.4       16.1       8.2        7.6        9.3        10.8       0.035      128.1      428        0          511.91     23.1       -333       2.757      -1810      0          28887.37   1.235     
2571       21.21      17.4       17         7.4        6.9        7.7        10.3       0.014      136.3      430        0          502.57     21.4       -333       2.758      -1791      0          28887.03   1.263     
2571.2     30.54      23.7       23.6       7.3        6.3        6.5        8.7        0.01       143.2      428.5      0          493.88     18.6       -333       2.757      -1793      0          28886.6    1.265     
2571.4     12.29      28.8       25.1       6.6        5          5.4        7.1        0.024      150.8      428.667    0          487.78     17.4       -333       2.759      -1795      0          28886.19   1.254     
2571.6     10.93      26.9       21.8       5.4        3.6        4.4        6.3        0.027      160.5      430.341    0          483.37     16.9       -333       2.758      -1799      0          28885.78   1.236     
2571.8     10.92      22.7       20.7       4.9        3          3.4        6.1        0.027      170.1      429.992    0          481.82     16.6       -333       2.759      -1805      0          28885.43   1.23      
2572       10.84      19.9       22.7       4.8        2.6        2.8        6          0.027      175.3      428.333    0          480.99     16.4       -333       2.755      -1817      0          28885.01   1.249     
2572.2     10.84      19.4       23.1       5.2        2.4        2.4        6.2        0.027      176.6      428        0          480.97     16.4       -333       2.758      -1797      0          28884.62   1.234     
2572.4     10.72      19         20         5.8        2.3        2.5        6.4        0.026      176.6      431.5      0          481.65     16.4       -333       2.757      -1775      0          28884.27   1.194     
