~Version
 VERS              .         2.0                           : CWLS LOG ASCII STANDARD - VERSION 2.0
 WRAP              .         NO                            : ONE LINE PER DEPTH STEP
 DLM               .         SPACE                         : DELIMITING CHARACTER(SPACE TAB OR COMMA)
~Well Information
#_______________________________________________________________________________
#
#PARAMETER_NAME    .UNIT     VALUE                         : DESCRIPTION
#_______________________________________________________________________________
STRT               .M        47.8                          : First reference value
STOP               .M        2693.8                        : Last reference value
STEP               .M        0.2                           : Step increment
NULL               .         -9999                         : Missing value
COMP               .                                       : Company
WELL               .         616                           : Well name
FLD                .                                       : Field
LOC                .                                       : Location
CNTY               .                                       : County
STAT               .                                       : State
CTRY               .                                       : Country
SRVC               .                                       : Service Company
DATE               .                                       : Date
API                .                                       : API number
PROJECT_UPGRADE_TIME .         2021-03-18T21_24_50           : 
group              .         Good                          : 
~Parameter Information Block
#_______________________________________________________________________________
#
#PARAMETER_NAME    .UNIT     VALUE                         : DESCRIPTION
#_______________________________________________________________________________
SET                .         D1172_D                       : 
OTHER              .         Программное обеспечение станции MONITOR-386EX 25/12/99 15_08_10   BGF V52 22/08/01 16_56_30   3.2_BGF_N_3070031: 
OTHER_10           .         Тарировки_                    : 
OTHER_11           .         TM.GRD = 0.00403*TM$.UE + -1.19: 
OTHER_12           .         MN.ATM = (7.1e-006*TM.GRD + 0.02017)*(MN$.UE + -3.03*TM.GRD + -1833): 
OTHER_13           .         Id error                      : 
OTHER_2            .         Kedr.exe версия 3.4.2.51      : 
OTHER_3            .         KedrData.dll версия 3.4.2.24  : 
OTHER_4            .         Драйвер версия 2.1.1.8        : 
OTHER_5            .         Мнемоники версия 3.3 S        : 
OTHER_6            .         Прибор_ КСА-М1                : 
OTHER_7            .         Номер прибора_ 265            : 
OTHER_8            .         Режим_ КСА-М1                 : 
OTHER_9            .         Форма_ ТЕРМОМЕТР              : 
PROJECT_UPGRADE_TIME .         2021-03-18T21_24_49           : 
TLFamily_DEPT      .         Measured Depth                : 
TLFamily_GK        .         Gamma Ray                     : 
TLFamily_GK$       .                                       : 
TLFamily_LM        .         Casing Collar locator         : 
TLFamily_METKA     .                                       : 
TLFamily_MN        .                                       : 
TLFamily_MN$       .                                       : 
TLFamily_RCOR      .                                       : 
TLFamily_SPID      .         Spontaneous Potential         : 
TLFamily_STD       .                                       : 
TLFamily_TENS      .         Cable Tension                 : 
TLFamily_TIME      .         Time                          : 
TLFamily_TM        .         Temperature                   : 
TLFamily_TM$       .         Temperature                   : 
TLFamily_VGD       .         Gas Volume                    : 
group              .         prim                          : 
~Curve Information
#_______________________________________________________________________________
#
#LOGNAME           .UNIT     LOG_ID                        : DESCRIPTION
#_______________________________________________________________________________
DEPT               .M                                      : 1 Глубина, м -    0.0 см 
GK                 .MKR/H                                  : 15 Гамма-активность, мкр./ч -  110.0 см 
GK$                .UE                                     : 12 Гамма-активность, усл.ед. -  110.0 см 
LM                 .                                       : 10 Локатор муфт,  -   20.0 см 
METKA              .                                       : 3 Метки,  -    0.0 см 
MN                 .ATM                                    : 14 Давление, атм. -  160.0 см 
MN$                .UE                                     : 8 Давление, усл.ед. -  160.0 см 
RCOR               .CM/KM                                  : 5 Коррекция по ролику, см/км -    0.0 см 
SPID               .M/H                                    : 2 Скорость, м/час -    0.0 см 
STD                .                                       : 11 Приток,  -  170.0 см 
TENS               .T                                      : 6 Натяжение кабеля, т -    0.0 см 
TIME               .S                                      : 4 Время, сек -    0.0 см 
TM                 .GRD                                    : 13 Температура, °C -  180.0 см 
TM$                .UE                                     : 7 Температура, усл.ед. -  180.0 см 
VGD                .                                       : 9 Влагомер,  -  170.0 см 
~Ascii
# ...
2331.2     8.31       351        1          0          221.089    12740      -1400      -1780      26725      0          29899.25   74.393     18755      6605      
2331.4     8.36       353        1          0          221.11     12741      -1400      -1780      26728      0          29898.85   74.4       18757      6604      
2331.6     8.41       353        1          0          221.137    12742      -1400      -1779      26730      0          29898.45   74.405     18758      6604      
2331.8     8.48       353        1          0          221.173    12744      -1400      -1783      26732      0          29898.01   74.414     18760      6604      
2332       8.58       353        1          0          221.174    12744      -1400      -1779      26735      0          29897.6    74.422     18762      6605      
2332.2     8.73       353        1          0          221.194    12745      -1400      -1775      26738      0          29897.21   74.429     18764      6605      
2332.4     8.97       364        1          0          221.231    12747      -1400      -1774      26742      0          29896.82   74.433     18765      6605      
2332.6     9.19       393        1          0          221.235    12747      -1400      -1775      26746      0          29896.42   74.44      18767      6605      
2332.8     9.19       393        1          0          221.252    12748      -1400      -1777      26749      0          29896.01   74.448     18769      6605      
2333       9.2        393        1          0          221.272    12749      -1400      -1776      26753      0          29895.61   74.459     18771      6606      
2333.2     9.2        393        1          0          221.292    12750      -1400      -1774      26755      0          29895.21   74.464     18773      6605      
2333.4     9.2        393        1          0          221.313    12751      -1400      -1773      26757      0          29894.81   74.471     18774      6605      
2333.6     9.2        393        1          0          221.333    12752      -1400      -1771      26760      0          29894.4    74.479     18776      6604      
2333.8     9.2        393        1          0          221.352    12753      -1400      -1770      26764      0          29893.99   74.487     18778      6605      
2334       9.21       393        1          0          221.384    12754      -1400      -1775      26766      0          29893.57   74.492     18780      6605      
2334.2     9.22       393        1          0          221.412    12756      -1400      -1778      26771      0          29893.16   74.498     18781      6604      
2334.4     9.23       393        1          0          221.432    12756      -1400      -1777      26775      0          29892.77   74.508     18784      6605      
2334.6     9.25       393        1          0          221.452    12757      -1400      -1776      26778      0          29892.37   74.515     18785      6604      
2334.8     9.28       393        1          0          221.472    12758      -1400      -1781      26779      0          29891.97   74.521     18787      6604      
2335       9.32       403        1          0          221.492    12759      -1400      -1780      26782      0          29891.56   74.529     18789      6604      
2335.2     9.27       406        1          0          221.511    12760      -1400      -1779      26785      0          29891.18   74.536     18791      6604      
2335.4     9.16       406        1          0          221.531    12761      -1400      -1783      26789      0          29890.78   74.543     18792      6604      
2335.6     9          406        1          0          221.552    12762      -1400      -1784      26795      0          29890.36   74.549     18794      6604      
2335.8     8.76       406        1          0          221.573    12763      -1400      -1777      26799      0          29889.97   74.559     18796      6604      
2336       8.41       378        1          0          221.592    12764      -1400      -1768      26802      0          29889.54   74.564     18797      6604      
2336.2     8.19       352        1          0          221.611    12765      -1400      -1769      26805      0          29889.13   74.571     18799      6605      
2336.4     8.17       352        1          0          221.632    12766      -1400      -1768      26807      0          29888.73   74.579     18801      6604      
2336.6     8.13       352        1          0          221.672    12768      -1400      -1770      26808      0          29888.32   74.586     18803      6604      
2336.8     8.08       352        1          0          221.691    12769      -1400      -1774      26810      0          29887.93   74.594     18805      6604      
2337       8.01       352        1          0          221.693    12769      -1400      -1771      26813      0          29887.53   74.601     18807      6604      
2337.2     7.9        344        1          0          221.71     12770      -1400      -1765      26817      0          29887.13   74.609     18809      6604      
2337.4     7.81       325        1          0          221.73     12771      -1400      -1766      26821      0          29886.74   74.621     18812      6604      
2337.6     7.91       325        1          0          221.751    12772      -1400      -1769      26825      0          29886.33   74.629     18814      6604      
2337.8     8.06       325        61         0          221.771    12773      -1400      -1771      26828      0          29885.92   74.637     18816      6605      
2338       8.27       325        189        0          221.806    12774      -1400      -1771      26831      0          29885.52   74.645     18818      6605      
2338.2     8.61       325        398        0          221.818    12775      -1400      -1774      26832      0          29885.1    74.649     18819      6604      
2338.4     9.07       325        730        0          221.83     12776      -1400      -1772      26834      0          29884.68   74.656     18820      6604      
2338.6     9.79       410        1260       0          221.85     12777      -1400      -1770      26836      0          29884.28   74.666     18823      6604      
2338.8     9.89       419        2143       0          221.87     12778      -1400      -1769      26842      0          29883.89   74.675     18825      6604      
2339       9.93       419        1          0          221.898    12779      -1400      -1773      26846      0          29883.49   74.685     18828      6605      
2339.2     10         419        1          0          221.922    12780      -1400      -1771      26851      0          29883.06   74.693     18829      6604      
2339.4     10.1       419        1          0          221.937    12781      -1400      -1769      26855      0          29882.68   74.698     18831      6605      
2339.6     10.24      419        1          0          221.963    12782      -1400      -1773      26857      0          29882.28   74.709     18833      6604      
2339.8     10.45      442        1          2          221.97     12782      -1400      -1771      26860      0          29881.86   74.72      18836      6604      
2340       10.52      452        1          0          221.99     12783      -1400      -1769      26862      0          29881.4    74.727     18838      6605      
2340.2     10.49      452        1          0          222.01     12784      -1400      -1767      26867      0          29880.98   74.738     18841      6604      
2340.4     10.44      452        1          0          222.032    12785      -1400      -1771      26869      0          29880.59   74.745     18842      6604      
2340.6     10.38      452        1          0          222.067    12787      -1400      -1769      26872      0          29880.15   74.752     18844      6604      
2340.8     10.29      452        1          0          222.069    12787      -1400      -1773      26876      0          29879.76   74.76      18846      6604      
