~Version
 VERS              .         2.0                           : CWLS LOG ASCII STANDARD - VERSION 2.0
 WRAP              .         NO                            : ONE LINE PER DEPTH STEP
 DLM               .         SPACE                         : DELIMITING CHARACTER(SPACE TAB OR COMMA)
~Well Information
#_______________________________________________________________________________
#
#PARAMETER_NAME    .UNIT     VALUE                         : DESCRIPTION
#_______________________________________________________________________________
STRT               .M        2298.8                        : First reference value
STOP               .M        2799.8                        : Last reference value
STEP               .M        0.2                           : Step increment
NULL               .         -9999                         : Missing value
COMP               .                                       : Company
WELL               .         616                           : Well name
FLD                .                                       : Field
LOC                .                                       : Location
CNTY               .                                       : County
STAT               .                                       : State
CTRY               .                                       : Country
SRVC               .                                       : Service Company
DATE               .                                       : Date
API                .                                       : API number
PROJECT_UPGRADE_TIME .         2021-03-18T21_24_50           : 
group              .         Good                          : 
~Parameter Information Block
#_______________________________________________________________________________
#
#PARAMETER_NAME    .UNIT     VALUE                         : DESCRIPTION
#_______________________________________________________________________________
SET                .         D2659_D                       : 
OTHER              .         Программное обеспечение станции MONITOR-386EX 25/12/99 15_08_10   BGF V50 26/12/00 07_26_01   3.1_SNGF___BGF_N_092085: 
OTHER_10           .         Тарировки_                    : 
OTHER_11           .         <_techsia_sc_> Постоянная времени фильтра ПС  0.5 сек, kf=0.139292: 
OTHER_2            .         Kedr.exe версия 3.3.2.32      : 
OTHER_3            .         KedrData.dll версия 3.3.2.17  : 
OTHER_4            .         Драйвер версия 2.1.0.7        : 
OTHER_5            .         Мнемоники версия 3.3 S        : 
OTHER_6            .         Прибор_ К1a-723м              : 
OTHER_7            .         Номер прибора_ 348/72         : 
OTHER_8            .         Режим_ K1A-723M               : 
OTHER_9            .         Форма_ БКЗ                    : 
PROJECT_UPGRADE_TIME .         2021-03-18T21_24_49           : 
TLFamily_BK        .         Lateral Log Resistivity       : 
TLFamily_DEPT      .         Measured Depth                : 
TLFamily_GZ1       .         Extra Shallow Resistivity     : 
TLFamily_GZ2       .         Shallow Resistivity           : 
TLFamily_GZ3       .         Medium Resistivity            : 
TLFamily_GZ4       .         Deep Resistivity              : 
TLFamily_GZ5       .         Extra Deep Resistivity        : 
TLFamily_GZ6       .         Medium Resistivity Inverted   : 
TLFamily_IBK       .                                       : 
TLFamily_IK        .         Conductivity                  : 
TLFamily_IPR       .                                       : 
TLFamily_METKA     .                                       : 
TLFamily_PS        .         Spontaneous Potential         : 
TLFamily_PZ        .         Potential Resistivity         : 
TLFamily_RCOR      .                                       : 
TLFamily_RES       .         Mud Resistivity               : 
TLFamily_SPID      .         Spontaneous Potential         : 
TLFamily_TENS      .         Cable Tension                 : 
TLFamily_TIME      .         Time                          : 
TLFamily_UBK       .         Uranium Concentration         : 
group              .         prim                          : 
~Curve Information
#_______________________________________________________________________________
#
#LOGNAME           .UNIT     LOG_ID                        : DESCRIPTION
#_______________________________________________________________________________
DEPT               .M                                      : 1 Глубина, м -    0.0 см 
BK                 .OHMM                                   : 20 БК, Ом*м - 1768.0 см 
GZ1                .OHMM                                   : 12 A0.4M0.1N, Ом*м - 1295.0 см 
GZ2                .OHMM                                   : 11 A1.0M0.1N, Ом*м - 1355.0 см 
GZ3                .OHMM                                   : 9 A2.0M0.5N, Ом*м - 1475.0 см 
GZ4                .OHMM                                   : 8 A4.0M0.5N, Ом*м - 1025.0 см 
GZ5                .OHMM                                   : 7 A8.0M1.0N, Ом*м - 1450.0 см 
GZ6                .OHMM                                   : 10 N0.5M2.0A, Ом*м - 1025.0 см 
IBK                .A                                      : 18 Ток БК, А - 1768.0 см 
IK                 .MSM/M                                  : 14 ИК, мСм/м - 1961.0 см 
IPR                .MA                                     : 17 Ток прибора, мA -    0.0 см 
METKA              .                                       : 3 Метки,  -    0.0 см 
PS                 .mV                                     : 16 ПС, мВ - 1210.0 см 
PZ                 .OHMM                                   : 13 N11M0.5A, Ом*м - 1225.0 см 
RCOR               .CM/KM                                  : 5 Коррекция по ролику, см/км -    0.0 см 
RES                .OHMM                                   : 15 Резистивиметр, Ом*м -  600.0 см 
SPID               .M/H                                    : 2 Скорость, м/час -    0.0 см 
TENS               .T                                      : 6 Натяжение кабеля, т -    0.0 см 
TIME               .S                                      : 4 Время, сек -    0.0 см 
UBK                .V                                      : 19 Напр. БК, В - 1768.0 см 
~Ascii
# ...
2535.6     4.24       5.6        4.9        4.8        4.5        5.3        6.4        0.032      180.2      431.984    0          555.64     7.6        -341       2.757      -1836      0          28957.09   0.576     
2535.8     5.2        5          4.4        4.8        4.6        5          7.2        0.026      180.2      429.333    0          553.64     7.5        -341       2.756      -1840      0          28956.68   0.577     
2536       8.9        6.2        5.2        5.2        5.2        4.9        7.8        0.016      176.6      430        0          551.78     6.8        -341       2.758      -1825      0          28956.3    0.582     
2536.2     7.05       8.6        6.1        5.8        5.4        4.9        7.7        0.02       170.2      430        0          551.91     6.6        -341       2.758      -1798      0          28955.89   0.591     
2536.4     5.86       9.7        6.1        5.6        5          4.7        7.6        0.024      167.8      430        0          553.91     6.6        -341       2.755      -1787      0          28955.51   0.595     
2536.6     4.32       8.3        5.6        4.8        4.7        4.4        8.3        0.033      167.3      431.488    0          554.98     6.9        -341       2.755      -1785      0          28955.19   0.602     
2536.8     4.57       6          5.3        4.4        4.4        4.2        9.9        0.032      171.6      429.5      0          554.69     7.1        -341       2.756      -1782      0          28954.73   0.616     
2537       5.95       5.5        5.8        4.4        4.5        4.2        11.8       0.025      170.2      429.5      0          553.87     7.2        -341       2.759      -1775      0          28954.34   0.622     
2537.2     5.74       6.6        6.2        4.7        4.5        4.1        13.6       0.026      165.3      428        0          554.26     7.4        -341       2.756      -1786      0          28953.93   0.621     
2537.4     5.85       7.2        6.1        4.9        4.3        4.3        15.4       0.026      157.4      430        0          554.75     7.6        -341       2.756      -1819      0          28953.53   0.63      
2537.6     5.68       7.2        5.5        4.7        3.9        4.2        17.6       0.027      151.4      431.317    0          555.3      8.1        -341       2.757      -1844      0          28953.11   0.657     
2537.8     5.29       7          5.3        4.5        3.6        4          21.4       0.032      144.6      428        0          556.37     9.6        -341       2.752      -1839      0          28952.7    0.713     
2538       5.28       6.8        5.3        4.4        3.1        4          28.2       0.035      136.9      432        0          554.23     13.3       -341       2.759      -1824      0          28952.38   0.78      
2538.2     5.23       6.3        5          4.2        2.5        4.2        38.4       0.039      126.3      428.8      0          553.01     21.1       -341       2.761      -1796      0          28951.94   0.851     
2538.4     5.53       5.7        4.6        4.2        1.5        5.3        52.7       0.04       114.6      428        0          548.9      35.2       -341       2.755      -1796      0          28951.55   0.934     
2538.6     7.49       5.1        4.2        4.8        0.9        6.3        64.6       0.033      101.9      429.317    0          543.93     57.5       -341       2.76       -1801      0          28951.21   1.03      
2538.8     24.45      6.1        5.3        5.8        2.5        7.5        60.6       0.011      86.1       430        0          537.36     76.8       -341       2.756      -1809      0          28950.76   1.152     
2539       75.95      12.1       7.9        7.2        5.1        8.5        49.7       0.004      71.4       430        0          529.51     89         -341       2.76       -1825      0          28950.36   1.322     
2539.2     84.42      23.7       11.8       8.3        7.3        9.3        36         0.004      59.7       430        0          523.52     95.2       -341       2.759      -1815      0          28949.97   1.558     
2539.4     71.59      35.3       18.5       9.5        8.4        9.8        27.4       0.006      54.1       428        0          520.51     96.6       -341       2.757      -1792      0          28949.61   1.858     
2539.6     56.21      41.6       32.1       11.3       9.4        10.1       22.4       0.01       53.9       430        0          518.6      93.5       -341       2.76       -1793      0          28949.18   2.264     
2539.8     62.59      44         57.1       13.3       10.4       10.4       19.3       0.01       56.2       430        1          517.23     82.5       -341       2.758      -1795      0          28948.79   2.567     
2540       99.15      49.5       91.4       16.1       11.5       10.8       16.5       0.006      62         430.667    0          516.9      61.6       -340       2.759      -1800      0          28948.42   2.642     
2540.2     134.69     57.9       125.3      20.6       12.8       11.2       13.6       0.004      69.7       428        0          512.4      42.3       -339       2.76       -1808      0          28947.96   2.505     
2540.4     111.47     70         155.1      27.2       13.7       11.1       10.8       0.005      79.2       430        0          507.62     30.5       -339       2.756      -1822      0          28947.56   2.295     
2540.6     43.39      78.4       177.5      36.7       12.6       10.4       9.1        0.012      90.6       429.488    0          502.02     24.3       -339       2.757      -1809      0          28947.17   2.108     
2540.8     14.44      65.9       153.7      47.3       10.1       9.1        8          0.032      101.8      429.333    0          495.97     21.8       -339       2.755      -1793      0          28946.8    1.947     
2541       10.16      40.3       100.6      55.2       6.8        7.8        7.5        0.042      113.1      429.667    0          490.53     20.8       -339       2.756      -1795      0          28946.35   1.794     
2541.2     12.94      26.5       68.8       53.4       4.7        6.2        7.3        0.031      124.9      429.2      0          485.71     20.1       -339       2.76       -1798      0          28945.99   1.669     
2541.4     13.25      22.8       53         47.7       4          4.9        7.4        0.028      132.2      428.4      0          484.1      19.9       -339       2.76       -1804      0          28945.64   1.541     
2541.6     12.59      22.9       40.6       41.5       3.6        4.2        7.4        0.027      137.1      429.317    0          483.74     19.6       -339       2.756      -1815      0          28945.2    1.433     
2541.8     12.27      21.8       29.7       33.3       3.4        3.7        6.7        0.026      143.3      428        0          483.05     19.1       -339       2.755      -1835      0          28944.79   1.343     
2542       13.13      21.1       24         26.6       3.1        3.3        6.1        0.023      145.6      430        0          482.03     18.4       -339       2.756      -1839      0          28944.42   1.286     
2542.2     12.68      21.6       22.7       21.8       3          3.1        5.9        0.024      149.8      430        0          481.05     17.8       -339       2.758      -1823      0          28943.99   1.263     
2542.4     11.73      21.6       21.7       18         2.8        2.9        5.5        0.025      151.2      428.667    0          479.53     17.4       -339       2.759      -1795      0          28943.61   1.241     
2542.6     11.9       20.9       20.7       14.8       3          2.8        5.5        0.024      154.6      428.488    0          479.94     17         -339       2.753      -1790      0          28943.23   1.208     
2542.8     11.19      20.5       20.4       12.1       3.4        2.6        5.6        0.024      154.5      429.598    0          481.33     16.5       -339       2.753      -1790      0          28942.83   1.147     
