~Version
 VERS              .         2.0                           : CWLS LOG ASCII STANDARD - VERSION 2.0
 WRAP              .         NO                            : ONE LINE PER DEPTH STEP
 DLM               .         SPACE                         : DELIMITING CHARACTER(SPACE TAB OR COMMA)
~Well Information
#_______________________________________________________________________________
#
#PARAMETER_NAME    .UNIT     VALUE                         : DESCRIPTION
#_______________________________________________________________________________
STRT               .M        1.8                           : First reference value
STOP               .M        2776                          : Last reference value
STEP               .M        0.2                           : Step increment
NULL               .         -9999                         : Missing value
COMP               .                                       : Company
WELL               .         616                           : Well name
FLD                .                                       : Field
LOC                .                                       : Location
CNTY               .                                       : County
STAT               .                                       : State
CTRY               .                                       : Country
SRVC               .                                       : Service Company
DATE               .                                       : Date
API                .                                       : API number
PROJECT_UPGRADE_TIME .         2021-03-18T21_24_50           : 
group              .         Good                          : 
~Parameter Information Block
#_______________________________________________________________________________
#
#PARAMETER_NAME    .UNIT     VALUE                         : DESCRIPTION
#_______________________________________________________________________________
SET                .         D1799_D                       : 
OTHER              .         Программное обеспечение станции MONITOR-386EX 25/12/99 15_08_10   BGF V52 22/08/01 16_56_30   3.1_SNGF___BGF_N_092049: 
OTHER_10           .         Тарировки_                    : 
OTHER_11           .         TM.GRD = 0.00403*TM$.UE + -1.07: 
OTHER_12           .         MN.ATM = (9.34907e-006*TM.GRD + 0.02171)*(MN$.UE + -7.93*TM.GRD + -1787): 
OTHER_13           .         GK.MKR/H = LM. / 42.4676      : 
OTHER_14           .         GK.FLT = 0.1*GK.MKR/H[-1] + (1-0.1)*GK.MKR/H[0]: 
OTHER_2            .         Kedr.exe версия 3.4.2.51      : 
OTHER_3            .         KedrData.dll версия 3.4.2.24  : 
OTHER_4            .         Драйвер версия 2.1.1.3        : 
OTHER_5            .         Мнемоники версия 3.3 S        : 
OTHER_6            .         Прибор_ КСА-Т4                : 
OTHER_7            .         Номер прибора_ 03             : 
OTHER_8            .         Режим_ КСА-Т4                 : 
OTHER_9            .         Форма_ КВА.                   : 
PROJECT_UPGRADE_TIME .         2021-03-18T21_24_49           : 
TLFamily_DEPT      .         Measured Depth                : 
TLFamily_GK        .         Gamma Ray                     : 
TLFamily_GK$       .                                       : 
TLFamily_GK_2      .         Gamma Ray                     : 
TLFamily_LM        .         Casing Collar locator         : 
TLFamily_METKA     .                                       : 
TLFamily_MN        .                                       : 
TLFamily_MN$       .                                       : 
TLFamily_RCOR      .                                       : 
TLFamily_SPID      .         Spontaneous Potential         : 
TLFamily_TENS      .         Cable Tension                 : 
TLFamily_TIME      .         Time                          : 
TLFamily_TM        .         Temperature                   : 
TLFamily_TM$       .         Temperature                   : 
group              .         prim                          : 
~Curve Information
#_______________________________________________________________________________
#
#LOGNAME           .UNIT     LOG_ID                        : DESCRIPTION
#_______________________________________________________________________________
DEPT               .M                                      : 1 Глубина, м -    0.0 см 
GK                 .MKR/H                                  : 13 Гамма-активность, мкр./ч -  110.0 см 
GK$                .UE                                     : 10 Гамма-активность, усл.ед. -  110.0 см 
GK_2               .FLT                                    : 14 Гамма-активность фильтрованная, мкр./ч -  110.0 см 
LM                 .                                       : 9 Локатор муфт,  -   20.0 см 
METKA              .                                       : 3 Метки,  -    0.0 см 
MN                 .ATM                                    : 12 Давление, атм. -  160.0 см 
MN$                .UE                                     : 8 Давление, усл.ед. -  160.0 см 
RCOR               .CM/KM                                  : 5 Коррекция по ролику, см/км -    0.0 см 
SPID               .M/H                                    : 2 Скорость, м/час -    0.0 см 
TENS               .T                                      : 6 Натяжение кабеля, т -    0.0 см 
TIME               .S                                      : 4 Время, сек -    0.0 см 
TM                 .GRD                                    : 11 Температура, °C -  170.0 см 
TM$                .UE                                     : 7 Температура, усл.ед. -  170.0 см 
~Ascii
# ...
2581       8.78       373        8.75       437        0          235.363    12798      -1318      1984       0.05       4999.97    50.464     12788     
2581.2     8.78       373        8.77       454        0          235.362    12798      -1318      1979       0.05       5000.36    50.456     12786     
2581.4     8.78       373        8.78       420        0          235.435    12801      -1318      1974       0.05       5000.7     50.451     12784     
2581.6     8.78       373        8.78       451        0          235.437    12801      -1318      1973       0.05       5001.07    50.445     12783     
2581.8     8.78       373        8.78       478        0          235.459    12802      -1318      1974       0.05       5001.46    50.437     12781     
2582       9.03       383        8.94       513        0          235.481    12803      -1318      1975       0.05       5001.81    50.429     12779     
2582.2     9.32       396        9.18       461        0          235.481    12803      -1318      1975       0.05       5002.17    50.423     12777     
2582.4     9.32       396        9.27       394        0          235.526    12805      -1318      1976       0.05       5002.52    50.417     12776     
2582.6     9.32       396        9.3        392        0          235.527    12805      -1318      1976       0.05       5002.9     50.41      12774     
2582.8     9.32       396        9.32       406        0          235.548    12806      -1318      1976       0.05       5003.26    50.403     12773     
2583       9.32       396        9.32       452        0          235.588    12808      -1318      1977       0.05       5003.62    50.396     12771     
2583.2     9.44       401        9.4        397        0          235.595    12808      -1318      1977       0.05       5003.98    50.386     12768     
2583.4     9.7        412        9.59       390        0          235.616    12809      -1318      1974       0.05       5004.34    50.377     12766     
2583.6     9.7        412        9.66       439        0          235.655    12811      -1318      1975       0.05       5004.69    50.366     12763     
2583.8     9.7        412        9.69       424        0          235.664    12811      -1318      1983       0.05       5005.04    50.36      12762     
2584       9.7        412        9.7        424        0          235.68     12812      -1318      1986       0.05       5005.43    50.355     12760     
2584.2     9.7        412        9.7        411        0          235.703    12813      -1318      1983       0.05       5005.8     50.347     12759     
2584.4     9.7        412        9.7        413        0          235.725    12814      -1318      1977       0.05       5006.15    50.339     12757     
2584.6     9.72       413        9.71       413        0          235.747    12815      -1318      1976       0.05       5006.51    50.331     12755     
2584.8     10.13      430        9.97       413        0          235.769    12816      -1318      1979       0.05       5006.87    50.324     12753     
2585       10.15      431        10.08      364        0          235.79     12817      -1318      1973       0.05       5007.24    50.32      12752     
2585.2     10.15      431        10.13      384        0          235.811    12818      -1318      1970       0.05       5007.59    50.312     12750     
2585.4     10.15      431        10.14      394        0          235.833    12818      -1318      1972       0.05       5007.95    50.309     12749     
2585.6     10.15      431        10.15      413        0          235.845    12819      -1318      1979       0.05       5008.31    50.301     12747     
2585.8     10.15      431        10.15      534        0          235.856    12819      -1318      1985       0.05       5008.68    50.296     12746     
2586       10.15      431        10.15      504        0          235.877    12820      -1318      1979       0.05       5009.03    50.293     12745     
2586.2     9.6        408        9.8        477        0          235.899    12821      -1318      1979       0.05       5009.39    50.285     12743     
2586.4     9.44       401        9.58       493        0          235.921    12822      -1318      1979       0.05       5009.77    50.278     12741     
2586.6     9.44       401        9.5        483        0          235.944    12823      -1318      1979       0.05       5010.13    50.269     12739     
2586.8     9.44       401        9.46       498        0          235.965    12824      -1318      1979       0.05       5010.48    50.265     12738     
2587       9.44       401        9.45       489        0          235.982    12825      -1318      1979       0.05       5010.85    50.255     12736     
2587.2     9.44       401        9.45       2294       0          235.989    12825      -1318      1974       0.05       5011.21    50.249     12734     
2587.4     9.29       395        9.35       1534       0          236.028    12827      -1318      1980       0.05       5011.58    50.243     12733     
2587.6     9.16       389        9.23       994        0          236.031    12827      -1318      1986       0.05       5011.93    50.233     12730     
2587.8     9.16       389        9.19       701        0          236.075    12829      -1318      1987       0.05       5012.31    50.221     12727     
2588       9.16       389        9.17       583        0          236.096    12830      -1318      1982       0.05       5012.66    50.212     12725     
2588.2     9.16       389        9.16       482        0          236.097    12830      -1318      1976       0.05       5013.03    50.202     12722     
2588.4     9.16       389        9.16       459        0          236.118    12831      -1318      1980       0.05       5013.4     50.192     12720     
2588.6     9.16       389        9.16       471        0          236.141    12832      -1318      1978       0.05       5013.77    50.184     12718     
2588.8     9.11       387        9.13       406        0          236.163    12833      -1318      1972       0.05       5014.13    50.175     12716     
2589       8.97       381        9.03       394        0          236.186    12834      -1318      1971       0.05       5014.49    50.159     12712     
2589.2     8.97       381        8.99       462        0          236.207    12835      -1318      1976       0.05       5014.85    50.145     12708     
2589.4     8.97       381        8.98       441        0          236.213    12835      -1318      1983       0.05       5015.2     50.144     12708     
2589.6     8.97       381        8.97       431        0          236.229    12836      -1318      1983       0.05       5015.56    50.133     12705     
2589.8     8.97       381        8.97       431        0          236.252    12837      -1318      1980       0.05       5015.92    50.126     12704     
2590       8.97       381        8.97       441        0          236.274    12838      -1318      1980       0.05       5016.29    50.118     12702     
2590.2     8.92       379        8.94       418        2          236.296    12839      -1319      1980       0.05       5016.68    50.113     12701     
2590.4     7.89       335        8.28       425        0          236.319    12840      -1319      1980       0.05       5017.03    50.106     12699     
2590.6     7.89       335        8.05       417        0          236.34     12841      -1319      1980       0.05       5017.39    50.098     12697     
2590.8     7.89       335        7.95       400        0          236.362    12842      -1319      1980       0.05       5017.75    50.09      12695     
2591       7.89       335        7.91       407        0          236.383    12843      -1319      1980       0.05       5018.1     50.082     12693     
2591.2     7.89       335        7.9        403        0          236.405    12843      -1319      1980       0.05       5018.46    50.075     12691     
