~Version
 VERS              .         2.0                           : CWLS LOG ASCII STANDARD - VERSION 2.0
 WRAP              .         NO                            : ONE LINE PER DEPTH STEP
 DLM               .         SPACE                         : DELIMITING CHARACTER(SPACE TAB OR COMMA)
~Well Information
#_______________________________________________________________________________
#
#PARAMETER_NAME    .UNIT     VALUE                         : DESCRIPTION
#_______________________________________________________________________________
STRT               .M        2669.2                        : First reference value
STOP               .M        2776.2                        : Last reference value
STEP               .M        0.2                           : Step increment
NULL               .         -9999                         : Missing value
COMP               .                                       : Company
WELL               .         616                           : Well name
FLD                .                                       : Field
LOC                .                                       : Location
CNTY               .                                       : County
STAT               .                                       : State
CTRY               .                                       : Country
SRVC               .                                       : Service Company
DATE               .                                       : Date
API                .                                       : API number
PROJECT_UPGRADE_TIME .         2021-03-18T21_24_50           : 
group              .         Good                          : 
~Parameter Information Block
#_______________________________________________________________________________
#
#PARAMETER_NAME    .UNIT     VALUE                         : DESCRIPTION
#_______________________________________________________________________________
SET                .         D1809_D                       : 
OTHER              .         Программное обеспечение станции MONITOR-386EX 25/12/99 15_08_10   BGF V52 22/08/01 16_56_30   3.1_SNGF___BGF_N_092049: 
OTHER_10           .         Тарировки_                    : 
OTHER_11           .         TM.GRD = 0.00403*TM$.UE + -1.07: 
OTHER_12           .         MN.ATM = (9.34907e-006*TM.GRD + 0.02171)*(MN$.UE + -7.93*TM.GRD + -1787): 
OTHER_13           .         GK.MKR/H = LM. / 42.4676      : 
OTHER_14           .         GK.FLT = 0.1*GK.MKR/H[-1] + (1-0.1)*GK.MKR/H[0]: 
OTHER_2            .         Kedr.exe версия 3.4.2.51      : 
OTHER_3            .         KedrData.dll версия 3.4.2.24  : 
OTHER_4            .         Драйвер версия 2.1.1.3        : 
OTHER_5            .         Мнемоники версия 3.3 S        : 
OTHER_6            .         Прибор_ КСА-Т4                : 
OTHER_7            .         Номер прибора_ 03             : 
OTHER_8            .         Режим_ КСА-Т4                 : 
OTHER_9            .         Форма_ КВА.                   : 
PROJECT_UPGRADE_TIME .         2021-03-18T21_24_49           : 
TLFamily_DEPT      .         Measured Depth                : 
TLFamily_GK        .         Gamma Ray                     : 
TLFamily_GK$       .                                       : 
TLFamily_GK_2      .         Gamma Ray                     : 
TLFamily_LM        .         Casing Collar locator         : 
TLFamily_METKA     .                                       : 
TLFamily_MN        .                                       : 
TLFamily_MN$       .                                       : 
TLFamily_RCOR      .                                       : 
TLFamily_SPID      .         Spontaneous Potential         : 
TLFamily_TENS      .         Cable Tension                 : 
TLFamily_TIME      .         Time                          : 
TLFamily_TM        .         Temperature                   : 
TLFamily_TM$       .         Temperature                   : 
group              .         prim                          : 
~Curve Information
#_______________________________________________________________________________
#
#LOGNAME           .UNIT     LOG_ID                        : DESCRIPTION
#_______________________________________________________________________________
DEPT               .M                                      : 1 Глубина, м -    0.0 см 
GK                 .MKR/H                                  : 13 Гамма-активность, мкр./ч -  110.0 см 
GK$                .UE                                     : 10 Гамма-активность, усл.ед. -  110.0 см 
GK_2               .FLT                                    : 14 Гамма-активность фильтрованная, мкр./ч -  110.0 см 
LM                 .                                       : 9 Локатор муфт,  -   20.0 см 
METKA              .                                       : 3 Метки,  -    0.0 см 
MN                 .ATM                                    : 12 Давление, атм. -  160.0 см 
MN$                .UE                                     : 8 Давление, усл.ед. -  160.0 см 
RCOR               .CM/KM                                  : 5 Коррекция по ролику, см/км -    0.0 см 
SPID               .M/H                                    : 2 Скорость, м/час -    0.0 см 
TENS               .T                                      : 6 Натяжение кабеля, т -    0.0 см 
TIME               .S                                      : 4 Время, сек -    0.0 см 
TM                 .GRD                                    : 11 Температура, °C -  170.0 см 
TM$                .UE                                     : 7 Температура, усл.ед. -  170.0 см 
~Ascii
2669.2     -9999      -9999      -9999      -9999      -9999      -9999      -9999      -9999      -9999      -9999      -9999      -9999      -9999     
2669.4     -9999      -9999      -9999      -9999      0          -9999      -9999      -625       49         0.09       6268.98    -9999      -9999     
2669.6     -9999      -9999      -9999      34         0          -9999      -9999      -625       187        0.07       6270.48    -9999      -9999     
2669.8     -9999      -9999      -9999      339        0          -9999      -9999      -625       299        0.07       6271.84    -9999      -9999     
2670       -9999      -9999      -9999      815        2          -9999      -9999      -625       355        0.06       6272.63    -9999      -9999     
2670.2     -9999      -9999      -9999      502        0          -9999      -9999      -625       411        0.05       6273.65    -9999      -9999     
2670.4     -9999      -9999      -9999      585        0          -9999      -9999      -625       464        0.05       6274.89    -9999      -9999     
2670.6     8.12       345        8.2        3900       0          -9999      -9999      -625       494        0.05       6276.14    -9999      -9999     
2670.8     8.12       345        8.13       1000       0          -9999      -9999      -625       511        0.05       6277.39    -9999      -9999     
2671       8.78       373        8.7        422        0          246.751    13329      -625       528        0.05       6278.64    -9999      -9999     
2671.2     8.78       373        8.77       353        0          246.753    13329      -625       536        0.05       6279.95    55.917     14141     
2671.4     8.78       373        8.78       355        0          246.767    13330      -625       534        0.05       6281.21    55.899     14136     
2671.6     9.37       398        9.35       341        0          246.777    13330      -625       545        0.05       6282.47    55.878     14131     
2671.8     9.09       386        9.19       349        0          246.788    13330      -625       555        0.05       6283.72    55.864     14127     
2672       8.95       380        8.96       316        0          246.819    13332      -625       559        0.05       6284.97    55.834     14120     
2672.2     9.29       395        9.17       302        0          246.829    13332      -625       567        0.05       6286.22    55.8       14112     
2672.4     10.15      431        10.12      318        0          246.853    13333      -625       570        0.05       6287.47    55.765     14103     
2672.6     10.78      458        10.57      310        0          246.855    13333      -625       573        0.05       6288.72    55.733     14095     
2672.8     10.78      458        10.78      418        0          246.902    13335      -625       568        0.05       6290.03    55.712     14090     
2673       10.37      440        10.52      383        0          246.903    13335      -625       561        0.05       6291.28    55.686     14083     
2673.2     10.29      437        10.3       336        0          246.905    13335      -625       573        0.05       6292.53    55.659     14077     
2673.4     9.89       420        10.04      291        0          246.947    13337      -625       581        0.05       6293.78    55.638     14072     
2673.6     9.49       403        9.51       305        0          246.953    13337      -625       579        0.05       6295.03    55.617     14066     
2673.8     8.48       360        8.81       297        0          246.977    13338      -625       579        0.05       6296.29    55.59      14060     
2674       8.48       360        8.49       286        0          247.001    13339      -625       580        0.05       6297.55    55.562     14052     
2674.2     8.17       347        8.28       307        0          246.981    13338      -625       580        0.05       6298.8     55.536     14046     
2674.4     8.17       347        8.18       311        0          247.028    13340      -625       574        0.05       6300.1     55.51      14040     
2674.6     7.76       330        7.91       293        0          247.052    13341      -625       575        0.05       6301.36    55.478     14032     
2674.8     7.56       321        7.57       259        0          247.069    13342      -625       573        0.05       6302.61    55.447     14024     
2675       6.69       284        6.93       302        0          247.078    13342      -625       566        0.05       6303.86    55.416     14016     
2675.2     6.69       284        6.7        271        0          247.103    13343      -625       561        0.05       6305.11    55.382     14008     
2675.4     6.03       256        6.27       296        0          247.128    13344      -625       557        0.05       6306.36    55.354     14001     
2675.6     6.03       256        6.04       309        0          247.13     13344      -625       554        0.05       6307.61    55.321     13993     
2675.8     5.95       253        5.98       268        0          247.155    13345      -625       561        0.05       6308.86    55.285     13984     
2676       5.93       252        5.94       278        0          247.176    13346      -625       562        0.05       6310.17    55.249     13975     
2676.2     7.46       317        7.08       289        0          247.205    13347      -625       565        0.05       6311.42    55.213     13966     
2676.4     7.46       317        7.45       287        0          247.207    13347      -625       570        0.05       6312.68    55.175     13957     
2676.6     7.91       336        7.76       273        0          247.229    13348      -625       573        0.05       6313.94    55.138     13948     
2676.8     7.91       336        7.91       266        0          247.257    13349      -625       575        0.05       6315.19    55.098     13937     
2677       7.62       323        7.73       258        0          247.272    13350      -625       576        0.05       6316.44    55.058     13928     
2677.2     7.56       321        7.56       292        0          247.285    13350      -625       581        0.05       6317.69    55.018     13918     
2677.4     7.96       338        7.87       290        0          247.31     13351      -625       588        0.05       6318.94    54.981     13909     
2677.6     7.96       338        7.96       267        0          247.336    13352      -625       585        0.05       6320.25    54.941     13899     
2677.8     8.15       346        8.09       274        0          247.36     13353      -625       583        0.05       6321.5     54.903     13889     
2678       8.15       346        8.15       290        0          247.363    13353      -625       584        0.05       6322.75    54.865     13880     
2678.2     8.24       350        8.21       240        0          247.388    13354      -625       583        0.05       6324       54.826     13870     
2678.4     8.24       350        8.24       279        0          247.391    13354      -625       582        0.05       6325.25    54.79      13861     
2678.6     7.86       334        7.95       291        0          247.423    13355      -625       581        0.05       6326.5     54.75      13851     
2678.8     7.86       334        7.87       212        0          247.44     13356      -625       581        0.05       6327.76    54.717     13843     
2679       7.94       337        7.92       259        0          247.465    13357      -625       581        0.05       6329.02    54.681     13834     
2679.2     7.94       337        7.93       271        0          247.49     13358      -625       571        0.05       6330.33    54.645     13825     
2679.4     7.32       311        7.52       219        0          247.492    13358      -625       570        0.05       6331.58    54.611     13817     
