~Version
 VERS              .         2.0                           : CWLS LOG ASCII STANDARD - VERSION 2.0
 WRAP              .         NO                            : ONE LINE PER DEPTH STEP
 DLM               .         SPACE                         : DELIMITING CHARACTER(SPACE TAB OR COMMA)
~Well Information
#_______________________________________________________________________________
#
#PARAMETER_NAME    .UNIT     VALUE                         : DESCRIPTION
#_______________________________________________________________________________
STRT               .M        2659.6                        : First reference value
STOP               .M        2768.6                        : Last reference value
STEP               .M        0.2                           : Step increment
NULL               .         -9999                         : Missing value
COMP               .                                       : Company
WELL               .         616                           : Well name
FLD                .                                       : Field
LOC                .                                       : Location
CNTY               .                                       : County
STAT               .                                       : State
CTRY               .                                       : Country
SRVC               .                                       : Service Company
DATE               .                                       : Date
API                .                                       : API number
PROJECT_UPGRADE_TIME .         2021-03-18T21_24_50           : 
group              .         Good                          : 
~Parameter Information Block
#_______________________________________________________________________________
#
#PARAMETER_NAME    .UNIT     VALUE                         : DESCRIPTION
#_______________________________________________________________________________
SET                .         D1166_D                       : 
OTHER              .         Программное обеспечение станции MONITOR-386EX 25/12/99 15_08_10   BGF V52 22/08/01 16_56_30   3.2_BGF_N_3070031: 
OTHER_10           .         Тарировки_                    : 
OTHER_11           .         TM.GRD = 0.00403*TM$.UE + -1.19: 
OTHER_12           .         MN.ATM = (7.1e-006*TM.GRD + 0.02017)*(MN$.UE + -3.03*TM.GRD + -1833): 
OTHER_13           .         Id error                      : 
OTHER_2            .         Kedr.exe версия 3.4.2.51      : 
OTHER_3            .         KedrData.dll версия 3.4.2.24  : 
OTHER_4            .         Драйвер версия 2.1.1.8        : 
OTHER_5            .         Мнемоники версия 3.3 S        : 
OTHER_6            .         Прибор_ КСА-М1                : 
OTHER_7            .         Номер прибора_ 265            : 
OTHER_8            .         Режим_ КСА-М1                 : 
OTHER_9            .         Форма_ ТЕРМОМЕТР              : 
PROJECT_UPGRADE_TIME .         2021-03-18T21_24_49           : 
TLFamily_DEPT      .         Measured Depth                : 
TLFamily_GK        .         Gamma Ray                     : 
TLFamily_GK$       .                                       : 
TLFamily_LM        .         Casing Collar locator         : 
TLFamily_METKA     .                                       : 
TLFamily_MN        .                                       : 
TLFamily_MN$       .                                       : 
TLFamily_RCOR      .                                       : 
TLFamily_SPID      .         Spontaneous Potential         : 
TLFamily_STD       .                                       : 
TLFamily_TENS      .         Cable Tension                 : 
TLFamily_TIME      .         Time                          : 
TLFamily_TM        .         Temperature                   : 
TLFamily_TM$       .         Temperature                   : 
TLFamily_VGD       .         Gas Volume                    : 
group              .         prim                          : 
~Curve Information
#_______________________________________________________________________________
#
#LOGNAME           .UNIT     LOG_ID                        : DESCRIPTION
#_______________________________________________________________________________
DEPT               .M                                      : 1 Глубина, м -    0.0 см 
GK                 .MKR/H                                  : 15 Гамма-активность, мкр./ч -  110.0 см 
GK$                .UE                                     : 12 Гамма-активность, усл.ед. -  110.0 см 
LM                 .                                       : 10 Локатор муфт,  -   20.0 см 
METKA              .                                       : 3 Метки,  -    0.0 см 
MN                 .ATM                                    : 14 Давление, атм. -  160.0 см 
MN$                .UE                                     : 8 Давление, усл.ед. -  160.0 см 
RCOR               .CM/KM                                  : 5 Коррекция по ролику, см/км -    0.0 см 
SPID               .M/H                                    : 2 Скорость, м/час -    0.0 см 
STD                .                                       : 11 Приток,  -  170.0 см 
TENS               .T                                      : 6 Натяжение кабеля, т -    0.0 см 
TIME               .S                                      : 4 Время, сек -    0.0 см 
TM                 .GRD                                    : 13 Температура, °C -  180.0 см 
TM$                .UE                                     : 7 Температура, усл.ед. -  180.0 см 
VGD                .                                       : 9 Влагомер,  -  170.0 см 
~Ascii
# ...
2738       9.07       402        1          0          364.393    19617      -1400      605        32372      0          22364.35   90.009     22630      6531      
2738.2     9.29       402        1          0          363.083    19554      -1400      609        32373      0          22365.56   90.013     22631      6532      
2738.4     9.52       416        1          0          363.52     19575      -1400      603        32374      0          22366.74   90.017     22632      6532      
2738.6     9.66       416        1          0          364.79     19636      -1400      608        32374      0          22367.94   90.021     22633      6531      
2738.8     9.38       391        1          0          362.86     19543      -1400      607        32374      0          22369.15   90.023     22634      6531      
2739       9.23       391        1          0          363.757    19586      -1400      611        32373      0          22370.38   90.026     22634      6532      
2739.2     9.2        394        1          0          364.788    19636      -1400      605        32373      0          22371.54   90.029     22635      6532      
2739.4     9.21       394        1          0          362.296    19516      -1400      608        32373      0          22372.73   90.033     22636      6532      
2739.6     9.29       403        1          0          363.709    19584      -1400      611        32373      0          22373.93   90.042     22638      6532      
2739.8     9.41       405        1          0          364.309    19613      -1400      603        32373      0          22375.15   90.041     22638      6533      
2740       9.28       385        1          2          362.982    19549      -1400      604        32373      0          22376.34   90.045     22639      6533      
2740.2     9.09       385        1          0          362.705    19536      -1400      614        32373      0          22377.63   90.051     22640      6533      
2740.4     8.99       379        1          0          362.339    19518      -1400      609        32373      0          22378.91   90.053     22641      6533      
2740.6     8.86       376        1          0          363.755    19586      -1400      612        32373      0          22380.07   90.057     22642      6534      
2740.8     8.81       376        1          0          363.113    19555      -1400      612        32374      0          22381.24   90.064     22644      6534      
2741       8.56       361        1          0          363.398    19569      -1400      615        32373      0          22382.44   90.065     22644      6534      
2741.2     8.43       355        1          0          364.954    19644      -1400      606        32374      0          22383.65   90.069     22645      6534      
2741.4     8.31       353        1          0          363.222    19561      -1400      602        32373      0          22384.8    90.075     22646      6533      
2741.6     8.22       347        1          0          364.138    19605      -1400      605        32373      0          22386.02   90.081     22648      6534      
2741.8     7.9        331        1          0          365.55     19672      -1400      604        32373      0          22387.21   90.081     22648      6535      
2742       7.79       331        1          0          363.544    19576      -1400      607        32372      0          22388.38   90.085     22649      6535      
2742.2     7.74       330        1          0          363.984    19597      -1400      604        32373      0          22389.61   90.09      22650      6535      
2742.4     7.76       334        1          0          365.099    19651      -1400      613        32374      0          22390.76   90.094     22651      6534      
2742.6     8.27       365        1          0          362.86     19543      -1400      603        32373      0          22392.01   90.098     22652      6535      
2742.8     8.45       365        1          0          363.941    19595      -1400      610        32373      0          22393.19   90.102     22653      6535      
2743       8.83       388        1          0          364.157    19605      -1400      608        32373      0          22394.34   90.102     22653      6535      
2743.2     8.99       388        1          0          363.278    19563      -1400      607        32373      0          22395.54   90.106     22654      6536      
2743.4     9.06       389        1          0          364.026    19599      -1400      600        32373      0          22396.77   90.114     22656      6535      
2743.6     9.09       389        1          0          364.224    19609      -1400      601        32373      0          22397.92   90.114     22656      6536      
2743.8     8.8        367        1          0          364.054    19600      -1400      606        32374      0          22399.08   90.116     22657      6537      
2744       8.66       367        1          0          363.412    19569      -1400      604        32373      0          22400.36   90.119     22657      6536      
2744.2     8.76       382        1          0          363.823    19589      -1400      604        32373      0          22401.53   90.126     22659      6539      
2744.4     8.88       382        1          0          365.184    19655      -1400      604        32374      0          22402.73   90.126     22659      6536      
2744.6     8.99       392        1          0          363.879    19592      -1400      602        32373      0          22403.92   90.13      22660      6536      
2744.8     9.16       395        1          0          364.318    19613      -1400      598        32374      0          22405.12   90.134     22661      6537      
2745       9.13       386        1          0          365.598    19675      -1400      599        32373      0          22406.25   90.134     22661      6536      
2745.2     9.06       386        1          0          363.202    19559      -1400      605        32373      0          22407.46   90.14      22663      6536      
2745.4     8.83       360        1          0          364.3      19612      -1400      600        32374      0          22408.71   90.142     22663      6537      
2745.6     8.3        344        1          0          365.06     19649      -1400      609        32373      0          22409.85   90.146     22664      6538      
2745.8     8.11       343        1          0          363.478    19573      -1400      602        32373      0          22411.05   90.146     22664      6537      
2746       7.91       334        1          0          364.174    19606      -1400      607        32373      0          22412.24   90.15      22665      6537      
2746.2     7.91       342        1          0          364.589    19626      -1400      590        32372      0          22413.47   90.154     22666      6537      
2746.4     8.13       352        1          0          363.463    19572      -1400      602        32373      0          22414.63   90.157     22667      6538      
2746.6     8.2        352        1          0          363.072    19553      -1400      596        32373      0          22415.83   90.162     22668      6538      
2746.8     8.04       340        1          0          363.371    19567      -1400      598        32372      0          22417.02   90.166     22669      6538      
2747       7.98       340        1          0          364.918    19642      -1400      599        32374      0          22418.21   90.169     22670      6538      
2747.2     7.87       333        1          0          363.867    19591      -1400      605        32374      0          22419.37   90.174     22671      6537      
2747.4     7.82       333        1          0          364.398    19617      -1400      605        32373      0          22420.55   90.175     22671      6538      
2747.6     7.24       294        1          0          365.748    19682      -1400      600        32373      0          22421.8    90.178     22672      6538      
