~Version
 VERS              .         2.0                           : CWLS LOG ASCII STANDARD - VERSION 2.0
 WRAP              .         NO                            : ONE LINE PER DEPTH STEP
 DLM               .         SPACE                         : DELIMITING CHARACTER(SPACE TAB OR COMMA)
~Well Information
#_______________________________________________________________________________
#
#PARAMETER_NAME    .UNIT     VALUE                         : DESCRIPTION
#_______________________________________________________________________________
STRT               .M        2649.8                        : First reference value
STOP               .M        2761.600056                   : Last reference value
STEP               .M        0.2000001                     : Step increment
NULL               .         -9999                         : Missing value
COMP               .                                       : Company
WELL               .         616                           : Well name
FLD                .                                       : Field
LOC                .                                       : Location
CNTY               .                                       : County
STAT               .                                       : State
CTRY               .                                       : Country
SRVC               .                                       : Service Company
DATE               .                                       : Date
API                .                                       : API number
PROJECT_UPGRADE_TIME .         2021-03-18T21_24_50           : 
group              .         Good                          : 
~Parameter Information Block
#_______________________________________________________________________________
#
#PARAMETER_NAME    .UNIT     VALUE                         : DESCRIPTION
#_______________________________________________________________________________
SET                .         D8106_D                       : 
OTHER              .         Программное обеспечение станции MONITOR-386EX 25/12/99 15_08_10   BGF V52 22/08/01 16_56_30   4_SNGF_BGF_N_011645: 
OTHER_10           .         Тарировки_                    : 
OTHER_11           .         TM.GRD = 0.00412*TM$.UE + -2.13: 
OTHER_12           .         MN.ATM = (5.87652e-006*TM.GRD + 0.01993)*(MN$.UE + -2.72*TM.GRD + -1925): 
OTHER_13           .         GK.MKR/H = GK$.UE / 57.4657   : 
OTHER_2            .         Kedr.exe версия 3.4.2.51      : 
OTHER_3            .         KedrData.dll версия 3.4.2.24  : 
OTHER_4            .         Драйвер версия 2.1.0.2        : 
OTHER_5            .         Мнемоники версия 3.3 S        : 
OTHER_6            .         Прибор_ АКП4-90               : 
OTHER_7            .         Номер прибора_ 53             : 
OTHER_8            .         Режим_ АКП4_90                : 
OTHER_9            .         Форма_ ПК-53ое                : 
PROJECT_UPGRADE_TIME .         2021-03-18T21_24_50           : 
TLFamily_DEPT      .         Measured Depth                : 
TLFamily_GK        .         Gamma Ray                     : 
TLFamily_GK$       .                                       : 
TLFamily_LM        .         Casing Collar locator         : 
TLFamily_METKA     .                                       : 
TLFamily_METKA_1   .                                       : 
TLFamily_MN        .                                       : 
TLFamily_MN$       .                                       : 
TLFamily_RCOR      .                                       : 
TLFamily_SPID      .         Spontaneous Potential         : 
TLFamily_TENS      .         Cable Tension                 : 
TLFamily_TIME      .         Time                          : 
TLFamily_TM        .         Temperature                   : 
TLFamily_TM$       .         Temperature                   : 
group              .         prim                          : 
~Curve Information
#_______________________________________________________________________________
#
#LOGNAME           .UNIT     LOG_ID                        : DESCRIPTION
#_______________________________________________________________________________
DEPT               .M                                      : 1 Глубина, м -    0.0 см 
GK                 .MKR/H                                  : 13 Гамма-активность, мкр./ч -   65.0 см 
GK$                .UE                                     : 10 Гамма-активность, усл.ед. -   65.0 см 
LM                 .                                       : 9 Локатор муфт,  -   30.0 см 
METKA              .                                       : 3 Метки,  -    0.0 см 
METKA_1            .                                       : 14 Маркеры - 65 см 
MN                 .ATM                                    : 12 Давление, атм. -  140.0 см 
MN$                .UE                                     : 8 Давление, усл.ед. -  140.0 см 
RCOR               .CM/KM                                  : 5 Коррекция по ролику, см/км -    0.0 см 
SPID               .M/H                                    : 2 Скорость, м/час -    0.0 см 
TENS               .T                                      : 6 Натяжение кабеля, т -    0.0 см 
TIME               .S                                      : 4 Время, сек -    0.0 см 
TM                 .GRD                                    : 11 Температура, °C -  145.0 см 
TM$                .UE                                     : 7 Температура, усл.ед. -  145.0 см 
~Ascii
# ...
2691.400021 5.43       312        537        0          0          246.339    14285      -7         474        0.55       14670.39   54.656     13783     
2691.600021 5.4        310        778        0          0          246.285    14283      -7         473        0.55       14671.85   54.541     13755     
2691.800021 4.97       286        672        0          0          246.363    14286      -7         473        0.55       14673.35   54.435     13729     
2692.000021 5.03       289        443        0          0          246.335    14285      -7         474        0.55       14674.85   54.33      13704     
2692.200021 5.18       298        612        0          0          246.395    14288      -7         484        0.55       14676.36   54.203     13673     
2692.400021 5.55       319        271        0          0          246.371    14287      -7         480        0.55       14677.78   54.139     13657     
2692.600021 5.59       321        665        0          0          246.424    14289      -7         478        0.55       14679.3    54.073     13641     
2692.800022 6.12       352        501        0          0          246.425    14290      -7         484        0.55       14680.78   54.003     13624     
2693.000022 6.15       353        516        0          0          246.458    14291      -7         478        0.55       14682.3    53.944     13610     
2693.200022 6.16       354        327        0          0          246.482    14292      -7         474        0.55       14683.79   53.847     13587     
2693.400022 6.39       367        401        0          0          246.486    14293      -7         482        0.55       14685.29   53.781     13571     
2693.600022 6.42       369        780        0          0          246.566    14297      -7         478        0.55       14686.79   53.67      13544     
2693.800022 6.54       376        874        0          0          246.51     14294      -7         477        0.55       14688.28   53.567     13519     
2694.000022 6.53       375        773        0          0          246.584    14298      -7         483        0.55       14689.78   53.412     13481     
2694.200022 6.47       372        643        0          0          246.61     14299      -7         479        0.55       14691.28   53.286     13450     
2694.400022 6.9        397        867        0          0          246.664    14302      -7         483        0.55       14692.71   53.155     13419     
2694.600022 6.96       400        23571      0          0          246.598    14298      -7         478        0.55       14694.24   53.089     13403     
2694.800023 6.78       390        9355       0          0          246.725    14305      -7         473        0.55       14695.73   52.934     13365     
2695.000023 6.77       389        1824       0          0          246.658    14301      -7         470        0.55       14697.23   52.82      13337     
2695.200023 6.26       360        838        0          0          246.79     14308      -7         478        0.55       14698.73   52.712     13311     
2695.400023 6.85       393        446        0          0          246.7      14303      -7         479        0.55       14700.23   52.629     13291     
2695.600023 6.98       401        242        0          0          246.81     14309      -7         474        0.55       14701.74   52.505     13261     
2695.800023 7.09       408        160        0          0          246.77     14307      -7         481        0.55       14703.21   52.452     13248     
2696.000023 6.85       394        745        0          0          246.856    14311      -7         475        0.55       14704.71   52.369     13228     
2696.200023 6.62       380        504        0          0          246.825    14310      -7         475        0.55       14706.16   52.268     13203     
2696.400023 6.61       380        545        0          0          246.893    14313      -7         474        0.55       14707.66   52.121     13168     
2696.600023 6.61       380        214        0          0          246.885    14313      -7         471        0.55       14709.13   51.998     13138     
2696.800023 6.58       378        399        0          0          246.901    14313      -7         479        0.55       14710.67   51.91      13117     
2697.000024 6.71       386        327        0          0          246.929    14315      -7         475        0.55       14712.17   51.82      13095     
2697.200024 6.92       398        438        0          0          246.958    14316      -7         471        0.55       14713.68   51.731     13073     
2697.400024 7.34       422        307        0          0          246.983    14318      -7         471        0.55       14715.1    51.641     13051     
2697.600024 7.48       430        477        0          0          246.988    14318      -7         475        0.55       14716.62   51.577     13036     
2697.800024 6.91       397        407        0          0          247.06     14321      -7         475        0.55       14718.05   51.464     13008     
2698.000024 6.9        397        665        0          0          247.022    14319      -7         472        0.55       14719.56   51.392     12991     
2698.200024 7.03       404        475        0          0          247.104    14324      -7         480        0.55       14721.06   51.3       12969     
2698.400024 7.47       429        301        0          0          247.068    14322      -7         481        0.55       14722.51   51.231     12952     
2698.600024 7.67       441        567        0          0          247.144    14326      -7         485        0.55       14724.02   51.129     12927     
2698.800025 7.57       435        457        0          0          247.092    14323      -7         477        0.55       14725.54   51.074     12914     
2699.000025 7.55       434        546        0          0          247.152    14326      -7         488        0.55       14726.98   50.946     12883     
2699.200025 7.47       429        377        0          0          247.116    14324      -7         481        0.55       14728.48   50.877     12866     
2699.400025 7.08       407        422        0          0          247.215    14329      -7         490        0.55       14729.92   50.801     12847     
2699.600025 6.86       394        307        0          0          247.132    14325      -7         489        0.55       14731.39   50.762     12838     
2699.800025 6.74       387        614        2          0          247.251    14331      -7         492        0.55       14732.87   50.672     12816     
2700.000025 6.73       387        401        0          0          247.132    14325      -10        482        0.55       14734.61   50.618     12803     
2700.200025 7.36       423        462        0          0          247.291    14333      -10        480        0.55       14736.12   50.536     12783     
2700.400025 7.56       435        390        0          0          247.235    14330      -10        485        0.55       14737.56   50.486     12771     
2700.600025 8.1        466        567        0          0          247.315    14334      -10        479        0.55       14739.07   50.414     12753     
2700.800026 8.13       467        337        0          0          247.291    14333      -10        484        0.55       14740.53   50.369     12743     
2701.000026 8.13       467        373        0          0          247.351    14336      -10        482        0.55       14742.02   50.322     12731     
2701.200026 7.87       452        143        0          0          247.347    14336      -10        479        0.55       14743.53   50.268     12718     
2701.400026 7.82       450        249        0          0          247.371    14337      -10        474        0.55       14745      50.198     12701     
2701.600026 7.78       447        227        0          0          247.411    14339      -10        479        0.53       14746.48   50.108     12679     
