~Version
 VERS              .         2.0                           : CWLS LOG ASCII STANDARD - VERSION 2.0
 WRAP              .         NO                            : ONE LINE PER DEPTH STEP
 DLM               .         SPACE                         : DELIMITING CHARACTER(SPACE TAB OR COMMA)
~Well Information
#_______________________________________________________________________________
#
#PARAMETER_NAME    .UNIT     VALUE                         : DESCRIPTION
#_______________________________________________________________________________
STRT               .M        10.2                          : First reference value
STOP               .M        2757.4                        : Last reference value
STEP               .M        0.2                           : Step increment
NULL               .         -9999                         : Missing value
COMP               .                                       : Company
WELL               .         616                           : Well name
FLD                .                                       : Field
LOC                .                                       : Location
CNTY               .                                       : County
STAT               .                                       : State
CTRY               .                                       : Country
SRVC               .                                       : Service Company
DATE               .                                       : Date
API                .                                       : API number
PROJECT_UPGRADE_TIME .         2021-03-18T21_24_50           : 
group              .         Good                          : 
~Parameter Information Block
#_______________________________________________________________________________
#
#PARAMETER_NAME    .UNIT     VALUE                         : DESCRIPTION
#_______________________________________________________________________________
SET                .         D7016_D                       : 
OTHER              .         Kedr.exe версия 2.1.2.32      : 
OTHER_10           .         TM.GRD = 0.00404*TM$.UE + 0.07: 
OTHER_11           .         MN.ATM = (6.33279e-006*TM.GRD + 0.02401)*(MN$.UE + 2.72*TM.GRD + -2018): 
OTHER_12           .         GK.MKR/H = GK$.UE / 43.5489 + 0: 
OTHER_13           .         RES.SM = 0.00476*CRES.UE - 1.51709: 
OTHER_14           .         PL.GSM3 = 0 + 0 * (PL.UE / 1) +  0 * (PL.UE / 1)^2: 
OTHER_15           .         Постоянная времени ГГП = 6 сек: 
OTHER_16           .         Постоянная времени ГК = 6 сек : 
OTHER_2            .         KedrData.dll версия 3.2.2.14  : 
OTHER_3            .         LasInf.dll версия 3.2.0.13    : 
OTHER_4            .         Драйвер версия 1.2.0.5        : 
OTHER_5            .         Прибор_ КСА-M1                : 
OTHER_6            .         Номер прибора_ 155+р204       : 
OTHER_7            .         Режим_ КСА-М1 + ГГП + Резистивиметр: 
OTHER_8            .         Форма_ 223\2                  : 
OTHER_9            .         Тарировки_                    : 
PROJECT_UPGRADE_TIME .         2021-03-18T21_24_50           : 
TLFamily_CRES      .                                       : 
TLFamily_DEPT      .         Measured Depth                : 
TLFamily_GK        .         Gamma Ray                     : 
TLFamily_GK$       .                                       : 
TLFamily_LM        .         Casing Collar locator         : 
TLFamily_METKA     .                                       : 
TLFamily_MN        .                                       : 
TLFamily_MN$       .                                       : 
TLFamily_PL        .                                       : 
TLFamily_PL_2      .                                       : 
TLFamily_RCOR      .                                       : 
TLFamily_RES       .         Mud Resistivity               : 
TLFamily_SPID      .         Spontaneous Potential         : 
TLFamily_STD       .                                       : 
TLFamily_TIME      .         Time                          : 
TLFamily_TM        .         Temperature                   : 
TLFamily_TM$       .         Temperature                   : 
TLFamily_VGD       .         Gas Volume                    : 
group              .         prim                          : 
~Curve Information
#_______________________________________________________________________________
#
#LOGNAME           .UNIT     LOG_ID                        : DESCRIPTION
#_______________________________________________________________________________
DEPT               .M                                      : 1 Глубина, м -    0.0 см 
CRES               .UE                                     : 9 Проводимость, усл.ед. -  270.0 см 
GK                 .MKR/H                                  : 16 Гамма-активность, мкр./ч -  106.0 см 
GK$                .UE                                     : 13 Гамма-активность, усл.ед. -  106.0 см 
LM                 .                                       : 11 Локатор муфт,  -   16.0 см 
METKA              .                                       : 3 Метки,  -    0.0 см 
MN                 .ATM                                    : 15 Давление, атм. -  160.0 см 
MN$                .UE                                     : 7 Давление, усл.ед. -  160.0 см 
PL                 .UE                                     : 10 Плотность, усл.ед. -  270.0 см 
PL_2               .GSM3                                   : 18 Плотность, г./см3 -  270.0 см 
RCOR               .CM/KM                                  : 5 Коррекция по ролику, см/км -    0.0 см 
RES                .SM                                     : 17 Проводимость,  -  270.0 см 
SPID               .M/H                                    : 2 Скорость, м/час -    0.0 см 
STD                .                                       : 12 Приток,  -  170.0 см 
TIME               .S                                      : 4 Время, сек -    0.0 см 
TM                 .GRD                                    : 14 Температура, °C -  180.0 см 
TM$                .UE                                     : 6 Температура, усл.ед. -  180.0 см 
VGD                .                                       : 8 Влагомер,  -  170.0 см 
~Ascii
# ...
1109       1146       4.62       206        1679       1          100.645    6058       14         0          0          3.9394     1660       7813       4026.08    39.914     9862       6557      
1109.2     1140       4.64       206        1558       0          100.657    6058       14         0          0          3.9077     1660       7813       4026.52    39.919     9864       6558      
1109.4     1135       4.66       206        1281       0          100.676    6059       13         0          0          3.8858     1660       7813       4026.95    39.923     9865       6555      
1109.6     1128       4.57       181        1319       0          100.682    6059       14         0          0          3.8519     1660       7814       4027.39    39.928     9866       6552      
1109.8     1128       4.48       180        2574       0          100.707    6060       14         0          0          3.8511     1660       7814       4027.81    39.932     9867       6552      
1110       1129       4.41       180        2713       0          100.711    6060       15         0          0          3.8569     1660       7815       4028.26    39.941     9869       6553      
1110.2     1128       4.35       180        2041       1          100.738    6061       13         0          0          3.8525     1660       7814       4028.82    39.942     9869       6552      
1110.4     1129       4.31       180        1421       0          100.756    6062       14         0          0          3.857      1660       7814       4029.26    39.949     9871       6549      
1110.6     1130       4.31       188        1000       0          100.757    6062       14         0          0          3.8637     1722       7814       4029.69    39.95      9871       6561      
1110.8     1133       4.35       196        1676       0          100.773    6063       14         0          0          3.8782     1730       7815       4030.11    39.955     9873       6552      
1111       1134       4.38       196        2110       0          100.799    6064       13         0          0          3.8807     1660       7816       4030.54    39.96      9874       6572      
1111.2     1136       4.41       196        1794       0          100.827    6065       14         0          0          3.8911     1660       7816       4030.96    39.961     9874       6563      
1111.4     1138       4.43       196        1379       0          100.83     6065       15         0          0          3.899      1660       7818       4031.41    39.961     9874       6560      
1111.6     1137       4.45       196        944        0          100.855    6066       13         0          0          3.8953     1660       7818       4031.85    39.961     9874       6553      
1111.8     1139       4.55       218        1098       0          100.87     6067       14         0          0          3.9057     1660       7818       4032.27    39.97      9876       6559      
1112       1143       4.71       231        905        0          100.88     6067       13         0          0          3.9236     1707       7821       4032.69    39.973     9877       6551      
1112.2     1143       4.83       231        791        0          100.902    6068       15         0          0          3.925      1672       7820       4033.13    39.979     9879       6547      
1112.4     1144       4.93       231        1646       0          100.905    6068       14         0          0          3.9283     1660       7821       4033.56    39.981     9879       6541      
1112.6     1144       5.01       231        1871       0          100.931    6069       15         0          0          3.9283     1660       7822       4034       39.981     9879       6559      
1112.8     1145       5.04       225        1400       0          100.954    6070       15         0          0          3.9331     1660       7823       4034.43    39.989     9881       6559      
1113       1145       4.96       202        1005       0          100.97     6071       14         0          0          3.9331     1660       7823       4034.87    39.99      9881       6556      
1113.2     1145       4.89       202        2179       0          101.003    6072       13         0          0          3.9347     1660       7826       4035.29    39.995     9882       6562      
1113.4     1146       4.84       202        1872       0          101.004    6072       13         0          0          3.9359     1695       7824       4035.71    40.001     9884       6562      
1113.6     1146       4.8        202        1576       0          101.02     6073       14         0          0          3.9379     1730       7823       4036.14    40.005     9885       6546      
1113.8     1148       4.76       202        1249       0          101.049    6074       13         0          0          3.9455     1679       7825       4036.57    40.008     9886       6547      
1114       1149       4.74       202        1427       0          101.075    6075       14         0          0          3.951      1660       7827       4037.02    40.013     9887       6554      
1114.2     1149       4.46       145        1539       0          101.078    6075       14         0          0          3.9521     1660       7828       4037.45    40.021     9889       6561      
1114.4     1149       4.23       145        1388       0          101.083    6075       14         0          0          3.9521     1660       7828       4037.89    40.026     9890       6568      
1114.6     1149       4.04       145        1597       0          101.103    6076       14         0          0          3.9521     1660       7830       4038.32    40.03      9891       6563      
1114.8     1149       3.9        145        1293       0          101.113    6076       14         0          0          3.9533     1660       7829       4038.76    40.031     9891       6559      
1115       1150       3.78       145        1152       0          101.128    6077       13         0          0          3.9569     1660       7831       4039.19    40.034     9892       6554      
1115.2     1150       3.65       137        987        0          101.143    6078       14         0          0          3.9547     1660       7831       4039.62    40.036     9893       6556      
1115.4     1149       3.52       133        1426       0          101.17     6079       13         0          0          3.9521     1660       7831       4040.04    40.038     9893       6555      
1115.6     1150       3.43       133        1189       0          101.177    6079       13         0          0          3.9558     1660       7832       4040.48    40.044     9894       6550      
1115.8     1152       3.35       133        1570       0          101.178    6079       13         0          0          3.9649     1660       7833       4040.93    40.046     9895       6550      
1116       1151       3.29       133        1148       0          101.227    6081       15         0          0          3.9619     1660       7834       4041.37    40.05      9896       6550      
1116.2     1151       3.24       133        996        0          101.233    6081       14         0          0          3.9614     1644       7834       4041.8     40.058     9898       6540      
1116.4     1150       3.26       147        1355       0          101.252    6082       13         0          0          3.9569     1600       7836       4042.23    40.06      9898       6543      
1116.6     1150       3.39       168        1734       0          101.265    6083       14         0          0          3.9583     1630       7837       4042.66    40.066     9900       6539      
1116.8     1152       3.49       168        8598       0          101.277    6083       14         0          0          3.9659     1703       7834       4043.1     40.07      9901       6551      
1117       1152       3.57       168        5411       0          101.295    6084       13         0          0          3.9656     1730       7836       4043.53    40.077     9903       6540      
