~Version
 VERS              .         2.0                           : CWLS LOG ASCII STANDARD - VERSION 2.0
 WRAP              .         NO                            : ONE LINE PER DEPTH STEP
 DLM               .         SPACE                         : DELIMITING CHARACTER(SPACE TAB OR COMMA)
~Well Information
#_______________________________________________________________________________
#
#PARAMETER_NAME    .UNIT     VALUE                         : DESCRIPTION
#_______________________________________________________________________________
STRT               .M        2649.6                        : First reference value
STOP               .M        2750.799949                   : Last reference value
STEP               .M        0.1999999                     : Step increment
NULL               .         -9999                         : Missing value
COMP               .                                       : Company
WELL               .         616                           : Well name
FLD                .                                       : Field
LOC                .                                       : Location
CNTY               .                                       : County
STAT               .                                       : State
CTRY               .                                       : Country
SRVC               .                                       : Service Company
DATE               .                                       : Date
API                .                                       : API number
PROJECT_UPGRADE_TIME .         2021-03-18T21_24_50           : 
group              .         Good                          : 
~Parameter Information Block
#_______________________________________________________________________________
#
#PARAMETER_NAME    .UNIT     VALUE                         : DESCRIPTION
#_______________________________________________________________________________
SET                .         D4415_D_2                     : 
COMM               .                                       : 
OTHER              .         Запись производится в присутствии: 
OTHER_10           .         Максимальная температура      : 
OTHER_11           .         Тип промывочной жидкости      : 
OTHER_12           .         Сопротивление ПЖ (Ом*м) при 20°C: 
OTHER_13           .         Плотность ПЖ(г/см3)           : 
OTHER_14           .         Вязкость ПЖ(с)                : 
OTHER_15           .         Водоотдача ПЖ(см3/30мин)      : 
OTHER_16           .         Уровень ПЖ                    : 
OTHER_17           .         Нефть ПЖ (%)                  : 
OTHER_18           .         Барит ПЖ (%)                  : 
OTHER_19           .         Гематит ПЖ (%)                : 
OTHER_2            .         Заказчик ННСН  ЦДНГ-1         : 
OTHER_20           .         КМЦ ПЖ (%)                    : 
OTHER_21           .         Разгазирование ПЖ (да,нет)    : 
OTHER_22           .         Подъемник                     : 
OTHER_23           .         Лаборатория                   : 
OTHER_24           .         Тип кабеля                    : 
OTHER_25           .         Длина кабеля (м)              : 
OTHER_26           .         Цена последней метки          : 
OTHER_27           .         Цена контрольной метки        : 
OTHER_28           .         Диаметр долота (мм)           : 
OTHER_29           .         Глубина бурения (м)           : 
OTHER_3            .         Площадь                       : 
OTHER_30           .         Искусственный забой (м)       : 
OTHER_31           .         Диаметр колонны (мм)          : 
OTHER_32           .         Толщина колонны (мм)          : 
OTHER_33           .         Башмак колонны (м)            : 
OTHER_34           .         Диаметр НКТ (мм)              : 
OTHER_35           .         Толщина НКТ (мм)              : 
OTHER_36           .         Воронка НКТ (м)               : 
OTHER_37           .         Дата цементожа                : 
OTHER_38           .         Тип, количество(т) и плотность цемента: 
OTHER_39           .         Интервалы перфорации (м)      : 
OTHER_4            .         Категория                     : 
OTHER_40           .         Направление, диаметр (мм)     : 
OTHER_41           .         Направление, глубина (м)      : 
OTHER_42           .         Кондуктор, диаметр (мм)       : 
OTHER_43           .         Кондуктор, глубина (м)        : 
OTHER_44           .         Техническая колонна, диаметр (мм): 
OTHER_45           .         Техническая колонна, глубина (м): 
OTHER_46           .         Эксплуатационная колонна, диаметр (мм): 
OTHER_47           .         Эксплуатационная колонна, глубина (м): 
OTHER_48           .         Программа Кедр-02 версия 3.4  : 
OTHER_49           .         Операционная система Windows NT 5.1 build 2600 Service Pack 2: 
OTHER_5            .         Назначение исследований       : 
OTHER_50           .         Программное обеспечение станции MONITOR-386EX 25/12/99 15_08_10   BGF V54 20/09/05 15_32_17   3.3__BGF_9030071: 
OTHER_51           .         Kedr.exe версия 3.4.2.74      : 
OTHER_52           .         KedrData.dll версия 3.4.2.29  : 
OTHER_53           .         Мнемоники версия 3.18 S       : 
OTHER_54           .         Драйвер версия 2.1.1.4        : 
OTHER_55           .         LasInf.dll 4.3.0.35           : 
OTHER_56           .         Прибор_ КСА-Т4                : 
OTHER_57           .         Номер прибора_ 160            : 
OTHER_58           .         Режим_ КСА-Т4                 : 
OTHER_59           .         Форма_ С.А.Б.                 : 
OTHER_6            .         Альтитуда стола ротора        : 
OTHER_60           .         Тарировки_                    : 
OTHER_61           .         <_techsia_sc_> Дата тарировки температуры 25.05.2010: 
OTHER_62           .         Ручной ввод коэффициентов     : 
OTHER_63           .         TM.DEGC = 0.00402*RTM.E.ACP + -0.994: 
OTHER_64           .         <_techsia_sc_> Дата тарировки давления 25.05.2010: 
OTHER_65           .         Ручной ввод коэффициентов     : 
OTHER_66           .         MN.ATM = (2.27521e-006*TM.DEGC + 0.02078)*(RMN.E.ACP + 6.2*TM.DEGC + -1688): 
OTHER_67           .         <_techsia_sc_> Дата тарировки ГК 25.05.2010: 
OTHER_68           .         Ручной ввод коэффициентов     : 
OTHER_69           .         GR.UR/H = RGR.IMP/MIN / 45.5144: 
OTHER_7            .         Вид исследований 3  6         : 
OTHER_70           .         GK.FLT = 0.1*GR.UR/H[-1] + (1-0.1)*GR.UR/H[0]: 
OTHER_8            .         Начало бурения интервала каротажа: 
OTHER_9            .         Окончание бурения интервала каротажа: 
PROJECT_UPGRADE_TIME .         2021-03-18T21_24_50           : 
PRTY               .         ПП-601-1                      : N партии
SRVC               .         Барковский                    : Начальник партии
TLFamily_DEPT      .         Measured Depth                : 
TLFamily_LM        .         Casing Collar locator         : 
TLFamily_MN        .                                       : 
TLFamily_TM        .         Temperature                   : 
group              .         second                        : 
~Curve Information
#_______________________________________________________________________________
#
#LOGNAME           .UNIT     LOG_ID                        : DESCRIPTION
#_______________________________________________________________________________
DEPT               .M                                      : Depth curve 
LM                 .е.ацп                                  : Локатор муфт,е.ацп 
MN                 .атм                                    : 12 Давление, атм. -  160.0 см 
TM                 .град.C                                 : Термограмма по стволу скважины,град.C 
~Ascii
# ...
2721.199964 93.988     244.898    59.144    
2721.399964 69.01      244.911    59.09     
2721.599964 88.99      244.924    59.037    
2721.799964 68.99      244.936    58.986    
2721.999964 49.035     244.948    58.924    
2722.199964 118.995    244.961    58.876    
2722.399964 108.001    244.981    58.825    
2722.599963 109.986    245.012    58.773    
2722.799963 81.993     245.035    58.789    
2722.999963 68.145     245.063    58.818    
2723.199963 360.978    245.083    58.828    
2723.399963 316.049    245.102    58.818    
2723.599963 414.967    245.121    58.799    
2723.799963 350.267    245.138    58.755    
2723.999963 2914.195   245.165    58.703    
2724.199963 1283.671   245.179    58.657    
2724.399963 616.974    245.213    58.603    
2724.599962 564.882    245.22     58.562    
2724.799962 327.047    245.244    58.527    
2724.999962 422.852    245.258    58.493    
2725.199962 124.03     245.273    58.454    
2725.399962 183.955    245.286    58.404    
2725.599962 92.986     245.304    58.36     
2725.799962 65.001     245.329    58.322    
2725.999962 67.069     245.352    58.285    
2726.199962 206.049    245.371    58.256    
2726.399962 305.942    245.404    58.218    
2726.599962 188.004    245.414    58.169    
2726.799961 196.013    245.428    58.094    
2726.999961 222.97     245.463    58.099    
2727.199961 162.034    245.491    58.117    
2727.399961 230.93     245.493    58.113    
2727.599961 90.051     245.532    58.093    
2727.799961 193.974    245.548    58.064    
2727.999961 140.999    245.562    58.032    
2728.199961 139.001    245.572    57.978    
2728.399961 142.024    245.583    57.907    
2728.59996 189.992    245.613    57.84     
2728.79996 173.994    245.608    57.723    
2728.99996 161.004    245.591    57.545    
2729.19996 169.965    245.595    57.358    
2729.39996 100.014    245.61     57.201    
2729.59996 127.965    245.608    57.031    
2729.79996 58.018     245.623    56.885    
2729.99996 94.075     245.62     56.727    
2730.19996 244.945    245.62     56.568    
2730.39996 133.985    245.626    56.46     
2730.599959 102.983    245.65     56.424    
2730.799959 68.001     245.682    56.456    
2730.999959 69.994     245.705    56.528    
2731.199959 57.01      245.694    56.445    
2731.399959 78.005     245.636    56.038    
2731.599959 87.992     245.574    55.427    
2731.799959 70.994     245.542    54.888    
2731.999959 59.007     245.494    54.434    
2732.199959 74.003     245.459    54.047    
2732.399959 80.207     245.448    53.758    
2732.599958 497.863    245.449    53.553    
2732.799958 220.927    245.463    53.413    
2732.999958 73         245.469    53.309    
2733.199958 73.016     245.501    53.231    
2733.399958 105.228    245.507    53.179    
2733.599958 566.797    245.472    52.946    
2733.799958 156.994    245.415    52.446    
2733.999958 145.132    245.351    51.845    
2734.199958 411.849    245.349    51.439    
2734.399958 105.993    245.327    51.185    
2734.599958 91.983     245.336    51.002    
2734.799957 58.038     245.365    50.907    
2734.999957 138.53     245.375    50.816    
2735.199957 7269.431   245.4      50.762    
2735.399957 2078.274   245.411    50.659    
2735.599957 611.79     245.426    50.571    
2735.799957 186.949    245.44     50.468    
2735.999957 83.993     245.456    50.38     
2736.199957 68.998     245.492    50.314    
2736.399957 65.001     245.494    50.25     
2736.599956 67.994     245.53     50.194    
2736.799956 56.008     245.565    50.174    
2736.999956 73.002     245.585    50.128    
2737.199956 77.991     245.6      50.097    
2737.399956 59.004     245.637    50.087    
2737.599956 68.002     245.664    50.088    
2737.799956 71.996     245.71     50.062    
2737.999956 63.994     245.741    50.06     
2738.199956 52.029     245.765    50.068    
2738.399956 110.011    245.802    50.053    
2738.599955 132.989    245.821    50.05     
2738.799955 109.977    245.859    50.024    
2738.999955 62.997     245.889    50.016    
2739.199955 57.008     245.912    49.982    
2739.399955 74.02      245.939    49.963    
2739.599955 113.989    245.974    49.947    
2739.799955 92.005     246.01     49.942    
2739.999955 101.98     246.036    49.923    
2740.199955 61.009     246.073    49.912    
2740.399955 79.004     246.114    49.907    
2740.599954 87.986     246.119    49.907    
2740.799954 59.996     246.156    49.903    
2740.999954 51.004     246.179    49.916    
2741.199954 58.998     246.23     49.929    
2741.399954 55.011     246.266    49.943    
2741.599954 76.991     246.306    49.951    
2741.799954 57.996     246.335    49.957    
2741.999954 49.026     246.373    49.959    
2742.199954 100.989    246.414    49.964    
2742.399954 78.996     246.444    49.978    
2742.599954 70.032     246.474    49.995    
2742.799953 133.98     246.526    50.016    
2742.999953 93.975     246.553    50.036    
2743.199953 44.01      246.589    50.055    
2743.399953 63.994     246.625    50.086    
2743.599953 52.003     246.654    50.114    
2743.799953 58.014     246.697    50.147    
2743.999953 86         246.743    50.175    
2744.199953 85.997     246.771    50.195    
2744.399953 78.998     246.826    50.231    
2744.599952 74.998     246.864    50.268    
2744.799952 69.988     246.898    50.313    
2744.999952 45.04      246.937    50.345    
2745.199952 125.985    246.963    50.375    
2745.399952 94.991     246.993    50.41     
2745.599952 75.993     247.037    50.449    
2745.799952 61.002     247.064    50.488    
2745.999952 70.653     247.117    50.522    
2746.199952 9455.991   247.148    50.553    
2746.399952 7418.382   247.184    50.585    
2746.599951 2137.149   247.231    50.615    
2746.799951 420.864    247.257    50.655    
2746.999951 147.03     247.302    50.691    
2747.199951 207.951    247.332    50.729    
2747.399951 109.976    247.36     50.77     
2747.599951 61.997     247.408    50.812    
2747.799951 55.12      247.435    50.854    
2747.999951 296.974    247.48     50.879    
2748.199951 243.937    247.505    50.909    
2748.399951 115.987    247.533    50.926    
2748.59995 88.99      247.578    50.983    
2748.79995 68.002     247.628    51.122    
2748.99995 71.993     247.681    51.21     
2749.19995 57.007     247.713    51.259    
2749.39995 71.999     247.798    51.305    
2749.59995 -9999      247.931    52.045    
2749.79995 -9999      247.967    52.342    
2749.99995 -9999      247.986    52.319    
2750.19995 -9999      248.009    52.279    
2750.39995 -9999      248.088    52.381    
2750.59995 -9999      248.179    52.886    
2750.799949 -9999      248.214    53.035    
