~Version
 VERS              .         2.0                           : CWLS LOG ASCII STANDARD - VERSION 2.0
 WRAP              .         NO                            : ONE LINE PER DEPTH STEP
 DLM               .         SPACE                         : DELIMITING CHARACTER(SPACE TAB OR COMMA)
~Well Information
#_______________________________________________________________________________
#
#PARAMETER_NAME    .UNIT     VALUE                         : DESCRIPTION
#_______________________________________________________________________________
STRT               .M        749.69                        : First reference value
STOP               .M        1410.72                       : Last reference value
STEP               .M        0                             : Step increment
NULL               .         -9999                         : Missing value
COMP               .                                       : Company
WELL               .         616                           : Well name
FLD                .                                       : Field
LOC                .                                       : Location
CNTY               .                                       : County
STAT               .                                       : State
CTRY               .                                       : Country
SRVC               .                                       : Service Company
DATE               .                                       : Date
API                .                                       : API number
PROJECT_UPGRADE_TIME .         2021-03-18T21_24_50           : 
group              .         Good                          : 
~Parameter Information Block
#_______________________________________________________________________________
#
#PARAMETER_NAME    .UNIT     VALUE                         : DESCRIPTION
#_______________________________________________________________________________
SET                .         D0928                         : 
NPR                .         210404                        : ЗАВ НОМЕР ПРИБОРА
NPRT               .         Каштанов                      : НАЧ ПАРТИИ
PROJECT_UPGRADE_TIME .         2021-03-18T21_24_49           : 
TLFamily_AZIMUTH   .         True Dip Azimuth              : 
TLFamily_DEPTH     .         Measured Depth                : 
TLFamily_DRILL     .                                       : 
TLFamily_METKA     .                                       : 
TLFamily_ZENIT     .                                       : 
group              .         prim                          : 
~Curve Information
#_______________________________________________________________________________
#
#LOGNAME           .UNIT     LOG_ID                        : DESCRIPTION
#_______________________________________________________________________________
DEPTH              .M                                      : 1 ГЛУБИНА 
AZIMUTH            .ГРАД                                   : 4 АЗИМУТ 
DRILL              .ГРАД                                   : 2 ПОВОРОТ 
METKA              .                                       : 5 МАГН МЕТКА 
ZENIT              .ГРАД                                   : 3 ЗЕНИТ 
~Ascii
# ...
1266.29    358.73     116.41     0          34.1      
1266.48    357.3      110.96     0          34.1      
1266.66    356.14     106.07     0          34.11     
1266.84    356.96     102.19     0          34.07     
1267.02    356.01     99.48      0          34.03     
1267.2     351.98     97.74      0          34        
1267.39    350.31     96.83      0          33.96     
1267.57    349.44     96.67      0          33.94     
1267.75    350.7      97.41      0          33.9      
1267.93    350.83     99.03      0          33.92     
1268.11    348.81     101.25     0          33.92     
1268.3     349.34     103.89     0          33.91     
1268.48    350.11     106.87     0          33.86     
1268.66    351.1      109.93     0          33.83     
1268.84    352.62     112.85     0          33.8      
1269.03    351.94     115.51     0          33.77     
1269.21    353.11     117.84     0          33.74     
1269.39    351.15     119.84     0          33.73     
1269.57    349.91     121.59     0          33.69     
1269.75    350.03     123.13     0          33.7      
1269.94    352.05     124.44     0          33.65     
1270.12    350.64     125.59     0          33.65     
1270.3     349.58     126.6      0          33.64     
1270.48    349.7      127.55     0          33.63     
1270.66    350.14     128.48     0          33.6      
1270.85    350.85     129.41     0          33.56     
1271.03    350.74     130.3      0          33.55     
1271.21    351.63     131.18     0          33.49     
1271.39    351.37     132.05     0          33.49     
1271.57    351        132.9      0          33.44     
1271.76    351.39     133.79     0          33.4      
1271.94    352.26     134.72     0          33.36     
1272.12    353.36     135.68     0          33.34     
1272.3     353.28     136.63     0          33.33     
1272.48    353.9      137.53     0          33.35     
1272.67    354.48     138.48     0          33.35     
1272.85    355.29     139.48     0          33.36     
1273.03    355.6      140.63     0          33.33     
1273.21    355.03     142.02     0          33.35     
1273.39    355.5      143.65     0          33.33     
1273.58    356.38     145.53     0          33.36     
1273.76    356.02     147.61     0          33.37     
1273.94    356.1      149.75     0          33.39     
1274.12    355.88     151.94     0          33.4      
1274.3     354.88     154.26     0          33.4      
1274.49    353.6      156.81     0          33.41     
1274.67    353.21     159.6      0          33.43     
1274.85    352.63     162.62     0          33.43     
1275.03    351.66     165.81     0          33.42     
1275.21    350.62     169.02     0          33.41     
1275.4     349.54     172.02     0          33.38     
1275.58    349.61     174.29     0          33.37     
1275.76    348.47     175.47     0          33.41     
1275.94    347.28     175.6      0          33.43     
1276.12    346.31     174.87     0          33.44     
1276.3     345.7      173.31     0          33.47     
1276.49    344.9      171.1      0          33.48     
1276.67    342.65     168.34     0          33.49     
1276.85    340.21     165.24     0          33.53     
1277.03    337.12     162.13     0          33.53     
1277.21    335.15     158.88     0          33.58     
1277.4     335.23     155.46     0          33.57     
1277.58    335.48     151.98     0          33.61     
1277.76    336.16     148.35     0          33.61     
1277.94    335.96     144.55     0          33.64     
1278.12    337.17     140.35     0          33.69     
1278.3     335.1      135.38     0          33.69     
1278.49    337.17     129.53     0          33.76     
1278.67    338.37     123.04     0          33.75     
1278.85    339.19     116.52     0          33.81     
1279.03    338.65     110.47     0          33.78     
1279.21    338.78     105.41     0          33.81     
1279.4     340.14     101.49     0          33.79     
1279.58    340.7      98.73      0          33.77     
1279.76    343.14     97.02      0          33.76     
1279.94    345.25     96.15      0          33.74     
1280.13    347.47     95.87      0          33.73     
1280.31    349.06     96.12      0          33.74     
1280.49    351.18     97         0          33.72     
1280.67    353.22     98.87      0          33.72     
1280.85    353.95     101.56     0          33.75     
1281.03    355.63     104.8      0          33.76     
1281.22    356.42     108.2      0          33.73     
1281.4     358.35     111.43     0          33.72     
1281.58    359.16     114.39     0          33.69     
1281.76    359.89     117.06     0          33.68     
1281.95    0.66       119.47     0          33.66     
1282.13    2.38       121.61     0          33.66     
1282.31    4.47       123.43     0          33.59     
1282.49    5.6        124.94     0          33.61     
1282.67    7.77       126.32     0          33.56     
1282.86    7.12       127.63     0          33.58     
1283.04    6.77       128.85     0          33.56     
1283.22    6.21       130.02     0          33.55     
1283.4     6.54       131.16     0          33.52     
1283.59    6.53       132.25     0          33.5      
1283.77    8.38       133.31     0          33.49     
1283.95    6.27       134.32     0          33.46     
1284.13    4.67       135.3      0          33.46     
1284.31    4.55       136.27     0          33.43     
1284.5     4.99       137.19     0          33.43     
1284.68    5.29       138.02     0          33.41     
1284.86    4.14       138.77     0          33.4      
1285.04    3.35       139.41     0          33.42     
1285.23    2.85       139.93     0          33.43     
1285.41    2.63       140.37     0          33.43     
1285.59    1.97       140.74     0          33.43     
1285.77    1.49       141.1      0          33.42     
1285.95    1.29       141.54     0          33.45     
1286.14    0.67       141.83     0          33.46     
1286.32    1.12       141.93     0          33.48     
1286.5     0.31       141.97     0          33.47     
1286.68    0.37       142.01     0          33.48     
1286.86    0.79       142.09     0          33.47     
1287.05    0.88       142.18     0          33.49     
1287.23    1.14       142.23     0          33.48     
1287.41    1.37       142.25     0          33.49     
1287.59    1.86       142.22     0          33.48     
1287.78    1.43       142.17     0          33.5      
1287.96    3.26       142.06     0          33.49     
1288.14    3.13       141.96     0          33.49     
1288.32    2.09       141.92     0          33.47     
1288.51    1.97       141.9      0          33.48     
1288.69    4.44       141.88     0          33.47     
1288.87    6.48       141.83     0          33.48     
1289.05    8.78       141.78     0          33.48     
1289.24    10.48      141.75     0          33.49     
1289.42    11.66      141.76     0          33.48     
1289.6     12.15      141.79     0          33.49     
1289.78    11.51      141.81     0          33.49     
1289.97    11.83      141.82     0          33.5      
1290.15    11.62      141.85     0          33.5      
1290.33    11.54      141.85     0          33.51     
1290.51    13.99      141.81     0          33.52     
1290.7     16.93      141.8      0          33.53     
1290.88    16.69      141.79     0          33.52     
1291.06    15.68      141.81     0          33.51     
1291.24    15.61      141.87     0          33.52     
1291.43    14.45      141.95     0          33.49     
1291.61    13.64      142.04     0          33.49     
1291.79    12.3       142.13     0          33.46     
1291.97    10.81      142.17     0          33.45     
1292.16    9.84       142.17     0          33.43     
1292.34    6.77       142.13     0          33.42     
1292.52    6.61       142.07     0          33.41     
1292.7     4.53       141.95     0          33.42     
