~Version
 VERS              .         2.0                           : CWLS LOG ASCII STANDARD - VERSION 2.0
 WRAP              .         NO                            : ONE LINE PER DEPTH STEP
 DLM               .         SPACE                         : DELIMITING CHARACTER(SPACE TAB OR COMMA)
~Well Information
#_______________________________________________________________________________
#
#PARAMETER_NAME    .UNIT     VALUE                         : DESCRIPTION
#_______________________________________________________________________________
STRT               .M        2669.8                        : First reference value
STOP               .M        2775.8                        : Last reference value
STEP               .M        0.2                           : Step increment
NULL               .         -9999                         : Missing value
COMP               .                                       : Company
WELL               .         616                           : Well name
FLD                .                                       : Field
LOC                .                                       : Location
CNTY               .                                       : County
STAT               .                                       : State
CTRY               .                                       : Country
SRVC               .                                       : Service Company
DATE               .                                       : Date
API                .                                       : API number
PROJECT_UPGRADE_TIME .         2021-03-18T21_24_50           : 
group              .         Good                          : 
~Parameter Information Block
#_______________________________________________________________________________
#
#PARAMETER_NAME    .UNIT     VALUE                         : DESCRIPTION
#_______________________________________________________________________________
SET                .         D1812_D                       : 
OTHER              .         Программное обеспечение станции MONITOR-386EX 25/12/99 15_08_10   BGF V52 22/08/01 16_56_30   3.1_SNGF___BGF_N_092049: 
OTHER_10           .         Тарировки_                    : 
OTHER_11           .         TM.GRD = 0.00403*TM$.UE + -1.07: 
OTHER_12           .         MN.ATM = (9.34907e-006*TM.GRD + 0.02171)*(MN$.UE + -7.93*TM.GRD + -1787): 
OTHER_13           .         GK.MKR/H = LM. / 42.4676      : 
OTHER_14           .         GK.FLT = 0.1*GK.MKR/H[-1] + (1-0.1)*GK.MKR/H[0]: 
OTHER_2            .         Kedr.exe версия 3.4.2.51      : 
OTHER_3            .         KedrData.dll версия 3.4.2.24  : 
OTHER_4            .         Драйвер версия 2.1.1.3        : 
OTHER_5            .         Мнемоники версия 3.3 S        : 
OTHER_6            .         Прибор_ КСА-Т4                : 
OTHER_7            .         Номер прибора_ 03             : 
OTHER_8            .         Режим_ КСА-Т4                 : 
OTHER_9            .         Форма_ КВА.                   : 
PROJECT_UPGRADE_TIME .         2021-03-18T21_24_49           : 
TLFamily_DEPT      .         Measured Depth                : 
TLFamily_GK        .         Gamma Ray                     : 
TLFamily_GK$       .                                       : 
TLFamily_GK_2      .         Gamma Ray                     : 
TLFamily_LM        .         Casing Collar locator         : 
TLFamily_METKA     .                                       : 
TLFamily_MN        .                                       : 
TLFamily_MN$       .                                       : 
TLFamily_RCOR      .                                       : 
TLFamily_SPID      .         Spontaneous Potential         : 
TLFamily_TENS      .         Cable Tension                 : 
TLFamily_TIME      .         Time                          : 
TLFamily_TM        .         Temperature                   : 
TLFamily_TM$       .         Temperature                   : 
group              .         prim                          : 
~Curve Information
#_______________________________________________________________________________
#
#LOGNAME           .UNIT     LOG_ID                        : DESCRIPTION
#_______________________________________________________________________________
DEPT               .M                                      : 1 Глубина, м -    0.0 см 
GK                 .MKR/H                                  : 13 Гамма-активность, мкр./ч -  110.0 см 
GK$                .UE                                     : 10 Гамма-активность, усл.ед. -  110.0 см 
GK_2               .FLT                                    : 14 Гамма-активность фильтрованная, мкр./ч -  110.0 см 
LM                 .                                       : 9 Локатор муфт,  -   20.0 см 
METKA              .                                       : 3 Метки,  -    0.0 см 
MN                 .ATM                                    : 12 Давление, атм. -  160.0 см 
MN$                .UE                                     : 8 Давление, усл.ед. -  160.0 см 
RCOR               .CM/KM                                  : 5 Коррекция по ролику, см/км -    0.0 см 
SPID               .M/H                                    : 2 Скорость, м/час -    0.0 см 
TENS               .T                                      : 6 Натяжение кабеля, т -    0.0 см 
TIME               .S                                      : 4 Время, сек -    0.0 см 
TM                 .GRD                                    : 11 Температура, °C -  170.0 см 
TM$                .UE                                     : 7 Температура, усл.ед. -  170.0 см 
~Ascii
2669.8     -9999      -9999      -9999      -9999      0          -9999      -9999      -9999      -9999      -9999      -9999      -9999      -9999     
2670       -9999      -9999      -9999      58         2          -9999      -9999      -606       -284       0.04       7067.38    -9999      -9999     
2670.2     -9999      -9999      -9999      156        0          -9999      -9999      -606       -39        0.05       7068.72    -9999      -9999     
2670.4     -9999      -9999      -9999      4102       0          -9999      -9999      -606       133        0.05       7070.05    -9999      -9999     
2670.6     -9999      -9999      -9999      1039       0          -9999      -9999      -606       261        0.05       7071.3     -9999      -9999     
2670.8     -9999      -9999      -9999      440        0          -9999      -9999      -606       350        0.05       7072.55    -9999      -9999     
2671       7.86       334        7.92       345        0          -9999      -9999      -606       418        0.05       7073.8     -9999      -9999     
2671.2     7.75       329        7.75       499        0          -9999      -9999      -606       466        0.05       7075.05    -9999      -9999     
2671.4     8.62       366        8.5        322        0          -9999      -9999      -606       497        0.05       7076.3     -9999      -9999     
2671.6     8.62       366        8.61       333        0          245.584    13263      -606       518        0.05       7077.56    51.804     13120     
2671.8     8.31       353        8.38       302        0          245.629    13265      -606       529        0.05       7078.86    51.808     13121     
2672       8.31       353        8.31       310        0          245.592    13263      -606       523        0.05       7080.24    51.804     13120     
2672.2     8.78       373        8.65       330        0          245.651    13266      -606       532        0.05       7081.56    51.805     13120     
2672.4     8.78       373        8.78       337        0          245.651    13266      -606       532        0.05       7082.94    51.808     13121     
2672.6     9.89       420        9.74       352        0          245.666    13267      -606       532        0.05       7084.21    51.8       13119     
2672.8     9.89       420        9.88       347        0          245.674    13267      -606       532        0.05       7085.56    51.794     13118     
2673       10.62      451        10.52      372        0          245.682    13267      -606       541        0.05       7086.91    51.788     13116     
2673.2     10.62      451        10.62      295        0          245.697    13268      -606       547        0.05       7088.19    51.787     13116     
2673.4     9.42       400        9.56       303        0          245.72     13269      -606       548        0.05       7089.56    51.779     13114     
2673.6     9.42       400        9.42       290        0          245.721    13269      -606       538        0.05       7090.96    51.763     13110     
2673.8     8.22       349        8.27       289        0          245.729    13269      -606       539        0.05       7092.25    51.753     13107     
2674       8.22       349        8.22       271        0          245.745    13270      -606       536        0.05       7093.6     51.742     13105     
2674.2     7.61       323        7.63       278        0          245.754    13270      -606       534        0.05       7094.89    51.731     13102     
2674.4     7.61       323        7.61       286        0          245.791    13272      -606       539        0.05       7096.27    51.718     13099     
2674.6     6.62       281        6.65       300        0          245.792    13272      -606       542        0.05       7097.58    51.708     13096     
2674.8     6.45       274        6.51       274        0          245.814    13273      -606       547        0.05       7098.89    51.697     13094     
2675       6.45       274        6.45       277        0          245.815    13273      -606       544        0.05       7100.2     51.687     13091     
2675.2     6.05       257        6.18       256        0          245.839    13274      -606       550        0.05       7101.61    51.671     13087     
2675.4     6.05       257        6.06       255        0          245.839    13274      -606       537        0.05       7102.95    51.659     13084     
2675.6     6.05       257        6.05       271        0          245.862    13275      -606       538        0.05       7104.25    51.656     13083     
2675.8     6.05       257        6.05       255        0          245.884    13276      -606       533        0.05       7105.58    51.65      13082     
2676       6.12       260        6.11       279        0          245.885    13276      -606       541        0.05       7106.89    51.636     13078     
2676.2     6.12       260        6.12       250        0          245.909    13277      -606       541        0.05       7108.21    51.626     13076     
2676.4     6.66       283        6.62       249        0          245.921    13278      -606       540        0.05       7109.58    51.614     13073     
2676.6     6.66       283        6.66       227        0          245.933    13278      -606       537        0.05       7110.87    51.601     13070     
2676.8     6.85       291        6.84       216        0          245.956    13279      -606       534        0.05       7112.22    51.587     13066     
2677       6.85       291        6.85       281        0          245.964    13279      -606       540        0.05       7113.64    51.575     13063     
2677.2     6.73       286        6.74       253        0          245.98     13280      -606       533        0.05       7114.91    51.566     13061     
2677.4     6.84       291        6.8        257        0          246.002    13281      -606       541        0.05       7116.22    51.551     13057     
2677.6     7.37       313        7.35       279        0          246.003    13281      -606       539        0.05       7117.54    51.542     13055     
2677.8     7.5        318        7.45       273        0          246.041    13283      -606       548        0.05       7118.91    51.527     13051     
2678       8.01       340        7.99       231        0          246.049    13283      -606       539        0.05       7120.22    51.517     13049     
2678.2     7.25       308        7.44       236        0          246.072    13284      -606       540        0.05       7121.53    51.511     13047     
2678.4     7.25       308        7.26       264        0          246.095    13285      -606       534        0.05       7122.88    51.497     13044     
2678.6     6.45       274        6.65       233        0          246.096    13285      -606       535        0.05       7124.3     51.485     13041     
2678.8     6.45       274        6.46       226        0          246.101    13285      -606       538        0.05       7125.61    51.477     13039     
2679       6.83       290        6.79       260        0          246.142    13287      -606       545        0.05       7126.92    51.465     13036     
2679.2     6.83       290        6.83       218        0          246.143    13287      -606       546        0.05       7128.23    51.453     13033     
2679.4     6.95       295        6.94       181        0          246.166    13288      -606       547        0.05       7129.56    51.445     13031     
2679.6     6.95       295        6.95       235        0          246.174    13288      -606       547        0.05       7130.86    51.433     13028     
2679.8     6.99       297        6.99       245        0          246.208    13290      -606       542        0.05       7132.23    51.424     13026     
2680       7.02       298        7.01       210        2          246.213    13290      -606       539        0.05       7133.42    51.41      13022     
