~Version
 VERS              .         2.0                           : CWLS LOG ASCII STANDARD - VERSION 2.0
 WRAP              .         NO                            : ONE LINE PER DEPTH STEP
 DLM               .         SPACE                         : DELIMITING CHARACTER(SPACE TAB OR COMMA)
~Well Information
#_______________________________________________________________________________
#
#PARAMETER_NAME    .UNIT     VALUE                         : DESCRIPTION
#_______________________________________________________________________________
STRT               .M        1149                          : First reference value
STOP               .M        2127.4                        : Last reference value
STEP               .M        0.2                           : Step increment
NULL               .         -9999                         : Missing value
COMP               .                                       : Company
WELL               .         616                           : Well name
FLD                .                                       : Field
LOC                .                                       : Location
CNTY               .                                       : County
STAT               .                                       : State
CTRY               .                                       : Country
SRVC               .                                       : Service Company
DATE               .                                       : Date
API                .                                       : API number
PROJECT_UPGRADE_TIME .         2021-03-18T21_24_50           : 
group              .         Good                          : 
~Parameter Information Block
#_______________________________________________________________________________
#
#PARAMETER_NAME    .UNIT     VALUE                         : DESCRIPTION
#_______________________________________________________________________________
SET                .         616_9                         : 
CONF               .         00                            : 
END                .         0                             : 
ERR                .         0                             : 
GS00               .M        2125.46                       : 
GS01               .M        1146.68                       : 
MM00               .M        2120.00                       : 
NOKG               .         0                             : 
NPR                .         990907                        : 
PART               .         Ивашин                        : 
PROJECT_UPGRADE_TIME .         2021-03-18T21_24_49           : 
PRZK               .         Шакиров                       : 
TLFamily_AZIMUTH   .         True Dip Azimuth              : 
TLFamily_DEPTH     .         Measured Depth                : 
TLFamily_METKA     .                                       : 
TLFamily_ROLL      .                                       : 
TLFamily_SPEED     .         Spontaneous Potential         : 
TLFamily_ZENIT     .                                       : 
VPRG               .         310                           : 
WAY                .         UP                            : 
group              .         prim                          : 
~Curve Information
#_______________________________________________________________________________
#
#LOGNAME           .UNIT     LOG_ID                        : DESCRIPTION
#_______________________________________________________________________________
DEPTH              .M                                      :  
AZIMUTH            .DEG                                    :  
METKA              .                                       :  
ROLL               .DEG                                    :  
SPEED              .M/H                                    :  
ZENIT              .DEG                                    :  
~Ascii
# ...
1466.2     260.29     0          319.83     612        33.47     
1466.4     259.64     0          319.38     648        33.32     
1466.6     260.07     0          318.81     648        33.39     
1466.8     259.64     0          318.54     684        33.36     
1467       259.47     0          318.39     612        33.21     
1467.2     259.85     0          318.04     648        33.23     
1467.4     259.28     0          318.18     648        33.13     
1467.6     259.42     0          318.08     612        33.2      
1467.8     262.12     0          318.44     648        33.63     
1468       267.63     0          319.03     648        34.59     
1468.2     262.13     0          320.54     648        33.29     
1468.4     259.63     0          320.27     648        33.33     
1468.6     259.76     0          319.13     648        33.39     
1468.8     258.77     0          318.9      648        33.29     
1469       258.25     0          319.8      648        33.16     
1469.2     259.7      0          319.98     648        33.28     
1469.4     259.87     0          319.25     648        33.22     
1469.6     260.1      0          318.64     648        33.36     
1469.8     260.61     0          317.99     612        33.43     
1470       259.87     0          318.13     648        33.28     
1470.2     259.27     0          318.47     648        33.26     
1470.4     259.37     0          319.1      648        33.46     
1470.6     258.94     0          319.46     648        33.27     
1470.8     259.18     0          319.33     648        33.21     
1471       258.31     0          319.32     648        33.04     
1471.2     258.61     0          319.49     648        33.12     
1471.4     259.22     0          319.81     648        33.26     
1471.6     259.15     0          320.55     648        33.25     
1471.8     259.2      0          320.96     648        33.22     
1472       259.52     0          320.7      648        33.29     
1472.2     259.24     1          320.65     612        33.24     
1472.4     259.7      0          319.58     648        33.27     
1472.6     259.66     0          319.09     648        33.34     
1472.8     259.25     0          319.66     648        33.27     
1473       259.83     0          319.96     648        33.29     
1473.2     259.6      0          320        648        33.33     
1473.4     259.83     0          320.05     648        33.36     
1473.6     258.86     0          319.95     648        33.18     
1473.8     259.57     0          319.62     648        33.29     
1474       260.07     0          319.11     648        33.35     
1474.2     259.69     0          318.84     648        33.29     
1474.4     260.25     0          318.81     612        33.39     
1474.6     260.23     0          319.37     648        33.48     
1474.8     261.23     0          320.57     648        33.54     
1475       260.59     0          321.3      612        33.29     
1475.2     261.76     0          321.37     648        33.37     
1475.4     262.85     0          320.71     648        33.27     
1475.6     267.15     0          320.38     648        33.47     
1475.8     279.44     0          320.73     648        33.51     
1476       318.13     0          320.58     648        33.59     
1476.2     9.93       0          320.33     648        33.4      
1476.4     170.99     0          320.18     648        33.62     
1476.6     189.24     0          319.43     648        33.47     
1476.8     335.89     0          318.55     612        33.26     
1477       281.47     0          317.36     648        33.77     
1477.2     267.01     0          317.05     648        33.64     
1477.4     263.87     0          316.6      648        33.76     
1477.6     262.59     0          317.83     612        33.76     
1477.8     261.01     0          319.79     648        33.42     
1478       260.89     0          320.85     648        33.5      
1478.2     259.63     0          321.14     648        33.24     
1478.4     260.51     0          320.75     648        33.37     
1478.6     262.25     0          320.72     648        33.86     
1478.8     263.43     0          320.3      648        33.97     
1479       260.55     0          320.25     612        33.48     
1479.2     259.61     0          319.76     648        33.03     
1479.4     259.01     0          318.64     648        32.84     
1479.6     259.42     0          317.99     612        32.74     
1479.8     259.98     0          317.84     648        32.87     
1480       262.06     0          318.4      648        33.65     
1480.2     256.57     0          322.13     648        33.02     
1480.4     259.05     0          323.14     648        33.02     
1480.6     259.4      0          323.13     648        33.08     
1480.8     259.77     0          322.29     648        33        
1481       259.82     0          321.08     648        33.06     
1481.2     259.52     0          321.53     648        33.03     
1481.4     260.24     0          322.34     648        33.11     
1481.6     259.33     0          322.58     648        32.99     
1481.8     260.06     0          322.76     648        33.16     
1482       259.22     0          322.76     612        33.01     
1482.2     259.52     1          322.46     648        33.05     
1482.4     259.79     0          321.8      648        33.07     
1482.6     259.42     0          321.66     648        33.05     
1482.8     259.81     0          321.38     648        33.1      
1483       259.85     0          321.38     648        33.12     
1483.2     259.92     0          321.67     648        33.14     
1483.4     259.46     0          322.05     612        33.05     
1483.6     259.64     0          322.51     648        33.15     
1483.8     259.52     0          322.66     648        33.07     
1484       259.55     0          322.8      612        33.13     
1484.2     259.83     0          323        648        33.14     
1484.4     259.99     0          323.22     648        33.17     
1484.6     259.91     0          323.26     648        33.18     
1484.8     259.38     0          323.07     648        33.1      
1485       259.49     0          322.93     648        33.13     
1485.2     259.94     0          323.2      648        33.28     
1485.4     259.22     0          324.02     648        33.11     
1485.6     259.19     0          324.54     612        33.13     
1485.8     259.98     0          324.54     648        33.33     
1486       260.03     0          324.44     648        33.33     
1486.2     259.7      0          324.37     648        33.29     
1486.4     258.87     0          324.06     648        33.07     
1486.6     258.87     0          322.76     612        33.1      
1486.8     260.69     0          319.74     648        33.18     
1487       260.46     0          317.21     648        33.29     
1487.2     260.72     0          316.38     648        33.29     
1487.4     262.2      0          317.02     648        33.39     
1487.6     263.81     0          318.24     648        33.18     
1487.8     269.96     0          319.23     648        33.21     
1488       292.49     0          319.89     648        33.19     
1488.2     337.1      0          320.42     612        33.19     
1488.4     194.21     0          321.3      648        33.2      
1488.6     198.05     0          322.06     612        33.19     
1488.8     342.55     0          322.36     648        32.95     
1489       287.3      0          322.25     648        33.14     
1489.2     269.89     0          321.97     648        33.26     
1489.4     263.58     0          321.88     648        33.15     
1489.6     262.05     0          322.45     648        33.17     
1489.8     260.88     0          323.12     648        33.05     
1490       260.32     0          323.15     648        32.88     
1490.2     260.02     0          322.79     648        32.86     
1490.4     260.12     0          322.94     648        32.86     
