~Version
 VERS              .         2.0                           : CWLS LOG ASCII STANDARD - VERSION 2.0
 WRAP              .         NO                            : ONE LINE PER DEPTH STEP
 DLM               .         SPACE                         : DELIMITING CHARACTER(SPACE TAB OR COMMA)
~Well Information
#_______________________________________________________________________________
#
#PARAMETER_NAME    .UNIT     VALUE                         : DESCRIPTION
#_______________________________________________________________________________
STRT               .M        2645.4                        : First reference value
STOP               .M        2753.4                        : Last reference value
STEP               .M        0.2                           : Step increment
NULL               .         -9999                         : Missing value
COMP               .                                       : Company
WELL               .         616                           : Well name
FLD                .                                       : Field
LOC                .                                       : Location
CNTY               .                                       : County
STAT               .                                       : State
CTRY               .                                       : Country
SRVC               .                                       : Service Company
DATE               .                                       : Date
API                .                                       : API number
PROJECT_UPGRADE_TIME .         2021-03-18T21_24_50           : 
group              .         Good                          : 
~Parameter Information Block
#_______________________________________________________________________________
#
#PARAMETER_NAME    .UNIT     VALUE                         : DESCRIPTION
#_______________________________________________________________________________
SET                .         D4410_D                       : 
OTHER              .         Запись производится в присутствии: 
OTHER_10           .         Максимальная температура      : 
OTHER_11           .         Тип промывочной жидкости      : 
OTHER_12           .         Сопротивление ПЖ (Ом*м) при 20°C: 
OTHER_13           .         Плотность ПЖ(г/см3)           : 
OTHER_14           .         Вязкость ПЖ(с)                : 
OTHER_15           .         Водоотдача ПЖ(см3/30мин)      : 
OTHER_16           .         Уровень ПЖ                    : 
OTHER_17           .         Нефть ПЖ (%)                  : 
OTHER_18           .         Барит ПЖ (%)                  : 
OTHER_19           .         Гематит ПЖ (%)                : 
OTHER_2            .         Заказчик ННСН  ЦДНГ-1         : 
OTHER_20           .         КМЦ ПЖ (%)                    : 
OTHER_21           .         Разгазирование ПЖ (да,нет)    : 
OTHER_22           .         Подъемник                     : 
OTHER_23           .         Лаборатория                   : 
OTHER_24           .         Тип кабеля                    : 
OTHER_25           .         Длина кабеля (м)              : 
OTHER_26           .         Цена последней метки          : 
OTHER_27           .         Цена контрольной метки        : 
OTHER_28           .         Диаметр долота (мм)           : 
OTHER_29           .         Глубина бурения (м)           : 
OTHER_3            .         Площадь                       : 
OTHER_30           .         Искусственный забой (м)       : 
OTHER_31           .         Диаметр колонны (мм)          : 
OTHER_32           .         Толщина колонны (мм)          : 
OTHER_33           .         Башмак колонны (м)            : 
OTHER_34           .         Диаметр НКТ (мм)              : 
OTHER_35           .         Толщина НКТ (мм)              : 
OTHER_36           .         Воронка НКТ (м)               : 
OTHER_37           .         Дата цементожа                : 
OTHER_38           .         Тип, количество(т) и плотность цемента: 
OTHER_39           .         Интервалы перфорации (м)      : 
OTHER_4            .         Категория                     : 
OTHER_40           .         Направление, диаметр (мм)     : 
OTHER_41           .         Направление, глубина (м)      : 
OTHER_42           .         Кондуктор, диаметр (мм)       : 
OTHER_43           .         Кондуктор, глубина (м)        : 
OTHER_44           .         Техническая колонна, диаметр (мм): 
OTHER_45           .         Техническая колонна, глубина (м): 
OTHER_46           .         Эксплуатационная колонна, диаметр (мм): 
OTHER_47           .         Эксплуатационная колонна, глубина (м): 
OTHER_48           .         Программа Кедр-02 версия 3.4  : 
OTHER_49           .         Операционная система Windows NT 5.1 build 2600 Service Pack 2: 
OTHER_5            .         Назначение исследований       : 
OTHER_50           .         Программное обеспечение станции MONITOR-386EX 25/12/99 15_08_10   BGF V54 20/09/05 15_32_17   3.3__BGF_9030071: 
OTHER_51           .         Kedr.exe версия 3.4.2.74      : 
OTHER_52           .         KedrData.dll версия 3.4.2.29  : 
OTHER_53           .         Мнемоники версия 3.18 S       : 
OTHER_54           .         Драйвер версия 2.1.1.4        : 
OTHER_55           .         LasInf.dll 4.3.0.35           : 
OTHER_56           .         Прибор_ КСА-Т4                : 
OTHER_57           .         Номер прибора_ 160            : 
OTHER_58           .         Режим_ КСА-Т4                 : 
OTHER_59           .         Форма_ С.А.Б.                 : 
OTHER_6            .         Альтитуда стола ротора        : 
OTHER_60           .         Тарировки_                    : 
OTHER_61           .         <_techsia_sc_> Дата тарировки температуры 25.05.2010: 
OTHER_62           .         Ручной ввод коэффициентов     : 
OTHER_63           .         TM.DEGC = 0.00402*RTM.E.ACP + -0.994: 
OTHER_64           .         <_techsia_sc_> Дата тарировки давления 25.05.2010: 
OTHER_65           .         Ручной ввод коэффициентов     : 
OTHER_66           .         MN.ATM = (2.27521e-006*TM.DEGC + 0.02078)*(RMN.E.ACP + 6.2*TM.DEGC + -1688): 
OTHER_67           .         <_techsia_sc_> Дата тарировки ГК 25.05.2010: 
OTHER_68           .         Ручной ввод коэффициентов     : 
OTHER_69           .         GR.UR/H = RGR.IMP/MIN / 45.5144: 
OTHER_7            .         Вид исследований 3  6         : 
OTHER_70           .         GK.FLT = 0.1*GR.UR/H[-1] + (1-0.1)*GR.UR/H[0]: 
OTHER_8            .         Начало бурения интервала каротажа: 
OTHER_9            .         Окончание бурения интервала каротажа: 
PROJECT_UPGRADE_TIME .         2021-03-18T21_24_50           : 
TLFamily_CCLC      .                                       : 
TLFamily_DEPT      .         Measured Depth                : 
TLFamily_GK        .         Gamma Ray                     : 
TLFamily_GR        .         Gamma Ray                     : 
TLFamily_METKA     .                                       : 
TLFamily_MN        .                                       : 
TLFamily_RCOR      .                                       : 
TLFamily_RGR       .                                       : 
TLFamily_RMN       .                                       : 
TLFamily_RTEN      .                                       : 
TLFamily_RTM       .                                       : 
TLFamily_SPEE      .         Cable Speed                   : 
TLFamily_TIME      .         Time                          : 
TLFamily_TM        .         Temperature                   : 
group              .         prim                          : 
~Curve Information
#_______________________________________________________________________________
#
#LOGNAME           .UNIT     LOG_ID                        : DESCRIPTION
#_______________________________________________________________________________
DEPT               .M                                      : 1 Глубина, м -    0.0 см 
CCLC               .E.ACP                                  : 9 Локатор муфт,  -   20.0 см 
GK                 .FLT                                    : 14 Гамма-активность фильтрованная, мкр./ч -  110.0 см 
GR                 .UR/H                                   : 13 Гамма-активность, мкр./ч -  110.0 см 
METKA              .CU                                     : 3 Метки,  -    0.0 см 
MN                 .ATM                                    : 12 Давление, атм. -  160.0 см 
RCOR               .CM/KM                                  : 5 Коррекция по ролику, см/км -    0.0 см 
RGR                .IMP/MIN                                : 10 Гамма-активность, усл.ед. -  110.0 см 
RMN                .E.ACP                                  : 8 Давление, усл.ед. -  160.0 см 
RTEN               .T                                      : 6 Натяжение кабеля, т -    0.0 см 
RTM                .E.ACP                                  : 7 Температура, усл.ед. -  170.0 см 
SPEE               .M/H                                    : 2 Скорость, м/час -    0.0 см 
TIME               .S                                      : 4 Время, сек -    0.0 см 
TM                 .DEGC                                   : 11 Температура, °C -  170.0 см 
~Ascii
# ...
2697.4     66         12.9       12.9       0          368.851    -1101      587        18910      0.2        16412      648        306.14     64.982    
2697.6     68         13.78      13.78      0          368.764    -1101      627        18906      0.2        16412      649        307.24     64.982    
2697.8     129        13.78      13.78      0          368.821    -1101      627        18909      0.2        16412      649        308.37     64.982    
2698       130        11.73      11.73      0          368.971    -1101      534        18916      0.2        16412      649        309.53     64.982    
2698.2     45         11.73      11.73      0          368.866    -1101      534        18911      0.2        16412      649        310.63     64.982    
2698.4     129        9.61       9.61       0          368.845    -1101      438        18910      0.2        16411      649        311.72     64.978    
2698.6     97         8.77       8.77       0          368.746    -1101      399        18905      0.2        16411      648        312.82     64.978    
2698.8     71         8.62       8.62       0          368.784    -1101      392        18907      0.2        16411      648        313.91     64.978    
2699       84         8.41       8.41       0          368.883    -1101      383        18912      0.2        16411      649        315.11     64.978    
2699.2     59         8.41       8.41       0          368.851    -1101      383        18910      0.2        16411      649        316.21     64.978    
2699.4     47         9.32       9.32       0          369.164    -1101      424        18925      0.2        16411      648        317.31     64.978    
2699.6     42         9.32       9.32       0          369.332    -1101      424        18933      0.19       16411      648        318.4      64.978    
2699.8     28         8.48       8.48       0          369.191    -1101      386        18926      0.19       16411      648        319.56     64.978    
2700       21         8.48       8.48       0          369.307    -1101      386        18932      0.19       16411      649        320.64     64.978    
2700.2     27         7.6        7.6        0          369.002    -1101      346        18917      0.19       16411      648        321.8      64.978    
2700.4     93         7.47       7.47       0          368.984    -1101      340        18916      0.19       16410      648        322.88     64.974    
2700.6     65         8.44       8.44       0          368.942    -1101      384        18914      0.19       16410      648        323.99     64.974    
2700.8     71         8.83       8.83       0          369.059    -1101      402        18920      0.19       16409      648        325.14     64.971    
2701       76         8.83       8.83       0          369.064    -1101      402        18920      0.19       16409      648        326.28     64.97     
2701.2     79         9.67       9.67       0          368.975    -1101      440        18916      0.19       16409      648        327.38     64.97     
2701.4     140        9.67       9.67       0          368.989    -1101      440        18917      0.2        16409      649        328.47     64.97     
2701.6     103        9.97       9.97       0          368.954    -1101      454        18915      0.19       16409      648        329.62     64.97     
2701.8     82         9.97       9.97       0          368.911    -1101      454        18913      0.19       16409      649        330.72     64.97     
2702       78         10.3       10.3       0          368.953    -1101      469        18915      0.19       16409      650        331.82     64.97     
2702.2     82         10.3       10.3       0          369.061    -1101      469        18920      0.19       16408      651        332.91     64.966    
2702.4     118        10.26      10.26      0          369.201    -1101      467        18927      0.19       16408      651        334.01     64.966    
2702.6     79         10.26      10.26      0          369.35     -1101      467        18934      0.19       16408      652        335.2      64.965    
2702.8     164        10.26      10.26      0          369.331    -1101      467        18933      0.19       16406      650        336.3      64.958    
2703       4069       9.89       9.89       0          369.441    -1101      450        18938      0.19       16405      650        337.38     64.954    
2703.2     1806       9.89       9.89       0          369.474    -1101      450        18940      0.19       16405      650        338.51     64.954    
2703.4     512        9.07       9.07       0          369.584    -1101      413        18945      0.19       16404      651        339.65     64.951    
2703.6     351        9.07       9.07       0          369.485    -1101      413        18941      0.19       16404      651        340.75     64.95     
2703.8     187        9.07       9.07       0          369.515    -1101      413        18942      0.19       16404      649        341.85     64.95     
2704       112        9.07       9.07       0          369.541    -1101      413        18943      0.2        16403      649        343        64.946    
2704.2     122        9.95       9.95       0          369.514    -1101      453        18942      0.2        16403      649        344.1      64.944    
2704.4     96         9.95       9.95       0          369.556    -1101      453        18944      0.2        16402      648        345.24     64.942    
2704.6     96         9.95       9.95       0          369.547    -1101      453        18944      0.2        16402      647        346.33     64.942    
2704.8     111        9.89       9.89       0          369.561    -1101      450        18944      0.2        16401      648        347.43     64.938    
2705       140        9.89       9.89       0          369.428    -1101      450        18938      0.2        16399      649        348.53     64.93     
2705.2     172        9.91       9.91       0          369.496    -1101      451        18941      0.2        16398      649        349.73     64.926    
2705.4     163        9.91       9.91       0          369.803    -1101      451        18956      0.2        16397      649        350.83     64.923    
2705.6     228        10.55      10.55      0          369.948    -1101      480        18963      0.2        16395      649        351.92     64.915    
2705.8     132        10.55      10.55      0          369.651    -1101      480        18949      0.2        16394      648        353.01     64.91     
2706       114        11.1       11.1       2          369.706    -1103      505        18951      0.2        16394      649        354.15     64.91     
2706.2     138        11.1       11.1       0          369.55     -1105      505        18944      0.2        16393      648        355.53     64.908    
2706.4     100        11.16      11.16      0          369.803    -1105      508        18956      0.2        16394      648        356.63     64.908    
2706.6     80         11.47      11.47      0          369.749    -1105      522        18954      0.2        16392      649        357.72     64.902    
2706.8     97         11.47      11.47      0          369.775    -1105      522        18955      0.2        16391      648        358.82     64.898    
2707       68         11.21      11.21      0          369.927    -1105      510        18962      0.2        16390      648        360.02     64.894    
2707.2     82         11.21      11.21      0          369.816    -1105      510        18957      0.2        16389      644        361.11     64.89     
2707.4     85         10.74      10.74      0          369.842    -1105      489        18958      0.2        16388      640        362.27     64.886    
2707.6     76         10.74      10.74      0          369.835    -1105      489        18958      0.2        16387      639        363.42     64.882    
