~Version
 VERS              .         2.0                           : CWLS LOG ASCII STANDARD - VERSION 2.0
 WRAP              .         NO                            : ONE LINE PER DEPTH STEP
 DLM               .         SPACE                         : DELIMITING CHARACTER(SPACE TAB OR COMMA)
~Well Information
#_______________________________________________________________________________
#
#PARAMETER_NAME    .UNIT     VALUE                         : DESCRIPTION
#_______________________________________________________________________________
STRT               .M        2649.8                        : First reference value
STOP               .M        2761.600056                   : Last reference value
STEP               .M        0.2000001                     : Step increment
NULL               .         -9999                         : Missing value
COMP               .                                       : Company
WELL               .         616                           : Well name
FLD                .                                       : Field
LOC                .                                       : Location
CNTY               .                                       : County
STAT               .                                       : State
CTRY               .                                       : Country
SRVC               .                                       : Service Company
DATE               .                                       : Date
API                .                                       : API number
PROJECT_UPGRADE_TIME .         2021-03-18T21_24_50           : 
group              .         Good                          : 
~Parameter Information Block
#_______________________________________________________________________________
#
#PARAMETER_NAME    .UNIT     VALUE                         : DESCRIPTION
#_______________________________________________________________________________
SET                .         D8106_D                       : 
OTHER              .         Программное обеспечение станции MONITOR-386EX 25/12/99 15_08_10   BGF V52 22/08/01 16_56_30   4_SNGF_BGF_N_011645: 
OTHER_10           .         Тарировки_                    : 
OTHER_11           .         TM.GRD = 0.00412*TM$.UE + -2.13: 
OTHER_12           .         MN.ATM = (5.87652e-006*TM.GRD + 0.01993)*(MN$.UE + -2.72*TM.GRD + -1925): 
OTHER_13           .         GK.MKR/H = GK$.UE / 57.4657   : 
OTHER_2            .         Kedr.exe версия 3.4.2.51      : 
OTHER_3            .         KedrData.dll версия 3.4.2.24  : 
OTHER_4            .         Драйвер версия 2.1.0.2        : 
OTHER_5            .         Мнемоники версия 3.3 S        : 
OTHER_6            .         Прибор_ АКП4-90               : 
OTHER_7            .         Номер прибора_ 53             : 
OTHER_8            .         Режим_ АКП4_90                : 
OTHER_9            .         Форма_ ПК-53ое                : 
PROJECT_UPGRADE_TIME .         2021-03-18T21_24_50           : 
TLFamily_DEPT      .         Measured Depth                : 
TLFamily_GK        .         Gamma Ray                     : 
TLFamily_GK$       .                                       : 
TLFamily_LM        .         Casing Collar locator         : 
TLFamily_METKA     .                                       : 
TLFamily_METKA_1   .                                       : 
TLFamily_MN        .                                       : 
TLFamily_MN$       .                                       : 
TLFamily_RCOR      .                                       : 
TLFamily_SPID      .         Spontaneous Potential         : 
TLFamily_TENS      .         Cable Tension                 : 
TLFamily_TIME      .         Time                          : 
TLFamily_TM        .         Temperature                   : 
TLFamily_TM$       .         Temperature                   : 
group              .         prim                          : 
~Curve Information
#_______________________________________________________________________________
#
#LOGNAME           .UNIT     LOG_ID                        : DESCRIPTION
#_______________________________________________________________________________
DEPT               .M                                      : 1 Глубина, м -    0.0 см 
GK                 .MKR/H                                  : 13 Гамма-активность, мкр./ч -   65.0 см 
GK$                .UE                                     : 10 Гамма-активность, усл.ед. -   65.0 см 
LM                 .                                       : 9 Локатор муфт,  -   30.0 см 
METKA              .                                       : 3 Метки,  -    0.0 см 
METKA_1            .                                       : 14 Маркеры - 65 см 
MN                 .ATM                                    : 12 Давление, атм. -  140.0 см 
MN$                .UE                                     : 8 Давление, усл.ед. -  140.0 см 
RCOR               .CM/KM                                  : 5 Коррекция по ролику, см/км -    0.0 см 
SPID               .M/H                                    : 2 Скорость, м/час -    0.0 см 
TENS               .T                                      : 6 Натяжение кабеля, т -    0.0 см 
TIME               .S                                      : 4 Время, сек -    0.0 см 
TM                 .GRD                                    : 11 Температура, °C -  145.0 см 
TM$                .UE                                     : 7 Температура, усл.ед. -  145.0 см 
~Ascii
# ...
2712.200031 6.67       383        390        0          0          248.459    14392      -12        485        0.55       14825.48   46.304     11756     
2712.400031 6.65       382        363        1          1          248.543    14396      -12        488        0.55       14826.92   46.271     11748     
2712.600031 6.71       386        217        0          0          248.507    14394      -12        491        0.55       14828.43   46.22      11735     
2712.800032 6.82       392        522        0          0          248.579    14398      -12        483        0.55       14829.94   46.142     11716     
2713.000032 6.87       395        301        0          0          248.563    14397      -12        482        0.55       14831.37   46.09      11704     
2713.200032 6.08       349        705        0          0          248.639    14401      -12        480        0.55       14832.87   46.028     11689     
2713.400032 5.95       342        211        0          0          248.615    14399      -12        486        0.55       14834.3    46.001     11682     
2713.600032 5.68       326        373        0          0          248.663    14402      -12        487        0.55       14835.8    45.963     11673     
2713.800032 5.96       343        156        0          0          248.647    14401      -12        490        0.55       14837.3    45.937     11667     
2714.000032 6.24       359        375        0          0          248.706    14404      -12        489        0.55       14838.81   45.913     11661     
2714.200032 6.62       381        222        0          0          248.686    14403      -12        488        0.55       14840.23   45.876     11652     
2714.400032 6.73       387        548        0          1          248.71     14404      -12        487        0.55       14841.74   45.832     11641     
2714.600032 7.22       415        204        0          0          248.758    14407      -12        481        0.55       14843.22   45.781     11629     
2714.800033 7.44       427        1517       1          0          248.742    14406      -12        483        0.55       14844.72   45.722     11615     
2715.000033 7.86       452        677        0          0          248.798    14409      -12        485        0.55       14846.17   45.627     11591     
2715.200033 7.59       436        750        0          0          248.782    14408      -12        481        0.55       14847.67   45.557     11575     
2715.400033 7.47       429        263        0          0          248.842    14411      -12        487        0.55       14849.1    45.477     11555     
2715.600033 6.25       359        641        0          0          248.818    14410      -12        483        0.55       14850.61   45.429     11543     
2715.800033 6.06       348        1773       0          0          248.886    14413      -12        488        0.55       14852.12   45.346     11523     
2716.000033 5.12       294        2087       0          0          248.846    14411      -12        486        0.55       14853.54   45.31      11514     
2716.200033 4.94       284        1131       0          0          248.939    14416      -12        489        0.55       14855.02   45.258     11502     
2716.400033 4.86       279        9810       0          0          248.886    14413      -12        485        0.55       14856.52   45.209     11490     
2716.600033 4.58       263        8454       0          0          248.966    14417      -12        484        0.55       14858      45.11      11466     
2716.800034 4.56       262        5774       0          0          248.926    14415      -12        486        0.55       14859.47   45.045     11450     
2717.000034 4.39       252        1001       0          0          249.025    14420      -12        486        0.55       14860.97   44.941     11425     
2717.200034 4.88       280        1872       0          0          248.966    14417      -12        487        0.55       14862.41   44.859     11405     
2717.400034 5.04       290        1420       0          0          249.077    14423      -12        483        0.55       14863.84   44.795     11389     
2717.600034 5.08       292        1030       0          0          249.005    14419      -12        482        0.55       14865.34   44.746     11378     
2717.800034 5.08       292        466        0          0          249.125    14425      -12        480        0.55       14866.84   44.682     11362     
2718.000034 5.13       295        793        0          0          249.055    14422      -12        486        0.55       14868.34   44.64      11352     
2718.200034 5.04       290        1233       0          0          249.157    14427      -12        484        0.55       14869.84   44.605     11344     
2718.400034 5          287        808        0          1          249.101    14424      -12        482        0.55       14871.41   44.578     11337     
2718.600034 4.81       277        239        0          0          249.197    14429      -12        486        0.55       14872.85   44.531     11326     
2718.800035 4.79       275        198        0          0          249.145    14426      -12        484        0.55       14874.29   44.503     11319     
2719.000035 5.05       290        337        0          0          249.225    14430      -12        483        0.55       14875.78   44.462     11309     
2719.200035 4.95       285        579        0          0          249.185    14428      -12        487        0.55       14877.28   44.418     11298     
2719.400035 4.89       281        462        0          0          249.264    14432      -12        491        0.55       14878.78   44.372     11287     
2719.600035 5.13       295        316        0          0          249.245    14431      -12        484        0.55       14880.21   44.326     11276     
2719.800035 5.18       298        220        2          0          249.261    14432      -11        482        0.55       14881.67   44.274     11263     
2720.000035 6.4        368        85         0          1          249.284    14433      -11        480        0.55       14883.14   44.241     11255     
2720.200035 6.75       388        429        0          0          249.304    14434      -11        477        0.55       14884.62   44.22      11250     
2720.400035 7.11       409        134        0          0          249.3      14434      -11        485        0.55       14886.07   44.197     11244     
2720.600035 6.79       390        177        0          0          249.332    14435      -11        486        0.55       14887.57   44.167     11237     
2720.800036 6.67       383        123        0          0          249.332    14435      -11        486        0.55       14888.99   44.143     11231     
2721.000036 6.47       372        313        0          0          249.364    14437      -11        478        0.55       14890.49   44.127     11227     
2721.200036 6.33       364        637        0          0          249.394    14439      -11        489        0.53       14892      44.104     11222     
2721.400036 5.6        322        3091       0          0          249.396    14439      -11        480        0.55       14893.51   44.084     11217     
2721.600036 5.05       290        605        0          0          249.444    14441      -11        485        0.55       14894.94   44.066     11213     
2721.800036 4.74       272        594        0          0          249.44     14441      -11        487        0.55       14896.44   44.051     11209     
2722.000036 4.33       249        270        0          1          249.492    14443      -11        490        0.55       14897.89   44.038     11206     
2722.200036 4.26       245        385        0          0          249.464    14442      -11        486        0.55       14899.37   44.035     11205     
2722.400036 3.69       212        567        0          0          249.564    14447      -11        488        0.55       14900.84   44.039     11206     
