~Version
 VERS              .         2.0                           : CWLS LOG ASCII STANDARD - VERSION 2.0
 WRAP              .         NO                            : ONE LINE PER DEPTH STEP
 DLM               .         SPACE                         : DELIMITING CHARACTER(SPACE TAB OR COMMA)
~Well Information
#_______________________________________________________________________________
#
#PARAMETER_NAME    .UNIT     VALUE                         : DESCRIPTION
#_______________________________________________________________________________
STRT               .M        1149                          : First reference value
STOP               .M        2127.4                        : Last reference value
STEP               .M        0.2                           : Step increment
NULL               .         -9999                         : Missing value
COMP               .                                       : Company
WELL               .         616                           : Well name
FLD                .                                       : Field
LOC                .                                       : Location
CNTY               .                                       : County
STAT               .                                       : State
CTRY               .                                       : Country
SRVC               .                                       : Service Company
DATE               .                                       : Date
API                .                                       : API number
PROJECT_UPGRADE_TIME .         2021-03-18T21_24_50           : 
group              .         Good                          : 
~Parameter Information Block
#_______________________________________________________________________________
#
#PARAMETER_NAME    .UNIT     VALUE                         : DESCRIPTION
#_______________________________________________________________________________
SET                .         616_9                         : 
CONF               .         00                            : 
END                .         0                             : 
ERR                .         0                             : 
GS00               .M        2125.46                       : 
GS01               .M        1146.68                       : 
MM00               .M        2120.00                       : 
NOKG               .         0                             : 
NPR                .         990907                        : 
PART               .         Ивашин                        : 
PROJECT_UPGRADE_TIME .         2021-03-18T21_24_49           : 
PRZK               .         Шакиров                       : 
TLFamily_AZIMUTH   .         True Dip Azimuth              : 
TLFamily_DEPTH     .         Measured Depth                : 
TLFamily_METKA     .                                       : 
TLFamily_ROLL      .                                       : 
TLFamily_SPEED     .         Spontaneous Potential         : 
TLFamily_ZENIT     .                                       : 
VPRG               .         310                           : 
WAY                .         UP                            : 
group              .         prim                          : 
~Curve Information
#_______________________________________________________________________________
#
#LOGNAME           .UNIT     LOG_ID                        : DESCRIPTION
#_______________________________________________________________________________
DEPTH              .M                                      :  
AZIMUTH            .DEG                                    :  
METKA              .                                       :  
ROLL               .DEG                                    :  
SPEED              .M/H                                    :  
ZENIT              .DEG                                    :  
~Ascii
# ...
1344.2     259.86     0          308.58     648        33.61     
1344.4     258.46     0          311.34     648        33.33     
1344.6     257.16     0          314.25     648        33.53     
1344.8     257.34     0          319.45     648        33.39     
1345       258.29     0          322.59     684        32.94     
1345.2     259.23     0          323.22     648        33.17     
1345.4     258.09     0          323.55     648        32.99     
1345.6     259.61     0          323.89     648        33.33     
1345.8     258.63     0          322.68     648        33.2      
1346       258.52     0          322.27     684        33.25     
1346.2     258.05     0          322.76     648        33.27     
1346.4     258.52     0          323.16     648        33.25     
1346.6     258.91     0          322.94     648        33.37     
1346.8     258.69     0          322.45     648        33.31     
1347       258.34     0          322.03     648        33.26     
1347.2     258.93     0          321.36     684        33.35     
1347.4     258.88     0          320.87     648        33.37     
1347.6     259.26     0          320.75     648        33.49     
1347.8     257.47     0          320.85     684        33.11     
1348       259.98     0          320.67     648        33.59     
1348.2     258.87     0          320.64     648        33.45     
1348.4     259.11     0          320.83     684        33.4      
1348.6     258.86     0          320.77     648        33.39     
1348.8     258.86     0          320.43     648        33.36     
1349       258.67     0          320.03     648        33.34     
1349.2     258.48     0          320        648        33.36     
1349.4     258.05     0          320.55     648        33.35     
1349.6     258.63     0          321.95     684        33.41     
1349.8     258.49     0          322.85     648        33.38     
1350       259.16     0          322.31     648        33.44     
1350.2     258.36     0          321.84     684        33.34     
1350.4     259.07     0          321.65     648        33.49     
1350.6     258.49     0          321.63     648        33.38     
1350.8     258.97     0          321.75     684        33.44     
1351       259.21     0          321.91     648        33.47     
1351.2     258.91     0          322.24     648        33.42     
1351.4     259.03     0          322.47     648        33.45     
1351.6     258.77     0          322.42     648        33.39     
1351.8     258.59     0          322.37     684        33.28     
1352       258.13     1          321.9      648        33.2      
1352.2     258.95     0          321.67     252        33.4      
1352.4     258.66     0          321.76     684        33.27     
1352.6     259.62     0          321.73     648        33.44     
1352.8     258.99     0          321.94     648        33.28     
1353       260.56     0          322.34     684        33.48     
1353.2     259.93     0          322.51     648        33.11     
1353.4     263.65     0          322.47     648        33.43     
1353.6     270.34     0          323.05     648        33.36     
1353.8     299.52     0          323.48     648        33.35     
1354       293.63     0          323.58     684        33.46     
1354.2     211.23     0          323.41     648        33.57     
1354.4     64.81      0          323.28     648        33.72     
1354.6     356.93     0          323.43     648        33.19     
1354.8     282.15     0          323.26     684        33.55     
1355       266.76     0          322.58     648        33.71     
1355.2     261.13     0          322.94     648        33.45     
1355.4     261.02     0          323.44     684        33.49     
1355.6     259.74     0          323.62     648        33.38     
1355.8     258.9      0          323.86     648        33.22     
1356       258.73     0          323.93     684        33.15     
1356.2     259.16     0          323.78     648        33.25     
1356.4     258.44     0          323.59     648        33.13     
1356.6     259.39     0          322.27     648        33.08     
1356.8     259.56     0          320.3      648        33.23     
1357       258.56     0          318.9      648        33.05     
1357.2     259.17     0          319.61     648        33.57     
1357.4     260.59     0          322.09     648        33.12     
1357.6     258.44     0          323.27     684        32.92     
1357.8     258.6      0          323.83     648        33.03     
1358       261.73     0          323.55     648        33.6      
1358.2     263.14     0          322.96     648        33.57     
1358.4     260.26     0          323.23     684        33.32     
1358.6     258.46     0          323.22     648        33.2      
1358.8     258.65     0          322.8      648        33.28     
1359       258.14     0          322.67     648        33.1      
1359.2     259.09     0          323.03     648        33.38     
1359.4     258.19     0          323.05     684        33.08     
1359.6     258.58     0          322.86     648        33.28     
1359.8     258.71     0          321.91     684        33.22     
1360       258.34     0          321.21     648        33.25     
1360.2     258.31     0          321.54     648        33.21     
1360.4     259.24     0          322.05     648        33.32     
1360.6     258.77     0          322.39     684        33.23     
1360.8     259.16     0          322.57     648        33.32     
1361       258.44     0          322.86     648        33.24     
1361.2     259.14     0          323.05     648        33.38     
1361.4     258.64     0          323.32     684        33.33     
1361.6     259.37     0          323.91     648        33.47     
1361.8     258.79     0          324.36     648        33.3      
1362       258.74     0          324.24     648        33.26     
1362.2     258.34     1          323.7      684        33.16     
1362.4     258.26     0          322.79     648        33.19     
1362.6     258.68     0          322.49     648        33.29     
1362.8     258.49     0          322.68     684        33.26     
1363       258.68     0          322.98     648        33.29     
1363.2     258.79     0          323.13     648        33.28     
1363.4     259.29     0          322.88     648        33.31     
1363.6     258.73     0          322.56     648        33.19     
1363.8     259.17     0          322.64     648        33.31     
1364       258.56     0          322.75     648        33.02     
1364.2     259.32     0          322.99     648        33.33     
1364.4     258.86     0          323.06     648        33.25     
1364.6     258.82     0          323.43     684        33.22     
1364.8     259.22     0          324.04     648        33.3      
1365       259.89     0          324.74     648        33.43     
1365.2     260.57     0          325.04     648        33.46     
1365.4     261.14     0          324.65     684        33.33     
1365.6     262.9      0          323.92     648        33.42     
1365.8     267.38     0          323.93     648        33.59     
1366       283.68     0          324.22     648        33.58     
1366.2     304.12     0          324.38     684        33.52     
1366.4     99.25      0          324.76     648        33.29     
1366.6     193.8      0          324.94     648        33.53     
1366.8     327.03     0          324.7      648        33.46     
1367       291.53     0          323.87     684        33.63     
1367.2     270.08     0          322.9      648        33.7      
1367.4     263.21     0          322.09     648        33.61     
1367.6     261.49     0          321.91     648        33.71     
1367.8     260.07     0          322.62     648        33.55     
1368       258.59     0          323.14     684        33.18     
1368.2     259.33     0          323.22     648        33.23     
1368.4     259.11     0          323.22     648        33.17     
