~Version
 VERS              .         2.0                           : CWLS LOG ASCII STANDARD - VERSION 2.0
 WRAP              .         NO                            : ONE LINE PER DEPTH STEP
 DLM               .         SPACE                         : DELIMITING CHARACTER(SPACE TAB OR COMMA)
~Well Information
#_______________________________________________________________________________
#
#PARAMETER_NAME    .UNIT     VALUE                         : DESCRIPTION
#_______________________________________________________________________________
STRT               .M        1149                          : First reference value
STOP               .M        2127.4                        : Last reference value
STEP               .M        0.2                           : Step increment
NULL               .         -9999                         : Missing value
COMP               .                                       : Company
WELL               .         616                           : Well name
FLD                .                                       : Field
LOC                .                                       : Location
CNTY               .                                       : County
STAT               .                                       : State
CTRY               .                                       : Country
SRVC               .                                       : Service Company
DATE               .                                       : Date
API                .                                       : API number
PROJECT_UPGRADE_TIME .         2021-03-18T21_24_50           : 
group              .         Good                          : 
~Parameter Information Block
#_______________________________________________________________________________
#
#PARAMETER_NAME    .UNIT     VALUE                         : DESCRIPTION
#_______________________________________________________________________________
SET                .         616_9                         : 
CONF               .         00                            : 
END                .         0                             : 
ERR                .         0                             : 
GS00               .M        2125.46                       : 
GS01               .M        1146.68                       : 
MM00               .M        2120.00                       : 
NOKG               .         0                             : 
NPR                .         990907                        : 
PART               .         Ивашин                        : 
PROJECT_UPGRADE_TIME .         2021-03-18T21_24_49           : 
PRZK               .         Шакиров                       : 
TLFamily_AZIMUTH   .         True Dip Azimuth              : 
TLFamily_DEPTH     .         Measured Depth                : 
TLFamily_METKA     .                                       : 
TLFamily_ROLL      .                                       : 
TLFamily_SPEED     .         Spontaneous Potential         : 
TLFamily_ZENIT     .                                       : 
VPRG               .         310                           : 
WAY                .         UP                            : 
group              .         prim                          : 
~Curve Information
#_______________________________________________________________________________
#
#LOGNAME           .UNIT     LOG_ID                        : DESCRIPTION
#_______________________________________________________________________________
DEPTH              .M                                      :  
AZIMUTH            .DEG                                    :  
METKA              .                                       :  
ROLL               .DEG                                    :  
SPEED              .M/H                                    :  
ZENIT              .DEG                                    :  
~Ascii
# ...
1856.6     9.88       0          324.87     612        18.82     
1856.8     340.86     0          322.42     684        18.98     
1857       3.98       0          323.65     612        18.64     
1857.2     6.23       0          324.9      648        18.68     
1857.4     25.32      0          325.12     648        18.56     
1857.6     3.78       0          325.17     648        18.64     
1857.8     15.22      0          324.67     648        18.76     
1858       11.35      0          323.94     648        18.8      
1858.2     18.85      0          323.79     648        18.76     
1858.4     34.07      0          324.05     648        18.8      
1858.6     25.42      0          324.03     648        18.68     
1858.8     11.95      0          323.63     648        18.78     
1859       16.99      0          323.75     648        18.76     
1859.2     26.64      0          325        648        19        
1859.4     33.29      0          326.26     648        18.72     
1859.6     21.54      0          326.29     648        18.79     
1859.8     17.74      0          326.76     648        18.74     
1860       30.35      0          327.44     648        18.76     
1860.2     20.7       0          328.1      612        18.76     
1860.4     20.65      0          328.53     684        18.75     
1860.6     21.62      0          328.37     612        18.7      
1860.8     32.3       0          328.34     684        18.7      
1861       22.75      0          328.34     648        18.78     
1861.2     28         0          328.06     648        18.63     
1861.4     19.44      0          327.85     648        18.76     
1861.6     18.09      0          327.61     648        18.7      
1861.8     14.75      0          327.18     648        18.73     
1862       6.64       0          326.78     648        18.72     
1862.2     8.32       1          326.55     648        18.64     
1862.4     49.6       0          326.92     648        18.74     
1862.6     49.24      0          327.51     684        18.62     
1862.8     8.6        0          328.09     648        18.71     
1863       30.9       0          328.47     648        18.67     
1863.2     20.66      0          328.69     648        18.67     
1863.4     33.3       0          328.89     648        18.71     
1863.6     22.82      0          328.43     612        18.63     
1863.8     20.48      0          327.3      648        18.75     
1864       27.93      0          326.31     648        18.68     
1864.2     18.7       0          326.22     648        18.69     
1864.4     16.84      0          326.35     648        18.73     
1864.6     27.41      0          326.06     648        18.69     
1864.8     42.96      0          326.2      648        18.73     
1865       40.65      0          326.64     648        18.79     
1865.2     14.4       0          326.49     648        18.67     
1865.4     160.3      0          326.01     648        19.11     
1865.6     5.14       0          327.24     648        18.96     
1865.8     3.45       0          327.71     648        19.06     
1866       346.06     0          327.3      648        19.15     
1866.2     359.75     0          326.89     648        19.11     
1866.4     346.28     0          326.33     648        19.14     
1866.6     246.66     0          326.05     648        19.3      
1866.8     184.58     0          326.41     648        19.14     
1867       180        0          326.97     648        19.53     
1867.2     180        0          327.34     648        19.2      
1867.4     140.82     0          328.23     648        18.79     
1867.6     355.41     0          327.98     648        18.67     
1867.8     339.74     0          326.88     648        18.58     
1868       230.39     0          325.95     648        18.43     
1868.2     70.63      0          324.98     648        18.19     
1868.4     121.35     0          325.41     648        18.21     
1868.6     49.2       0          326.56     648        18.25     
1868.8     14.73      0          327.17     648        18.46     
1869       48.18      0          327.22     648        18.29     
1869.2     15.74      0          326.44     648        18.47     
1869.4     6.18       0          325.7      648        18.55     
1869.6     19.59      0          325.85     648        18.58     
1869.8     11.79      0          326.37     648        18.52     
1870       9.25       0          327.09     648        18.58     
1870.2     25.15      0          327.91     648        18.53     
1870.4     22.66      0          328.49     648        18.48     
1870.6     3.06       0          328.96     648        18.63     
1870.8     13.89      0          329.69     648        18.43     
1871       19.26      0          330.42     648        18.52     
1871.2     37.55      0          331.1      648        18.47     
1871.4     28.66      0          331.48     648        18.4      
1871.6     54.67      0          331.34     648        18.43     
1871.8     27.26      0          331.16     648        18.34     
1872       64.89      0          331.44     648        18.5      
1872.2     39.01      1          332.21     648        18.44     
1872.4     114.68     0          332.06     648        18.44     
1872.6     124.93     0          331.17     648        18.53     
1872.8     93.13      0          329.9      648        18.36     
1873       39.81      0          328.7      648        18.58     
1873.2     39.32      0          328.82     648        18.48     
1873.4     22.13      0          329.11     648        18.44     
1873.6     15.06      0          329.23     648        18.45     
1873.8     17.21      0          328.65     684        18.41     
1874       12.54      0          327.92     648        18.43     
1874.2     19.39      0          327.7      648        18.37     
1874.4     8.21       0          327.69     648        18.45     
1874.6     26.48      0          327.43     648        18.45     
1874.8     7.29       0          327.19     648        18.26     
1875       27.23      0          326.85     648        18.47     
1875.2     12.95      0          326.77     648        18.43     
1875.4     3.35       0          326.78     648        18.37     
1875.6     2.95       0          327.06     648        18.41     
1875.8     338.37     0          327.32     648        18.35     
1876       344.22     0          327.18     684        18.41     
1876.2     337.42     0          327.39     648        18.4      
1876.4     337.95     0          327.77     648        18.27     
1876.6     343.85     0          327.6      612        18.32     
1876.8     311.31     0          327.05     648        18.3      
1877       26.97      0          326.76     648        18.32     
1877.2     102.49     0          326.78     648        18.32     
1877.4     199.55     0          327.06     648        18.33     
1877.6     134.26     0          327.33     648        18.25     
1877.8     85.77      0          327.99     648        18.29     
1878       20.41      0          328.32     648        18.49     
1878.2     349.7      0          327.82     648        18.66     
1878.4     350.39     0          327.96     648        18.71     
1878.6     352.77     0          327.39     648        18.68     
1878.8     349.58     0          326.76     648        18.79     
1879       32.44      0          326.74     648        18.87     
1879.2     50.66      0          326.7      648        18.92     
1879.4     49.61      0          326.63     648        18.51     
1879.6     39.42      0          326.23     648        18.2      
1879.8     20         0          325.9      648        18.17     
1880       55.53      0          326.35     648        17.81     
1880.2     25.88      0          326.81     648        17.71     
1880.4     339.61     0          326.85     648        17.72     
1880.6     359.62     0          326.71     648        17.78     
1880.8     346.39     0          326.59     648        17.83     
