~Version
 VERS              .         2.0                           : CWLS LOG ASCII STANDARD - VERSION 2.0
 WRAP              .         NO                            : ONE LINE PER DEPTH STEP
 DLM               .         SPACE                         : DELIMITING CHARACTER(SPACE TAB OR COMMA)
~Well Information
#_______________________________________________________________________________
#
#PARAMETER_NAME    .UNIT     VALUE                         : DESCRIPTION
#_______________________________________________________________________________
STRT               .M        2656.6                        : First reference value
STOP               .M        2765.2                        : Last reference value
STEP               .M        0.1999997                     : Step increment
NULL               .         -9999                         : Missing value
COMP               .                                       : Company
WELL               .         616                           : Well name
FLD                .                                       : Field
LOC                .                                       : Location
CNTY               .                                       : County
STAT               .                                       : State
CTRY               .                                       : Country
SRVC               .                                       : Service Company
DATE               .                                       : Date
API                .                                       : API number
PROJECT_UPGRADE_TIME .         2021-03-18T21_24_50           : 
group              .         Good                          : 
~Parameter Information Block
#_______________________________________________________________________________
#
#PARAMETER_NAME    .UNIT     VALUE                         : DESCRIPTION
#_______________________________________________________________________________
SET                .         D8102_D                       : 
OTHER              .         Программное обеспечение станции MONITOR-386EX 25/12/99 15_08_10   BGF V52 22/08/01 16_56_30   4_SNGF_BGF_N_011645: 
OTHER_10           .         Тарировки_                    : 
OTHER_11           .         TM.GRD = 0.00412*TM$.UE + -2.13: 
OTHER_12           .         MN.ATM = (5.87652e-006*TM.GRD + 0.01993)*(MN$.UE + -2.72*TM.GRD + -1925): 
OTHER_13           .         GK.MKR/H = GK$.UE / 57.4657   : 
OTHER_2            .         Kedr.exe версия 3.4.2.51      : 
OTHER_3            .         KedrData.dll версия 3.4.2.24  : 
OTHER_4            .         Драйвер версия 2.1.0.2        : 
OTHER_5            .         Мнемоники версия 3.3 S        : 
OTHER_6            .         Прибор_ АКП4-90               : 
OTHER_7            .         Номер прибора_ 53             : 
OTHER_8            .         Режим_ АКП4_90                : 
OTHER_9            .         Форма_ ПК-53ое                : 
PROJECT_UPGRADE_TIME .         2021-03-18T21_24_50           : 
TLFamily_DEPT      .         Measured Depth                : 
TLFamily_GK        .         Gamma Ray                     : 
TLFamily_GK$       .                                       : 
TLFamily_LM        .         Casing Collar locator         : 
TLFamily_METKA     .                                       : 
TLFamily_METKA_1   .                                       : 
TLFamily_MN        .                                       : 
TLFamily_MN$       .                                       : 
TLFamily_RCOR      .                                       : 
TLFamily_SPID      .         Spontaneous Potential         : 
TLFamily_TENS      .         Cable Tension                 : 
TLFamily_TIME      .         Time                          : 
TLFamily_TM        .         Temperature                   : 
TLFamily_TM$       .         Temperature                   : 
group              .         prim                          : 
~Curve Information
#_______________________________________________________________________________
#
#LOGNAME           .UNIT     LOG_ID                        : DESCRIPTION
#_______________________________________________________________________________
DEPT               .M                                      : 1 Глубина, м -    0.0 см 
GK                 .MKR/H                                  : 13 Гамма-активность, мкр./ч -   65.0 см 
GK$                .UE                                     : 10 Гамма-активность, усл.ед. -   65.0 см 
LM                 .                                       : 9 Локатор муфт,  -   30.0 см 
METKA              .                                       : 3 Метки,  -    0.0 см 
METKA_1            .                                       : 14 Маркеры - 65 см 
MN                 .ATM                                    : 12 Давление, атм. -  140.0 см 
MN$                .UE                                     : 8 Давление, усл.ед. -  140.0 см 
RCOR               .CM/KM                                  : 5 Коррекция по ролику, см/км -    0.0 см 
SPID               .M/H                                    : 2 Скорость, м/час -    0.0 см 
TENS               .T                                      : 6 Натяжение кабеля, т -    0.0 см 
TIME               .S                                      : 4 Время, сек -    0.0 см 
TM                 .GRD                                    : 11 Температура, °C -  145.0 см 
TM$                .UE                                     : 7 Температура, усл.ед. -  145.0 см 
~Ascii
# ...
2677.4     6.9        397        318        0          0          244.925    14214      -18        -301       0.75       1737.6     65.049     16306     
2677.6     6.18       355        201        0          0          244.98     14217      -18        -303       0.75       1735.22    65.042     16304     
2677.8     6.07       349        244        0          0          245.019    14219      -18        -298       0.75       1732.82    65.03      16301     
2678       6.33       364        259        0          0          245.019    14219      -18        -302       0.75       1730.42    65.018     16298     
2678.2     6.16       354        317        0          0          245.019    14219      -18        -303       0.75       1728.03    65.001     16294     
2678.4     6.18       355        241        0          0          245.054    14221      -18        -303       0.75       1725.63    65.003     16294     
2678.6     6.66       383        307        0          0          245.079    14222      -18        -301       0.75       1723.37    64.989     16291     
2678.8     7.27       418        295        0          0          245.132    14225      -18        -301       0.75       1720.95    64.972     16287     
2679       6.89       396        128        0          0          245.139    14225      -18        -299       0.75       1718.58    64.967     16286     
2679.2     6.09       350        244        0          0          245.139    14225      -18        -299       0.73       1716.18    64.945     16280     
2679.4     6.42       369        268        0          0          245.159    14226      -18        -298       0.75       1713.79    64.935     16278     
2679.6     6.72       386        341        0          0          245.199    14228      -18        -296       0.75       1711.39    64.916     16273     
2679.8     6.64       381        299        0          0          245.219    14229      -18        -302       0.75       1709       64.896     16268     
2680       6.98       401        409        0          0          245.252    14231      -18        -304       0.75       1706.61    64.869     16262     
2680.2     6.93       398        140        0          0          245.259    14231      -18        -308       0.75       1704.31    64.869     16262     
2680.4     6.81       391        164        0          0          245.338    14235      -18        -298       0.63       1701.95    64.847     16257     
2680.6     6.9        396        237        2          0          245.298    14233      -15        -302       0.75       1699.29    64.824     16251     
2680.8     7.03       404        204        0          0          245.325    14234      -15        -300       0.75       1696.84    64.808     16247     
2681       6.71       385        161        0          0          245.318    14234      -15        -302       0.75       1694.39    64.78      16240     
2681.2     6.34       364        273        0          0          245.345    14235      -15        -297       0.75       1691.99    64.761     16236     
2681.4     6.86       394        274        0          0          245.425    14239      -15        -302       0.73       1689.66    64.733     16229     
2681.6     7.44       428        498        0          0          245.418    14239      -15        -301       0.75       1687.2     64.69      16218     
2681.8     7.39       425        425        0          0          245.418    14239      -15        -302       0.75       1684.93    64.67      16213     
2682       7.08       407        204        0          0          245.438    14240      -15        -299       0.73       1682.6     64.661     16211     
2682.2     7.09       407        225        0          0          245.448    14240      -15        -304       0.74       1680.14    64.626     16203     
2682.4     7.16       412        193        0          0          245.558    14246      -15        -306       0.75       1677.75    64.582     16192     
2682.6     7.25       417        286        0          0          245.518    14244      -15        -304       0.75       1675.35    64.544     16183     
2682.8     7.19       413        278        0          0          245.518    14244      -15        -307       0.75       1672.96    64.515     16176     
2683       6.38       367        379        0          0          245.597    14248      -15        -304       0.75       1670.56    64.474     16166     
2683.2     6.31       363        2598       0          0          245.617    14249      -15        -300       0.75       1668.23    64.445     16159     
2683.4     7.08       407        23546      0          0          245.651    14251      -15        -301       0.75       1665.83    64.418     16153     
2683.6     7.27       418        1443       0          0          245.67     14252      -15        -300       0.75       1663.43    64.387     16145     
2683.8     7.27       418        286        0          0          245.617    14249      -15        -300       0.75       1661.04    64.368     16140     
2684       7.01       403        225        0          0          245.71     14254      -15        -307       0.75       1658.64    64.321     16129     
2684.2     6.49       373        311        0          0          245.737    14255      -15        -303       0.75       1656.25    64.284     16120     
2684.4     6.4        368        271        0          0          245.717    14254      -15        -298       0.75       1653.86    64.239     16109     
2684.6     6.61       380        390        0          0          245.776    14257      -15        -299       0.75       1651.46    64.206     16101     
2684.8     6.56       377        244        0          0          245.803    14258      -15        -303       0.75       1649.07    64.19      16097     
2685       6.69       385        194        0          0          245.843    14260      -15        -296       0.75       1646.67    64.157     16089     
2685.2     6.69       384        247        0          0          245.857    14261      -15        -296       0.75       1644.4     64.142     16085     
2685.4     6.63       381        462        0          0          245.883    14262      -15        -301       0.75       1641.95    64.109     16078     
2685.6     6.85       394        464        0          0          245.876    14262      -15        -298       0.75       1639.49    64.078     16070     
2685.8     7.14       410        333        0          0          245.916    14264      -15        -307       0.75       1637.09    64.065     16067     
2686       7.31       420        295        0          0          245.949    14266      -15        -305       0.75       1634.7     64.033     16059     
2686.2     7.21       414        421        0          0          245.956    14266      -15        -301       0.75       1632.31    64.017     16055     
2686.4     7.06       406        521        0          0          245.976    14267      -15        -302       0.75       1629.91    63.988     16048     
2686.6     7          402        230        0          0          245.916    14264      -15        -301       0.75       1627.58    63.96      16041     
2686.8     6.88       395        230        0          0          245.976    14267      -15        -298       0.75       1625.24    63.947     16038     
2687       6.56       377        338        0          0          246.056    14271      -15        -299       0.75       1622.73    63.902     16027     
2687.2     7.35       423        303        0          0          246.062    14271      -15        -299       0.75       1620.33    63.872     16020     
2687.4     8.23       473        398        0          0          246.076    14272      -15        -304       0.75       1617.94    63.844     16013     
2687.6     8.69       499        257        0          0          246.036    14270      -15        -297       0.75       1615.55    63.824     16008     
