~Version
 VERS              .         2.0                           : CWLS LOG ASCII STANDARD - VERSION 2.0
 WRAP              .         NO                            : ONE LINE PER DEPTH STEP
 DLM               .         SPACE                         : DELIMITING CHARACTER(SPACE TAB OR COMMA)
~Well Information
#_______________________________________________________________________________
#
#PARAMETER_NAME    .UNIT     VALUE                         : DESCRIPTION
#_______________________________________________________________________________
STRT               .M        2650.4                        : First reference value
STOP               .M        2757.800161                   : Last reference value
STEP               .M        0.2000003                     : Step increment
NULL               .         -9999                         : Missing value
COMP               .                                       : Company
WELL               .         616                           : Well name
FLD                .                                       : Field
LOC                .                                       : Location
CNTY               .                                       : County
STAT               .                                       : State
CTRY               .                                       : Country
SRVC               .                                       : Service Company
DATE               .                                       : Date
API                .                                       : API number
PROJECT_UPGRADE_TIME .         2021-03-18T21_24_50           : 
group              .         Good                          : 
~Parameter Information Block
#_______________________________________________________________________________
#
#PARAMETER_NAME    .UNIT     VALUE                         : DESCRIPTION
#_______________________________________________________________________________
SET                .         D4412_D                       : 
OTHER              .         Запись производится в присутствии: 
OTHER_10           .         Максимальная температура      : 
OTHER_11           .         Тип промывочной жидкости      : 
OTHER_12           .         Сопротивление ПЖ (Ом*м) при 20°C: 
OTHER_13           .         Плотность ПЖ(г/см3)           : 
OTHER_14           .         Вязкость ПЖ(с)                : 
OTHER_15           .         Водоотдача ПЖ(см3/30мин)      : 
OTHER_16           .         Уровень ПЖ                    : 
OTHER_17           .         Нефть ПЖ (%)                  : 
OTHER_18           .         Барит ПЖ (%)                  : 
OTHER_19           .         Гематит ПЖ (%)                : 
OTHER_2            .         Заказчик ННСН  ЦДНГ-1         : 
OTHER_20           .         КМЦ ПЖ (%)                    : 
OTHER_21           .         Разгазирование ПЖ (да,нет)    : 
OTHER_22           .         Подъемник                     : 
OTHER_23           .         Лаборатория                   : 
OTHER_24           .         Тип кабеля                    : 
OTHER_25           .         Длина кабеля (м)              : 
OTHER_26           .         Цена последней метки          : 
OTHER_27           .         Цена контрольной метки        : 
OTHER_28           .         Диаметр долота (мм)           : 
OTHER_29           .         Глубина бурения (м)           : 
OTHER_3            .         Площадь                       : 
OTHER_30           .         Искусственный забой (м)       : 
OTHER_31           .         Диаметр колонны (мм)          : 
OTHER_32           .         Толщина колонны (мм)          : 
OTHER_33           .         Башмак колонны (м)            : 
OTHER_34           .         Диаметр НКТ (мм)              : 
OTHER_35           .         Толщина НКТ (мм)              : 
OTHER_36           .         Воронка НКТ (м)               : 
OTHER_37           .         Дата цементожа                : 
OTHER_38           .         Тип, количество(т) и плотность цемента: 
OTHER_39           .         Интервалы перфорации (м)      : 
OTHER_4            .         Категория                     : 
OTHER_40           .         Направление, диаметр (мм)     : 
OTHER_41           .         Направление, глубина (м)      : 
OTHER_42           .         Кондуктор, диаметр (мм)       : 
OTHER_43           .         Кондуктор, глубина (м)        : 
OTHER_44           .         Техническая колонна, диаметр (мм): 
OTHER_45           .         Техническая колонна, глубина (м): 
OTHER_46           .         Эксплуатационная колонна, диаметр (мм): 
OTHER_47           .         Эксплуатационная колонна, глубина (м): 
OTHER_48           .         Программа Кедр-02 версия 3.4  : 
OTHER_49           .         Операционная система Windows NT 5.1 build 2600 Service Pack 2: 
OTHER_5            .         Назначение исследований       : 
OTHER_50           .         Программное обеспечение станции MONITOR-386EX 25/12/99 15_08_10   BGF V54 20/09/05 15_32_17   3.3__BGF_9030071: 
OTHER_51           .         Kedr.exe версия 3.4.2.74      : 
OTHER_52           .         KedrData.dll версия 3.4.2.29  : 
OTHER_53           .         Мнемоники версия 3.18 S       : 
OTHER_54           .         Драйвер версия 2.1.1.4        : 
OTHER_55           .         LasInf.dll 4.3.0.35           : 
OTHER_56           .         Прибор_ КСА-Т4                : 
OTHER_57           .         Номер прибора_ 160            : 
OTHER_58           .         Режим_ КСА-Т4                 : 
OTHER_59           .         Форма_ С.А.Б.                 : 
OTHER_6            .         Альтитуда стола ротора        : 
OTHER_60           .         Тарировки_                    : 
OTHER_61           .         <_techsia_sc_> Дата тарировки температуры 25.05.2010: 
OTHER_62           .         Ручной ввод коэффициентов     : 
OTHER_63           .         TM.DEGC = 0.00402*RTM.E.ACP + -0.994: 
OTHER_64           .         <_techsia_sc_> Дата тарировки давления 25.05.2010: 
OTHER_65           .         Ручной ввод коэффициентов     : 
OTHER_66           .         MN.ATM = (2.27521e-006*TM.DEGC + 0.02078)*(RMN.E.ACP + 6.2*TM.DEGC + -1688): 
OTHER_67           .         <_techsia_sc_> Дата тарировки ГК 25.05.2010: 
OTHER_68           .         Ручной ввод коэффициентов     : 
OTHER_69           .         GR.UR/H = RGR.IMP/MIN / 45.5144: 
OTHER_7            .         Вид исследований 3  6         : 
OTHER_70           .         GK.FLT = 0.1*GR.UR/H[-1] + (1-0.1)*GR.UR/H[0]: 
OTHER_8            .         Начало бурения интервала каротажа: 
OTHER_9            .         Окончание бурения интервала каротажа: 
PROJECT_UPGRADE_TIME .         2021-03-18T21_24_50           : 
TLFamily_CCLC      .                                       : 
TLFamily_DEPT      .         Measured Depth                : 
TLFamily_GK        .         Gamma Ray                     : 
TLFamily_GR        .         Gamma Ray                     : 
TLFamily_METKA     .                                       : 
TLFamily_MN        .                                       : 
TLFamily_RCOR      .                                       : 
TLFamily_RGR       .                                       : 
TLFamily_RMN       .                                       : 
TLFamily_RTEN      .                                       : 
TLFamily_RTM       .                                       : 
TLFamily_SPEE      .         Cable Speed                   : 
TLFamily_TIME      .         Time                          : 
TLFamily_TM        .         Temperature                   : 
group              .         prim                          : 
~Curve Information
#_______________________________________________________________________________
#
#LOGNAME           .UNIT     LOG_ID                        : DESCRIPTION
#_______________________________________________________________________________
DEPT               .M                                      : 1 Глубина, м -    0.0 см 
CCLC               .E.ACP                                  : 9 Локатор муфт,  -   20.0 см 
GK                 .FLT                                    : 14 Гамма-активность фильтрованная, мкр./ч -  110.0 см 
GR                 .UR/H                                   : 13 Гамма-активность, мкр./ч -  110.0 см 
METKA              .CU                                     : 3 Метки,  -    0.0 см 
MN                 .ATM                                    : 12 Давление, атм. -  160.0 см 
RCOR               .CM/KM                                  : 5 Коррекция по ролику, см/км -    0.0 см 
RGR                .IMP/MIN                                : 10 Гамма-активность, усл.ед. -  110.0 см 
RMN                .E.ACP                                  : 8 Давление, усл.ед. -  160.0 см 
RTEN               .T                                      : 6 Натяжение кабеля, т -    0.0 см 
RTM                .E.ACP                                  : 7 Температура, усл.ед. -  170.0 см 
SPEE               .M/H                                    : 2 Скорость, м/час -    0.0 см 
TIME               .S                                      : 4 Время, сек -    0.0 см 
TM                 .DEGC                                   : 11 Температура, °C -  170.0 см 
~Ascii
# ...
2671.200031 88         6.28       6.28       0          369.185    -1089      286        18928      0.2        16349      583        130.91     64.729    
2671.400032 173        6.42       6.42       0          369.171    -1089      292        18927      0.2        16350      584        132.16     64.733    
2671.600032 273        6.42       6.42       0          369.282    -1089      292        18933      0.2        16351      584        133.4      64.736    
2671.800032 218        6.35       6.35       0          369.333    -1089      289        18935      0.2        16351      584        134.61     64.737    
2672.000032 108        6.35       6.35       0          369.309    -1089      289        18934      0.2        16352      583        135.89     64.741    
2672.200033 80         7.43       7.43       0          369.271    -1089      338        18932      0.2        16353      583        137.14     64.744    
2672.400033 86         7.43       7.43       0          369.366    -1089      338        18936      0.2        16353      582        138.38     64.745    
2672.600033 125        7.43       7.43       0          369.4      -1089      338        18938      0.2        16353      583        139.59     64.745    
2672.800034 267        7.43       7.43       0          369.271    -1089      338        18932      0.2        16353      582        140.87     64.745    
2673.000034 151        6.68       6.68       0          369.257    -1089      304        18931      0.2        16354      582        142.13     64.748    
2673.200034 84         6.68       6.68       0          369.304    -1089      304        18934      0.2        16355      582        143.36     64.752    
2673.400034 220        6.17       6.17       0          369.259    -1089      281        18931      0.2        16355      583        144.57     64.753    
2673.600035 195        6.17       6.17       0          369.106    -1089      281        18924      0.2        16356      583        145.78     64.757    
2673.800035 271        5.4        5.4        0          369.128    -1089      246        18925      0.2        16356      584        147.11     64.757    
2674.000035 389        5.4        5.4        0          369.202    -1089      246        18929      0.2        16358      584        148.28     64.765    
2674.200036 297        5.45       5.45       0          369.254    -1089      248        18931      0.2        16359      584        149.56     64.769    
2674.400036 94         5.45       5.45       0          369.233    -1089      248        18930      0.2        16358      584        150.77     64.765    
2674.600036 414        4.81       4.81       0          369.322    -1089      219        18934      0.2        16358      585        152.05     64.765    
2674.800037 282        4.81       4.81       0          369.359    -1089      219        18936      0.2        16359      584        153.27     64.769    
2675.000037 256        4.57       4.57       0          369.332    -1089      208        18935      0.2        16360      584        154.52     64.773    
2675.200037 395        4.57       4.57       0          369.276    -1089      208        18932      0.2        16361      585        155.75     64.777    
2675.400038 227        5.43       5.43       0          369.309    -1089      247        18934      0.2        16360      585        156.97     64.773    
2675.600038 74         5.43       5.43       0          369.367    -1089      247        18936      0.2        16360      584        158.24     64.773    
2675.800038 99         5.6        5.6        0          369.382    -1089      255        18937      0.2        16361      584        159.45     64.777    
2676.000038 204        5.6        5.6        2          369.341    -1088      255        18935      0.2        16362      584        160.59     64.781    
2676.200039 212        5.32       5.32       0          369.425    -1086      242        18939      0.2        16363      584        161.76     64.785    
2676.400039 320        5.32       5.32       0          369.425    -1086      242        18939      0.2        16364      583        163.02     64.789    
2676.600039 5247       5.16       5.16       0          369.426    -1086      235        18939      0.2        16365      585        164.27     64.793    
2676.80004 3633       5.16       5.16       0          369.422    -1086      235        18939      0.2        16365      585        165.47     64.793    
2677.00004 1040       5.23       5.23       0          369.468    -1086      238        18941      0.2        16365      585        166.73     64.793    
2677.20004 387        5.23       5.23       0          369.539    -1086      238        18944      0.2        16366      586        167.91     64.797    
2677.400041 417        6.06       6.06       0          369.574    -1086      276        18946      0.2        16367      584        169.25     64.801    
2677.600041 457        6.06       6.06       0          369.616    -1086      276        18948      0.2        16368      585        170.45     64.805    
2677.800041 436        6.33       6.33       0          369.648    -1086      288        18949      0.2        16369      585        171.67     64.809    
2678.000041 411        6.53       6.53       0          369.717    -1086      297        18953      0.2        16369      586        172.88     64.809    
2678.200042 388        6.35       6.35       0          369.743    -1086      289        18954      0.2        16369      586        174.11     64.811    
2678.400042 631        6.35       6.35       0          369.785    -1086      289        18956      0.2        16370      586        175.38     64.813    
2678.600042 582        6.27       6.27       0          369.828    -1086      286        18958      0.2        16371      586        176.59     64.816    
2678.800043 412        6.2        6.2        0          369.88     -1086      282        18960      0.2        16372      586        177.8      64.821    
2679.000043 744        5.46       5.46       0          369.954    -1086      249        18964      0.2        16373      586        179.08     64.825    
2679.200043 545        5.34       5.34       0          370.018    -1086      243        18967      0.2        16373      586        180.3      64.825    
2679.400044 486        5.03       5.03       0          370.067    -1086      229        18969      0.2        16374      586        181.58     64.829    
2679.600044 418        4.61       4.61       0          370.102    -1086      210        18971      0.2        16374      585        182.79     64.83     
2679.800044 226        4.98       4.98       0          370.151    -1086      227        18973      0.2        16375      585        184        64.834    
2680.000044 187        5.05       5.05       0          370.187    -1086      230        18975      0.2        16375      585        185.23     64.834    
2680.200045 321        5.18       5.18       0          370.232    -1086      236        18977      0.2        16376      585        186.49     64.838    
2680.400045 294        5.69       5.69       0          370.27     -1086      259        18979      0.2        16376      586        187.77     64.838    
2680.600045 225        5.99       5.99       0          370.326    -1086      273        18982      0.2        16376      585        188.96     64.838    
2680.800046 359        6.11       6.11       0          370.358    -1086      278        18983      0.2        16376      585        190.2      64.838    
2681.000046 188        6.05       6.05       0          370.373    -1086      275        18984      0.2        16378      585        191.47     64.844    
2681.200046 174        5.76       5.76       0          370.328    -1086      262        18982      0.2        16378      585        192.69     64.846    
2681.400046 186        5.74       5.74       0          370.366    -1086      261        18984      0.2        16379      586        193.9      64.85     
