~Version
 VERS              .         2.0                           : CWLS LOG ASCII STANDARD - VERSION 2.0
 WRAP              .         NO                            : ONE LINE PER DEPTH STEP
 DLM               .         SPACE                         : DELIMITING CHARACTER(SPACE TAB OR COMMA)
~Well Information
#_______________________________________________________________________________
#
#PARAMETER_NAME    .UNIT     VALUE                         : DESCRIPTION
#_______________________________________________________________________________
STRT               .M        10.2                          : First reference value
STOP               .M        2774.8                        : Last reference value
STEP               .M        0.2                           : Step increment
NULL               .         -9999                         : Missing value
COMP               .                                       : Company
WELL               .         616                           : Well name
FLD                .                                       : Field
LOC                .                                       : Location
CNTY               .                                       : County
STAT               .                                       : State
CTRY               .                                       : Country
SRVC               .                                       : Service Company
DATE               .                                       : Date
API                .                                       : API number
PROJECT_UPGRADE_TIME .         2021-03-18T21_24_50           : 
group              .         Good                          : 
~Parameter Information Block
#_______________________________________________________________________________
#
#PARAMETER_NAME    .UNIT     VALUE                         : DESCRIPTION
#_______________________________________________________________________________
SET                .         D1813_D_2                     : 
NPR                .                                       : 
OTHER              .         Программное обеспечение станции MONITOR-386EX 25/12/99 15_08_10   BGF V52 22/08/01 16_56_30   3.1_SNGF___BGF_N_092049: 
OTHER_10           .         Тарировки_                    : 
OTHER_11           .         TM.GRD = 0.00403*TM$.UE + -1.07: 
OTHER_12           .         MN.ATM = (9.34907e-006*TM.GRD + 0.02171)*(MN$.UE + -7.93*TM.GRD + -1787): 
OTHER_13           .         GK.MKR/H = LM. / 42.4676      : 
OTHER_14           .         GK.FLT = 0.1*GK.MKR/H[-1] + (1-0.1)*GK.MKR/H[0]: 
OTHER_2            .         Kedr.exe версия 3.4.2.51      : 
OTHER_3            .         KedrData.dll версия 3.4.2.24  : 
OTHER_4            .         Драйвер версия 2.1.1.3        : 
OTHER_5            .         Мнемоники версия 3.3 S        : 
OTHER_6            .         Прибор_ КСА-Т4                : 
OTHER_7            .         Номер прибора_ 03             : 
OTHER_8            .         Режим_ КСА-Т4                 : 
OTHER_9            .         Форма_ КВА.                   : 
PR                 .                                       : 
PROJECT_UPGRADE_TIME .         2021-03-18T21_24_49           : 
PRTY               .         ПП-603-1                      : N партии
SRV                .                                       : 
SRVC               .         Карпов                        : Начальник партии
TLFamily_DEPT      .         Measured Depth                : 
TLFamily_LM        .         Casing Collar locator         : 
TLFamily_MN        .                                       : 
TLFamily_TM        .         Temperature                   : 
group              .         second                        : 
~Curve Information
#_______________________________________________________________________________
#
#LOGNAME           .UNIT     LOG_ID                        : DESCRIPTION
#_______________________________________________________________________________
DEPT               .M                                      : Depth curve 
LM                 .е.ацп                                  : Локатор муфт,е.ацп 
MN                 .атм                                    : Манометрия, атм 
TM                 .град.C                                 : Термограмма по стволу скважины,град.C 
~Ascii
# ...
2012.2     543.003    180.37     53.742    
2012.4     564.004    180.387    53.742    
2012.6     589.011    180.406    53.742    
2012.8     662        180.423    53.745    
2013       662.016    180.441    53.75     
2013.2     772.969    180.46     53.75     
2013.4     562.003    180.478    53.754    
2013.6     582.001    180.496    53.757    
2013.8     591        180.514    53.76     
2014       590.998    180.533    53.764    
2014.2     576.009    180.55     53.767    
2014.4     635.019    180.568    53.77     
2014.6     760.028    180.586    53.77     
2014.8     952.053    180.603    53.773    
2015       1310       180.621    53.776    
2015.2     1310.082   180.639    53.779    
2015.4     1864.137   180.657    53.782    
2015.6     2786.214   180.683    53.782    
2015.8     4230.289   180.712    53.785    
2016       6173       180.712    53.789    
2016.2     6172.221   180.73     53.792    
2016.4     930.011    180.764    53.794    
2016.6     1000.996   180.789    53.795    
2016.8     971.971    180.806    53.802    
2017       779.009    180.824    53.8      
2017.2     840        180.841    53.802    
2017.4     839.996    180.859    53.808    
2017.6     815.983    180.877    53.811    
2017.8     702.001    180.895    53.814    
2018       708.004    180.913    53.815    
2018.2     738.01     180.93     53.817    
2018.4     806        180.949    53.82     
2018.6     806.016    180.966    53.823    
2018.8     912.029    180.984    53.823    
2019       1109.002   181.003    53.826    
2019.2     1125.026   181.022    53.83     
2019.4     1296.983   181.039    53.831    
2019.6     1185       181.057    53.833    
2019.8     1184.963   181.075    53.839    
2020       938.978    181.093    53.839    
2020.2     789.019    181.116    53.842    
2020.4     913.993    181.152    53.845    
2020.6     867        181.169    53.849    
2020.8     866.968    181.19     53.852    
2021       648.996    181.208    53.856    
2021.2     623.996    181.226    53.859    
2021.4     596        181.244    53.863    
2021.6     595        181.261    53.866    
2021.8     596        181.28     53.867    
2022       596.007    181.297    53.868    
2022.2     645.008    181.315    53.871    
2022.4     695.979    181.334    53.871    
2022.6     556.995    181.352    53.874    
2022.8     526.003    181.368    53.877    
2023       548        181.387    53.881    
2023.2     547.999    181.405    53.884    
2023.4     538.001    181.423    53.887    
2023.6     544.005    181.441    53.891    
2023.8     575.998    181.46     53.894    
2024       562.005    181.477    53.897    
2024.2     594        181.496    53.899    
2024.4     594.002    181.528    53.9      
2024.6     606.006    181.544    53.903    
2024.8     644.007    181.554    53.906    
2025       694.001    181.59     53.907    
2025.2     701        181.607    53.909    
2025.4     701.01     181.626    53.912    
2025.6     771.022    181.645    53.916    
2025.8     917.026    181.662    53.919    
2026       1090.048   181.68     53.922    
2026.2     1410       181.698    53.923    
2026.4     1410.091   181.716    53.92     
2026.6     2017.159   181.734    53.919    
2026.8     3081.265   181.753    53.932    
2027       4857.428   181.77     53.935    
2027.2     1024.934   181.787    53.938    
2027.4     580        181.805    53.942    
2027.6     579.998    181.823    53.944    
2027.8     565.001    181.841    53.944    
2028       568.994    181.859    53.947    
2028.2     531.008    181.877    53.951    
2028.4     586        181.895    53.954    
2028.6     585.995    181.914    53.957    
2028.8     552.001    181.931    53.961    
2029       558.003    181.949    53.964    
2029.2     577.003    181.974    53.967    
2029.4     597.005    182.006    53.968    
2029.6     632.001    182.025    53.97     
2029.8     640        182.042    53.973    
2030       639.99     182.06     53.976    
2030.2     572        182.079    53.976    
2030.4     572.004    182.097    53.979    
2030.6     598.016    182.115    53.982    
2030.8     706.012    182.137    53.986    
2031       784        182.155    53.99     
2031.2     783.982    182.172    53.993    
2031.4     661.981    182.19     53.996    
2031.6     537.999    182.209    54        
2031.8     530.008    182.226    54        
2032       584        182.244    54.002    
2032.2     584.013    182.263    54.005    
2032.4     668.001    182.28     54.009    
2032.6     675.998    182.298    54.012    
2032.8     664.99     182.321    54.012    
2033       595.005    182.355    54.015    
2033.2     628        182.375    54.018    
2033.4     628.015    182.393    54.021    
2033.6     726.989    182.411    54.025    
2033.8     652.988    182.428    54.028    
2034       576.003    182.447    54.031    
2034.2     594.003    182.466    54.032    
2034.4     612        182.483    54.034    
2034.6     612.021    182.501    54.037    
2034.8     755.029    182.508    54.041    
2035       950        182.514    54.044    
2035.2     951.954    182.536    54.044    
2035.4     642        182.574    54.047    
2035.6     641.993    182.591    54.05     
2035.8     593.008    182.609    54.053    
2036       648.015    182.627    54.056    
2036.2     745.011    182.645    54.056    
2036.4     821.031    182.663    54.062    
2036.6     1030       182.682    54.064    
2036.8     1030.009   182.699    54.066    
2037       1088.005   182.717    54.069    
2037.2     1123.061   182.735    54.072    
2037.4     1530.11    182.752    54.072    
2037.6     2264       182.77     54.075    
2037.8     2264.18    182.789    54.078    
2038       3466.198   182.807    54.081    
2038.2     4783.266   182.825    54.085    
2038.4     6556.103   182.843    54.088    
2038.6     582.992    182.861    54.091    
2038.8     532        182.899    54.093    
2039       532.001    182.919    54.094    
2039.2     538.998    182.925    54.097    
2039.4     522.997    182.94     54.101    
2039.6     501.001    182.971    54.104    
2039.8     507        182.99     54.105    
2040       508.001    183.007    54.106    
2040.2     517        183.025    54.109    
2040.4     517.003    183.044    54.113    
2040.6     533.999    183.062    54.113    
2040.8     525.998    183.08     54.115    
2041       513.001    183.105    54.12     
2041.2     521.999    183.122    54.123    
2041.4     517        183.141    54.125    
2041.6     517.002    183.16     54.126    
2041.8     530.999    183.19     54.13     
2042       522.995    183.21     54.133    
2042.2     491.004    183.217    54.136    
2042.4     515.001    183.254    54.139    
2042.6     519        183.254    54.141    
2042.8     519.006    183.282    54.142    
2043       556        183.308    54.145    
2043.2     553.995    183.325    54.148    
2043.4     518.003    183.343    54.152    
2043.6     536        183.362    54.155    
2043.8     536        183.379    54.157    
2044       538.002    183.398    54.158    
2044.2     550.999    183.416    54.161    
2044.4     542        183.433    54.164    
2044.6     543        183.452    54.165    
2044.8     543        183.47     54.169    
2045       546.001    183.429    54.174    
2045.2     550        183.457    54.177    
2045.4     552        183.523    54.177    
2045.6     552.995    183.542    54.18     
2045.8     523        183.559    54.184    
2046       522.994    183.578    54.187    
2046.2     484.005    183.595    54.19     
2046.4     515.006    183.613    54.193    
2046.6     551.998    183.632    54.193    
2046.8     542.001    183.65     54.199    
2047       548        183.667    54.201    
2047.2     548.006    183.701    54.203    
2047.4     587.007    183.725    54.206    
2047.6     632.005    183.743    54.209    
2047.8     667.017    183.762    54.21     
2048       780        183.78     54.212    
2048.2     780.024    183.779    54.215    
2048.4     938.04     183.808    54.218    
