~Version
 VERS              .         2.0                           : CWLS LOG ASCII STANDARD - VERSION 2.0
 WRAP              .         NO                            : ONE LINE PER DEPTH STEP
 DLM               .         SPACE                         : DELIMITING CHARACTER(SPACE TAB OR COMMA)
~Well Information
#_______________________________________________________________________________
#
#PARAMETER_NAME    .UNIT     VALUE                         : DESCRIPTION
#_______________________________________________________________________________
STRT               .M        1.8                           : First reference value
STOP               .M        2776                          : Last reference value
STEP               .M        0.2                           : Step increment
NULL               .         -9999                         : Missing value
COMP               .                                       : Company
WELL               .         616                           : Well name
FLD                .                                       : Field
LOC                .                                       : Location
CNTY               .                                       : County
STAT               .                                       : State
CTRY               .                                       : Country
SRVC               .                                       : Service Company
DATE               .                                       : Date
API                .                                       : API number
PROJECT_UPGRADE_TIME .         2021-03-18T21_24_50           : 
group              .         Good                          : 
~Parameter Information Block
#_______________________________________________________________________________
#
#PARAMETER_NAME    .UNIT     VALUE                         : DESCRIPTION
#_______________________________________________________________________________
SET                .         D1799_D                       : 
OTHER              .         Программное обеспечение станции MONITOR-386EX 25/12/99 15_08_10   BGF V52 22/08/01 16_56_30   3.1_SNGF___BGF_N_092049: 
OTHER_10           .         Тарировки_                    : 
OTHER_11           .         TM.GRD = 0.00403*TM$.UE + -1.07: 
OTHER_12           .         MN.ATM = (9.34907e-006*TM.GRD + 0.02171)*(MN$.UE + -7.93*TM.GRD + -1787): 
OTHER_13           .         GK.MKR/H = LM. / 42.4676      : 
OTHER_14           .         GK.FLT = 0.1*GK.MKR/H[-1] + (1-0.1)*GK.MKR/H[0]: 
OTHER_2            .         Kedr.exe версия 3.4.2.51      : 
OTHER_3            .         KedrData.dll версия 3.4.2.24  : 
OTHER_4            .         Драйвер версия 2.1.1.3        : 
OTHER_5            .         Мнемоники версия 3.3 S        : 
OTHER_6            .         Прибор_ КСА-Т4                : 
OTHER_7            .         Номер прибора_ 03             : 
OTHER_8            .         Режим_ КСА-Т4                 : 
OTHER_9            .         Форма_ КВА.                   : 
PROJECT_UPGRADE_TIME .         2021-03-18T21_24_49           : 
TLFamily_DEPT      .         Measured Depth                : 
TLFamily_GK        .         Gamma Ray                     : 
TLFamily_GK$       .                                       : 
TLFamily_GK_2      .         Gamma Ray                     : 
TLFamily_LM        .         Casing Collar locator         : 
TLFamily_METKA     .                                       : 
TLFamily_MN        .                                       : 
TLFamily_MN$       .                                       : 
TLFamily_RCOR      .                                       : 
TLFamily_SPID      .         Spontaneous Potential         : 
TLFamily_TENS      .         Cable Tension                 : 
TLFamily_TIME      .         Time                          : 
TLFamily_TM        .         Temperature                   : 
TLFamily_TM$       .         Temperature                   : 
group              .         prim                          : 
~Curve Information
#_______________________________________________________________________________
#
#LOGNAME           .UNIT     LOG_ID                        : DESCRIPTION
#_______________________________________________________________________________
DEPT               .M                                      : 1 Глубина, м -    0.0 см 
GK                 .MKR/H                                  : 13 Гамма-активность, мкр./ч -  110.0 см 
GK$                .UE                                     : 10 Гамма-активность, усл.ед. -  110.0 см 
GK_2               .FLT                                    : 14 Гамма-активность фильтрованная, мкр./ч -  110.0 см 
LM                 .                                       : 9 Локатор муфт,  -   20.0 см 
METKA              .                                       : 3 Метки,  -    0.0 см 
MN                 .ATM                                    : 12 Давление, атм. -  160.0 см 
MN$                .UE                                     : 8 Давление, усл.ед. -  160.0 см 
RCOR               .CM/KM                                  : 5 Коррекция по ролику, см/км -    0.0 см 
SPID               .M/H                                    : 2 Скорость, м/час -    0.0 см 
TENS               .T                                      : 6 Натяжение кабеля, т -    0.0 см 
TIME               .S                                      : 4 Время, сек -    0.0 см 
TM                 .GRD                                    : 11 Температура, °C -  170.0 см 
TM$                .UE                                     : 7 Температура, усл.ед. -  170.0 см 
~Ascii
# ...
2029.8     6.97       296        6.98       733        0          181.122    10376      -1232      2010       -0.03      4013.32    55.705     14088     
2030       6.97       296        6.97       718        0          181.142    10377      -1232      2011       -0.03      4013.71    55.709     14089     
2030.2     6.97       296        6.97       677        2          181.162    10378      -1233      2003       -0.03      4014.05    55.709     14089     
2030.4     6.97       296        6.97       668        0          181.186    10379      -1233      1995       -0.03      4014.43    55.709     14089     
2030.6     7.08       301        7.04       615        0          181.193    10379      -1233      1988       -0.03      4014.82    55.712     14090     
2030.8     7.11       302        7.08       601        0          181.221    10381      -1233      1987       -0.03      4015.16    55.713     14090     
2031       7.11       302        7.1        640        0          181.252    10382      -1233      1986       -0.03      4015.5     55.716     14091     
2031.2     7.11       302        7.11       635        0          181.257    10382      -1233      1986       -0.03      4015.88    55.717     14091     
2031.4     7.11       302        7.11       659        0          181.278    10383      -1233      1992       -0.03      4016.22    55.717     14091     
2031.6     7.11       302        7.11       644        0          181.3      10384      -1233      1991       -0.03      4016.59    55.719     14092     
2031.8     7.85       333        7.58       604        0          181.32     10385      -1233      1990       -0.03      4016.93    55.723     14093     
2032       8.36       355        8.05       575        0          181.343    10386      -1233      1995       -0.03      4017.3     55.725     14093     
2032.2     8.36       355        8.24       586        0          181.366    10387      -1233      1990       -0.03      4017.68    55.725     14093     
2032.4     8.36       355        8.32       662        0          181.385    10388      -1233      1983       -0.03      4018.01    55.727     14094     
2032.6     8.36       355        8.34       658        0          181.407    10389      -1233      1986       -0.03      4018.36    55.729     14094     
2032.8     8.36       355        8.35       653        0          181.406    10389      -1233      1988       -0.03      4018.71    55.731     14095     
2033       8.36       355        8.36       577        0          181.447    10391      -1233      1987       -0.03      4019.08    55.733     14095     
2033.2     8.37       356        8.37       570        0          181.451    10391      -1233      1986       -0.03      4019.46    55.733     14095     
2033.4     8.41       357        8.39       535        0          181.469    10392      -1233      1989       -0.03      4019.8     55.733     14095     
2033.6     8.41       357        8.4        540        0          181.49     10393      -1233      1995       -0.03      4020.15    55.734     14095     
2033.8     8.41       357        8.4        540        0          181.512    10394      -1233      2001       -0.03      4020.52    55.738     14096     
2034       8.41       357        8.41       540        0          181.533    10395      -1233      2000       -0.03      4020.87    55.741     14097     
2034.2     8.41       357        8.41       611        0          181.539    10395      -1233      1992       -0.03      4021.22    55.741     14097     
2034.4     8.41       357        8.41       601        0          181.565    10396      -1233      1990       -0.03      4021.59    55.741     14097     
2034.6     8.41       357        8.41       550        0          181.583    10397      -1233      1992       -0.03      4021.94    55.745     14098     
2034.8     7.71       328        7.97       523        0          181.596    10398      -1233      1985       -0.03      4022.31    55.745     14098     
2035       7.68       326        7.78       554        0          181.616    10399      -1233      1981       -0.03      4022.67    55.749     14099     
2035.2     7.68       326        7.72       632        0          181.637    10399      -1233      1987       -0.03      4023.01    55.749     14099     
2035.4     7.68       326        7.69       617        0          181.659    10400      -1233      1994       -0.03      4023.38    55.749     14099     
2035.6     7.68       326        7.68       549        0          181.671    10401      -1233      1999       -0.03      4023.72    55.753     14100     
2035.8     7.68       326        7.68       544        0          181.679    10401      -1233      1997       -0.03      4024.1     55.753     14100     
2036       8.08       343        7.93       542        0          181.7      10402      -1233      1995       -0.03      4024.45    55.753     14100     
2036.2     8.22       349        8.1        519        0          181.721    10403      -1233      1994       -0.03      4024.81    55.756     14101     
2036.4     8.22       349        8.17       610        0          181.743    10404      -1233      1992       -0.03      4025.17    55.757     14101     
2036.6     8.22       349        8.2        774        0          181.769    10405      -1233      1991       -0.03      4025.54    55.76      14102     
2036.8     8.22       349        8.21       696        0          181.804    10407      -1233      1990       -0.03      4025.87    55.761     14102     
2037       8.22       349        8.22       673        0          181.806    10407      -1233      1995       -0.03      4026.25    55.764     14103     
2037.2     8.22       349        8.22       605        0          181.827    10408      -1233      1995       -0.03      4026.6     55.765     14103     
2037.4     8.4        357        8.33       552        0          181.849    10409      -1233      1993       -0.03      4026.96    55.765     14103     
2037.6     8.64       367        8.53       578        0          181.869    10410      -1233      1997       -0.03      4027.32    55.767     14104     
2037.8     8.64       367        8.6        607        0          181.891    10411      -1233      1994       -0.03      4027.68    55.769     14104     
2038       8.64       367        8.62       568        0          181.911    10412      -1233      1987       -0.03      4028.04    55.771     14104     
2038.2     8.64       367        8.64       607        0          181.914    10412      -1233      1987       -0.03      4028.38    55.773     14105     
2038.4     8.64       367        8.64       537        0          181.931    10413      -1233      1990       -0.03      4028.73    55.775     14105     
2038.6     8.64       367        8.64       516        0          181.954    10414      -1233      1989       -0.03      4029.11    55.777     14106     
2038.8     8.35       354        8.45       516        0          181.975    10415      -1233      1988       -0.03      4029.47    55.777     14106     
2039       7.02       298        7.58       493        0          181.995    10416      -1233      1990       -0.03      4029.81    55.778     14106     
2039.2     7.02       298        7.22       493        0          182.017    10417      -1233      1996       -0.03      4030.18    55.781     14107     
2039.4     7.02       298        7.1        547        0          182.038    10418      -1233      1999       -0.03      4030.55    55.782     14107     
2039.6     7.02       298        7.05       1033       0          182.059    10419      -1233      1999       -0.03      4030.9     55.785     14108     
2039.8     7.02       298        7.03       8893       0          182.08     10420      -1233      2004       -0.03      4031.24    55.785     14108     
2040       7.02       298        7.02       5601       0          182.101    10421      -1233      2007       -0.03      4031.61    55.785     14108     
