~Version
 VERS              .         2.0                           : CWLS LOG ASCII STANDARD - VERSION 2.0
 WRAP              .         NO                            : ONE LINE PER DEPTH STEP
 DLM               .         SPACE                         : DELIMITING CHARACTER(SPACE TAB OR COMMA)
~Well Information
#_______________________________________________________________________________
#
#PARAMETER_NAME    .UNIT     VALUE                         : DESCRIPTION
#_______________________________________________________________________________
STRT               .M        2648.8                        : First reference value
STOP               .M        2753.600052                   : Last reference value
STEP               .M        0.2000001                     : Step increment
NULL               .         -9999                         : Missing value
COMP               .                                       : Company
WELL               .         616                           : Well name
FLD                .                                       : Field
LOC                .                                       : Location
CNTY               .                                       : County
STAT               .                                       : State
CTRY               .                                       : Country
SRVC               .                                       : Service Company
DATE               .                                       : Date
API                .                                       : API number
PROJECT_UPGRADE_TIME .         2021-03-18T21_24_50           : 
group              .         Good                          : 
~Parameter Information Block
#_______________________________________________________________________________
#
#PARAMETER_NAME    .UNIT     VALUE                         : DESCRIPTION
#_______________________________________________________________________________
SET                .         D7027_D                       : 
OTHER              .         Kedr.exe версия 2.1.2.32      : 
OTHER_10           .         TM.GRD = 0.00404*TM$.UE + 0.07: 
OTHER_11           .         MN.ATM = (6.33279e-006*TM.GRD + 0.02401)*(MN$.UE + 2.72*TM.GRD + -2018): 
OTHER_12           .         GK.MKR/H = GK$.UE / 43.5489 + 0: 
OTHER_13           .         RES.SM = 0.00476*CRES.UE - 1.51709: 
OTHER_14           .         PL.GSM3 = 0 + 0 * (PL.UE / 1) +  0 * (PL.UE / 1)^2: 
OTHER_15           .         Постоянная времени ГГП = 6 сек: 
OTHER_16           .         Постоянная времени ГК = 6 сек : 
OTHER_2            .         KedrData.dll версия 3.2.2.14  : 
OTHER_3            .         LasInf.dll версия 3.2.0.13    : 
OTHER_4            .         Драйвер версия 1.2.0.5        : 
OTHER_5            .         Прибор_ КСА-M1                : 
OTHER_6            .         Номер прибора_ 155+р204       : 
OTHER_7            .         Режим_ КСА-М1 + ГГП + Резистивиметр: 
OTHER_8            .         Форма_ 223\2                  : 
OTHER_9            .         Тарировки_                    : 
PROJECT_UPGRADE_TIME .         2021-03-18T21_24_50           : 
TLFamily_CRES      .                                       : 
TLFamily_DEPT      .         Measured Depth                : 
TLFamily_GK        .         Gamma Ray                     : 
TLFamily_GK$       .                                       : 
TLFamily_LM        .         Casing Collar locator         : 
TLFamily_METKA     .                                       : 
TLFamily_MN        .                                       : 
TLFamily_MN$       .                                       : 
TLFamily_PL        .                                       : 
TLFamily_PL_2      .                                       : 
TLFamily_RCOR      .                                       : 
TLFamily_RES       .         Mud Resistivity               : 
TLFamily_SPID      .         Spontaneous Potential         : 
TLFamily_STD       .                                       : 
TLFamily_TIME      .         Time                          : 
TLFamily_TM        .         Temperature                   : 
TLFamily_TM$       .         Temperature                   : 
TLFamily_VGD       .         Gas Volume                    : 
group              .         prim                          : 
~Curve Information
#_______________________________________________________________________________
#
#LOGNAME           .UNIT     LOG_ID                        : DESCRIPTION
#_______________________________________________________________________________
DEPT               .M                                      : 1 Глубина, м -    0.0 см 
CRES               .UE                                     : 9 Проводимость, усл.ед. -  222.0 см 
GK                 .MKR/H                                  : 16 Гамма-активность, мкр./ч -  106.0 см 
GK$                .UE                                     : 13 Гамма-активность, усл.ед. -  106.0 см 
LM                 .                                       : 11 Локатор муфт,  -   16.0 см 
METKA              .                                       : 3 Метки,  -    0.0 см 
MN                 .ATM                                    : 15 Давление, атм. -  160.0 см 
MN$                .UE                                     : 7 Давление, усл.ед. -  160.0 см 
PL                 .UE                                     : 10 Плотность, усл.ед. -  270.0 см 
PL_2               .GSM3                                   : 18 Плотность, г./см3 -  270.0 см 
RCOR               .CM/KM                                  : 5 Коррекция по ролику, см/км -    0.0 см 
RES                .SM                                     : 17 Проводимость,  -  222.0 см 
SPID               .M/H                                    : 2 Скорость, м/час -    0.0 см 
STD                .                                       : 12 Приток,  -  170.0 см 
TIME               .S                                      : 4 Время, сек -    0.0 см 
TM                 .GRD                                    : 14 Температура, °C -  180.0 см 
TM$                .UE                                     : 6 Температура, усл.ед. -  180.0 см 
VGD                .                                       : 8 Влагомер,  -  170.0 см 
~Ascii
# ...
2739.000045 1238       11.1       481        63         0          252.33     12251      14         0          0          4.3758     568        9888       18587.6    50.56      12498      6615      
2739.200045 1241       11.02      468        103        0          252.368    12252      14         0          0          4.3901     550        9907       18588.91   50.662     12523      6615      
2739.400045 1245       10.88      468        75         0          252.412    12254      14         0          0          4.4099     580        9924       18590.19   50.735     12541      6612      
2739.600045 1247       10.92      493        64         0          252.438    12254      14         0          0          4.4186     510        9942       18591.51   50.823     12563      6613      
2739.800046 1251       11.3       509        73         0          252.48     12255      14         0          0          4.4361     568        9960       18592.77   50.926     12588      6613      
2740.000046 1251       11.32      473        49         0          252.524    12256      14         0          0          4.4361     580        9983       18594.09   51.063     12622      6612      
2740.200046 1251       11.09      473        63         1          252.557    12257      14         0          0          4.4393     580        10008      18596      51.211     12659      6612      
2740.400046 1252       11         476        78         0          252.577    12257      14         0          0          4.444      557        10030      18597.32   51.356     12695      6612      
2740.600046 1254       10.96      476        65         0          252.621    12258      14         0          0          4.452      510        10051      18598.64   51.428     12712      6609      
2740.800046 1256       10.96      479        74         0          252.656    12259      14         0          0          4.4615     530        10073      18599.95   51.542     12741      6610      
2741.000046 1257       10.98      479        74         0          252.688    12260      14         0          0          4.4662     580        10099      18601.22   51.654     12768      6610      
2741.200046 1259       10.57      442        59         0          252.71     12260      14         0          0          4.4757     568        10128      18602.53   51.777     12799      6609      
2741.400046 1263       10.43      459        60         0          252.755    12261      13         0          0          4.4955     580        10157      18603.8    51.879     12824      6606      
2741.600046 1265       10.59      468        58         0          252.793    12262      14         0          0          4.5043     580        10189      18605.12   52.035     12863      6603      
2741.800047 1264       10.68      472        74         0          252.847    12263      14         0          0          4.4995     540        10230      18606.39   52.138     12888      6599      
2742.000047 1270       10.84      479        84         0          252.879    12264      14         0          0          4.5273     580        10258      18607.7    52.366     12945      6598      
2742.200047 1274       10.69      427        82         0          252.918    12265      14         0          0          4.5479     522        10284      18609.02   52.424     12959      6598      
2742.400047 1277       10.14      417        85         0          252.951    12266      14         0          0          4.5614     533        10310      18610.26   52.537     12987      6599      
2742.600047 1278       10.03      447        90         0          252.976    12266      14         0          0          4.5678     580        10334      18611.59   52.6       13002      6601      
2742.800047 1283       10.15      447        87         0          253.017    12267      14         0          0          4.5884     580        10364      18612.91   52.788     13049      6597      
2743.000047 1282       10.33      475        103        0          253.061    12268      14         0          0          4.5852     522        10392      18614.16   52.913     13080      6596      
2743.200047 1282       10.69      481        105        0          253.085    12268      14         0          0          4.5868     545        10421      18615.49   53.067     13118      6594      
2743.400047 1288       10.69      451        99         0          253.114    12269      14         0          0          4.6162     580        10447      18616.77   53.181     13146      6599      
2743.600047 1291       10.53      451        95         0          253.156    12270      14         0          0          4.6281     510        10473      18618.06   53.282     13171      6593      
2743.800048 1293       10.41      447        110        0          253.194    12271      14         0          0          4.6376     580        10501      18619.39   53.411     13203      6598      
2744.000048 1297       10.34      447        93         0          253.225    12272      14         0          0          4.6566     545        10519      18620.64   53.52      13230      6588      
2744.200048 1298       10.35      452        82         0          253.245    12272      13         0          0          4.6614     580        10541      18621.96   53.627     13257      6586      
2744.400048 1302       10.36      452        75         0          253.3      12273      14         0          0          4.6788     580        10564      18623.23   53.724     13281      6587      
2744.600048 1303       10.37      452        82         0          253.35     12274      14         0          0          4.6852     534        10593      18624.55   53.952     13337      6588      
2744.800048 1306       10.38      452        89         0          253.367    12274      14         0          0          4.6995     533        10625      18625.86   54.149     13386      6593      
2745.000048 1307       10.15      427        63         0          253.406    12275      14         0          0          4.7026     580        10648      18627.18   54.275     13417      6591      
2745.200048 1309       9.97       427        40         0          253.451    12276      14         0          0          4.713      568        10672      18628.44   54.386     13444      6592      
2745.400048 1314       9.52       393        68         0          253.472    12276      14         0          0          4.7375     580        10695      18629.76   54.541     13483      6593      
2745.600048 1311       9.28       393        87         0          253.518    12277      14         0          0          4.7239     580        10719      18631.08   54.698     13522      6592      
2745.800049 1315       9.02       380        104        0          253.537    12277      14         0          0          4.7408     510        10755      18632.34   54.865     13563      6594      
2746.000049 1317       8.88       380        105        0          253.576    12278      14         0          0          4.7518     580        10786      18633.66   54.98      13592      6592      
2746.200049 1320       9.11       407        107        0          253.615    12279      14         0          0          4.7677     580        10815      18634.97   55.119     13626      6595      
2746.400049 1322       9.18       397        114        0          253.646    12280      14         0          0          4.7756     580        10842      18636.29   55.229     13653      6588      
2746.600049 1324       9.03       387        86         0          253.672    12280      14         0          0          4.7852     580        10864      18637.56   55.339     13680      6598      
2746.800049 1329       8.94       383        205        0          253.709    12281      14         0          0          4.809      510        10886      18638.87   55.475     13714      6596      
2747.000049 1331       8.6        359        155        0          253.755    12282      14         0          0          4.8169     580        10906      18640.19   55.576     13739      6598      
