~Version
 VERS              .         2.0                           : CWLS LOG ASCII STANDARD - VERSION 2.0
 WRAP              .         NO                            : ONE LINE PER DEPTH STEP
 DLM               .         SPACE                         : DELIMITING CHARACTER(SPACE TAB OR COMMA)
~Well Information
#_______________________________________________________________________________
#
#PARAMETER_NAME    .UNIT     VALUE                         : DESCRIPTION
#_______________________________________________________________________________
STRT               .M        2644.6                        : First reference value
STOP               .M        2752.399784                   : Last reference value
STEP               .M        0.1999996                     : Step increment
NULL               .         -9999                         : Missing value
COMP               .                                       : Company
WELL               .         616                           : Well name
FLD                .                                       : Field
LOC                .                                       : Location
CNTY               .                                       : County
STAT               .                                       : State
CTRY               .                                       : Country
SRVC               .                                       : Service Company
DATE               .                                       : Date
API                .                                       : API number
PROJECT_UPGRADE_TIME .         2021-03-18T21_24_50           : 
group              .         Good                          : 
~Parameter Information Block
#_______________________________________________________________________________
#
#PARAMETER_NAME    .UNIT     VALUE                         : DESCRIPTION
#_______________________________________________________________________________
SET                .         D4410_D_2                     : 
COMM               .                                       : 
OTHER              .         Запись производится в присутствии: 
OTHER_10           .         Максимальная температура      : 
OTHER_11           .         Тип промывочной жидкости      : 
OTHER_12           .         Сопротивление ПЖ (Ом*м) при 20°C: 
OTHER_13           .         Плотность ПЖ(г/см3)           : 
OTHER_14           .         Вязкость ПЖ(с)                : 
OTHER_15           .         Водоотдача ПЖ(см3/30мин)      : 
OTHER_16           .         Уровень ПЖ                    : 
OTHER_17           .         Нефть ПЖ (%)                  : 
OTHER_18           .         Барит ПЖ (%)                  : 
OTHER_19           .         Гематит ПЖ (%)                : 
OTHER_2            .         Заказчик ННСН  ЦДНГ-1         : 
OTHER_20           .         КМЦ ПЖ (%)                    : 
OTHER_21           .         Разгазирование ПЖ (да,нет)    : 
OTHER_22           .         Подъемник                     : 
OTHER_23           .         Лаборатория                   : 
OTHER_24           .         Тип кабеля                    : 
OTHER_25           .         Длина кабеля (м)              : 
OTHER_26           .         Цена последней метки          : 
OTHER_27           .         Цена контрольной метки        : 
OTHER_28           .         Диаметр долота (мм)           : 
OTHER_29           .         Глубина бурения (м)           : 
OTHER_3            .         Площадь                       : 
OTHER_30           .         Искусственный забой (м)       : 
OTHER_31           .         Диаметр колонны (мм)          : 
OTHER_32           .         Толщина колонны (мм)          : 
OTHER_33           .         Башмак колонны (м)            : 
OTHER_34           .         Диаметр НКТ (мм)              : 
OTHER_35           .         Толщина НКТ (мм)              : 
OTHER_36           .         Воронка НКТ (м)               : 
OTHER_37           .         Дата цементожа                : 
OTHER_38           .         Тип, количество(т) и плотность цемента: 
OTHER_39           .         Интервалы перфорации (м)      : 
OTHER_4            .         Категория                     : 
OTHER_40           .         Направление, диаметр (мм)     : 
OTHER_41           .         Направление, глубина (м)      : 
OTHER_42           .         Кондуктор, диаметр (мм)       : 
OTHER_43           .         Кондуктор, глубина (м)        : 
OTHER_44           .         Техническая колонна, диаметр (мм): 
OTHER_45           .         Техническая колонна, глубина (м): 
OTHER_46           .         Эксплуатационная колонна, диаметр (мм): 
OTHER_47           .         Эксплуатационная колонна, глубина (м): 
OTHER_48           .         Программа Кедр-02 версия 3.4  : 
OTHER_49           .         Операционная система Windows NT 5.1 build 2600 Service Pack 2: 
OTHER_5            .         Назначение исследований       : 
OTHER_50           .         Программное обеспечение станции MONITOR-386EX 25/12/99 15_08_10   BGF V54 20/09/05 15_32_17   3.3__BGF_9030071: 
OTHER_51           .         Kedr.exe версия 3.4.2.74      : 
OTHER_52           .         KedrData.dll версия 3.4.2.29  : 
OTHER_53           .         Мнемоники версия 3.18 S       : 
OTHER_54           .         Драйвер версия 2.1.1.4        : 
OTHER_55           .         LasInf.dll 4.3.0.35           : 
OTHER_56           .         Прибор_ КСА-Т4                : 
OTHER_57           .         Номер прибора_ 160            : 
OTHER_58           .         Режим_ КСА-Т4                 : 
OTHER_59           .         Форма_ С.А.Б.                 : 
OTHER_6            .         Альтитуда стола ротора        : 
OTHER_60           .         Тарировки_                    : 
OTHER_61           .         <_techsia_sc_> Дата тарировки температуры 25.05.2010: 
OTHER_62           .         Ручной ввод коэффициентов     : 
OTHER_63           .         TM.DEGC = 0.00402*RTM.E.ACP + -0.994: 
OTHER_64           .         <_techsia_sc_> Дата тарировки давления 25.05.2010: 
OTHER_65           .         Ручной ввод коэффициентов     : 
OTHER_66           .         MN.ATM = (2.27521e-006*TM.DEGC + 0.02078)*(RMN.E.ACP + 6.2*TM.DEGC + -1688): 
OTHER_67           .         <_techsia_sc_> Дата тарировки ГК 25.05.2010: 
OTHER_68           .         Ручной ввод коэффициентов     : 
OTHER_69           .         GR.UR/H = RGR.IMP/MIN / 45.5144: 
OTHER_7            .         Вид исследований 3  6         : 
OTHER_70           .         GK.FLT = 0.1*GR.UR/H[-1] + (1-0.1)*GR.UR/H[0]: 
OTHER_8            .         Начало бурения интервала каротажа: 
OTHER_9            .         Окончание бурения интервала каротажа: 
PROJECT_UPGRADE_TIME .         2021-03-18T21_24_50           : 
PRTY               .         ПП-601-1                      : N партии
SRVC               .         Барковский                    : Начальник партии
TLFamily_DEPT      .         Measured Depth                : 
TLFamily_LM        .         Casing Collar locator         : 
TLFamily_MN        .                                       : 
TLFamily_TM        .         Temperature                   : 
group              .         second                        : 
~Curve Information
#_______________________________________________________________________________
#
#LOGNAME           .UNIT     LOG_ID                        : DESCRIPTION
#_______________________________________________________________________________
DEPT               .M                                      : Depth curve 
LM                 .е.ацп                                  : Локатор муфт,е.ацп 
MN                 .атм                                    : 12 Давление, атм. -  160.0 см 
TM                 .град.C                                 : Термограмма по стволу скважины,град.C 
~Ascii
# ...
2680.399928 187.996    366.136    64.894    
2680.599928 180.03     366.115    64.894    
2680.799928 241.977    366.115    64.894    
2680.999927 195.986    366.154    64.894    
2681.199927 166.981    366.2      64.898    
2681.399926 127.985    366.221    64.898    
2681.599926 98.019     366.209    64.898    
2681.799926 136.978    366.2      64.902    
2681.999925 92.993     366.2      64.902    
2682.199925 78.999     366.251    64.902    
2682.399924 76.993     366.29     64.902    
2682.599924 63.08      366.329    64.902    
2682.799924 225.983    366.374    64.905    
2682.999923 192.032    366.411    64.909    
2683.199923 257.976    366.432    64.91     
2683.399922 210.036    366.454    64.914    
2683.599922 283.997    366.475    64.914    
2683.799922 277.994    366.493    64.914    
2683.999921 265.988    366.553    64.918    
2684.199921 241.964    366.585    64.918    
2684.39992 168.018    366.608    64.922    
2684.59992 205.003    366.602    64.922    
2684.79992 212.051    366.581    64.922    
2684.999919 315.02     366.61     64.922    
2685.199919 356.13     366.665    64.922    
2685.399918 621.102    366.707    64.926    
2685.599918 2862.173   366.731    64.926    
2685.799918 1178.589   366.791    64.926    
2685.999917 341.908    366.77     64.93     
2686.199917 153.988    366.749    64.93     
2686.399916 129.009    366.809    64.932    
2686.599916 146.999    366.852    64.93     
2686.799916 143.982    366.897    64.934    
2686.999915 107.991    366.944    64.934    
2687.199915 89.021     366.987    64.934    
2687.399914 131.989    367.03     64.938    
2687.599914 108.985    367.068    64.941    
2687.799914 78.025     367.108    64.944    
2687.999913 128.971    367.129    64.944    
2688.199913 69.011     367.192    64.946    
2688.399912 91.004     367.255    64.948    
2688.599912 99.025     367.234    64.95     
2688.799912 150.006    367.291    64.951    
2688.999911 162.992    367.298    64.954    
2689.199911 147.022    367.352    64.955    
2689.39991 191.007    367.361    64.958    
2689.59991 205        367.382    64.958    
2689.79991 205.958    367.453    64.958    
2689.999909 121.011    367.508    64.958    
2690.199909 143.998    367.551    64.962    
2690.399908 138.986    367.551    64.964    
2690.599908 110.997    367.593    64.966    
2690.799908 104.995    367.614    64.968    
2690.999907 95.029     367.653    64.97     
2691.199907 154.666    367.713    64.97     
2691.399906 1508.578   367.719    64.973    
2691.599906 650.769    367.698    64.974    
2691.799906 181.94     367.699    64.974    
2691.999905 59.986     367.72     64.974    
2692.199905 32.001     367.74     64.974    
2692.399904 34.002     367.768    64.974    
2692.599904 38.004     367.818    64.974    
2692.799904 46.002     367.803    64.974    
2692.999903 50.998     367.825    64.974    
2693.199903 45.994     367.845    64.976    
2693.399902 34.002     367.867    64.976    
2693.599902 38.998     367.912    64.978    
2693.799902 35         367.926    64.978    
2693.999901 36.009     367.965    64.982    
2694.199901 54.994     368.028    64.979    
2694.3999  41.993     368.035    64.982    
2694.5999  27.002     368.023    64.982    
2694.7999  31         368.05     64.982    
2694.999899 32.018     368.286    64.982    
2695.199899 67.986     368.352    64.982    
2695.399898 39.996     368.355    64.982    
2695.599898 32.001     368.33     64.982    
2695.799898 35.002     368.453    64.984    
2695.999897 39.035     368.474    64.982    
2696.199897 110.988    368.511    64.982    
2696.399896 86.99      368.531    64.982    
2696.599896 66.001     368.851    64.982    
2696.799896 68.03      368.764    64.982    
2696.999895 129        368.821    64.982    
2697.199895 129.958    368.971    64.982    
2697.399894 45.041     368.866    64.982    
2697.599894 128.984    368.845    64.978    
2697.799894 96.987     368.746    64.978    
2697.999893 71.006     368.784    64.978    
2698.199893 83.988     368.883    64.978    
2698.399892 58.994     368.851    64.978    
2698.599892 46.998     369.164    64.978    
2698.799892 41.993     369.332    64.978    
2698.999891 27.997     369.191    64.978    
2699.199891 21.003     369.307    64.978    
2699.39989 27.032     369.002    64.978    
2699.59989 92.986     368.984    64.974    
2699.79989 65.003     368.942    64.974    
2699.999889 71.002     369.059    64.971    
2700.199889 76.001     369.064    64.97     
2700.399888 79.03      368.975    64.97     
2700.599888 139.982    368.989    64.97     
2700.799888 102.99     368.954    64.97     
2700.999887 81.998     368.911    64.97     
2701.199887 78.002     368.953    64.97     
2701.399886 82.018     369.061    64.966    
2701.599886 117.981    369.201    64.966    
2701.799886 79.042     369.35     64.965    
2701.999885 165.923    369.331    64.958    
2702.199885 4067.885   369.441    64.954    
2702.399884 1805.363   369.474    64.954    
2702.599884 511.921    369.584    64.951    
2702.799884 350.919    369.485    64.95     
2702.999883 186.963    369.515    64.95     
2703.199883 112.005    369.541    64.946    
2703.399882 121.987    369.514    64.944    
2703.599882 96         369.556    64.942    
2703.799882 96.007     369.547    64.942    
2703.999881 111.014    369.561    64.938    
2704.199881 140.016    369.428    64.93     
2704.39988 171.996    369.496    64.926    
2704.59988 163.032    369.803    64.923    
2704.79988 227.953    369.948    64.915    
2704.999879 131.991    369.651    64.91     
2705.199879 114.012    369.706    64.91     
2705.399878 137.981    369.55     64.908    
2705.599878 99.99      369.803    64.908    
2705.799878 80.008     369.749    64.902    
2705.999877 96.986     369.775    64.898    
2706.199877 68.007     369.927    64.894    
2706.399876 82.001     369.816    64.89     
2706.599876 84.996     369.842    64.886    
2706.799876 76         369.835    64.882    
2706.999875 76.016     369.712    64.878    
2707.199875 107.994    369.742    64.878    
2707.399874 95.015     370.107    64.878    
2707.599874 125.992    370.025    64.874    
2707.799874 110.006    369.952    64.865    
2707.999873 121.98     369.834    64.858    
2708.199873 81.992     369.929    64.853    
2708.399872 66.01      369.982    64.846    
2708.599872 86.986     370.041    64.846    
2708.799872 57.995     370.215    64.838    
2708.999871 48.028     370.164    64.825    
2709.199871 103.99     370.205    64.821    
2709.39987 82.995     369.962    64.817    
2709.59987 73.007     369.923    64.805    
2709.79987 86.981     369.966    64.801    
2709.999869 49.01      370.148    64.781    
2710.199869 70         370.273    64.765    
2710.399868 69.982     370.281    64.765    
2710.599868 34.02      370.037    64.757    
2710.799868 74.008     370.015    64.741    
2710.999867 89.982     370.095    64.741    
2711.199867 53         370.25     64.737    
2711.399866 54.03      370.107    64.741    
2711.599866 114.986    370.161    64.734    
2711.799866 85.982     370.314    64.725    
2711.999865 49.014     370.199    64.721    
2712.199865 77.037     370.163    64.71     
2712.399864 150.991    370.148    64.697    
2712.599864 132.012    370.259    64.693    
2712.799864 155.955    370.212    64.674    
2712.999863 65.424     370.398    64.665    
2713.199863 925.607    370.498    64.654    
2713.399862 2155.24    370.422    64.645    
2713.599862 615.794    370.364    64.638    
2713.799862 197.965    370.381    64.628    
2713.999861 128.001    370.519    64.618    
2714.199861 129.962    370.439    64.614    
2714.39986 52.992     370.733    64.606    
2714.59986 36         370.482    64.604    
2714.79986 35.008     370.479    64.599    
2714.999859 52.002     370.436    64.586    
2715.199859 57.038     370.59     64.574    
2715.399858 132.999    370.62     64.562    
2715.599858 130.026    370.671    64.556    
2715.799858 181.97     370.581    64.552    
2715.999857 121.982    370.656    64.553    
