~Version
 VERS              .         2.0                           : CWLS LOG ASCII STANDARD - VERSION 2.0
 WRAP              .         NO                            : ONE LINE PER DEPTH STEP
 DLM               .         SPACE                         : DELIMITING CHARACTER(SPACE TAB OR COMMA)
~Well Information
#_______________________________________________________________________________
#
#PARAMETER_NAME    .UNIT     VALUE                         : DESCRIPTION
#_______________________________________________________________________________
STRT               .M        2650.6                        : First reference value
STOP               .M        2759.999891                   : Last reference value
STEP               .M        0.1999998                     : Step increment
NULL               .         -9999                         : Missing value
COMP               .                                       : Company
WELL               .         616                           : Well name
FLD                .                                       : Field
LOC                .                                       : Location
CNTY               .                                       : County
STAT               .                                       : State
CTRY               .                                       : Country
SRVC               .                                       : Service Company
DATE               .                                       : Date
API                .                                       : API number
PROJECT_UPGRADE_TIME .         2021-03-18T21_24_50           : 
group              .         Good                          : 
~Parameter Information Block
#_______________________________________________________________________________
#
#PARAMETER_NAME    .UNIT     VALUE                         : DESCRIPTION
#_______________________________________________________________________________
SET                .         D4417_D                       : 
OTHER              .         Запись производится в присутствии: 
OTHER_10           .         Максимальная температура      : 
OTHER_11           .         Тип промывочной жидкости      : 
OTHER_12           .         Сопротивление ПЖ (Ом*м) при 20°C: 
OTHER_13           .         Плотность ПЖ(г/см3)           : 
OTHER_14           .         Вязкость ПЖ(с)                : 
OTHER_15           .         Водоотдача ПЖ(см3/30мин)      : 
OTHER_16           .         Уровень ПЖ                    : 
OTHER_17           .         Нефть ПЖ (%)                  : 
OTHER_18           .         Барит ПЖ (%)                  : 
OTHER_19           .         Гематит ПЖ (%)                : 
OTHER_2            .         Заказчик ННСН  ЦДНГ-1         : 
OTHER_20           .         КМЦ ПЖ (%)                    : 
OTHER_21           .         Разгазирование ПЖ (да,нет)    : 
OTHER_22           .         Подъемник                     : 
OTHER_23           .         Лаборатория                   : 
OTHER_24           .         Тип кабеля                    : 
OTHER_25           .         Длина кабеля (м)              : 
OTHER_26           .         Цена последней метки          : 
OTHER_27           .         Цена контрольной метки        : 
OTHER_28           .         Диаметр долота (мм)           : 
OTHER_29           .         Глубина бурения (м)           : 
OTHER_3            .         Площадь                       : 
OTHER_30           .         Искусственный забой (м)       : 
OTHER_31           .         Диаметр колонны (мм)          : 
OTHER_32           .         Толщина колонны (мм)          : 
OTHER_33           .         Башмак колонны (м)            : 
OTHER_34           .         Диаметр НКТ (мм)              : 
OTHER_35           .         Толщина НКТ (мм)              : 
OTHER_36           .         Воронка НКТ (м)               : 
OTHER_37           .         Дата цементожа                : 
OTHER_38           .         Тип, количество(т) и плотность цемента: 
OTHER_39           .         Интервалы перфорации (м)      : 
OTHER_4            .         Категория                     : 
OTHER_40           .         Направление, диаметр (мм)     : 
OTHER_41           .         Направление, глубина (м)      : 
OTHER_42           .         Кондуктор, диаметр (мм)       : 
OTHER_43           .         Кондуктор, глубина (м)        : 
OTHER_44           .         Техническая колонна, диаметр (мм): 
OTHER_45           .         Техническая колонна, глубина (м): 
OTHER_46           .         Эксплуатационная колонна, диаметр (мм): 
OTHER_47           .         Эксплуатационная колонна, глубина (м): 
OTHER_48           .         Программа Кедр-02 версия 3.4  : 
OTHER_49           .         Операционная система Windows NT 5.1 build 2600 Service Pack 2: 
OTHER_5            .         Назначение исследований       : 
OTHER_50           .         Программное обеспечение станции MONITOR-386EX 25/12/99 15_08_10   BGF V54 20/09/05 15_32_17   3.3__BGF_9030071: 
OTHER_51           .         Kedr.exe версия 3.4.2.74      : 
OTHER_52           .         KedrData.dll версия 3.4.2.29  : 
OTHER_53           .         Мнемоники версия 3.18 S       : 
OTHER_54           .         Драйвер версия 2.1.1.4        : 
OTHER_55           .         LasInf.dll 4.3.0.35           : 
OTHER_56           .         Прибор_ КСА-Т4                : 
OTHER_57           .         Номер прибора_ 160            : 
OTHER_58           .         Режим_ КСА-Т4                 : 
OTHER_59           .         Форма_ С.А.Б.                 : 
OTHER_6            .         Альтитуда стола ротора        : 
OTHER_60           .         Тарировки_                    : 
OTHER_61           .         <_techsia_sc_> Дата тарировки температуры 25.05.2010: 
OTHER_62           .         Ручной ввод коэффициентов     : 
OTHER_63           .         TM.DEGC = 0.00402*RTM.E.ACP + -0.994: 
OTHER_64           .         <_techsia_sc_> Дата тарировки давления 25.05.2010: 
OTHER_65           .         Ручной ввод коэффициентов     : 
OTHER_66           .         MN.ATM = (2.27521e-006*TM.DEGC + 0.02078)*(RMN.E.ACP + 6.2*TM.DEGC + -1688): 
OTHER_67           .         <_techsia_sc_> Дата тарировки ГК 25.05.2010: 
OTHER_68           .         Ручной ввод коэффициентов     : 
OTHER_69           .         GR.UR/H = RGR.IMP/MIN / 45.5144: 
OTHER_7            .         Вид исследований 3  6         : 
OTHER_70           .         GK.FLT = 0.1*GR.UR/H[-1] + (1-0.1)*GR.UR/H[0]: 
OTHER_8            .         Начало бурения интервала каротажа: 
OTHER_9            .         Окончание бурения интервала каротажа: 
PROJECT_UPGRADE_TIME .         2021-03-18T21_24_50           : 
TLFamily_CCLC      .                                       : 
TLFamily_DEPT      .         Measured Depth                : 
TLFamily_GK        .         Gamma Ray                     : 
TLFamily_GR        .         Gamma Ray                     : 
TLFamily_METKA     .                                       : 
TLFamily_MN        .                                       : 
TLFamily_RCOR      .                                       : 
TLFamily_RGR       .                                       : 
TLFamily_RMN       .                                       : 
TLFamily_RTEN      .                                       : 
TLFamily_RTM       .                                       : 
TLFamily_SPEE      .         Cable Speed                   : 
TLFamily_TIME      .         Time                          : 
TLFamily_TM        .         Temperature                   : 
group              .         prim                          : 
~Curve Information
#_______________________________________________________________________________
#
#LOGNAME           .UNIT     LOG_ID                        : DESCRIPTION
#_______________________________________________________________________________
DEPT               .M                                      : 1 Глубина, м -    0.0 см 
CCLC               .E.ACP                                  : 9 Локатор муфт,  -   20.0 см 
GK                 .FLT                                    : 14 Гамма-активность фильтрованная, мкр./ч -  110.0 см 
GR                 .UR/H                                   : 13 Гамма-активность, мкр./ч -  110.0 см 
METKA              .CU                                     : 3 Метки,  -    0.0 см 
MN                 .ATM                                    : 12 Давление, атм. -  160.0 см 
RCOR               .CM/KM                                  : 5 Коррекция по ролику, см/км -    0.0 см 
RGR                .IMP/MIN                                : 10 Гамма-активность, усл.ед. -  110.0 см 
RMN                .E.ACP                                  : 8 Давление, усл.ед. -  160.0 см 
RTEN               .T                                      : 6 Натяжение кабеля, т -    0.0 см 
RTM                .E.ACP                                  : 7 Температура, усл.ед. -  170.0 см 
SPEE               .M/H                                    : 2 Скорость, м/час -    0.0 см 
TIME               .S                                      : 4 Время, сек -    0.0 см 
TM                 .DEGC                                   : 11 Температура, °C -  170.0 см 
~Ascii
2650.6000977 -9999      -9999      -9999      0          -9999      -9999      -9999      -9999      -9999      -9999      -9999      -9999      -9999     
2650.8     29         -9999      -9999      0          -9999      -1089      -9999      -9999      0.3        -9999      18         1.2        -9999     
2651       29         -9999      -9999      0          -9999      -1089      -9999      -9999      0.27       -9999      186        2.53       -9999     
2651.199999 29         -9999      -9999      0          -9999      -1089      -9999      -9999      0.25       -9999      301        3.77       -9999     
2651.399999 505        -9999      -9999      0          -9999      -1089      -9999      -9999      0.25       -9999      382        5.01       -9999     
2651.599999 621        -9999      -9999      0          -9999      -1089      -9999      -9999      0.25       -9999      437        6.3        -9999     
2651.799999 478        8.77       8.77       1          -9999      -1089      399        -9999      0.25       -9999      475        7.58       -9999     
2651.999999 772        8.55       8.55       0          -9999      -1089      389        -9999      0.25       -9999      503        8.89       -9999     
2652.199998 1024       8.55       8.55       0          -9999      -1089      389        -9999      0.25       -9999      521        10.16      -9999     
2652.399998 1205       8.79       8.79       0          239.54     -1089      400        12727      0.25       16562      534        11.43      65.585    
2652.599998 1437       8.8        8.8        0          239.474    -1089      401        12723      0.25       16561      542        12.7       65.581    
2652.799998 1411       8.9        8.9        0          239.509    -1089      405        12725      0.25       16561      551        14.03      65.581    
2652.999998 1638       8.9        8.9        0          239.49     -1089      405        12724      0.25       16561      556        15.26      65.581    
2653.199997 1397       7.93       7.93       0          239.441    -1089      361        12722      0.25       16563      560        16.56      65.59     
2653.399997 1370       7.36       7.36       0          239.546    -1089      335        12727      0.25       16565      561        17.77      65.597    
2653.599997 1290       7.07       7.07       0          239.454    -1089      322        12722      0.25       16566      564        19.06      65.601    
2653.799997 893        7.24       7.24       0          239.551    -1089      329        12727      0.25       16567      564        20.37      65.605    
2653.999997 810        7.56       7.56       0          239.551    -1089      344        12727      0.25       16568      566        21.65      65.608    
2654.199996 751        7.69       7.69       0          239.552    -1089      350        12727      0.25       16567      569        22.91      65.605    
2654.399996 717        7.69       7.69       0          239.593    -1089      350        12729      0.25       16567      568        24.14      65.605    
2654.599996 1020       7.56       7.56       0          239.572    -1089      344        12728      0.25       16567      569        25.46      65.605    
2654.799996 997        7.51       7.51       0          239.593    -1089      342        12729      0.25       16567      570        26.72      65.605    
2654.999996 878        7.87       7.87       0          239.593    -1089      358        12729      0.25       16567      570        27.98      65.605    
2655.199995 796        8.13       8.13       0          239.593    -1089      370        12729      0.25       16567      571        29.24      65.605    
2655.399995 691        8.7        8.7        0          239.613    -1089      396        12730      0.25       16567      571        30.5       65.605    
2655.599995 574        8.7        8.7        0          239.634    -1089      396        12731      0.25       16566      571        31.83      65.601    
2655.799995 550        8.28       8.28       0          239.634    -1089      377        12731      0.25       16566      573        33.05      65.601    
2655.999995 528        8.28       8.28       2          239.655    -1089      377        12732      0.25       16566      573        33.63      65.601    
2656.199994 586        7.89       7.89       0          239.655    -1089      359        12732      0.25       16565      572        34.84      65.597    
2656.399994 559        7.89       7.89       0          239.676    -1089      359        12733      0.25       16565      572        36.11      65.597    
2656.599994 515        8.79       8.79       0          239.675    -1089      400        12733      0.25       16565      572        37.44      65.597    
2656.799994 680        8.79       8.79       0          239.696    -1089      400        12734      0.25       16564      572        38.69      65.593    
2656.999994 709        8.93       8.93       0          239.71     -1089      406        12735      0.25       16564      574        39.95      65.593    
2657.199993 610        9.14       9.14       0          239.716    -1089      416        12735      0.25       16563      575        41.22      65.591    
2657.399993 1214       9.14       9.14       0          239.725    -1089      416        12735      0.25       16563      574        42.44      65.589    
2657.599993 3904       8.17       8.17       0          239.736    -1089      372        12736      0.25       16563      575        43.75      65.588    
2657.799993 1012       8.17       8.17       0          239.736    -1089      372        12736      0.25       16562      574        45.01      65.585    
2657.999993 679        7.47       7.47       0          239.747    -1089      340        12737      0.25       16562      574        46.2       65.585    
2658.199992 690        7.47       7.47       0          239.757    -1089      340        12737      0.25       16561      575        47.47      65.581    
2658.399992 681        7.27       7.27       0          239.763    -1089      331        12737      0.25       16561      575        48.8       65.581    
2658.599992 600        7.27       7.27       0          239.777    -1089      331        12738      0.25       16560      575        50.03      65.577    
2658.799992 602        7.51       7.51       0          239.776    -1089      342        12738      0.25       16559      576        51.29      65.573    
2658.999992 686        7.51       7.51       0          239.797    -1089      342        12739      0.25       16558      577        52.51      65.569    
2659.199991 613        6.46       6.46       0          239.796    -1089      294        12739      0.25       16558      576        53.7       65.569    
2659.399991 386        6.35       6.35       0          239.796    -1089      289        12739      0.25       16557      578        55.03      65.565    
2659.599991 627        5.93       5.93       0          239.795    -1089      270        12739      0.25       16556      578        56.29      65.563    
2659.799991 557        5.93       5.93       0          239.816    -1089      270        12740      0.25       16556      578        57.54      65.561    
2659.999991 488        7.76       7.76       0          239.816    -1089      353        12740      0.25       16555      578        58.75      65.557    
2660.19999 521        7.76       7.76       0          239.836    -1089      353        12741      0.25       16554      579        60.06      65.553    
2660.39999 538        8.66       8.66       0          239.856    -1089      394        12742      0.25       16553      580        61.32      65.549    
2660.59999 306        8.45       8.45       0          239.856    -1089      385        12742      0.25       16553      579        62.53      65.548    
2660.79999 613        7.43       7.43       0          239.876    -1089      338        12743      0.25       16551      580        63.78      65.543    
