~Version
 VERS              .         2.0                           : CWLS LOG ASCII STANDARD - VERSION 2.0
 WRAP              .         NO                            : ONE LINE PER DEPTH STEP
 DLM               .         SPACE                         : DELIMITING CHARACTER(SPACE TAB OR COMMA)
~Well Information
#_______________________________________________________________________________
#
#PARAMETER_NAME    .UNIT     VALUE                         : DESCRIPTION
#_______________________________________________________________________________
STRT               .M        2656.6                        : First reference value
STOP               .M        2765.2                        : Last reference value
STEP               .M        0.1999997                     : Step increment
NULL               .         -9999                         : Missing value
COMP               .                                       : Company
WELL               .         616                           : Well name
FLD                .                                       : Field
LOC                .                                       : Location
CNTY               .                                       : County
STAT               .                                       : State
CTRY               .                                       : Country
SRVC               .                                       : Service Company
DATE               .                                       : Date
API                .                                       : API number
PROJECT_UPGRADE_TIME .         2021-03-18T21_24_50           : 
group              .         Good                          : 
~Parameter Information Block
#_______________________________________________________________________________
#
#PARAMETER_NAME    .UNIT     VALUE                         : DESCRIPTION
#_______________________________________________________________________________
SET                .         D8102_D                       : 
OTHER              .         Программное обеспечение станции MONITOR-386EX 25/12/99 15_08_10   BGF V52 22/08/01 16_56_30   4_SNGF_BGF_N_011645: 
OTHER_10           .         Тарировки_                    : 
OTHER_11           .         TM.GRD = 0.00412*TM$.UE + -2.13: 
OTHER_12           .         MN.ATM = (5.87652e-006*TM.GRD + 0.01993)*(MN$.UE + -2.72*TM.GRD + -1925): 
OTHER_13           .         GK.MKR/H = GK$.UE / 57.4657   : 
OTHER_2            .         Kedr.exe версия 3.4.2.51      : 
OTHER_3            .         KedrData.dll версия 3.4.2.24  : 
OTHER_4            .         Драйвер версия 2.1.0.2        : 
OTHER_5            .         Мнемоники версия 3.3 S        : 
OTHER_6            .         Прибор_ АКП4-90               : 
OTHER_7            .         Номер прибора_ 53             : 
OTHER_8            .         Режим_ АКП4_90                : 
OTHER_9            .         Форма_ ПК-53ое                : 
PROJECT_UPGRADE_TIME .         2021-03-18T21_24_50           : 
TLFamily_DEPT      .         Measured Depth                : 
TLFamily_GK        .         Gamma Ray                     : 
TLFamily_GK$       .                                       : 
TLFamily_LM        .         Casing Collar locator         : 
TLFamily_METKA     .                                       : 
TLFamily_METKA_1   .                                       : 
TLFamily_MN        .                                       : 
TLFamily_MN$       .                                       : 
TLFamily_RCOR      .                                       : 
TLFamily_SPID      .         Spontaneous Potential         : 
TLFamily_TENS      .         Cable Tension                 : 
TLFamily_TIME      .         Time                          : 
TLFamily_TM        .         Temperature                   : 
TLFamily_TM$       .         Temperature                   : 
group              .         prim                          : 
~Curve Information
#_______________________________________________________________________________
#
#LOGNAME           .UNIT     LOG_ID                        : DESCRIPTION
#_______________________________________________________________________________
DEPT               .M                                      : 1 Глубина, м -    0.0 см 
GK                 .MKR/H                                  : 13 Гамма-активность, мкр./ч -   65.0 см 
GK$                .UE                                     : 10 Гамма-активность, усл.ед. -   65.0 см 
LM                 .                                       : 9 Локатор муфт,  -   30.0 см 
METKA              .                                       : 3 Метки,  -    0.0 см 
METKA_1            .                                       : 14 Маркеры - 65 см 
MN                 .ATM                                    : 12 Давление, атм. -  140.0 см 
MN$                .UE                                     : 8 Давление, усл.ед. -  140.0 см 
RCOR               .CM/KM                                  : 5 Коррекция по ролику, см/км -    0.0 см 
SPID               .M/H                                    : 2 Скорость, м/час -    0.0 см 
TENS               .T                                      : 6 Натяжение кабеля, т -    0.0 см 
TIME               .S                                      : 4 Время, сек -    0.0 см 
TM                 .GRD                                    : 11 Температура, °C -  145.0 см 
TM$                .UE                                     : 7 Температура, усл.ед. -  145.0 см 
~Ascii
# ...
2667       4.61       265        121        0          0          243.913    14163      -21        -299       0.73       1860.99    66.002     16537     
2667.2     4.72       271        134        0          0          243.963    14166      -21        -303       0.74       1858.66    65.978     16531     
2667.4     4.7        270        218        0          0          243.983    14167      -21        -303       0.75       1856.26    65.96      16527     
2667.6     4.7        270        159        0          0          243.983    14167      -21        -303       0.75       1853.81    65.939     16522     
2667.8     4.52       260        309        0          0          243.983    14167      -21        -304       0.75       1851.47    65.915     16516     
2668       4.02       231        328        0          0          244.023    14169      -21        -306       0.75       1849.08    65.882     16508     
2668.2     4.02       231        188        0          0          244.063    14171      -21        -304       0.75       1846.81    65.86      16502     
2668.4     4.21       242        287        0          0          244.063    14171      -21        -307       0.75       1844.42    65.846     16499     
2668.6     4.79       275        253        0          0          244.076    14172      -21        -303       0.75       1842.02    65.836     16497     
2668.8     5          287        177        0          0          244.122    14174      -21        -305       0.75       1839.63    65.795     16487     
2669       5.04       290        248        0          0          244.113    14174      -21        -302       0.75       1837.35    65.773     16481     
2669.2     4.95       284        166        0          0          244.156    14176      -21        -305       0.75       1834.96    65.751     16476     
2669.4     4.76       274        219        0          0          244.142    14175      -21        -307       0.75       1832.68    65.721     16469     
2669.6     4.65       267        194        0          0          244.182    14177      -21        -309       0.75       1830.17    65.695     16462     
2669.8     4.38       252        198        0          0          244.182    14177      -21        -308       0.75       1827.94    65.66      16454     
2670       4.34       249        222        0          0          244.182    14177      -21        -305       0.74       1825.51    65.64      16449     
2670.2     4.65       267        196        0          0          244.222    14179      -21        -299       0.73       1823.18    65.607     16441     
2670.4     4.82       277        134        0          0          244.242    14180      -21        -287       0.59       1820.72    65.584     16435     
2670.6     4.8        276        165        2          0          244.282    14182      -18        -297       0.73       1818.07    65.545     16426     
2670.8     4.89       281        227        0          0          244.295    14183      -18        -300       0.75       1815.68    65.508     16417     
2671       4.96       285        180        0          0          244.302    14183      -18        -308       0.75       1813.28    65.481     16410     
2671.2     4.51       259        340        0          0          244.302    14183      -18        -305       0.75       1810.89    65.445     16402     
2671.4     4.93       283        171        0          0          244.368    14186      -18        -308       0.75       1808.62    65.409     16393     
2671.6     5.34       307        237        0          0          244.362    14186      -18        -303       0.75       1806.23    65.376     16385     
2671.8     4.58       263        457        0          0          244.382    14187      -18        -303       0.75       1803.83    65.354     16379     
2672       4.42       254        1070       0          0          244.402    14188      -18        -303       0.75       1801.51    65.317     16371     
2672.2     5.19       298        12550      0          0          244.422    14189      -18        -307       0.75       1799.11    65.299     16366     
2672.4     5.74       330        20129      0          0          244.461    14191      -18        -301       0.75       1796.75    65.277     16361     
2672.6     5.53       318        415        0          0          244.481    14192      -18        -297       0.73       1794.38    65.257     16356     
2672.8     5.6        322        253        0          0          244.481    14192      -18        -301       0.75       1792.02    65.238     16351     
2673       5.84       336        314        0          0          244.495    14193      -18        -301       0.75       1789.65    65.214     16346     
2673.2     6          345        104        0          0          244.534    14195      -18        -303       0.75       1787.26    65.203     16343     
2673.4     5.76       331        129        0          0          244.561    14196      -18        -300       0.75       1784.87    65.183     16338     
2673.6     5.79       333        282        0          0          244.581    14197      -18        -303       0.75       1782.47    65.169     16335     
2673.8     5.92       340        183        0          0          244.581    14197      -18        -306       0.75       1780.11    65.159     16332     
2674       5.93       341        273        0          0          244.611    14199      -18        -300       0.75       1777.81    65.154     16331     
2674.2     6.23       358        134        0          0          244.641    14200      -18        -304       0.75       1775.42    65.145     16329     
2674.4     6.16       354        225        0          0          244.661    14201      -18        -302       0.75       1773.11    65.129     16325     
2674.6     5.85       336        231        0          0          244.681    14202      -18        -302       0.75       1770.76    65.121     16323     
2674.8     6.07       349        236        0          0          244.674    14202      -18        -304       0.75       1768.35    65.113     16321     
2675       6.73       387        310        0          0          244.72     14204      -18        -299       0.74       1765.97    65.117     16322     
2675.2     6.52       375        461        0          0          244.74     14205      -18        -299       0.75       1763.66    65.108     16320     
2675.4     6.06       348        189        0          0          244.76     14206      -18        -305       0.75       1761.3     65.104     16319     
2675.6     6.32       363        234        0          0          244.76     14206      -18        -302       0.75       1758.92    65.1       16318     
2675.8     5.9        339        196        0          0          244.785    14207      -18        -304       0.75       1756.51    65.096     16317     
2676       5.64       324        179        0          0          244.8      14208      -18        -306       0.75       1754.21    65.095     16317     
2676.2     5.53       318        249        0          0          244.813    14209      -18        -304       0.75       1751.86    65.084     16314     
2676.4     5.61       322        317        0          0          244.82     14209      -18        -303       0.75       1749.46    65.08      16313     
2676.6     5.85       336        217        0          0          244.82     14209      -18        -296       0.75       1747.06    65.08      16313     
2676.8     5.99       344        169        0          0          244.88     14212      -18        -295       0.75       1744.76    65.073     16312     
2677       6.22       358        207        0          0          244.92     14214      -18        -294       0.75       1742.3     65.056     16307     
2677.2     6.76       389        210        0          0          244.933    14215      -18        -301       0.76       1740.01    65.055     16307     
