~Version
 VERS              .         2.0                           : CWLS LOG ASCII STANDARD - VERSION 2.0
 WRAP              .         NO                            : ONE LINE PER DEPTH STEP
 DLM               .         SPACE                         : DELIMITING CHARACTER(SPACE TAB OR COMMA)
~Well Information
#_______________________________________________________________________________
#
#PARAMETER_NAME    .UNIT     VALUE                         : DESCRIPTION
#_______________________________________________________________________________
STRT               .M        2298.8                        : First reference value
STOP               .M        2799.8                        : Last reference value
STEP               .M        0.2                           : Step increment
NULL               .         -9999                         : Missing value
COMP               .                                       : Company
WELL               .         616                           : Well name
FLD                .                                       : Field
LOC                .                                       : Location
CNTY               .                                       : County
STAT               .                                       : State
CTRY               .                                       : Country
SRVC               .                                       : Service Company
DATE               .                                       : Date
API                .                                       : API number
PROJECT_UPGRADE_TIME .         2021-03-18T21_24_50           : 
group              .         Good                          : 
~Parameter Information Block
#_______________________________________________________________________________
#
#PARAMETER_NAME    .UNIT     VALUE                         : DESCRIPTION
#_______________________________________________________________________________
SET                .         D2659_D                       : 
OTHER              .         Программное обеспечение станции MONITOR-386EX 25/12/99 15_08_10   BGF V50 26/12/00 07_26_01   3.1_SNGF___BGF_N_092085: 
OTHER_10           .         Тарировки_                    : 
OTHER_11           .         <_techsia_sc_> Постоянная времени фильтра ПС  0.5 сек, kf=0.139292: 
OTHER_2            .         Kedr.exe версия 3.3.2.32      : 
OTHER_3            .         KedrData.dll версия 3.3.2.17  : 
OTHER_4            .         Драйвер версия 2.1.0.7        : 
OTHER_5            .         Мнемоники версия 3.3 S        : 
OTHER_6            .         Прибор_ К1a-723м              : 
OTHER_7            .         Номер прибора_ 348/72         : 
OTHER_8            .         Режим_ K1A-723M               : 
OTHER_9            .         Форма_ БКЗ                    : 
PROJECT_UPGRADE_TIME .         2021-03-18T21_24_49           : 
TLFamily_BK        .         Lateral Log Resistivity       : 
TLFamily_DEPT      .         Measured Depth                : 
TLFamily_GZ1       .         Extra Shallow Resistivity     : 
TLFamily_GZ2       .         Shallow Resistivity           : 
TLFamily_GZ3       .         Medium Resistivity            : 
TLFamily_GZ4       .         Deep Resistivity              : 
TLFamily_GZ5       .         Extra Deep Resistivity        : 
TLFamily_GZ6       .         Medium Resistivity Inverted   : 
TLFamily_IBK       .                                       : 
TLFamily_IK        .         Conductivity                  : 
TLFamily_IPR       .                                       : 
TLFamily_METKA     .                                       : 
TLFamily_PS        .         Spontaneous Potential         : 
TLFamily_PZ        .         Potential Resistivity         : 
TLFamily_RCOR      .                                       : 
TLFamily_RES       .         Mud Resistivity               : 
TLFamily_SPID      .         Spontaneous Potential         : 
TLFamily_TENS      .         Cable Tension                 : 
TLFamily_TIME      .         Time                          : 
TLFamily_UBK       .         Uranium Concentration         : 
group              .         prim                          : 
~Curve Information
#_______________________________________________________________________________
#
#LOGNAME           .UNIT     LOG_ID                        : DESCRIPTION
#_______________________________________________________________________________
DEPT               .M                                      : 1 Глубина, м -    0.0 см 
BK                 .OHMM                                   : 20 БК, Ом*м - 1768.0 см 
GZ1                .OHMM                                   : 12 A0.4M0.1N, Ом*м - 1295.0 см 
GZ2                .OHMM                                   : 11 A1.0M0.1N, Ом*м - 1355.0 см 
GZ3                .OHMM                                   : 9 A2.0M0.5N, Ом*м - 1475.0 см 
GZ4                .OHMM                                   : 8 A4.0M0.5N, Ом*м - 1025.0 см 
GZ5                .OHMM                                   : 7 A8.0M1.0N, Ом*м - 1450.0 см 
GZ6                .OHMM                                   : 10 N0.5M2.0A, Ом*м - 1025.0 см 
IBK                .A                                      : 18 Ток БК, А - 1768.0 см 
IK                 .MSM/M                                  : 14 ИК, мСм/м - 1961.0 см 
IPR                .MA                                     : 17 Ток прибора, мA -    0.0 см 
METKA              .                                       : 3 Метки,  -    0.0 см 
PS                 .mV                                     : 16 ПС, мВ - 1210.0 см 
PZ                 .OHMM                                   : 13 N11M0.5A, Ом*м - 1225.0 см 
RCOR               .CM/KM                                  : 5 Коррекция по ролику, см/км -    0.0 см 
RES                .OHMM                                   : 15 Резистивиметр, Ом*м -  600.0 см 
SPID               .M/H                                    : 2 Скорость, м/час -    0.0 см 
TENS               .T                                      : 6 Натяжение кабеля, т -    0.0 см 
TIME               .S                                      : 4 Время, сек -    0.0 см 
UBK                .V                                      : 19 Напр. БК, В - 1768.0 см 
~Ascii
# ...
2787.2     6.88       9.5        8.5        7.3        8.8        6.6        9.3        0.029      118.2      -9999      -9999      570.54     11.4       -9999      -9999      -9999      -9999      -9999      0.841     
2787.4     6.49       9.4        8.8        7.2        8.6        6.7        9.2        0.031      115.6      -9999      -9999      571.12     11.4       -9999      -9999      -9999      -9999      -9999      0.841     
2787.6     7.22       9.4        8.9        6.9        8.8        6.9        9.3        0.028      113.3      -9999      -9999      571.55     11.5       -9999      -9999      -9999      -9999      -9999      0.845     
2787.8     8.22       9.5        8.9        6.8        8.7        7.4        9.3        0.025      109.8      -9999      -9999      571.36     11.5       -9999      -9999      -9999      -9999      -9999      0.877     
2788       11.1       9.5        8.7        7.1        8.7        7.7        9.4        0.019      104.6      -9999      -9999      571.42     11.5       -9999      -9999      -9999      -9999      -9999      0.901     
2788.2     8.87       9.5        8.9        7.4        8.7        8.1        9.3        0.024      99.1       -9999      -9999      571.5      11.5       -9999      -9999      -9999      -9999      -9999      0.913     
2788.4     7.4        9.5        8.9        8.5        8.7        8.2        9.3        0.029      94.6       -9999      -9999      571.14     11.5       -9999      -9999      -9999      -9999      -9999      0.917     
2788.6     7.34       9.5        9          8.7        8.7        8.1        9.2        0.03       93.9       -9999      -9999      570.6      11.5       -9999      -9999      -9999      -9999      -9999      0.923     
2788.8     8.88       9.5        9.1        8.8        8.7        8          9.3        0.025      94.5       -9999      -9999      570.35     11.5       -9999      -9999      -9999      -9999      -9999      0.918     
2789       17         9.4        9.1        8.7        8.8        8          9.3        0.013      94         -9999      -9999      570.88     11.5       -9999      -9999      -9999      -9999      -9999      0.913     
2789.2     16.37      9.4        9          8.7        8.8        8.1        9.3        0.013      91.5       -9999      -9999      570.2      11.5       -9999      -9999      -9999      -9999      -9999      0.921     
2789.4     10.8       9.5        8.9        8.8        8.9        8          9.4        0.02       91.2       -9999      -9999      570.19     11.5       -9999      -9999      -9999      -9999      -9999      0.905     
2789.6     8.13       9.5        8.9        8.8        8.7        8.1        9.3        0.026      97.8       -9999      -9999      570.46     11.5       -9999      -9999      -9999      -9999      -9999      0.897     
2789.8     7.51       9.5        8.9        8.8        8.7        8.1        9.3        0.028      105.4      -9999      -9999      570.51     11.5       -9999      -9999      -9999      -9999      -9999      0.899     
2790       7.11       9.5        8.8        8.9        8.8        8.2        9.4        0.03       111        -9999      -9999      571.17     11.5       -9999      -9999      -9999      -9999      -9999      0.896     
2790.2     7.75       9.5        9          8.9        8.7        8.1        9.3        0.026      115.1      -9999      -9999      570.19     11.5       -9999      -9999      -9999      -9999      -9999      0.866     
2790.4     8.75       9.5        9.1        8.8        8.7        8.1        9.4        0.022      117.3      -9999      -9999      570.33     11.5       -9999      -9999      -9999      -9999      -9999      0.827     
2790.6     7.34       9.5        8.8        8.7        -9999      8.1        -9999      0.026      118.1      -9999      -9999      570.36     11.5       -9999      -9999      -9999      -9999      -9999      0.804     
2790.8     7.22       9.5        9.1        8.7        -9999      8          -9999      0.026      120.6      -9999      -9999      569.86     11.5       -9999      -9999      -9999      -9999      -9999      0.795     
2791       7.2        9.5        9          8.7        -9999      8.1        -9999      0.026      124.3      -9999      -9999      570.37     11.5       -9999      -9999      -9999      -9999      -9999      0.792     
2791.2     7.19       9.5        8.9        8.7        -9999      8.1        -9999      0.026      125.7      -9999      -9999      569.74     11.5       -9999      -9999      -9999      -9999      -9999      0.789     
2791.4     7.2        9.5        8.8        8.8        -9999      8.1        -9999      0.026      128.4      -9999      -9999      569.49     11.5       -9999      -9999      -9999      -9999      -9999      0.79      
2791.6     7.24       9.5        8.9        8.9        -9999      8          -9999      0.026      128.7      -9999      -9999      569.81     11.5       -9999      -9999      -9999      -9999      -9999      0.794     
2791.8     7.27       9.5        9          8.7        -9999      8.2        -9999      0.026      130.4      -9999      -9999      570.42     11.5       -9999      -9999      -9999      -9999      -9999      0.795     
2792       7.32       9.5        9          8.9        -9999      8          -9999      0.026      129.2      -9999      -9999      570.33     11.5       -9999      -9999      -9999      -9999      -9999      0.801     
2792.2     7.38       9.5        8.9        8.8        -9999      8.1        -9999      0.026      128        -9999      -9999      569.07     11.5       -9999      -9999      -9999      -9999      -9999      0.81      
2792.4     7.51       9.5        9          8.7        -9999      8          -9999      0.026      125.7      -9999      -9999      570.02     11.5       -9999      -9999      -9999      -9999      -9999      0.822     
2792.6     7.53       9.5        9          8.7        -9999      8          -9999      0.026      124        -9999      -9999      -9999      -9999      -9999      -9999      -9999      -9999      -9999      0.824     
2792.8     7.52       9.5        9          8.8        -9999      8          -9999      0.026      122.8      -9999      -9999      -9999      -9999      -9999      -9999      -9999      -9999      -9999      0.825     
2793       7.58       9.5        9          8.7        -9999      8.1        -9999      0.026      123.4      -9999      -9999      -9999      -9999      -9999      -9999      -9999      -9999      -9999      0.834     
2793.2     7.59       9.5        8.8        8.9        -9999      8.1        -9999      0.026      123.3      -9999      -9999      -9999      -9999      -9999      -9999      -9999      -9999      -9999      0.834     
2793.4     7.62       -9999      8.8        8.8        -9999      8.1        -9999      0.026      123.6      -9999      -9999      -9999      -9999      -9999      -9999      -9999      -9999      -9999      0.834     
2793.6     7.61       -9999      8.9        8.8        -9999      8.1        -9999      0.026      123.8      -9999      -9999      -9999      -9999      -9999      -9999      -9999      -9999      -9999      0.834     
2793.8     7.62       -9999      8.9        8.8        -9999      8.1        -9999      0.026      124        -9999      -9999      -9999      -9999      -9999      -9999      -9999      -9999      -9999      0.834     
2794       7.57       -9999      -9999      8.8        -9999      8.1        -9999      0.026      123.8      -9999      -9999      -9999      -9999      -9999      -9999      -9999      -9999      -9999      0.83      
2794.2     7.6        -9999      -9999      8.8        -9999      8.1        -9999      0.026      123.8      -9999      -9999      -9999      -9999      -9999      -9999      -9999      -9999      -9999      0.834     
2794.4     7.61       -9999      -9999      8.8        -9999      8.1        -9999      0.026      123.2      -9999      -9999      -9999      -9999      -9999      -9999      -9999      -9999      -9999      0.833     
