~Version
 VERS              .         2.0                           : CWLS LOG ASCII STANDARD - VERSION 2.0
 WRAP              .         NO                            : ONE LINE PER DEPTH STEP
 DLM               .         SPACE                         : DELIMITING CHARACTER(SPACE TAB OR COMMA)
~Well Information
#_______________________________________________________________________________
#
#PARAMETER_NAME    .UNIT     VALUE                         : DESCRIPTION
#_______________________________________________________________________________
STRT               .M        749.69                        : First reference value
STOP               .M        1410.72                       : Last reference value
STEP               .M        0                             : Step increment
NULL               .         -9999                         : Missing value
COMP               .                                       : Company
WELL               .         616                           : Well name
FLD                .                                       : Field
LOC                .                                       : Location
CNTY               .                                       : County
STAT               .                                       : State
CTRY               .                                       : Country
SRVC               .                                       : Service Company
DATE               .                                       : Date
API                .                                       : API number
PROJECT_UPGRADE_TIME .         2021-03-18T21_24_50           : 
group              .         Good                          : 
~Parameter Information Block
#_______________________________________________________________________________
#
#PARAMETER_NAME    .UNIT     VALUE                         : DESCRIPTION
#_______________________________________________________________________________
SET                .         D0928                         : 
NPR                .         210404                        : ЗАВ НОМЕР ПРИБОРА
NPRT               .         Каштанов                      : НАЧ ПАРТИИ
PROJECT_UPGRADE_TIME .         2021-03-18T21_24_49           : 
TLFamily_AZIMUTH   .         True Dip Azimuth              : 
TLFamily_DEPTH     .         Measured Depth                : 
TLFamily_DRILL     .                                       : 
TLFamily_METKA     .                                       : 
TLFamily_ZENIT     .                                       : 
group              .         prim                          : 
~Curve Information
#_______________________________________________________________________________
#
#LOGNAME           .UNIT     LOG_ID                        : DESCRIPTION
#_______________________________________________________________________________
DEPTH              .M                                      : 1 ГЛУБИНА 
AZIMUTH            .ГРАД                                   : 4 АЗИМУТ 
DRILL              .ГРАД                                   : 2 ПОВОРОТ 
METKA              .                                       : 5 МАГН МЕТКА 
ZENIT              .ГРАД                                   : 3 ЗЕНИТ 
~Ascii
# ...
1079.18    335.9      144.73     0          31.65     
1079.36    335.54     146.46     0          31.66     
1079.55    336.49     148.1      0          31.69     
1079.73    337.21     149.79     0          31.67     
1079.92    337.94     151.63     0          31.7      
1080.11    338.41     153.63     0          31.7      
1080.29    338.48     155.82     0          31.73     
1080.48    338.58     158.21     0          31.75     
1080.66    339.13     160.81     0          31.76     
1080.85    339.61     163.63     0          31.78     
1081.03    339.49     166.68     0          31.79     
1081.22    339.61     170        0          31.81     
1081.4     338.6      173.56     0          31.79     
1081.59    337.31     177.3      0          31.8      
1081.78    336.31     181.15     0          31.77     
1081.96    334.47     184.93     0          31.75     
1082.15    331.76     188.55     0          31.84     
1082.33    329.7      191.84     0          31.87     
1082.52    330.32     194.78     0          31.88     
1082.7     331.56     197.61     0          31.91     
1082.89    331.74     200.6      0          31.92     
1083.08    332.87     203.82     0          31.96     
1083.26    333.04     207.06     0          31.97     
1083.45    332.94     210.18     0          32.02     
1083.63    330.31     213.22     0          32        
1083.82    332.63     216.51     0          32.09     
1084       332.89     220.42     0          32.09     
1084.19    334.53     225.07     0          32.14     
1084.37    335.19     231.49     0          32.1      
1084.56    337.32     258.31     0          32.13     
1084.75    338.94     33.19      0          32.11     
1084.93    341.03     44.52      0          32.09     
1085.12    342.54     49.34      0          32.06     
1085.3     344        53.01      0          32.06     
1085.49    345.95     56.16      0          32.05     
1085.67    344.8      58.98      0          32.01     
1085.86    346.93     62         0          31.97     
1086.04    347.57     65.28      0          31.96     
1086.23    350.14     68.56      0          31.95     
1086.42    350.91     71.7       0          31.93     
1086.6     353.53     74.79      0          31.92     
1086.79    355.85     78.19      0          31.91     
1086.97    358.6      81.89      0          31.93     
1087.16    0.36       85.75      0          31.94     
1087.34    3.1        89.73      0          31.96     
1087.53    5.86       93.87      0          31.99     
1087.72    6.9        97.99      0          31.88     
1087.9     9.26       102.03     0          31.87     
1088.09    9.26       105.84     0          31.85     
1088.27    9.4        109.37     0          31.81     
1088.46    8.39       112.64     0          31.81     
1088.64    8.48       115.66     0          31.77     
1088.83    7.67       118.42     0          31.75     
1089.02    9.46       120.96     0          31.7      
1089.2     8.98       123.26     0          31.72     
1089.39    7.43       125.34     0          31.63     
1089.57    6.51       127.26     0          31.65     
1089.76    6.62       129.05     0          31.63     
1089.94    6.14       130.73     0          31.65     
1090.13    5.18       132.29     0          31.64     
1090.31    5.3        133.68     0          31.65     
1090.5     3.62       134.91     0          31.69     
1090.69    4.17       135.93     0          31.71     
1090.87    2.66       136.74     0          31.72     
1091.06    3.11       137.41     0          31.71     
1091.24    4.41       138.01     0          31.75     
1091.43    5.16       138.42     0          31.77     
1091.61    4.7        138.56     0          31.77     
1091.8     5.19       138.53     0          31.77     
1091.98    5.45       138.48     0          31.78     
1092.17    6.01       138.45     0          31.77     
1092.36    5.07       138.4      0          31.76     
1092.54    5.31       138.31     0          31.76     
1092.73    6.54       138.26     0          31.77     
1092.91    7.2        138.23     0          31.76     
1093.1     8.32       138.18     0          31.76     
1093.28    11.6       138.13     0          31.77     
1093.47    13.25      138.02     0          31.78     
1093.65    14.47      137.88     0          31.79     
1093.84    16.25      137.75     0          31.79     
1094.02    20.66      137.59     0          31.78     
1094.21    22.54      137.45     0          31.82     
1094.4     25.74      137.34     0          31.83     
1094.58    24.98      137.19     0          31.86     
1094.77    25.62      136.99     0          31.86     
1094.95    24.59      136.82     0          31.87     
1095.14    25.91      136.7      0          31.88     
1095.32    25.94      136.58     0          31.9      
1095.51    27.05      136.47     0          31.91     
1095.69    27.13      136.4      0          31.93     
1095.88    27.01      136.36     0          31.96     
1096.07    28.11      136.3      0          31.95     
1096.25    27.87      136.26     0          31.95     
1096.44    29.63      136.35     0          31.95     
1096.62    28.85      136.52     0          31.94     
1096.81    29.01      136.69     0          31.92     
1096.99    28.25      136.84     0          31.91     
1097.18    33.62      136.95     0          31.9      
1097.36    30.22      137.02     0          31.87     
1097.55    28.14      137.02     0          31.87     
1097.73    26.93      136.89     0          31.87     
1097.92    25.46      136.73     0          31.84     
1098.1     24.98      136.75     0          31.84     
1098.29    22.23      136.87     0          31.83     
1098.47    19.48      137.01     0          31.83     
1098.66    15.47      137.15     0          31.83     
1098.85    10.4       137.28     0          31.82     
1099.03    6.36       137.44     0          31.82     
1099.22    4.82       137.65     0          31.8      
1099.4     3.82       137.89     0          31.81     
1099.59    1.15       138.16     0          31.79     
1099.77    1.83       138.48     0          31.77     
1099.96    1.89       138.83     0          31.74     
1100.14    2.44       139.21     0          31.74     
1100.33    1.28       139.65     0          31.71     
1100.52    1.35       140.13     0          31.72     
1100.7     359.3      140.58     0          31.69     
1100.89    358.63     141.02     0          31.68     
1101.07    357.13     141.41     0          31.65     
1101.26    357.14     141.73     0          31.64     
1101.44    355.53     142        0          31.61     
1101.63    354.5      142.27     0          31.59     
1101.81    353.23     142.54     0          31.6      
1102       351.53     142.75     0          31.59     
1102.18    350.68     142.89     0          31.61     
1102.37    349.71     143        0          31.61     
1102.56    349.43     143.09     0          31.61     
1102.74    347.42     143.54     0          31.61     
1102.93    348.47     144.46     0          31.63     
1103.11    350.02     145.68     0          31.6      
1103.3     349.58     147.21     0          31.63     
1103.48    349.9      148.94     0          31.64     
1103.67    349.97     150.64     0          31.67     
1103.86    350.58     152.39     0          31.65     
1104.04    350.94     154.29     0          31.69     
1104.23    351.69     156.32     0          31.68     
1104.41    352.54     158.59     0          31.71     
1104.6     352.95     161.09     0          31.71     
1104.78    354.05     163.78     0          31.72     
1104.97    353.51     166.73     0          31.76     
1105.15    354.24     169.96     0          31.75     
1105.34    354.02     173.3      0          31.73     
1105.53    354.64     176.59     0          31.71     
1105.71    354.55     179.65     0          31.67     
1105.9     354.37     182.36     0          31.7      
1106.08    355.2      184.6      0          31.68     
