~Version
 VERS              .         2.0                           : CWLS LOG ASCII STANDARD - VERSION 2.0
 WRAP              .         NO                            : ONE LINE PER DEPTH STEP
 DLM               .         SPACE                         : DELIMITING CHARACTER(SPACE TAB OR COMMA)
~Well Information
#_______________________________________________________________________________
#
#PARAMETER_NAME    .UNIT     VALUE                         : DESCRIPTION
#_______________________________________________________________________________
STRT               .M        2657.8                        : First reference value
STOP               .M        2767.999945                   : Last reference value
STEP               .M        0.1999999                     : Step increment
NULL               .         -9999                         : Missing value
COMP               .                                       : Company
WELL               .         616                           : Well name
FLD                .                                       : Field
LOC                .                                       : Location
CNTY               .                                       : County
STAT               .                                       : State
CTRY               .                                       : Country
SRVC               .                                       : Service Company
DATE               .                                       : Date
API                .                                       : API number
PROJECT_UPGRADE_TIME .         2021-03-18T21_24_50           : 
group              .         Good                          : 
~Parameter Information Block
#_______________________________________________________________________________
#
#PARAMETER_NAME    .UNIT     VALUE                         : DESCRIPTION
#_______________________________________________________________________________
SET                .         D7020_D_2                     : 
NPR                .         155                           : Номер прибора
OTHER              .         Kedr.exe версия 2.1.2.32      : 
OTHER_10           .         TM.GRD = 0.00404*TM$.UE + 0.07: 
OTHER_11           .         MN.ATM = (6.33279e-006*TM.GRD + 0.02401)*(MN$.UE + 2.72*TM.GRD + -2018): 
OTHER_12           .         GK.MKR/H = GK$.UE / 43.5489 + 0: 
OTHER_13           .         RES.SM = 0.00476*CRES.UE - 1.51709: 
OTHER_14           .         PL.GSM3 = 0 + 0 * (PL.UE / 1) +  0 * (PL.UE / 1)^2: 
OTHER_15           .         Постоянная времени ГГП = 6 сек: 
OTHER_16           .         Постоянная времени ГК = 6 сек : 
OTHER_2            .         KedrData.dll версия 3.2.2.14  : 
OTHER_3            .         LasInf.dll версия 3.2.0.13    : 
OTHER_4            .         Драйвер версия 1.2.0.5        : 
OTHER_5            .         Прибор_ КСА-M1                : 
OTHER_6            .         Номер прибора_ 155+р204       : 
OTHER_7            .         Режим_ КСА-М1 + ГГП + Резистивиметр: 
OTHER_8            .         Форма_ 223\2                  : 
OTHER_9            .         Тарировки_                    : 
PR                 .         КСА-Т7 М1                     : Тип прибора
PROJECT_UPGRADE_TIME .         2021-03-18T21_24_50           : 
PRTY               .         ПП-223_2                      : Номер партии
SRV                .         ЦКРС                          : Заказчик
SRVC               .         Лузин  А.Б.                   : Начальник партии
TLFamily_DEPT      .         Measured Depth                : 
TLFamily_LM        .         Casing Collar locator         : 
TLFamily_MN        .                                       : 
TLFamily_SPID      .         Spontaneous Potential         : 
TLFamily_TM        .         Temperature                   : 
group              .         second                        : 
~Curve Information
#_______________________________________________________________________________
#
#LOGNAME           .UNIT     LOG_ID                        : DESCRIPTION
#_______________________________________________________________________________
DEPT               .M                                      : Depth curve 
LM                 .е.ацп                                  : Локация муфт 
MN                 .атм                                    : Манометрия, атм 
SPID               .м/ч                                    : Скорость записи,м/час 
TM                 .град.С                                 : Термометрия,град.С 
~Ascii
2657.8000488 -9999      -9999      -9999      -9999     
2658       -9999      -9999      190.011    -9999     
2658.2     36.024     -9999      237.052    -9999     
2658.4     134.993    -9999      450.032    -9999     
2658.6     107.005    -9999      580        -9999     
2658.8     125.999    -9999      579.983    -9999     
2658.999999 119.989    -9999      510.005    -9999     
2659.199999 73.995     -9999      529.995    -9999     
2659.399999 54.001     -9999      510.017    -9999     
2659.599999 60.005     243.19     580        -9999     
2659.799999 80.99      243.16     580        49.71     
2659.999999 41.002     243.2      579.994    49.71     
2660.199999 49.007     243.2      556.989    49.71     
2660.399999 78.008     243.23     510.014    49.69     
2660.599999 109.988    243.25     568.003    49.68     
2660.799999 60.997     243.26     580        49.67     
2660.999998 50.031     243.25     579.983    49.67     
2661.199998 177.984    243.28     510.011    49.65     
2661.399998 113.993    243.31     557.006    49.63     
2661.599998 85.996     243.32     580        49.6      
2661.799998 68.998     243.34     580        49.59     
2661.999998 59.999     243.36     579.983    49.58     
2662.199998 57.007     243.38     510        49.56     
2662.399998 84.999     243.4      510        49.56     
2662.599998 80.996     243.43     510.017    49.56     
2662.799998 65.002     243.45     580        49.55     
2662.999997 72.999     243.46     579.997    49.53     
2663.199997 69.999     243.47     568.986    49.53     
2663.399997 66.003     243.51     510.017    49.51     
2663.599997 76.993     243.52     579.989    49.49     
2663.799997 48.999     243.54     533.011    49.49     
2663.999997 45.013     243.54     579.983    49.48     
2664.199997 98         243.59     510.009    49.47     
2664.399997 95.995     243.6      545.009    49.46     
2664.599997 74.017     243.62     580        49.45     
2664.799997 143.995    243.61     580        49.43     
2664.999996 124.987    243.63     579.991    49.41     
2665.199996 72         243.65     545.009    49.4      
2665.399996 74.006     243.67     579.983    49.38     
2665.599996 98         243.71     510.014    49.37     
2665.799996 98.992     243.72     568.003    49.35     
2665.999996 67.997     243.74     579.986    49.34     
2666.199996 55.002     243.74     521.012    49.33     
2666.399996 65.007     243.76     570.002    49.32     
2666.599996 93.001     243.78     579.993    49.3      
2666.799996 95.999     243.79     552.007    49.29     
2666.999995 92.991     243.82     579.986    49.28     
2667.199995 58.003     243.85     522.006    49.27     
2667.399995 69.004     243.87     544.997    49.25     
2667.599995 85.997     243.89     533.012    49.23     
2667.799995 73.008     243.92     580        49.21     
2667.999995 104.988    243.92     579.991    49.19     
2668.199995 55.001     243.92     545.009    49.18     
2668.399995 58.999     243.95     580        49.16     
2668.599995 56.001     243.98     579.988    49.14     
2668.799995 61.003     244.01     533.012    49.14     
2668.999994 76.115     244.01     579.983    49.12     
2669.199994 4625.31    244.03     510        49.11     
2669.399994 1808.67    244.05     510.017    49.09     
2669.599994 461.916    244.05     579.994    49.09     
2669.799994 121.044    244.08     556.988    49.07     
2669.999994 301.968    244.12     510.017    49.06     
2670.199994 169.981    244.14     579.991    49.05     
2670.399994 90.994     244.13     545.006    49.03     
2670.599994 67.003     244.13     567.989    49        
2670.799994 79.005     244.18     522.007    48.98     
2670.999993 100.016    244.2      549.993    48.96     
2671.199993 165.996    244.22     521.014    48.95     
2671.399993 150.002    244.23     579.994    48.93     
2671.599993 156.996    244.25     557.006    48.92     
2671.799993 139.994    244.29     579.985    48.92     
2671.999993 113.993    244.3      520.002    48.91     
2672.199993 87.005     244.33     530.012    48.9      
2672.399993 105.999    244.33     579.995    48.87     
2672.599993 100.992    244.36     559.988    48.85     
2672.799993 68.009     244.38     510.017    48.84     
2672.999992 106        244.4      579.991    48.84     
2673.199992 107.008    244.41     545.009    48.83     
2673.399992 138.987    244.45     580        48.81     
2673.599992 84.997     244.45     580        48.79     
2673.799992 71.004     244.47     580        48.78     
2673.999992 86.002     244.48     580        48.75     
2674.199992 93.001     244.51     580        48.73     
2674.399992 98.994     244.51     580        48.71     
2674.599992 73.002     244.54     579.983    48.69     
2674.799992 81         244.55     510.017    48.69     
2674.999991 82.023     244.58     580        48.67     
2675.199991 177.003    244.6      579.983    48.65     
2675.399991 187.994    244.63     510.017    48.63     
2675.599991 165        244.64     580        48.63     
2675.799991 166.013    244.67     580        48.62     
2675.999991 219.992    244.69     579.99     48.62     
2676.199991 185.995    244.67     538.01     48.62     
2676.399991 166.997    244.71     579.986    48.59     
2676.599991 154.995    244.73     522.006    48.57     
2676.799991 133.998    244.74     545.009    48.55     
2676.99999 123.991    244.76     580        48.52     
2677.19999 88.993     244.78     579.997    48.49     
2677.39999 61.009     244.79     568.003    48.48     
2677.59999 97.993     244.82     579.986    48.46     
2677.79999 69.999     244.85     522.014    48.45     
2677.99999 63.998     244.88     580        48.44     
2678.19999 53.999     244.91     579.994    48.41     
2678.39999 49.001     244.9      557.006    48.4      
2678.59999 52.999     244.9      579.986    48.38     
2678.79999 49.012     244.95     522.007    48.38     
2678.999989 98.997     244.97     552.007    48.36     
2679.199989 87.995     244.97     579.998    48.36     
2679.399989 66.005     244.99     569.988    48.35     
2679.599989 87.025     244.99     522.014    48.33     
2679.799989 186.989    245.03     580        48.3      
2679.999989 141.669    245.03     579.99     48.29     
2680.199989 2862.227   245.06     539.998    48.27     
2680.399989 3783.214   245.08     533.012    48.25     
2680.599989 587.895    245.1      580        48.24     
2680.799989 161.977    245.1      580        48.22     
2680.999988 68.997     245.12     579.997    48.21     
2681.199988 55.999     245.15     569.003    48.19     
2681.399988 53.003     245.19     579.99     48.17     
2681.599988 66.003     245.2      538.005    48.15     
2681.799988 79.008     245.25     556.988    48.14     
2681.999988 112.005    245.25     510.014    48.13     
2682.199988 130.992    245.28     566.003    48.12     
2682.399988 97.998     245.26     579.997    48.1      
2682.599988 89.999     245.3      568.003    48.1      
2682.799988 83.999     245.33     579.994    48.08     
2682.999987 78.002     245.36     557.003    48.08     
2683.199987 85.002     245.37     569.003    48.08     
2683.399987 94.998     245.37     580        48.06     
2683.599987 85.004     245.4      579.993    48.05     
2683.799987 100.995    245.42     549.99     48.04     
2683.999987 80         245.44     510.014    48.02     
2684.199987 81.999     245.46     568.003    48.01     
2684.399987 76.999     245.39     579.983    48.01     
2684.599987 72.998     245.51     510        47.98     
2684.799987 63.999     245.52     510.012    47.95     
2684.999986 57.999     245.53     560.005    47.93     
2685.199986 55         245.55     579.983    47.92     
2685.399986 55.999     245.57     510.015    47.9      
2685.599986 52.999     245.59     570.002    47.88     
2685.799986 48.041     245.62     579.983    47.88     
2685.999986 215.006    245.64     510.017    47.87     
2686.199986 240.969    245.63     579.983    47.85     
2686.399986 114.988    245.66     510.017    47.83     
