~Version
 VERS              .         2.0                           : CWLS LOG ASCII STANDARD - VERSION 2.0
 WRAP              .         NO                            : ONE LINE PER DEPTH STEP
 DLM               .         SPACE                         : DELIMITING CHARACTER(SPACE TAB OR COMMA)
~Well Information
#_______________________________________________________________________________
#
#PARAMETER_NAME    .UNIT     VALUE                         : DESCRIPTION
#_______________________________________________________________________________
STRT               .M        1549.2                        : First reference value
STOP               .M        2296.2                        : Last reference value
STEP               .M        0.2                           : Step increment
NULL               .         -9999                         : Missing value
COMP               .                                       : Company
WELL               .         616                           : Well name
FLD                .                                       : Field
LOC                .                                       : Location
CNTY               .                                       : County
STAT               .                                       : State
CTRY               .                                       : Country
SRVC               .                                       : Service Company
DATE               .                                       : Date
API                .                                       : API number
PROJECT_UPGRADE_TIME .         2021-03-18T21_24_50           : 
group              .         Good                          : 
~Parameter Information Block
#_______________________________________________________________________________
#
#PARAMETER_NAME    .UNIT     VALUE                         : DESCRIPTION
#_______________________________________________________________________________
SET                .         616_10                        : 
CONF               .         00                            : 
END                .         0                             : 
ERR                .         2                             : 
GS00               .M        2294.21                       : 
GS01               .M        1546.72                       : 
MM00               .M        2240.00                       : 
NOKG               .         0                             : 
NPR                .         980119                        : 
PART               .         Палагутин                     : 
PROJECT_UPGRADE_TIME .         2021-03-18T21_24_49           : 
PRZK               .         Якименко                      : 
TLFamily_AZIMUTH   .         True Dip Azimuth              : 
TLFamily_DEPTH     .         Measured Depth                : 
TLFamily_METKA     .                                       : 
TLFamily_ROLL      .                                       : 
TLFamily_SPEED     .         Spontaneous Potential         : 
TLFamily_ZENIT     .                                       : 
VPRG               .         310                           : 
WAY                .         UP                            : 
group              .         prim                          : 
~Curve Information
#_______________________________________________________________________________
#
#LOGNAME           .UNIT     LOG_ID                        : DESCRIPTION
#_______________________________________________________________________________
DEPTH              .M                                      :  
AZIMUTH            .DEG                                    :  
METKA              .                                       :  
ROLL               .DEG                                    :  
SPEED              .M/H                                    :  
ZENIT              .DEG                                    :  
~Ascii
# ...
1646.8     264.65     0          212.61     540        26.45     
1647       269.76     0          217.96     612        26.58     
1647.2     286.81     0          220.45     612        26.58     
1647.4     327.56     0          221.87     648        26.64     
1647.6     235.23     0          223.18     648        26.67     
1647.8     183.54     0          224.64     540        26.66     
1648       349.77     0          227.55     576        26.62     
1648.2     293.4      0          232        648        26.44     
1648.4     267.74     0          242.45     612        26.37     
1648.6     264.45     0          258.06     648        26.66     
1648.8     260.39     0          279.93     612        27.22     
1649       260.81     0          304.93     576        27.34     
1649.2     259.69     0          327.99     612        26.55     
1649.4     259.52     0          347.04     612        26.27     
1649.6     259.79     0          2.09       648        26.13     
1649.8     259.85     0          15.52      540        26.05     
1650       260.4      0          25.08      648        26.03     
1650.2     259.9      0          27.7       612        26.21     
1650.4     256.6      0          29.28      612        25.9      
1650.6     260.47     0          34.64      648        25.83     
1650.8     260.5      0          39.41      612        26        
1651       259.13     0          39.85      612        25.75     
1651.2     259.38     0          40.22      576        25.82     
1651.4     260        0          40.98      648        26.01     
1651.6     258.46     0          39.89      648        26.08     
1651.8     259.72     0          38.2       612        25.93     
1652       260.76     1          38.7       648        26.08     
1652.2     260.44     0          38.92      576        26.03     
1652.4     260.27     0          38.92      576        26.02     
1652.6     260.73     0          38.85      648        26.14     
1652.8     259.84     0          38.66      540        26.04     
1653       260.02     0          38.61      612        26.03     
1653.2     260.45     0          38.4       612        26.12     
1653.4     260.29     0          37.99      612        26.08     
1653.6     259.55     0          37.54      612        25.95     
1653.8     260.31     0          37.46      576        26.05     
1654       260.48     0          37.62      648        26.05     
1654.2     260.07     0          37.62      612        26        
1654.4     259.95     0          37.65      612        25.97     
1654.6     260.09     0          38.03      612        26        
1654.8     259.65     0          38.36      540        25.91     
1655       259.45     0          38.15      648        25.93     
1655.2     259.63     0          37.85      612        26.05     
1655.4     259.01     0          37.84      648        25.92     
1655.6     258.92     0          38.21      576        25.88     
1655.8     259.17     0          38.36      576        25.97     
1656       258.9      0          37.92      648        25.91     
1656.2     259.24     0          37.53      648        25.93     
1656.4     259.31     0          37.42      612        25.98     
1656.6     259.75     0          37.58      576        26.06     
1656.8     259.72     0          37.93      576        25.95     
1657       260.22     0          38.72      612        26.06     
1657.2     260.37     0          39.22      648        26.12     
1657.4     259.68     0          39.12      612        26.06     
1657.6     260.33     0          38.91      648        26.15     
1657.8     260.22     0          38.7       540        26.14     
1658       260.09     0          38.82      576        26.05     
1658.2     260.61     0          38.72      648        26.15     
1658.4     260.35     0          38.3       648        26.06     
1658.6     260.8      0          38.34      540        26.02     
1658.8     261.91     0          38.34      612        26.18     
1659       263.4      0          37.93      576        26.23     
1659.2     266.33     0          37.82      612        26.13     
1659.4     275.85     0          38.2       648        26.2      
1659.6     309.02     0          38.49      576        26.24     
1659.8     315.07     0          38.81      612        26.13     
1660       245.08     0          39.09      612        26.15     
1660.2     311.24     0          39.03      576        26.35     
1660.4     297.73     0          38.05      648        26.22     
1660.6     269.84     0          36         612        26.25     
1660.8     264.94     0          34.05      612        26.39     
1661       262.42     0          33.38      612        26.17     
1661.2     260.8      0          35.59      576        26.02     
1661.4     260.4      0          38.18      648        25.9      
1661.6     260.66     0          39.03      612        25.87     
1661.8     260.48     0          38.41      648        25.92     
1662       260.62     1          36         612        25.91     
1662.2     259.54     0          33.04      576        25.92     
1662.4     259.81     0          32.27      612        25.91     
1662.6     260.37     0          32.58      576        25.93     
1662.8     259.29     0          34.24      612        25.6      
1663       261.41     0          37.1       612        25.71     
1663.2     260.49     0          38.73      648        25.75     
1663.4     261.03     0          38.88      576        25.9      
1663.6     259.01     0          38.75      648        25.45     
1663.8     259.99     0          39.94      648        25.85     
1664       260.2      0          40.2       648        25.92     
1664.2     260.13     0          40.22      612        25.83     
1664.4     259.57     0          40.38      648        25.76     
1664.6     260.85     0          40.5       504        25.99     
1664.8     259.67     0          40.19      612        25.81     
1665       260.13     0          40.1       648        25.86     
1665.2     260.04     0          39.72      648        25.87     
1665.4     260.03     0          39.34      612        25.86     
1665.6     259.43     0          39.24      576        25.78     
1665.8     260.76     0          39.23      576        26.01     
1666       244.94     0          45.82      648        25.24     
1666.2     261.06     0          63.95      612        25.52     
1666.4     261.43     0          81.53      612        26.06     
1666.6     259.2      0          94.48      576        26.12     
1666.8     258.5      0          112.36     540        26.38     
1667       258.01     0          129.22     648        26.12     
1667.2     261.25     0          139.49     612        26.29     
1667.4     259.66     0          143.12     648        25.98     
1667.6     259.98     0          145.72     540        26        
1667.8     260.5      0          148.35     612        26        
1668       260.72     0          150.03     612        25.96     
1668.2     260.13     0          151.36     648        25.88     
1668.4     260.72     0          153.47     612        26.01     
1668.6     260.54     0          156.11     540        25.96     
1668.8     259.92     0          161.31     612        25.91     
1669       260.52     0          167.85     576        25.92     
1669.2     261.91     0          173.52     648        26.22     
1669.4     260.82     0          178.17     612        25.86     
1669.6     259.89     0          182.59     576        25.77     
1669.8     259.57     0          189.14     612        25.65     
1670       259.75     0          198.83     648        25.48     
1670.2     261.3      0          209.15     576        25.63     
1670.4     261.33     0          214.66     648        25.69     
1670.6     261.22     0          217.29     612        25.68     
1670.8     261.65     0          220.39     612        25.57     
1671       262.86     0          224.23     612        25.65     
