~Version
 VERS              .         2.0                           : CWLS LOG ASCII STANDARD - VERSION 2.0
 WRAP              .         NO                            : ONE LINE PER DEPTH STEP
 DLM               .         SPACE                         : DELIMITING CHARACTER(SPACE TAB OR COMMA)
~Well Information
#_______________________________________________________________________________
#
#PARAMETER_NAME    .UNIT     VALUE                         : DESCRIPTION
#_______________________________________________________________________________
STRT               .M        2649.8                        : First reference value
STOP               .M        2761.600056                   : Last reference value
STEP               .M        0.2000001                     : Step increment
NULL               .         -9999                         : Missing value
COMP               .                                       : Company
WELL               .         616                           : Well name
FLD                .                                       : Field
LOC                .                                       : Location
CNTY               .                                       : County
STAT               .                                       : State
CTRY               .                                       : Country
SRVC               .                                       : Service Company
DATE               .                                       : Date
API                .                                       : API number
PROJECT_UPGRADE_TIME .         2021-03-18T21_24_50           : 
group              .         Good                          : 
~Parameter Information Block
#_______________________________________________________________________________
#
#PARAMETER_NAME    .UNIT     VALUE                         : DESCRIPTION
#_______________________________________________________________________________
SET                .         D8106_D                       : 
OTHER              .         Программное обеспечение станции MONITOR-386EX 25/12/99 15_08_10   BGF V52 22/08/01 16_56_30   4_SNGF_BGF_N_011645: 
OTHER_10           .         Тарировки_                    : 
OTHER_11           .         TM.GRD = 0.00412*TM$.UE + -2.13: 
OTHER_12           .         MN.ATM = (5.87652e-006*TM.GRD + 0.01993)*(MN$.UE + -2.72*TM.GRD + -1925): 
OTHER_13           .         GK.MKR/H = GK$.UE / 57.4657   : 
OTHER_2            .         Kedr.exe версия 3.4.2.51      : 
OTHER_3            .         KedrData.dll версия 3.4.2.24  : 
OTHER_4            .         Драйвер версия 2.1.0.2        : 
OTHER_5            .         Мнемоники версия 3.3 S        : 
OTHER_6            .         Прибор_ АКП4-90               : 
OTHER_7            .         Номер прибора_ 53             : 
OTHER_8            .         Режим_ АКП4_90                : 
OTHER_9            .         Форма_ ПК-53ое                : 
PROJECT_UPGRADE_TIME .         2021-03-18T21_24_50           : 
TLFamily_DEPT      .         Measured Depth                : 
TLFamily_GK        .         Gamma Ray                     : 
TLFamily_GK$       .                                       : 
TLFamily_LM        .         Casing Collar locator         : 
TLFamily_METKA     .                                       : 
TLFamily_METKA_1   .                                       : 
TLFamily_MN        .                                       : 
TLFamily_MN$       .                                       : 
TLFamily_RCOR      .                                       : 
TLFamily_SPID      .         Spontaneous Potential         : 
TLFamily_TENS      .         Cable Tension                 : 
TLFamily_TIME      .         Time                          : 
TLFamily_TM        .         Temperature                   : 
TLFamily_TM$       .         Temperature                   : 
group              .         prim                          : 
~Curve Information
#_______________________________________________________________________________
#
#LOGNAME           .UNIT     LOG_ID                        : DESCRIPTION
#_______________________________________________________________________________
DEPT               .M                                      : 1 Глубина, м -    0.0 см 
GK                 .MKR/H                                  : 13 Гамма-активность, мкр./ч -   65.0 см 
GK$                .UE                                     : 10 Гамма-активность, усл.ед. -   65.0 см 
LM                 .                                       : 9 Локатор муфт,  -   30.0 см 
METKA              .                                       : 3 Метки,  -    0.0 см 
METKA_1            .                                       : 14 Маркеры - 65 см 
MN                 .ATM                                    : 12 Давление, атм. -  140.0 см 
MN$                .UE                                     : 8 Давление, усл.ед. -  140.0 см 
RCOR               .CM/KM                                  : 5 Коррекция по ролику, см/км -    0.0 см 
SPID               .M/H                                    : 2 Скорость, м/час -    0.0 см 
TENS               .T                                      : 6 Натяжение кабеля, т -    0.0 см 
TIME               .S                                      : 4 Время, сек -    0.0 см 
TM                 .GRD                                    : 11 Температура, °C -  145.0 см 
TM$                .UE                                     : 7 Температура, усл.ед. -  145.0 см 
~Ascii
# ...
2722.600036 3.8        218        1015       0          0          249.504    14444      -11        491        0.55       14902.38   44.051     11209     
2722.800037 3.93       226        481        0          0          249.623    14450      -11        490        0.55       14903.85   44.063     11212     
2723.000037 4.36       251        1877       0          0          249.544    14446      -11        486        0.55       14905.31   44.091     11219     
2723.200037 4.4        253        710        0          0          249.639    14451      -11        487        0.55       14906.81   44.147     11232     
2723.400037 4.82       277        777        0          0          249.583    14448      -11        482        0.55       14908.3    44.18      11240     
2723.600037 4.86       279        947        0          0          249.683    14453      -11        488        0.55       14909.75   44.213     11248     
2723.800037 4.91       282        677        0          0          249.613    14450      -11        485        0.55       14911.25   44.263     11261     
2724.000037 4.59       264        683        0          0          249.731    14455      -11        487        0.55       14912.67   44.322     11275     
2724.200037 4.56       262        512        0          0          249.673    14453      -11        479        0.55       14914.18   44.352     11282     
2724.400037 4.28       246        977        0          0          249.755    14457      -11        484        0.55       14915.68   44.395     11293     
2724.600037 4.26       245        569        0          0          249.719    14455      -11        484        0.55       14917.18   44.415     11297     
2724.800038 4.66       268        617        0          0          249.816    14460      -11        487        0.53       14918.61   44.452     11306     
2725.000038 5.25       302        549        0          0          249.771    14457      -11        491        0.55       14920.11   44.482     11314     
2725.200038 5.34       307        741        0          0          249.839    14461      -11        483        0.55       14921.61   44.509     11320     
2725.400038 5.2        299        509        0          0          249.803    14459      -11        487        0.55       14923.07   44.533     11326     
2725.600038 5.19       298        636        0          0          249.882    14463      -11        479        0.55       14924.54   44.562     11333     
2725.800038 4.85       278        454        0          0          249.863    14462      -11        484        0.55       14926.05   44.583     11338     
2726.000038 4.62       266        867        0          0          249.922    14465      -11        488        0.55       14927.55   44.611     11345     
2726.200038 4.58       263        957        0          0          249.914    14465      -11        491        0.55       14928.98   44.643     11353     
2726.400038 4.66       268        555        0          0          249.922    14465      -11        487        0.55       14930.48   44.676     11361     
2726.600038 4.66       268        155        0          0          249.938    14466      -11        490        0.55       14931.91   44.705     11368     
2726.800039 4.91       282        1085       0          0          249.936    14466      -11        491        0.55       14933.41   44.733     11375     
2727.000039 5.3        305        545        0          0          249.982    14468      -11        488        0.55       14934.91   44.767     11383     
2727.200039 5.44       313        553        0          0          249.942    14466      -11        488        0.55       14936.41   44.798     11390     
2727.400039 5.62       323        737        0          0          250.022    14470      -11        487        0.55       14937.86   44.827     11397     
2727.600039 5.64       324        16477      0          0          249.954    14467      -11        484        0.55       14939.33   44.86      11405     
2727.800039 5.12       294        13481      0          0          250.098    14474      -11        481        0.55       14940.8    44.88      11410     
2728.000039 4.78       275        10922      0          0          249.982    14468      -11        482        0.55       14942.29   44.896     11414     
2728.200039 4.63       266        2021       0          0          250.078    14473      -11        485        0.55       14943.79   44.927     11422     
2728.400039 4.59       264        927        0          0          250.082    14473      -11        480        0.53       14945.21   44.959     11429     
2728.600039 4.58       263        396        0          0          250.181    14478      -11        485        0.54       14946.72   45.005     11441     
2728.80004 4.75       273        324        0          0          250.121    14475      -11        481        0.55       14948.22   45.041     11449     
2729.00004 4.77       274        369        0          0          250.217    14480      -11        480        0.55       14949.72   45.071     11457     
2729.20004 4.8        276        239        0          0          250.161    14477      -11        480        0.55       14951.14   45.092     11462     
2729.40004 5.12       294        454        0          0          250.261    14482      -11        483        0.53       14952.65   45.153     11476     
2729.60004 5.22       300        230        0          0          250.193    14479      -11        484        0.55       14954.14   45.192     11486     
2729.80004 5.15       296        583        2          0          250.313    14485      -11        487        0.55       14955.58   45.244     11499     
2730.00004 5.15       296        340        0          0          250.241    14481      -15        477        0.55       14957.38   45.297     11511     
2730.20004 5.13       295        539        0          0          250.353    14487      -15        483        0.55       14958.9    45.365     11528     
2730.40004 5.3        304        197        0          0          250.289    14483      -15        484        0.55       14960.36   45.409     11539     
2730.60004 5.39       310        575        0          0          250.396    14489      -15        488        0.54       14961.85   45.477     11555     
2730.800041 5.06       290        321        0          0          250.333    14486      -15        480        0.55       14963.3    45.53      11568     
2731.000041 5.15       296        1162       0          0          250.417    14490      -15        486        0.55       14964.81   45.705     11610     
2731.200041 5.25       302        889        0          0          250.381    14488      -15        485        0.54       14966.3    45.81      11636     
2731.400041 6.76       388        947        0          0          250.404    14489      -15        487        0.55       14967.76   45.874     11651     
2731.600041 6.91       397        333        0          0          250.456    14492      -15        486        0.55       14969.27   45.912     11661     
2731.800041 8.13       467        667        0          0          250.46     14492      -15        479        0.55       14970.78   45.938     11667     
2732.000041 8.24       473        262        0          0          250.504    14494      -15        483        0.55       14972.22   45.959     11672     
2732.200041 8.64       497        455        0          0          250.484    14493      -15        483        0.55       14973.73   45.979     11677     
2732.400041 9.4        540        720        0          0          250.56     14497      -15        487        0.55       14975.17   46.003     11683     
2732.600041 9.5        546        777        0          0          250.54     14496      -15        490        0.55       14976.68   46.021     11687     
2732.800042 9.42       541        462        0          0          250.604    14499      -15        487        0.55       14978.14   46.059     11696     
