~Version
 VERS              .         2.0                           : CWLS LOG ASCII STANDARD - VERSION 2.0
 WRAP              .         NO                            : ONE LINE PER DEPTH STEP
 DLM               .         SPACE                         : DELIMITING CHARACTER(SPACE TAB OR COMMA)
~Well Information
#_______________________________________________________________________________
#
#PARAMETER_NAME    .UNIT     VALUE                         : DESCRIPTION
#_______________________________________________________________________________
STRT               .M        47.8                          : First reference value
STOP               .M        2693.8                        : Last reference value
STEP               .M        0.2                           : Step increment
NULL               .         -9999                         : Missing value
COMP               .                                       : Company
WELL               .         616                           : Well name
FLD                .                                       : Field
LOC                .                                       : Location
CNTY               .                                       : County
STAT               .                                       : State
CTRY               .                                       : Country
SRVC               .                                       : Service Company
DATE               .                                       : Date
API                .                                       : API number
PROJECT_UPGRADE_TIME .         2021-03-18T21_24_50           : 
group              .         Good                          : 
~Parameter Information Block
#_______________________________________________________________________________
#
#PARAMETER_NAME    .UNIT     VALUE                         : DESCRIPTION
#_______________________________________________________________________________
SET                .         D1172_D                       : 
OTHER              .         Программное обеспечение станции MONITOR-386EX 25/12/99 15_08_10   BGF V52 22/08/01 16_56_30   3.2_BGF_N_3070031: 
OTHER_10           .         Тарировки_                    : 
OTHER_11           .         TM.GRD = 0.00403*TM$.UE + -1.19: 
OTHER_12           .         MN.ATM = (7.1e-006*TM.GRD + 0.02017)*(MN$.UE + -3.03*TM.GRD + -1833): 
OTHER_13           .         Id error                      : 
OTHER_2            .         Kedr.exe версия 3.4.2.51      : 
OTHER_3            .         KedrData.dll версия 3.4.2.24  : 
OTHER_4            .         Драйвер версия 2.1.1.8        : 
OTHER_5            .         Мнемоники версия 3.3 S        : 
OTHER_6            .         Прибор_ КСА-М1                : 
OTHER_7            .         Номер прибора_ 265            : 
OTHER_8            .         Режим_ КСА-М1                 : 
OTHER_9            .         Форма_ ТЕРМОМЕТР              : 
PROJECT_UPGRADE_TIME .         2021-03-18T21_24_49           : 
TLFamily_DEPT      .         Measured Depth                : 
TLFamily_GK        .         Gamma Ray                     : 
TLFamily_GK$       .                                       : 
TLFamily_LM        .         Casing Collar locator         : 
TLFamily_METKA     .                                       : 
TLFamily_MN        .                                       : 
TLFamily_MN$       .                                       : 
TLFamily_RCOR      .                                       : 
TLFamily_SPID      .         Spontaneous Potential         : 
TLFamily_STD       .                                       : 
TLFamily_TENS      .         Cable Tension                 : 
TLFamily_TIME      .         Time                          : 
TLFamily_TM        .         Temperature                   : 
TLFamily_TM$       .         Temperature                   : 
TLFamily_VGD       .         Gas Volume                    : 
group              .         prim                          : 
~Curve Information
#_______________________________________________________________________________
#
#LOGNAME           .UNIT     LOG_ID                        : DESCRIPTION
#_______________________________________________________________________________
DEPT               .M                                      : 1 Глубина, м -    0.0 см 
GK                 .MKR/H                                  : 15 Гамма-активность, мкр./ч -  110.0 см 
GK$                .UE                                     : 12 Гамма-активность, усл.ед. -  110.0 см 
LM                 .                                       : 10 Локатор муфт,  -   20.0 см 
METKA              .                                       : 3 Метки,  -    0.0 см 
MN                 .ATM                                    : 14 Давление, атм. -  160.0 см 
MN$                .UE                                     : 8 Давление, усл.ед. -  160.0 см 
RCOR               .CM/KM                                  : 5 Коррекция по ролику, см/км -    0.0 см 
SPID               .M/H                                    : 2 Скорость, м/час -    0.0 см 
STD                .                                       : 11 Приток,  -  170.0 см 
TENS               .T                                      : 6 Натяжение кабеля, т -    0.0 см 
TIME               .S                                      : 4 Время, сек -    0.0 см 
TM                 .GRD                                    : 13 Температура, °C -  180.0 см 
TM$                .UE                                     : 7 Температура, усл.ед. -  180.0 см 
VGD                .                                       : 9 Влагомер,  -  170.0 см 
~Ascii
# ...
577        4.32       181        4232       0          54.262     4557       -1400      -1935      2642       0          33229.51   16.291     4338       6618      
577.2      4.36       181        78         0          54.282     4558       -1400      -1936      2644       0          33229.14   16.301     4340       6619      
577.4      4.43       181        115        0          54.301     4559       -1400      -1932      2645       0          33228.77   16.307     4342       6618      
577.6      4.52       191        129        0          54.321     4560       -1400      -1933      2648       0          33228.39   16.314     4344       6619      
577.8      4.55       196        147        0          54.341     4561       -1400      -1934      2651       0          33228.02   16.322     4345       6618      
578        4.53       196        187        0          54.361     4562       -1400      -1936      2654       0          33227.64   16.33      4347       6618      
578.2      4.51       196        266        0          54.38      4563       -1400      -1937      2656       0          33227.31   16.337     4349       6619      
578.4      4.47       196        49         0          54.4       4564       -1400      -1939      2658       0          33226.91   16.342     4350       6618      
578.6      4.41       196        51         0          54.419     4565       -1400      -1935      2659       0          33226.56   16.35      4352       6618      
578.8      4.32       188        62         0          54.438     4566       -1400      -1943      2661       0          33226.16   16.357     4354       6618      
579        4.28       183        59         0          54.458     4567       -1400      -1952      2663       0          33225.82   16.361     4355       6619      
579.2      4.28       183        60         0          54.478     4568       -1400      -1949      2667       0          33225.43   16.37      4357       6619      
579.4      4.29       183        64         0          54.496     4569       -1400      -1946      2671       0          33225.04   16.378     4359       6619      
579.6      4.29       183        66         0          54.5       4569       -1400      -1942      2674       0          33224.69   16.385     4361       6618      
579.8      4.29       183        71         2          54.536     4571       -1400      -1938      2677       0          33224.3    16.39      4362       6618      
580        4.3        183        66         0          54.557     4572       -1400      -1933      2682       0          33223.91   16.397     4364       6619      
580.2      4.31       183        61         0          54.576     4573       -1400      -1928      2686       0          33223.54   16.405     4366       6619      
580.4      4.32       184        63         0          54.577     4573       -1400      -1929      2689       0          33223.19   16.413     4368       6619      
580.6      4.33       184        68         0          54.595     4574       -1400      -1930      2693       0          33222.78   16.418     4369       6619      
580.8      4.34       184        61         0          54.616     4575       -1400      -1931      2697       0          33222.42   16.429     4372       6619      
581        4.36       184        59         0          54.656     4577       -1400      -1932      2702       0          33222.05   16.433     4373       6619      
581.2      4.39       184        54         0          54.656     4577       -1400      -1927      2704       0          33221.69   16.442     4375       6618      
581.4      4.44       184        57         0          54.696     4579       -1400      -1927      2706       0          33221.32   16.453     4378       6618      
581.6      4.51       190        54         0          54.717     4580       -1400      -1928      2711       0          33220.96   16.461     4380       6618      
581.8      4.54       195        51         0          54.737     4581       -1400      -1929      2715       0          33220.59   16.466     4381       6618      
582        4.53       195        71         0          54.755     4582       -1400      -1930      2717       0          33220.17   16.474     4383       6618      
582.2      4.52       195        67         0          54.777     4583       -1400      -1931      2719       0          33219.83   16.481     4385       6618      
582.4      4.5        195        76         0          54.796     4584       -1400      -1932      2722       0          33219.46   16.49      4387       6618      
582.6      4.47       195        66         0          54.816     4585       -1400      -1934      2727       0          33219.08   16.498     4389       6618      
582.8      4.43       192        60         0          54.854     4587       -1400      -1935      2731       0          33218.69   16.506     4391       6618      
583        4.4        187        63         0          54.875     4588       -1400      -1937      2733       0          33218.35   16.51      4392       6619      
583.2      4.41       187        79         0          54.894     4589       -1400      -1933      2736       0          33217.98   16.517     4394       6618      
583.4      4.42       187        79         0          54.914     4590       -1400      -1928      2740       0          33217.62   16.525     4396       6619      
583.6      4.45       187        99         0          54.936     4591       -1400      -1928      2745       0          33217.23   16.533     4398       6618      
583.8      4.49       187        60         0          54.954     4592       -1400      -1929      2748       0          33216.87   16.538     4399       6619      
584        4.55       187        64         0          54.974     4593       -1400      -1929      2750       0          33216.48   16.545     4401       6619      
584.2      4.63       192        64         0          54.994     4594       -1400      -1925      2753       0          33216.1    16.557     4404       6618      
584.4      4.71       200        73         0          55.015     4595       -1400      -1930      2758       0          33215.76   16.562     4405       6618      
584.6      4.73       200        62         0          55.033     4596       -1400      -1937      2762       0          33215.37   16.57      4407       6619      
584.8      4.75       200        81         0          55.053     4597       -1400      -1936      2764       0          33215.01   16.577     4409       6619      
585        4.79       200        76         0          55.072     4598       -1400      -1936      2766       0          33214.62   16.585     4411       6619      
585.2      4.85       200        80         0          55.093     4599       -1400      -1937      2770       0          33214.27   16.59      4412       6618      
585.4      4.93       200        88         0          55.112     4600       -1400      -1939      2773       0          33213.89   16.597     4414       6619      
585.6      5.05       206        101        0          55.133     4601       -1400      -1937      2773       0          33213.52   16.605     4416       6619      
585.8      5.17       222        118        0          55.153     4602       -1400      -1932      2774       0          33213.15   16.61      4417       6619      
586        5.16       222        160        0          55.171     4603       -1400      -1931      2778       0          33212.79   16.621     4420       6619      
586.2      5.15       222        235        0          55.192     4604       -1400      -1933      2782       0          33212.41   16.626     4421       6619      
586.4      5.13       222        354        0          55.211     4605       -1400      -1934      2784       0          33212.05   16.633     4423       6620      
586.6      5.09       222        537        0          55.231     4606       -1400      -1935      2785       0          33211.68   16.641     4425       6620      
