~Version
 VERS              .         2.0                           : CWLS LOG ASCII STANDARD - VERSION 2.0
 WRAP              .         NO                            : ONE LINE PER DEPTH STEP
 DLM               .         SPACE                         : DELIMITING CHARACTER(SPACE TAB OR COMMA)
~Well Information
#_______________________________________________________________________________
#
#PARAMETER_NAME    .UNIT     VALUE                         : DESCRIPTION
#_______________________________________________________________________________
STRT               .M        2645.6                        : First reference value
STOP               .M        2754.199837                   : Last reference value
STEP               .M        0.1999997                     : Step increment
NULL               .         -9999                         : Missing value
COMP               .                                       : Company
WELL               .         616                           : Well name
FLD                .                                       : Field
LOC                .                                       : Location
CNTY               .                                       : County
STAT               .                                       : State
CTRY               .                                       : Country
SRVC               .                                       : Service Company
DATE               .                                       : Date
API                .                                       : API number
PROJECT_UPGRADE_TIME .         2021-03-18T21_24_50           : 
group              .         Good                          : 
~Parameter Information Block
#_______________________________________________________________________________
#
#PARAMETER_NAME    .UNIT     VALUE                         : DESCRIPTION
#_______________________________________________________________________________
SET                .         D7026_D                       : 
OTHER              .         Kedr.exe версия 2.1.2.32      : 
OTHER_10           .         TM.GRD = 0.00404*TM$.UE + 0.07: 
OTHER_11           .         MN.ATM = (6.33279e-006*TM.GRD + 0.02401)*(MN$.UE + 2.72*TM.GRD + -2018): 
OTHER_12           .         GK.MKR/H = GK$.UE / 43.5489 + 0: 
OTHER_13           .         RES.SM = 0.00476*CRES.UE - 1.51709: 
OTHER_14           .         PL.GSM3 = 0 + 0 * (PL.UE / 1) +  0 * (PL.UE / 1)^2: 
OTHER_15           .         Постоянная времени ГГП = 6 сек: 
OTHER_16           .         Постоянная времени ГК = 6 сек : 
OTHER_2            .         KedrData.dll версия 3.2.2.14  : 
OTHER_3            .         LasInf.dll версия 3.2.0.13    : 
OTHER_4            .         Драйвер версия 1.2.0.5        : 
OTHER_5            .         Прибор_ КСА-M1                : 
OTHER_6            .         Номер прибора_ 155+р204       : 
OTHER_7            .         Режим_ КСА-М1 + ГГП + Резистивиметр: 
OTHER_8            .         Форма_ 223\2                  : 
OTHER_9            .         Тарировки_                    : 
PROJECT_UPGRADE_TIME .         2021-03-18T21_24_50           : 
TLFamily_CRES      .                                       : 
TLFamily_DEPT      .         Measured Depth                : 
TLFamily_GK        .         Gamma Ray                     : 
TLFamily_GK$       .                                       : 
TLFamily_LM        .         Casing Collar locator         : 
TLFamily_METKA     .                                       : 
TLFamily_MN        .                                       : 
TLFamily_MN$       .                                       : 
TLFamily_PL        .                                       : 
TLFamily_PL_2      .                                       : 
TLFamily_RCOR      .                                       : 
TLFamily_RES       .         Mud Resistivity               : 
TLFamily_SPID      .         Spontaneous Potential         : 
TLFamily_STD       .                                       : 
TLFamily_TIME      .         Time                          : 
TLFamily_TM        .         Temperature                   : 
TLFamily_TM$       .         Temperature                   : 
TLFamily_VGD       .         Gas Volume                    : 
group              .         prim                          : 
~Curve Information
#_______________________________________________________________________________
#
#LOGNAME           .UNIT     LOG_ID                        : DESCRIPTION
#_______________________________________________________________________________
DEPT               .M                                      : 1 Глубина, м -    0.0 см 
CRES               .UE                                     : 9 Проводимость, усл.ед. -  222.0 см 
GK                 .MKR/H                                  : 16 Гамма-активность, мкр./ч -  106.0 см 
GK$                .UE                                     : 13 Гамма-активность, усл.ед. -  106.0 см 
LM                 .                                       : 11 Локатор муфт,  -   16.0 см 
METKA              .                                       : 3 Метки,  -    0.0 см 
MN                 .ATM                                    : 15 Давление, атм. -  160.0 см 
MN$                .UE                                     : 7 Давление, усл.ед. -  160.0 см 
PL                 .UE                                     : 10 Плотность, усл.ед. -  270.0 см 
PL_2               .GSM3                                   : 18 Плотность, г./см3 -  270.0 см 
RCOR               .CM/KM                                  : 5 Коррекция по ролику, см/км -    0.0 см 
RES                .SM                                     : 17 Проводимость,  -  222.0 см 
SPID               .M/H                                    : 2 Скорость, м/час -    0.0 см 
STD                .                                       : 12 Приток,  -  170.0 см 
TIME               .S                                      : 4 Время, сек -    0.0 см 
TM                 .GRD                                    : 14 Температура, °C -  180.0 см 
TM$                .UE                                     : 6 Температура, усл.ед. -  180.0 см 
VGD                .                                       : 8 Влагомер,  -  170.0 см 
~Ascii
# ...
2735.799865 1135       10.8       457        86         0          251.742    12234      14         0          0          3.8841     580        9618       17739.95   49.227     12168      6679      
2735.999864 1118       10.65      457        57         0          251.79     12236      14         0          0          3.8046     510        9627       17741.21   49.273     12179      6679      
2736.199864 1104       10.26      426        62         0          251.798    12236      14         0          0          3.7395     510        9637       17742.53   49.331     12193      6679      
2736.399864 1128       10.03      428        70         0          251.854    12238      14         0          0          3.8522     580        9651       17743.86   49.394     12209      6678      
2736.599864 1135       10.05      439        74         0          251.872    12239      14         0          0          3.8872     580        9662       17745.11   49.451     12223      6678      
2736.799863 1147       10.07      439        6400       0          251.916    12240      14         0          0          3.9411     580        9676       17746.38   49.489     12233      6678      
2736.999863 1149       9.78       410        4005       0          251.956    12241      14         0          0          3.9521     580        9691       17747.72   49.584     12256      6677      
2737.199863 1149       9.61       414        991        0          251.993    12242      14         0          0          3.9513     540        9704       17749      49.665     12276      6677      
2737.399862 1155       9.79       434        249        0          252.027    12243      14         0          0          3.9807     533        9722       17750.29   49.767     12301      6676      
2737.599862 1154       10.05      475        115        0          252.045    12243      14         0          0          3.9773     580        9738       17751.62   49.899     12334      6676      
2737.799862 1153       10.69      495        97         0          252.084    12244      14         0          0          3.9712     580        9757       17752.91   49.977     12353      6675      
2737.999861 1160       11.01      490        74         0          252.114    12245      14         0          0          4.0029     545        9774       17754.19   50.053     12372      6675      
2738.199861 1162       10.85      466        64         0          252.15     12246      14         0          0          4.0164     580        9791       17755.52   50.132     12392      6675      
2738.399861 1164       10.86      485        55         0          252.183    12247      14         0          0          4.0251     580        9808       17756.76   50.221     12414      6675      
2738.59986 1166       11.1       494        142        0          252.219    12248      14         0          0          4.0339     556        9821       17758.08   50.285     12429      6674      
2738.79986 1170       11.14      479        136        0          252.258    12249      14         0          0          4.0505     580        9837       17759.35   50.37      12451      6673      
2738.99986 1160       11.07      479        91         0          252.303    12250      14         0          0          4.0045     570        9857       17760.67   50.485     12479      6673      
2739.19986 1169       10.99      468        61         0          252.347    12251      14         0          0          4.0465     510        9883       17762.04   50.641     12518      6673      
2739.399859 1174       10.85      466        101        0          252.361    12251      14         0          0          4.0725     533        9907       17763.38   50.788     12554      6672      
2739.599859 1179       11.01      508        91         0          252.397    12253      14         0          0          4.0949     580        9927       17764.64   50.843     12568      6673      
2739.799859 1160       11.33      508        86         0          252.422    12253      14         0          0          4.0044     580        9947       17765.94   50.889     12579      6672      
2739.999858 1153       11.56      515        51         0          252.481    12255      14         0          0          3.9712     538        9967       17767.23   50.985     12603      6670      
2740.199858 1133       11.69      515        65         1          252.496    12255      14         0          0          3.8768     510        9986       17769.19   51.067     12623      6672      
2740.399858 1171       11.72      511        78         0          252.554    12257      14         0          0          4.0592     533        10004      17770.51   51.179     12651      6670      
2740.599857 1180       11.73      511        84         0          252.59     12257      14         0          0          4.0991     510        10032      17771.83   51.344     12692      6673      
2740.799857 1190       11.75      513        106        0          252.641    12258      14         0          0          4.1473     580        10061      17773.14   51.522     12736      6668      
2740.999857 1190       11.76      513        101        0          252.667    12259      14         0          0          4.1489     580        10095      17774.41   51.724     12786      6667      
2741.199857 1194       11.47      491        86         0          252.707    12260      14         0          0          4.1663     530        10125      17775.68   51.797     12804      6677      
2741.399856 1196       11.19      463        120        0          252.749    12261      14         0          0          4.1759     580        10150      17776.97   51.882     12825      6669      
2741.599856 1196       10.91      463        106        0          252.762    12261      14         0          0          4.1759     580        10176      17778.31   51.993     12852      6665      
2741.799856 1203       10.75      459        98         0          252.818    12262      14         0          0          4.2099     557        10208      17779.62   52.088     12876      6671      
2741.999855 1206       10.65      459        94         0          252.865    12263      14         0          0          4.2219     580        10236      17780.94   52.268     12920      6672      
2742.199855 1209       10.54      451        92         0          252.91     12264      14         0          0          4.2378     522        10274      17782.2    52.498     12977      6670      
2742.399855 1214       10.45      451        73         0          252.946    12265      14         0          0          4.2615     545        10307      17783.52   52.655     13016      6663      
2742.599854 1215       10.34      444        71         0          252.968    12266      14         0          0          4.2679     580        10339      17784.84   52.749     13039      6667      
2742.799854 1215       10.27      444        70         0          252.999    12266      14         0          0          4.2647     580        10369      17786.15   52.822     13058      6664      
2742.999854 1205       10.24      445        79         0          253.052    12267      14         0          0          4.2187     533        10391      17787.42   52.963     13092      6666      
2743.199854 1204       10.23      445        65         0          253.1      12268      14         0          0          4.2116     533        10421      17788.74   53.184     13147      6661      
2743.399853 1191       10.29      452        69         0          253.141    12269      14         0          0          4.1514     580        10448      17790.05   53.36      13191      6660      
2743.599853 1205       10.33      452        69         0          253.18     12270      14         0          0          4.2204     580        10469      17791.32   53.484     13221      6660      
2743.799853 1201       10.81      493        78         0          253.199    12270      14         0          0          4.1997     545        10494      17792.63   53.596     13249      6658      
