~Version
 VERS              .         2.0                           : CWLS LOG ASCII STANDARD - VERSION 2.0
 WRAP              .         NO                            : ONE LINE PER DEPTH STEP
 DLM               .         SPACE                         : DELIMITING CHARACTER(SPACE TAB OR COMMA)
~Well Information
#_______________________________________________________________________________
#
#PARAMETER_NAME    .UNIT     VALUE                         : DESCRIPTION
#_______________________________________________________________________________
STRT               .M        2656.6                        : First reference value
STOP               .M        2765.2                        : Last reference value
STEP               .M        0.1999997                     : Step increment
NULL               .         -9999                         : Missing value
COMP               .                                       : Company
WELL               .         616                           : Well name
FLD                .                                       : Field
LOC                .                                       : Location
CNTY               .                                       : County
STAT               .                                       : State
CTRY               .                                       : Country
SRVC               .                                       : Service Company
DATE               .                                       : Date
API                .                                       : API number
PROJECT_UPGRADE_TIME .         2021-03-18T21_24_50           : 
group              .         Good                          : 
~Parameter Information Block
#_______________________________________________________________________________
#
#PARAMETER_NAME    .UNIT     VALUE                         : DESCRIPTION
#_______________________________________________________________________________
SET                .         D8102_D                       : 
OTHER              .         Программное обеспечение станции MONITOR-386EX 25/12/99 15_08_10   BGF V52 22/08/01 16_56_30   4_SNGF_BGF_N_011645: 
OTHER_10           .         Тарировки_                    : 
OTHER_11           .         TM.GRD = 0.00412*TM$.UE + -2.13: 
OTHER_12           .         MN.ATM = (5.87652e-006*TM.GRD + 0.01993)*(MN$.UE + -2.72*TM.GRD + -1925): 
OTHER_13           .         GK.MKR/H = GK$.UE / 57.4657   : 
OTHER_2            .         Kedr.exe версия 3.4.2.51      : 
OTHER_3            .         KedrData.dll версия 3.4.2.24  : 
OTHER_4            .         Драйвер версия 2.1.0.2        : 
OTHER_5            .         Мнемоники версия 3.3 S        : 
OTHER_6            .         Прибор_ АКП4-90               : 
OTHER_7            .         Номер прибора_ 53             : 
OTHER_8            .         Режим_ АКП4_90                : 
OTHER_9            .         Форма_ ПК-53ое                : 
PROJECT_UPGRADE_TIME .         2021-03-18T21_24_50           : 
TLFamily_DEPT      .         Measured Depth                : 
TLFamily_GK        .         Gamma Ray                     : 
TLFamily_GK$       .                                       : 
TLFamily_LM        .         Casing Collar locator         : 
TLFamily_METKA     .                                       : 
TLFamily_METKA_1   .                                       : 
TLFamily_MN        .                                       : 
TLFamily_MN$       .                                       : 
TLFamily_RCOR      .                                       : 
TLFamily_SPID      .         Spontaneous Potential         : 
TLFamily_TENS      .         Cable Tension                 : 
TLFamily_TIME      .         Time                          : 
TLFamily_TM        .         Temperature                   : 
TLFamily_TM$       .         Temperature                   : 
group              .         prim                          : 
~Curve Information
#_______________________________________________________________________________
#
#LOGNAME           .UNIT     LOG_ID                        : DESCRIPTION
#_______________________________________________________________________________
DEPT               .M                                      : 1 Глубина, м -    0.0 см 
GK                 .MKR/H                                  : 13 Гамма-активность, мкр./ч -   65.0 см 
GK$                .UE                                     : 10 Гамма-активность, усл.ед. -   65.0 см 
LM                 .                                       : 9 Локатор муфт,  -   30.0 см 
METKA              .                                       : 3 Метки,  -    0.0 см 
METKA_1            .                                       : 14 Маркеры - 65 см 
MN                 .ATM                                    : 12 Давление, атм. -  140.0 см 
MN$                .UE                                     : 8 Давление, усл.ед. -  140.0 см 
RCOR               .CM/KM                                  : 5 Коррекция по ролику, см/км -    0.0 см 
SPID               .M/H                                    : 2 Скорость, м/час -    0.0 см 
TENS               .T                                      : 6 Натяжение кабеля, т -    0.0 см 
TIME               .S                                      : 4 Время, сек -    0.0 см 
TM                 .GRD                                    : 11 Температура, °C -  145.0 см 
TM$                .UE                                     : 7 Температура, усл.ед. -  145.0 см 
~Ascii
# ...
2687.8     9          517        221        0          0          246.122    14274      -15        -300       0.75       1613.15    63.772     15996     
2688       8.51       489        373        0          0          246.156    14276      -15        -294       0.75       1610.76    63.728     15985     
2688.2     8.37       481        319        0          0          246.149    14276      -15        -304       0.75       1608.36    63.737     15987     
2688.4     8.06       463        277        0          0          246.175    14277      -15        -303       0.75       1605.97    63.709     15980     
2688.6     6.47       372        235        0          0          246.215    14279      -15        -303       0.75       1603.57    63.642     15964     
2688.8     5.33       306        397        0          0          246.255    14281      -15        -299       0.75       1601.11    63.588     15951     
2689       5.52       317        367        0          0          246.255    14281      -15        -296       0.75       1598.66    63.568     15946     
2689.2     5.18       298        358        0          0          246.268    14282      -15        -302       0.75       1596.39    63.555     15943     
2689.4     4.86       279        221        0          0          246.295    14283      -15        -301       0.75       1594       63.497     15929     
2689.6     5.31       305        259        0          0          246.335    14285      -15        -298       0.75       1591.59    63.465     15921     
2689.8     5.35       307        513        0          0          246.368    14287      -15        -299       0.75       1589.22    63.431     15913     
2690       5.49       315        313        0          0          246.375    14287      -15        -297       0.75       1586.75    63.386     15902     
2690.2     5.48       315        297        0          0          246.375    14287      -15        -300       0.73       1584.29    63.301     15881     
2690.4     5.48       315        218        0          0          246.415    14289      -15        -300       0.59       1582.02    63.259     15871     
2690.6     5.38       309        275        2          0          246.454    14291      -13        -304       0.75       1579.37    63.18      15852     
2690.8     5.11       294        404        0          0          246.454    14291      -13        -297       0.75       1576.92    63.14      15842     
2691       5.06       291        243        0          0          246.474    14292      -13        -301       0.75       1574.55    63.094     15831     
2691.2     5.51       317        189        0          0          246.494    14293      -13        -303       0.75       1572.19    62.984     15804     
2691.4     5.63       323        236        0          0          246.544    14296      -13        -299       0.75       1569.73    62.896     15783     
2691.6     5.78       332        361        0          0          246.554    14296      -13        -302       0.75       1567.27    62.837     15769     
2691.8     6.21       357        336        0          0          246.554    14296      -13        -302       0.75       1564.88    62.746     15747     
2692       6.67       383        270        0          0          246.554    14296      -13        -301       0.75       1562.48    62.656     15725     
2692.2     6.44       370        347        0          0          246.614    14299      -13        -301       0.73       1560.09    62.612     15714     
2692.4     6.22       357        338        0          0          246.654    14301      -13        -302       0.75       1557.7     62.525     15693     
2692.6     6.32       363        411        0          0          246.674    14302      -13        -301       0.75       1555.3     62.354     15652     
2692.8     6.65       382        375        0          0          246.674    14302      -13        -299       0.75       1552.91    62.355     15652     
2693       6.89       396        343        0          0          246.674    14302      -13        -299       0.74       1550.52    62.215     15618     
2693.2     6.55       376        386        0          0          246.713    14304      -13        -298       0.75       1548.12    62.191     15612     
2693.4     6.74       387        301        0          0          246.733    14305      -13        -302       0.75       1545.72    61.998     15565     
2693.6     7.07       407        246        0          0          246.773    14307      -13        -293       0.75       1543.33    61.808     15519     
2693.8     6.49       373        396        0          0          246.76     14306      -13        -302       0.75       1540.92    61.676     15487     
2694       6.01       345        4218       0          0          246.793    14308      -13        -308       0.75       1538.47    61.52      15449     
2694.2     6.49       373        23044      0          0          246.833    14310      -13        -299       0.75       1536.06    61.311     15398     
2694.4     6.7        385        3828       0          0          246.866    14312      -13        -302       0.75       1533.74    61.155     15360     
2694.6     6.18       355        374        0          0          246.866    14312      -13        -294       0.75       1531.27    60.96      15313     
2694.8     6.87       395        477        0          0          246.893    14313      -13        -295       0.75       1528.87    60.8       15274     
2695       7.08       407        286        0          0          246.926    14315      -13        -293       0.75       1526.52    60.503     15202     
2695.2     5.86       337        347        0          0          246.973    14317      -13        -303       0.75       1524.05    60.088     15102     
2695.4     6.07       349        395        0          0          246.972    14317      -13        -303       0.75       1521.64    59.593     14981     
2695.6     6.84       393        313        0          0          246.966    14317      -13        -301       0.75       1519.21    59.265     14902     
2695.8     6.63       381        242        0          0          246.973    14317      -13        -302       0.75       1516.82    59.068     14854     
2696       6.65       382        215        0          0          246.992    14318      -13        -297       0.75       1514.38    58.714     14768     
2696.2     6.81       392        394        0          0          247.012    14319      -13        -302       0.75       1512.04    58.397     14691     
2696.4     6.91       397        320        0          0          246.973    14317      -13        -301       0.75       1509.56    58.146     14630     
2696.6     7.05       405        238        0          0          247.032    14320      -13        -302       0.75       1507.18    57.839     14556     
2696.8     7.21       414        224        0          0          247.065    14322      -13        -310       0.75       1504.72    57.482     14469     
2697       7.26       417        252        0          0          247.112    14324      -13        -298       0.75       1502.44    57.202     14401     
2697.2     7.21       414        324        0          0          247.132    14325      -13        -293       0.75       1500       56.936     14336     
2697.4     7.33       421        279        0          0          247.142    14325      -13        -292       0.75       1497.55    56.704     14280     
2697.6     7.22       415        314        0          0          247.157    14326      -13        -291       0.75       1495.18    56.505     14232     
2697.8     6.87       395        243        0          0          247.212    14329      -13        -296       0.75       1492.7     56.304     14183     
2698       7.59       436        385        0          0          247.225    14330      -13        -298       0.75       1490.33    56.036     14118     
