~Version
 VERS              .         2.0                           : CWLS LOG ASCII STANDARD - VERSION 2.0
 WRAP              .         NO                            : ONE LINE PER DEPTH STEP
 DLM               .         SPACE                         : DELIMITING CHARACTER(SPACE TAB OR COMMA)
~Well Information
#_______________________________________________________________________________
#
#PARAMETER_NAME    .UNIT     VALUE                         : DESCRIPTION
#_______________________________________________________________________________
STRT               .M        2669.2                        : First reference value
STOP               .M        2776.2                        : Last reference value
STEP               .M        0.2                           : Step increment
NULL               .         -9999                         : Missing value
COMP               .                                       : Company
WELL               .         616                           : Well name
FLD                .                                       : Field
LOC                .                                       : Location
CNTY               .                                       : County
STAT               .                                       : State
CTRY               .                                       : Country
SRVC               .                                       : Service Company
DATE               .                                       : Date
API                .                                       : API number
PROJECT_UPGRADE_TIME .         2021-03-18T21_24_50           : 
group              .         Good                          : 
~Parameter Information Block
#_______________________________________________________________________________
#
#PARAMETER_NAME    .UNIT     VALUE                         : DESCRIPTION
#_______________________________________________________________________________
SET                .         D1809_D                       : 
OTHER              .         Программное обеспечение станции MONITOR-386EX 25/12/99 15_08_10   BGF V52 22/08/01 16_56_30   3.1_SNGF___BGF_N_092049: 
OTHER_10           .         Тарировки_                    : 
OTHER_11           .         TM.GRD = 0.00403*TM$.UE + -1.07: 
OTHER_12           .         MN.ATM = (9.34907e-006*TM.GRD + 0.02171)*(MN$.UE + -7.93*TM.GRD + -1787): 
OTHER_13           .         GK.MKR/H = LM. / 42.4676      : 
OTHER_14           .         GK.FLT = 0.1*GK.MKR/H[-1] + (1-0.1)*GK.MKR/H[0]: 
OTHER_2            .         Kedr.exe версия 3.4.2.51      : 
OTHER_3            .         KedrData.dll версия 3.4.2.24  : 
OTHER_4            .         Драйвер версия 2.1.1.3        : 
OTHER_5            .         Мнемоники версия 3.3 S        : 
OTHER_6            .         Прибор_ КСА-Т4                : 
OTHER_7            .         Номер прибора_ 03             : 
OTHER_8            .         Режим_ КСА-Т4                 : 
OTHER_9            .         Форма_ КВА.                   : 
PROJECT_UPGRADE_TIME .         2021-03-18T21_24_49           : 
TLFamily_DEPT      .         Measured Depth                : 
TLFamily_GK        .         Gamma Ray                     : 
TLFamily_GK$       .                                       : 
TLFamily_GK_2      .         Gamma Ray                     : 
TLFamily_LM        .         Casing Collar locator         : 
TLFamily_METKA     .                                       : 
TLFamily_MN        .                                       : 
TLFamily_MN$       .                                       : 
TLFamily_RCOR      .                                       : 
TLFamily_SPID      .         Spontaneous Potential         : 
TLFamily_TENS      .         Cable Tension                 : 
TLFamily_TIME      .         Time                          : 
TLFamily_TM        .         Temperature                   : 
TLFamily_TM$       .         Temperature                   : 
group              .         prim                          : 
~Curve Information
#_______________________________________________________________________________
#
#LOGNAME           .UNIT     LOG_ID                        : DESCRIPTION
#_______________________________________________________________________________
DEPT               .M                                      : 1 Глубина, м -    0.0 см 
GK                 .MKR/H                                  : 13 Гамма-активность, мкр./ч -  110.0 см 
GK$                .UE                                     : 10 Гамма-активность, усл.ед. -  110.0 см 
GK_2               .FLT                                    : 14 Гамма-активность фильтрованная, мкр./ч -  110.0 см 
LM                 .                                       : 9 Локатор муфт,  -   20.0 см 
METKA              .                                       : 3 Метки,  -    0.0 см 
MN                 .ATM                                    : 12 Давление, атм. -  160.0 см 
MN$                .UE                                     : 8 Давление, усл.ед. -  160.0 см 
RCOR               .CM/KM                                  : 5 Коррекция по ролику, см/км -    0.0 см 
SPID               .M/H                                    : 2 Скорость, м/час -    0.0 см 
TENS               .T                                      : 6 Натяжение кабеля, т -    0.0 см 
TIME               .S                                      : 4 Время, сек -    0.0 см 
TM                 .GRD                                    : 11 Температура, °C -  170.0 см 
TM$                .UE                                     : 7 Температура, усл.ед. -  170.0 см 
~Ascii
# ...
2710.8     11.63      494        11.46      125        0          250.204    13470      -652       572        0.05       6529.51    51.452     13033     
2711       11.63      494        11.63      98         0          250.205    13470      -652       565        0.05       6530.75    51.438     13029     
2711.2     12.93      549        12.88      157        0          250.228    13471      -652       560        0.05       6532       51.429     13027     
2711.4     12.93      549        12.93      143        0          250.247    13472      -652       568        0.05       6533.25    51.418     13024     
2711.6     13.35      567        13.32      114        0          250.256    13472      -652       570        0.05       6534.56    51.406     13021     
2711.8     13.06      554        13.16      163        0          250.274    13473      -652       569        0.05       6535.81    51.395     13019     
2712       11.89      505        11.94      186        0          250.297    13474      -652       572        0.05       6537.06    51.386     13016     
2712.2     11.89      505        11.89      177        0          250.32     13475      -652       574        0.05       6538.25    51.377     13014     
2712.4     10.38      441        10.45      149        0          250.321    13475      -652       576        0.05       6539.5     51.364     13011     
2712.6     10.38      441        10.39      174        1          250.347    13476      -652       577        0.05       6540.76    51.356     13009     
2712.8     10.01      425        10.03      157        0          250.366    13477      -652       578        0.05       6541.99    51.348     13007     
2713       10.66      453        10.42      146        0          250.386    13478      -652       579        0.05       6543.2     51.34      13005     
2713.2     12.27      521        12.19      115        0          250.398    13478      -652       567        0.05       6544.52    51.33      13003     
2713.4     12.27      521        12.27      398        0          250.413    13479      -652       570        0.05       6545.77    51.316     12999     
2713.6     14.67      623        14.56      283        0          250.436    13480      -652       580        0.05       6547.02    51.304     12996     
2713.8     14.67      623        14.67      176        0          250.44     13480      -652       582        0.05       6548.27    51.296     12994     
2714       13.52      574        13.59      153        0          250.459    13481      -652       584        0.05       6549.45    51.288     12992     
2714.2     13.52      574        13.52      196        0          250.482    13482      -652       592        0.05       6550.77    51.279     12990     
2714.4     13.54      575        13.54      130        0          250.505    13483      -652       589        0.05       6551.97    51.27      12988     
2714.6     13.54      575        13.54      131        0          250.506    13483      -652       586        0.05       6553.2     51.26      12985     
2714.8     13.21      561        13.22      159        0          250.529    13484      -652       573        0.05       6554.53    51.255     12984     
2715       13.21      561        13.21      4155       0          250.552    13485      -652       575        0.05       6555.73    51.243     12981     
2715.2     9.35       397        9.6        1055       0          250.574    13486      -652       576        0.05       6556.97    51.232     12978     
2715.4     9.35       397        9.36       312        0          250.575    13486      -652       577        0.05       6558.23    51.223     12976     
2715.6     7.65       325        7.72       209        0          250.598    13487      -652       578        0.05       6559.48    51.213     12974     
2715.8     7.65       325        7.65       201        0          250.621    13488      -652       579        0.05       6560.73    51.2       12970     
2716       7.82       332        7.81       174        0          250.637    13489      -652       588        0.05       6561.97    51.195     12969     
2716.2     7.82       332        7.82       136        0          250.644    13489      -652       582        0.05       6563.28    51.187     12967     
2716.4     7.11       302        7.17       177        0          250.667    13490      -652       583        0.05       6564.48    51.179     12965     
2716.6     7.11       302        7.11       161        0          250.675    13490      -652       587        0.05       6565.73    51.167     12962     
2716.8     10.97      466        10.82      174        0          250.69     13491      -652       593        0.05       6566.95    51.159     12960     
2717       10.97      466        10.97      246        0          250.713    13492      -652       589        0.05       6568.17    51.152     12958     
2717.2     15.49      658        15.27      177        0          250.736    13493      -652       587        0.05       6569.42    51.143     12956     
2717.4     15.49      658        15.49      148        0          250.759    13494      -652       585        0.05       6570.68    51.133     12954     
2717.6     13.19      560        13.37      115        0          250.776    13495      -652       583        0.05       6571.94    51.123     12951     
2717.8     13.18      560        13.19      146        0          250.783    13495      -652       569        0.05       6573.25    51.114     12949     
2718       9.96       423        10.09      176        0          250.805    13496      -652       573        0.05       6574.5     51.105     12947     
2718.2     9.96       423        9.97       166        0          250.828    13497      -652       575        0.05       6575.7     51.096     12944     
2718.4     9.68       411        9.7        337        0          250.829    13497      -652       576        0.05       6576.94    51.086     12942     
2718.6     9.68       411        9.68       196        0          250.851    13498      -652       580        0.05       6578.19    51.081     12941     
2718.8     10.24      435        10.2       197        0          250.874    13499      -652       571        0.05       6579.43    51.072     12938     
2719       10.24      435        10.24      183        0          250.875    13499      -652       565        0.05       6580.63    51.066     12937     
2719.2     10.88      462        10.85      181        0          250.897    13500      -652       563        0.05       6581.9     51.054     12934     
2719.4     10.88      462        10.88      180        0          250.92     13501      -652       568        0.05       6583.19    51.047     12932     
2719.6     10.88      462        10.88      326        0          250.936    13502      -652       572        0.05       6584.44    51.038     12930     
2719.8     10.88      462        10.88      185        0          250.963    13503      -652       574        0.05       6585.7     51.03      12928     
2720       10.29      437        10.35      209        2          250.966    13503      -652       576        0.05       6586.95    51.022     12926     
2720.2     10.29      437        10.29      176        0          250.989    13504      -659       577        0.05       6588.62    51.014     12924     
2720.4     11.18      475        11.15      175        0          251.012    13505      -659       578        0.05       6589.87    51.009     12923     
2720.6     11.18      475        11.18      191        0          251.012    13505      -659       579        0.05       6591.08    51.002     12921     
2720.8     12.01      510        11.96      146        0          251.035    13506      -659       573        0.05       6592.37    50.994     12919     
2721       12.01      510        12.01      185        0          251.058    13507      -659       575        0.05       6593.6     50.989     12918     
