~Version
 VERS              .         2.0                           : CWLS LOG ASCII STANDARD - VERSION 2.0
 WRAP              .         NO                            : ONE LINE PER DEPTH STEP
 DLM               .         SPACE                         : DELIMITING CHARACTER(SPACE TAB OR COMMA)
~Well Information
#_______________________________________________________________________________
#
#PARAMETER_NAME    .UNIT     VALUE                         : DESCRIPTION
#_______________________________________________________________________________
STRT               .M        2649.4                        : First reference value
STOP               .M        2758.800164                   : Last reference value
STEP               .M        0.2000003                     : Step increment
NULL               .         -9999                         : Missing value
COMP               .                                       : Company
WELL               .         616                           : Well name
FLD                .                                       : Field
LOC                .                                       : Location
CNTY               .                                       : County
STAT               .                                       : State
CTRY               .                                       : Country
SRVC               .                                       : Service Company
DATE               .                                       : Date
API                .                                       : API number
PROJECT_UPGRADE_TIME .         2021-03-18T21_24_50           : 
group              .         Good                          : 
~Parameter Information Block
#_______________________________________________________________________________
#
#PARAMETER_NAME    .UNIT     VALUE                         : DESCRIPTION
#_______________________________________________________________________________
SET                .         D4417_D_2                     : 
COMM               .                                       : 
OTHER              .         Запись производится в присутствии: 
OTHER_10           .         Максимальная температура      : 
OTHER_11           .         Тип промывочной жидкости      : 
OTHER_12           .         Сопротивление ПЖ (Ом*м) при 20°C: 
OTHER_13           .         Плотность ПЖ(г/см3)           : 
OTHER_14           .         Вязкость ПЖ(с)                : 
OTHER_15           .         Водоотдача ПЖ(см3/30мин)      : 
OTHER_16           .         Уровень ПЖ                    : 
OTHER_17           .         Нефть ПЖ (%)                  : 
OTHER_18           .         Барит ПЖ (%)                  : 
OTHER_19           .         Гематит ПЖ (%)                : 
OTHER_2            .         Заказчик ННСН  ЦДНГ-1         : 
OTHER_20           .         КМЦ ПЖ (%)                    : 
OTHER_21           .         Разгазирование ПЖ (да,нет)    : 
OTHER_22           .         Подъемник                     : 
OTHER_23           .         Лаборатория                   : 
OTHER_24           .         Тип кабеля                    : 
OTHER_25           .         Длина кабеля (м)              : 
OTHER_26           .         Цена последней метки          : 
OTHER_27           .         Цена контрольной метки        : 
OTHER_28           .         Диаметр долота (мм)           : 
OTHER_29           .         Глубина бурения (м)           : 
OTHER_3            .         Площадь                       : 
OTHER_30           .         Искусственный забой (м)       : 
OTHER_31           .         Диаметр колонны (мм)          : 
OTHER_32           .         Толщина колонны (мм)          : 
OTHER_33           .         Башмак колонны (м)            : 
OTHER_34           .         Диаметр НКТ (мм)              : 
OTHER_35           .         Толщина НКТ (мм)              : 
OTHER_36           .         Воронка НКТ (м)               : 
OTHER_37           .         Дата цементожа                : 
OTHER_38           .         Тип, количество(т) и плотность цемента: 
OTHER_39           .         Интервалы перфорации (м)      : 
OTHER_4            .         Категория                     : 
OTHER_40           .         Направление, диаметр (мм)     : 
OTHER_41           .         Направление, глубина (м)      : 
OTHER_42           .         Кондуктор, диаметр (мм)       : 
OTHER_43           .         Кондуктор, глубина (м)        : 
OTHER_44           .         Техническая колонна, диаметр (мм): 
OTHER_45           .         Техническая колонна, глубина (м): 
OTHER_46           .         Эксплуатационная колонна, диаметр (мм): 
OTHER_47           .         Эксплуатационная колонна, глубина (м): 
OTHER_48           .         Программа Кедр-02 версия 3.4  : 
OTHER_49           .         Операционная система Windows NT 5.1 build 2600 Service Pack 2: 
OTHER_5            .         Назначение исследований       : 
OTHER_50           .         Программное обеспечение станции MONITOR-386EX 25/12/99 15_08_10   BGF V54 20/09/05 15_32_17   3.3__BGF_9030071: 
OTHER_51           .         Kedr.exe версия 3.4.2.74      : 
OTHER_52           .         KedrData.dll версия 3.4.2.29  : 
OTHER_53           .         Мнемоники версия 3.18 S       : 
OTHER_54           .         Драйвер версия 2.1.1.4        : 
OTHER_55           .         LasInf.dll 4.3.0.35           : 
OTHER_56           .         Прибор_ КСА-Т4                : 
OTHER_57           .         Номер прибора_ 160            : 
OTHER_58           .         Режим_ КСА-Т4                 : 
OTHER_59           .         Форма_ С.А.Б.                 : 
OTHER_6            .         Альтитуда стола ротора        : 
OTHER_60           .         Тарировки_                    : 
OTHER_61           .         <_techsia_sc_> Дата тарировки температуры 25.05.2010: 
OTHER_62           .         Ручной ввод коэффициентов     : 
OTHER_63           .         TM.DEGC = 0.00402*RTM.E.ACP + -0.994: 
OTHER_64           .         <_techsia_sc_> Дата тарировки давления 25.05.2010: 
OTHER_65           .         Ручной ввод коэффициентов     : 
OTHER_66           .         MN.ATM = (2.27521e-006*TM.DEGC + 0.02078)*(RMN.E.ACP + 6.2*TM.DEGC + -1688): 
OTHER_67           .         <_techsia_sc_> Дата тарировки ГК 25.05.2010: 
OTHER_68           .         Ручной ввод коэффициентов     : 
OTHER_69           .         GR.UR/H = RGR.IMP/MIN / 45.5144: 
OTHER_7            .         Вид исследований 3  6         : 
OTHER_70           .         GK.FLT = 0.1*GR.UR/H[-1] + (1-0.1)*GR.UR/H[0]: 
OTHER_8            .         Начало бурения интервала каротажа: 
OTHER_9            .         Окончание бурения интервала каротажа: 
PROJECT_UPGRADE_TIME .         2021-03-18T21_24_50           : 
PRTY               .         ПП-601-1                      : N партии
SRVC               .         Барковский                    : Начальник партии
TLFamily_DEPT      .         Measured Depth                : 
TLFamily_LM        .         Casing Collar locator         : 
TLFamily_MN        .                                       : 
TLFamily_TM        .         Temperature                   : 
group              .         second                        : 
~Curve Information
#_______________________________________________________________________________
#
#LOGNAME           .UNIT     LOG_ID                        : DESCRIPTION
#_______________________________________________________________________________
DEPT               .M                                      : Depth curve 
LM                 .е.ацп                                  : Локатор муфт,е.ацп 
MN                 .атм                                    : 12 Давление, атм. -  160.0 см 
TM                 .град.C                                 : Термограмма по стволу скважины,град.C 
~Ascii
2649.3999023 -9999      -9999      -9999     
2649.6     -9999      -9999      -9999     
2649.800001 29         -9999      -9999     
2650.000001 29         -9999      -9999     
2650.200001 504.768    -9999      -9999     
2650.400002 620.943    -9999      -9999     
2650.600002 478.07     -9999      -9999     
2650.800002 771.856    -9999      -9999     
2651.000002 1023.877   -9999      -9999     
2651.200003 1204.912   -9999      -9999     
2651.400003 1436.887   239.474    65.581    
2651.600003 1411.013   239.509    65.581    
2651.800004 1637.889   239.49     65.581    
2652.000004 1397.118   239.441    65.59     
2652.200004 1370.013   239.546    65.597    
2652.400005 1290.039   239.454    65.601    
2652.600005 893.194    239.551    65.605    
2652.800005 810.041    239.551    65.608    
2653.000005 751.029    239.552    65.605    
2653.200006 717.017    239.593    65.605    
2653.400006 1019.852   239.572    65.605    
2653.600006 997.011    239.593    65.605    
2653.800007 878.058    239.593    65.605    
2654.000007 796.04     239.593    65.605    
2654.200007 691.051    239.613    65.605    
2654.400007 574.057    239.634    65.601    
2654.600008 550.012    239.634    65.601    
2654.800008 528.011    239.655    65.601    
2655.000008 585.972    239.655    65.597    
2655.200009 559.013    239.676    65.597    
2655.400009 515.021    239.675    65.597    
2655.600009 679.92     239.696    65.593    
2655.80001 708.986    239.71     65.593    
2656.00001 610.048    239.716    65.591    
2656.20001 1213.705   239.725    65.589    
2656.400011 3902.688   239.736    65.588    
2656.600011 1013.411   239.736    65.585    
2656.800011 679.162    239.747    65.585    
2657.000011 689.995    239.757    65.581    
2657.200012 681.004    239.763    65.581    
2657.400012 600.04     239.777    65.577    
2657.600012 601.999    239.776    65.573    
2657.800013 685.959    239.797    65.569    
2658.000013 613.036    239.796    65.569    
2658.200013 386.111    239.796    65.565    
2658.400014 626.882    239.795    65.563    
2658.600014 557.034    239.816    65.561    
2658.800014 488.034    239.816    65.557    
2659.000014 520.984    239.836    65.553    
2659.200015 537.992    239.856    65.549    
2659.400015 306.113    239.856    65.548    
2659.600015 612.85     239.876    65.543    
2659.800016 639.987    239.897    65.541    
2660.000016 313.159    239.914    65.54     
2660.200016 599.86     239.917    65.537    
2660.400017 468.064    239.937    65.533    
2660.600017 492.988    239.936    65.529    
2660.800017 456.018    239.96     65.523    
2661.000017 430.013    239.978    65.521    
2661.200018 313.057    239.978    65.521    
2661.400018 491.913    239.997    65.517    
2661.600018 281.103    240.018    65.513    
2661.800019 459.913    240.018    65.509    
2662.000019 191.131    240.038    65.509    
2662.200019 520.839    240.059    65.505    
2662.400019 437.041    240.058    65.505    
2662.60002 437        240.078    65.5      
2662.80002 456.99     240.099    65.497    
2663.00002 272.09     240.119    65.49     
2663.200021 440.918    240.128    65.489    
2663.400021 223.106    240.139    65.485    
2663.600021 467.881    240.142    65.481    
2663.800022 380.043    240.167    65.477    
2664.000022 397.991    240.179    65.473    
2664.200022 373.012    240.199    65.469    
2664.400022 200.084    240.198    65.462    
2664.600023 303.949    240.218    65.457    
2664.800023 420.943    240.238    65.452    
2665.000023 286.066    240.259    65.449    
2665.200024 395.946    240.267    65.441    
2665.400024 262.065    240.277    65.432    
2665.600024 221.02     240.276    65.428    
2665.800025 4075.122   240.318    65.421    
2666.000025 1749.134   240.309    65.416    
2666.200025 338.687    240.337    65.412    
2666.400026 201.067    240.335    65.403    
2666.600026 393.906    240.376    65.396    
2666.800026 115.136    240.375    65.385    
2667.000026 185.965    240.395    65.38     
2667.200027 330.929    240.402    65.377    
2667.400027 122.102    240.414    65.372    
2667.600027 210.957    240.434    65.368    
2667.800028 342.936    240.454    65.36     
2668.000028 231.055    240.474    65.355    
2668.200028 92.068     240.489    65.344    
2668.400029 164.964    240.492    65.336    
2668.600029 297.935    240.513    65.33     
2668.800029 104.094    240.522    65.324    
2669.000029 101.001    240.538    65.318    
2669.20003 155.973    240.551    65.308    
2669.40003 192.982    240.57     65.3      
2669.60003 193        240.585    65.288    
2669.800031 117.037    240.604    65.277    
2670.000031 220.949    240.607    65.272    
2670.200031 196.012    240.627    65.262    
2670.400032 84.055     240.646    65.251    
2670.600032 58.013     240.666    65.24     
2670.800032 66.996     240.665    65.235    
2671.000032 93.987     240.683    65.22     
2671.200033 202.947    240.682    65.211    
2671.400033 182.01     240.723    65.202    
2671.600033 43.068     240.73     65.198    
2671.800034 152.946    240.762    65.187    
2672.000034 185.984    240.782    65.179    
2672.200034 182.002    240.781    65.172    
2672.400034 248.967    240.801    65.167    
2672.600035 149.049    240.82     65.161    
2672.800035 106.021    240.826    65.141    
2673.000035 174.966    240.859    65.131    
2673.200036 132.021    240.879    65.127    
2673.400036 204.964    240.878    65.123    
2673.600036 459.876    240.898    65.119    
2673.800037 333.062    240.917    65.111    
2674.000037 180.074    240.936    65.097    
2674.200037 302.94     240.943    65.085    
2674.400038 340.982    240.975    65.074    
2674.600038 346.997    240.973    65.067    
2674.800038 151.095    240.993    65.055    
2675.000038 160.995    241.012    65.048    
2675.200039 113.023    241.031    65.035    
2675.400039 260.928    241.051    65.025    
2675.600039 440.912    241.07     65.014    
2675.80004 5108.729   241.089    65.006    
2676.00004 1427.792   241.086    64.986    
2676.20004 465.467    241.106    64.978    
2676.400041 317.072    241.126    64.97     
2676.600041 318        241.147    64.97     
2676.800041 432.944    241.167    64.966    
2677.000041 342.044    241.187    64.957    
2677.200042 269.035    241.207    64.95     
2677.400042 559.859    241.227    64.946    
2677.600042 596.982    241.235    64.944    
2677.800043 529.033    241.248    64.946    
2678.000043 610.96     241.269    64.946    
2678.200043 402.102    241.29     64.942    
2678.400044 380.011    241.31     64.942    
2678.600044 284.047    241.331    64.938    
2678.800044 217.033    241.351    64.935    
2679.000044 243.987    241.37     64.926    
2679.200045 260.992    241.374    64.918    
2679.400045 208.026    241.411    64.918    
2679.600045 257.976    241.414    64.914    
2679.800046 187.035    241.443    64.91     
2680.000046 143.021    241.472    64.906    
2680.200046 112.015    241.475    64.9      
2680.400046 126.993    241.491    64.895    
2680.600047 164.982    241.512    64.89     
2680.800047 146.009    241.528    64.886    
2681.000047 157.994    241.539    64.883    
2681.200048 122.017    241.572    64.878    
2681.400048 106.008    241.593    64.874    
2681.600048 143.982    241.612    64.87     
2681.800049 73.034     241.617    64.866    
2682.000049 105.984    241.645    64.862    
2682.200049 95.005     241.652    64.856    
2682.40005 68.013     241.672    64.85     
2682.60005 105.982    241.692    64.844    
2682.80005 263.923    241.713    64.838    
2683.00005 208.027    241.732    64.834    
2683.200051 223.992    241.753    64.825    
2683.400051 248.988    241.765    64.825    
2683.600051 221.014    241.793    64.82     
2683.800052 206.007    241.792    64.813    
2684.000052 216.995    241.812    64.805    
2684.200052 369.926    241.849    64.805    
2684.400053 249.059    241.853    64.799    
2684.600053 154.046    241.878    64.8      
2684.800053 175.989    241.895    64.797    
2685.000053 238.969    241.915    64.793    
