~Version
 VERS              .         2.0                           : CWLS LOG ASCII STANDARD - VERSION 2.0
 WRAP              .         NO                            : ONE LINE PER DEPTH STEP
 DLM               .         SPACE                         : DELIMITING CHARACTER(SPACE TAB OR COMMA)
~Well Information
#_______________________________________________________________________________
#
#PARAMETER_NAME    .UNIT     VALUE                         : DESCRIPTION
#_______________________________________________________________________________
STRT               .M        2667.6                        : First reference value
STOP               .M        2774.399786                   : Last reference value
STEP               .M        0.1999996                     : Step increment
NULL               .         -9999                         : Missing value
COMP               .                                       : Company
WELL               .         616                           : Well name
FLD                .                                       : Field
LOC                .                                       : Location
CNTY               .                                       : County
STAT               .                                       : State
CTRY               .                                       : Country
SRVC               .                                       : Service Company
DATE               .                                       : Date
API                .                                       : API number
PROJECT_UPGRADE_TIME .         2021-03-18T21_24_50           : 
group              .         Good                          : 
~Parameter Information Block
#_______________________________________________________________________________
#
#PARAMETER_NAME    .UNIT     VALUE                         : DESCRIPTION
#_______________________________________________________________________________
SET                .         D1809_D_2                     : 
NPR                .                                       : 
OTHER              .         Программное обеспечение станции MONITOR-386EX 25/12/99 15_08_10   BGF V52 22/08/01 16_56_30   3.1_SNGF___BGF_N_092049: 
OTHER_10           .         Тарировки_                    : 
OTHER_11           .         TM.GRD = 0.00403*TM$.UE + -1.07: 
OTHER_12           .         MN.ATM = (9.34907e-006*TM.GRD + 0.02171)*(MN$.UE + -7.93*TM.GRD + -1787): 
OTHER_13           .         GK.MKR/H = LM. / 42.4676      : 
OTHER_14           .         GK.FLT = 0.1*GK.MKR/H[-1] + (1-0.1)*GK.MKR/H[0]: 
OTHER_2            .         Kedr.exe версия 3.4.2.51      : 
OTHER_3            .         KedrData.dll версия 3.4.2.24  : 
OTHER_4            .         Драйвер версия 2.1.1.3        : 
OTHER_5            .         Мнемоники версия 3.3 S        : 
OTHER_6            .         Прибор_ КСА-Т4                : 
OTHER_7            .         Номер прибора_ 03             : 
OTHER_8            .         Режим_ КСА-Т4                 : 
OTHER_9            .         Форма_ КВА.                   : 
PR                 .                                       : 
PROJECT_UPGRADE_TIME .         2021-03-18T21_24_49           : 
PRTY               .         ПП-603-1                      : N партии
SRV                .                                       : 
SRVC               .         Карпов                        : Начальник партии
TLFamily_DEPT      .         Measured Depth                : 
TLFamily_LM        .         Casing Collar locator         : 
TLFamily_MN        .                                       : 
TLFamily_TM        .         Temperature                   : 
group              .         second                        : 
~Curve Information
#_______________________________________________________________________________
#
#LOGNAME           .UNIT     LOG_ID                        : DESCRIPTION
#_______________________________________________________________________________
DEPT               .M                                      : Depth curve 
LM                 .е.ацп                                  : Локатор муфт,е.ацп 
MN                 .атм                                    : Манометрия, атм 
TM                 .град.C                                 : Термограмма по стволу скважины,град.C 
~Ascii
# ...
2703.399928 227.972    249.702    51.787    
2703.599928 170.992    249.715    51.773    
2703.799928 155.005    249.739    51.758    
2703.999927 165.99     249.752    51.744    
2704.199927 145.013    249.763    51.727    
2704.399926 171.995    249.789    51.719    
2704.599926 160.993    249.809    51.708    
2704.799926 146.018    249.832    51.693    
2704.999925 182.997    249.832    51.681    
2705.199925 176.999    249.855    51.671    
2705.399924 173.995    249.872    51.667    
2705.599924 163.969    249.901    51.652    
2705.799924 100.997    249.902    51.642    
2705.999923 95.013     249.925    51.63     
2706.199923 120.995    249.926    51.621    
2706.399922 110.023    249.926    51.607    
2706.599922 156        249.972    51.594    
2706.799922 156.998    249.995    51.585    
2706.999921 152.996    249.996    51.574    
2707.199921 145.024    250.019    51.557    
2707.39992 192.978    250.042    51.548    
2707.59992 149.012    250.052    51.538    
2707.79992 173.995    250.08     51.525    
2707.999919 163.005    250.089    51.516    
2708.199919 172.997    250.096    51.507    
2708.399918 166.978    250.112    51.493    
2708.599918 122.002    250.135    51.484    
2708.799918 127.002    250.143    51.47     
2708.999917 131.997    250.174    51.461    
2709.199917 124.987    250.204    51.452    
2709.399916 98.029     250.205    51.438    
2709.599916 156.993    250.228    51.429    
2709.799916 142.986    250.247    51.418    
2709.999915 114.024    250.256    51.406    
2710.199915 163.011    250.274    51.395    
2710.399914 185.996    250.297    51.386    
2710.599914 176.986    250.32     51.377    
2710.799914 149.012    250.321    51.364    
2710.999913 173.992    250.347    51.356    
2711.199913 156.995    250.366    51.348    
2711.399912 145.985    250.386    51.34     
2711.599912 115.139    250.398    51.33     
2711.799912 397.943    250.413    51.316    
2711.999911 282.947    250.436    51.304    
2712.199911 175.989    250.44     51.296    
2712.39991 153.021    250.459    51.288    
2712.59991 195.968    250.482    51.279    
2712.79991 130        250.505    51.27     
2712.999909 131.014    250.506    51.26     
2713.199909 160.965    250.529    51.255    
2713.399908 4153.476   250.552    51.243    
2713.599908 1054.635   250.574    51.232    
2713.799908 311.949    250.575    51.223    
2713.999907 208.996    250.598    51.213    
2714.199907 200.987    250.621    51.2      
2714.399906 173.981    250.637    51.195    
2714.599906 136.02     250.644    51.187    
2714.799906 176.992    250.667    51.179    
2714.999905 161.006    250.675    51.167    
2715.199905 174.035    250.69     51.159    
2715.399904 245.966    250.713    51.152    
2715.599904 176.986    250.736    51.143    
2715.799904 147.984    250.759    51.133    
2715.999903 115.015    250.776    51.123    
2716.199903 146.015    250.783    51.114    
2716.399902 175.995    250.805    51.105    
2716.599902 166.084    250.828    51.096    
2716.799902 336.931    250.829    51.086    
2716.999901 196        250.851    51.081    
2717.199901 196.993    250.874    51.072    
2717.3999  182.999    250.875    51.066    
2717.5999  181        250.897    51.054    
2717.7999  180.072    250.92     51.047    
2717.999899 325.931    250.936    51.038    
2718.199899 185.012    250.963    51.03     
2718.399898 208.984    250.966    51.022    
2718.599898 176        250.989    51.014    
2718.799898 175.008    251.012    51.009    
2718.999897 190.978    251.012    51.002    
2719.199897 146.019    251.035    50.994    
2719.399896 184.988    251.058    50.989    
2719.599896 160.995    251.058    50.977    
2719.799896 151.006    251.092    50.97     
2719.999895 163.001    251.104    50.957    
2720.199895 166.02     251.127    50.947    
2720.399894 206.987    251.141    50.941    
2720.599894 180.001    251.15     50.933    
2720.799894 181.986    251.179    50.922    
2720.999893 153.017    251.196    50.918    
2721.199893 187.997    251.218    50.912    
2721.399892 181.007    251.219    50.903    
2721.599892 195.017    251.241    50.897    
2721.799892 229.002    251.264    50.889    
2721.999891 232.987    251.264    50.877    
2722.199891 207.023    251.3      50.877    
2722.39989 253.985    251.332    50.872    
2722.59989 223.989    251.332    50.865    
2722.79989 201.008    251.354    50.861    
2722.999889 217.982    251.37     50.857    
2723.199889 182.048    251.378    50.848    
2723.399888 279.033    251.4      50.842    
2723.599888 347.032    251.423    50.836    
2723.799888 410.942    251.428    50.822    
2723.999887 293.552    251.456    50.813    
2724.199887 1412.608   251.469    50.808    
2724.399886 617.834    251.468    50.816    
2724.599886 280.967    251.498    50.827    
2724.799886 214.01     251.524    50.82     
2724.999885 234.001    251.535    50.82     
2725.199885 235.994    251.556    50.827    
2725.399884 222.985    251.578    50.828    
2725.599884 193.013    251.577    50.842    
2725.799884 219.984    251.598    50.863    
2725.999883 186.999    251.608    50.88     
2726.199883 184.988    251.638    50.884    
2726.399882 160.979    251.645    50.885    
2726.599882 118.016    251.664    50.881    
2726.799882 151.026    251.682    50.873    
2726.999881 203.977    251.704    50.887    
2727.199881 158.14     251.717    50.903    
2727.39988 441.972    251.727    50.922    
2727.59988 384.902    251.749    50.933    
2727.79988 185.99     251.771    50.933    
2727.999879 165.061    251.787    50.933    
2728.199879 288.006    251.793    50.937    
2728.399878 301.046    251.815    50.93     
2728.599878 394.943    251.829    50.945    
2728.799878 279.007    251.834    50.964    
2728.999877 294.013    251.855    50.988    
2729.199877 320.937    251.87     50.998    
2729.399876 193.971    251.877    51.002    
2729.599876 134.978    251.906    50.995    
2729.799876 89.996     251.923    50.99     
2729.999875 81.003     251.945    50.984    
2730.199875 88.642     251.952    50.971    
2730.399874 1390.678   252.156    50.965    
2730.599874 737.777    251.995    50.952    
2730.799874 284.976    252.011    50.961    
2730.999873 237.016    252.028    51.018    
2731.199873 268.981    252.039    51.14     
2731.399872 230.995    252.049    51.317    
2731.599872 221.009    252.038    51.485    
2731.799872 240.004    252.049    51.642    
2731.999871 247.988    252.06     51.802    
2732.199871 224        252.06     51.939    
2732.39987 224.993    252.082    52.037    
2732.59987 211.018    252.08     52.147    
2732.79987 247.975    252.094    52.293    
2732.999869 197        252.103    52.407    
2733.199869 197.02     252.095    52.564    
2733.399868 236.999    252.104    52.738    
2733.599868 235.04     252.115    52.932    
2733.799868 315.945    252.136    53.015    
2733.999867 204.99     252.142    53.003    
2734.199867 184.023    252.181    52.94     
2734.399866 231.001    252.193    52.868    
2734.599866 232.977    252.205    52.798    
2734.799866 186        252.237    52.743    
2734.999865 187.012    252.268    52.714    
2735.199865 213.431    252.269    52.7      
2735.399864 3111.116   252.291    52.698    
2735.599864 1320.539   252.313    52.695    
2735.799864 386.93     252.311    52.722    
2735.999863 244.979    252.342    52.749    
2736.199863 201.993    252.352    52.78     
2736.399862 187.017    252.372    52.795    
2736.599862 221.999    252.371    52.818    
2736.799862 218.996    252.392    52.837    
2736.999861 210.986    252.414    52.847    
2737.199861 182.008    252.436    52.852    
2737.39986 198.984    252.454    52.843    
2737.59986 165.996    252.461    52.835    
2737.79986 157.008    252.494    52.792    
2737.999859 174.026    252.513    52.735    
2738.199859 226.009    252.541    52.655    
2738.399858 244.977    252.568    52.584    
2738.599858 197.992    252.584    52.539    
2738.799858 182.025    252.598    52.482    
2738.999857 231.991    252.632    52.403    
