~Version
 VERS              .         2.0                           : CWLS LOG ASCII STANDARD - VERSION 2.0
 WRAP              .         NO                            : ONE LINE PER DEPTH STEP
 DLM               .         SPACE                         : DELIMITING CHARACTER(SPACE TAB OR COMMA)
~Well Information
#_______________________________________________________________________________
#
#PARAMETER_NAME    .UNIT     VALUE                         : DESCRIPTION
#_______________________________________________________________________________
STRT               .M        1149                          : First reference value
STOP               .M        2127.4                        : Last reference value
STEP               .M        0.2                           : Step increment
NULL               .         -9999                         : Missing value
COMP               .                                       : Company
WELL               .         616                           : Well name
FLD                .                                       : Field
LOC                .                                       : Location
CNTY               .                                       : County
STAT               .                                       : State
CTRY               .                                       : Country
SRVC               .                                       : Service Company
DATE               .                                       : Date
API                .                                       : API number
PROJECT_UPGRADE_TIME .         2021-03-18T21_24_50           : 
group              .         Good                          : 
~Parameter Information Block
#_______________________________________________________________________________
#
#PARAMETER_NAME    .UNIT     VALUE                         : DESCRIPTION
#_______________________________________________________________________________
SET                .         616_9                         : 
CONF               .         00                            : 
END                .         0                             : 
ERR                .         0                             : 
GS00               .M        2125.46                       : 
GS01               .M        1146.68                       : 
MM00               .M        2120.00                       : 
NOKG               .         0                             : 
NPR                .         990907                        : 
PART               .         Ивашин                        : 
PROJECT_UPGRADE_TIME .         2021-03-18T21_24_49           : 
PRZK               .         Шакиров                       : 
TLFamily_AZIMUTH   .         True Dip Azimuth              : 
TLFamily_DEPTH     .         Measured Depth                : 
TLFamily_METKA     .                                       : 
TLFamily_ROLL      .                                       : 
TLFamily_SPEED     .         Spontaneous Potential         : 
TLFamily_ZENIT     .                                       : 
VPRG               .         310                           : 
WAY                .         UP                            : 
group              .         prim                          : 
~Curve Information
#_______________________________________________________________________________
#
#LOGNAME           .UNIT     LOG_ID                        : DESCRIPTION
#_______________________________________________________________________________
DEPTH              .M                                      :  
AZIMUTH            .DEG                                    :  
METKA              .                                       :  
ROLL               .DEG                                    :  
SPEED              .M/H                                    :  
ZENIT              .DEG                                    :  
~Ascii
# ...
1393       260.25     0          325.92     648        33.43     
1393.2     260.62     0          325.3      684        33.56     
1393.4     259.9      0          324.34     648        33.48     
1393.6     258.9      0          323.86     648        33.33     
1393.8     258.92     0          324.44     648        33.22     
1394       259.97     0          324.83     684        33.25     
1394.2     259.84     0          324.73     648        33.2      
1394.4     259.67     0          325.4      648        33.41     
1394.6     254.21     0          328.85     648        32.83     
1394.8     256.84     0          327.86     648        33.42     
1395       259.09     0          325.81     648        33.28     
1395.2     260.53     0          325.05     648        33.56     
1395.4     259.84     0          324.15     684        33.4      
1395.6     259.65     0          323.99     648        33.42     
1395.8     258.83     0          324.56     648        33.23     
1396       259.49     0          325.04     648        33.37     
1396.2     259.78     0          325.43     648        33.4      
1396.4     259.13     0          325.57     648        33.31     
1396.6     259.16     0          325.55     684        33.31     
1396.8     259.91     0          325.47     648        33.49     
1397       259.15     0          325.53     648        33.35     
1397.2     259.96     0          325.72     648        33.53     
1397.4     259.52     0          325.64     684        33.4      
1397.6     259.71     0          325.57     648        33.47     
1397.8     259.25     0          325.38     648        33.35     
1398       259.77     0          324.93     648        33.48     
1398.2     259.59     0          324.4      684        33.42     
1398.4     259.12     0          324.1      648        33.38     
1398.6     259.53     0          324.83     648        33.45     
1398.8     259.8      0          325.48     648        33.46     
1399       259.79     0          325.42     684        33.51     
1399.2     259.21     0          325.4      648        33.4      
1399.4     259.6      0          325.44     648        33.47     
1399.6     259.88     0          325.18     648        33.5      
1399.8     259.44     0          324.96     684        33.41     
1400       259.77     0          325.12     648        33.54     
1400.2     259.68     0          325.58     648        33.51     
1400.4     259.54     0          325.87     648        33.48     
1400.6     259.82     0          325.94     684        33.52     
1400.8     259.4      0          325.82     648        33.4      
1401       260.22     0          325.61     648        33.55     
1401.2     259.24     0          325.45     648        33.29     
1401.4     260.75     0          325.41     684        33.6      
1401.6     260.57     0          325.6      648        33.47     
1401.8     261.87     0          325.71     648        33.59     
1402       262.76     0          325.89     648        33.45     
1402.2     267.01     1          326.5      648        33.58     
1402.4     304.91     0          327.48     648        33.57     
1402.6     293.89     0          327.09     648        33.55     
1402.8     146.97     0          326.84     648        33.61     
1403       80.31      0          326.9      648        33.53     
1403.2     18.76      0          326.51     684        34.35     
1403.4     293.8      0          326.11     648        33.92     
1403.6     271.37     0          325.93     648        33.88     
1403.8     263.04     0          325.65     684        33.6      
1404       262.64     0          325.47     648        33.85     
1404.2     260.79     0          325.39     648        33.66     
1404.4     259.31     0          325.83     648        33.46     
1404.6     259.43     0          326.56     684        33.38     
1404.8     259.92     0          326.72     648        33.46     
1405       259.74     0          326.4      648        33.39     
1405.2     260.19     0          325.28     648        33.41     
1405.4     258.73     0          325.23     684        33.38     
1405.6     259.77     0          326.92     648        33.48     
1405.8     259.36     0          327.48     648        33.24     
1406       258.94     0          326.25     648        33.28     
1406.2     260.07     0          326.12     684        33.33     
1406.4     260.31     0          326.67     648        33.49     
1406.6     256.41     0          328.04     648        32.82     
1406.8     260.3      0          327.92     648        32.74     
1407       260.45     0          326.51     684        33.32     
1407.2     259.57     0          326.04     648        33.36     
1407.4     259.44     0          325.74     648        33.41     
1407.6     259.45     0          324.98     648        33.44     
1407.8     258.89     0          324.67     648        33.39     
1408       259.46     0          325.42     648        33.51     
1408.2     259.52     0          326.42     684        33.54     
1408.4     259.74     0          327.21     648        33.57     
1408.6     259.34     0          327.57     648        33.51     
1408.8     259.24     0          327.68     648        33.51     
1409       259.92     0          327.53     684        33.65     
1409.2     258.72     0          327.48     648        33.45     
1409.4     259.55     0          327.07     648        33.54     
1409.6     259.17     0          326.63     648        33.54     
1409.8     259.56     0          326.63     648        33.62     
1410       258.57     0          326.74     648        33.34     
1410.2     258.99     0          326.89     648        33.53     
1410.4     259.33     0          326.55     648        33.52     
1410.6     258.89     0          326.03     684        33.47     
1410.8     259.23     1          325.41     648        33.51     
1411       259.48     0          324.99     792        33.58     
1411.2     259        0          325.06     648        33.48     
1411.4     259.93     0          325.53     684        33.7      
1411.6     258.95     0          326.05     648        33.47     
1411.8     259.79     0          326.47     648        33.64     
1412       259.25     1          326.73     648        33.56     
1412.2     259.18     0          326.71     252        33.52     
1412.4     258.96     0          326.47     684        33.5      
1412.6     258.11     0          326.63     648        33.34     
1412.8     259.07     0          326.77     648        33.48     
1413       259.62     0          326.55     648        33.58     
1413.2     259.4      0          326.42     684        33.52     
1413.4     259.91     0          326.28     648        33.63     
1413.6     260.28     0          326.17     648        33.68     
1413.8     260.66     0          326.56     684        33.69     
1414       260.85     0          326.86     648        33.6      
1414.2     262.61     0          327.03     648        33.79     
1414.4     264.64     0          327.8      648        33.67     
1414.6     271.78     0          328.04     648        33.68     
1414.8     298.76     0          327.23     684        33.73     
1415       328.07     0          326.88     648        33.87     
1415.2     180        0          327.06     648        33.68     
1415.4     229.08     0          327.37     648        33.91     
1415.6     331.51     0          327.51     684        34.13     
1415.8     280.15     0          327.32     648        33.98     
1416       267.18     0          326.78     648        34.05     
1416.2     262.09     0          326.34     648        33.82     
1416.4     261.18     0          325.89     648        33.88     
1416.6     259.41     0          325.36     684        33.55     
1416.8     260.6      0          325.47     648        33.73     
1417       259.89     0          326.04     648        33.64     
1417.2     260.08     0          326.61     648        33.61     
