~Version
 VERS              .         2.0                           : CWLS LOG ASCII STANDARD - VERSION 2.0
 WRAP              .         NO                            : ONE LINE PER DEPTH STEP
 DLM               .         SPACE                         : DELIMITING CHARACTER(SPACE TAB OR COMMA)
~Well Information
#_______________________________________________________________________________
#
#PARAMETER_NAME    .UNIT     VALUE                         : DESCRIPTION
#_______________________________________________________________________________
STRT               .M        2659.6                        : First reference value
STOP               .M        2769.6                        : Last reference value
STEP               .M        0.2                           : Step increment
NULL               .         -9999                         : Missing value
COMP               .                                       : Company
WELL               .         616                           : Well name
FLD                .                                       : Field
LOC                .                                       : Location
CNTY               .                                       : County
STAT               .                                       : State
CTRY               .                                       : Country
SRVC               .                                       : Service Company
DATE               .                                       : Date
API                .                                       : API number
PROJECT_UPGRADE_TIME .         2021-03-18T21_24_50           : 
group              .         Good                          : 
~Parameter Information Block
#_______________________________________________________________________________
#
#PARAMETER_NAME    .UNIT     VALUE                         : DESCRIPTION
#_______________________________________________________________________________
SET                .         D1162_D                       : 
OTHER              .         Программное обеспечение станции MONITOR-386EX 25/12/99 15_08_10   BGF V52 22/08/01 16_56_30   3.2_BGF_N_3070031: 
OTHER_10           .         Тарировки_                    : 
OTHER_11           .         TM.GRD = 0.00403*TM$.UE + -1.19: 
OTHER_12           .         MN.ATM = (7.1e-006*TM.GRD + 0.02017)*(MN$.UE + -3.03*TM.GRD + -1833): 
OTHER_13           .         Id error                      : 
OTHER_2            .         Kedr.exe версия 3.4.2.51      : 
OTHER_3            .         KedrData.dll версия 3.4.2.24  : 
OTHER_4            .         Драйвер версия 2.1.1.8        : 
OTHER_5            .         Мнемоники версия 3.3 S        : 
OTHER_6            .         Прибор_ КСА-М1                : 
OTHER_7            .         Номер прибора_ 265            : 
OTHER_8            .         Режим_ КСА-М1                 : 
OTHER_9            .         Форма_ ТЕРМОМЕТР              : 
PROJECT_UPGRADE_TIME .         2021-03-18T21_24_49           : 
TLFamily_DEPT      .         Measured Depth                : 
TLFamily_GK        .         Gamma Ray                     : 
TLFamily_GK$       .                                       : 
TLFamily_LM        .         Casing Collar locator         : 
TLFamily_METKA     .                                       : 
TLFamily_MN        .                                       : 
TLFamily_MN$       .                                       : 
TLFamily_RCOR      .                                       : 
TLFamily_SPID      .         Spontaneous Potential         : 
TLFamily_STD       .                                       : 
TLFamily_TENS      .         Cable Tension                 : 
TLFamily_TIME      .         Time                          : 
TLFamily_TM        .         Temperature                   : 
TLFamily_TM$       .         Temperature                   : 
TLFamily_VGD       .         Gas Volume                    : 
group              .         prim                          : 
~Curve Information
#_______________________________________________________________________________
#
#LOGNAME           .UNIT     LOG_ID                        : DESCRIPTION
#_______________________________________________________________________________
DEPT               .M                                      : 1 Глубина, м -    0.0 см 
GK                 .MKR/H                                  : 15 Гамма-активность, мкр./ч -  110.0 см 
GK$                .UE                                     : 12 Гамма-активность, усл.ед. -  110.0 см 
LM                 .                                       : 10 Локатор муфт,  -   20.0 см 
METKA              .                                       : 3 Метки,  -    0.0 см 
MN                 .ATM                                    : 14 Давление, атм. -  160.0 см 
MN$                .UE                                     : 8 Давление, усл.ед. -  160.0 см 
RCOR               .CM/KM                                  : 5 Коррекция по ролику, см/км -    0.0 см 
SPID               .M/H                                    : 2 Скорость, м/час -    0.0 см 
STD                .                                       : 11 Приток,  -  170.0 см 
TENS               .T                                      : 6 Натяжение кабеля, т -    0.0 см 
TIME               .S                                      : 4 Время, сек -    0.0 см 
TM                 .GRD                                    : 13 Температура, °C -  180.0 см 
TM$                .UE                                     : 7 Температура, усл.ед. -  180.0 см 
VGD                .                                       : 9 Влагомер,  -  170.0 см 
~Ascii
# ...
2708.6     8.19       350        1          0          251.174    14178      -1400      585        32373      0          17704.32   88.426     22237      6495      
2708.8     8.08       341        1          1          251.219    14180      -1400      592        32373      0          17705.54   88.433     22239      6495      
2709       8.01       341        1          0          251.207    14179      -1400      589        32374      0          17706.79   88.433     22239      6496      
2709.2     7.93       335        1          0          251.266    14182      -1400      591        32373      0          17707.97   88.437     22240      6495      
2709.4     7.86       335        1          0          251.221    14180      -1400      595        32373      0          17709.21   88.441     22241      6495      
2709.6     7.67       322        1          0          251.296    14184      -1400      596        32373      0          17710.4    88.445     22242      6495      
2709.8     7.58       322        1          0          251.287    14183      -1400      588        32373      0          17711.68   88.445     22242      6496      
2710       7.55       322        1          2          251.326    14185      -1400      595        32373      0          17712.86   88.449     22243      6496      
2710.2     7.54       322        1          0          251.338    14186      -1400      601        32373      0          17714.21   88.452     22244      6496      
2710.4     7.44       311        1          0          251.328    14185      -1400      595        32373      0          17715.46   88.453     22244      6496      
2710.6     7.33       311        1          0          251.386    14188      -1400      596        32373      0          17716.63   88.457     22245      6496      
2710.8     7.28       310        1          0          251.359    14187      -1400      593        32373      0          17717.84   88.461     22246      6496      
2711       7.26       310        1          0          251.418    14190      -1400      593        32373      0          17719.1    88.461     22246      6495      
2711.2     7.43       326        1          0          251.393    14188      -1400      586        32373      0          17720.35   88.463     22246      6496      
2711.4     7.57       326        1          0          251.454    14191      -1400      595        32373      0          17721.47   88.465     22247      6496      
2711.6     7.79       345        1          0          251.448    14191      -1400      597        32374      0          17722.76   88.469     22248      6497      
2711.8     7.99       345        1          0          251.474    14192      -1400      581        32373      0          17724      88.469     22248      6496      
2712       8.23       368        1          1          251.49     14193      -1400      584        32373      0          17725.23   88.473     22249      6496      
2712.2     8.49       368        1          0          251.505    14194      -1400      589        32373      0          17726.41   88.473     22249      6496      
2712.4     8.6        371        1          0          251.552    14196      -1400      593        32373      0          17727.59   88.473     22249      6496      
2712.6     8.68       373        1          0          251.527    14195      -1400      588        32373      0          17728.88   88.478     22250      6498      
2712.8     8.73       375        1          0          251.594    14198      -1400      596        32373      0          17730.06   88.478     22250      6497      
2713       8.76       375        1          0          251.573    14197      -1400      592        32373      0          17731.3    88.482     22251      6496      
2713.2     8.53       345        1          1          251.63     14200      -1400      590        32372      0          17732.54   88.485     22252      6497      
2713.4     8.15       341        1          0          251.621    14199      -1400      579        32373      0          17733.76   88.486     22252      6497      
2713.6     7.72       303        1          0          251.66     14201      -1400      589        32373      0          17734.95   88.492     22254      6497      
2713.8     6.82       274        1          0          251.692    14203      -1400      591        32374      0          17736.19   88.494     22254      6497      
2714       6.48       266        1          0          251.678    14202      -1400      580        32373      0          17737.42   88.498     22255      6497      
2714.2     5.59       221        1          0          251.74     14205      -1400      585        32373      0          17738.63   88.502     22256      6497      
2714.4     5.29       221        1          0          251.714    14204      -1400      591        32373      0          17739.84   88.51      22258      6498      
2714.6     5.01       208        2583       0          251.773    14207      -1400      599        32373      0          17741.08   88.517     22260      6497      
2714.8     4.95       213        814        0          251.762    14206      -1400      595        32373      0          17742.32   88.524     22262      6498      
2715       5.16       224        20         0          251.809    14208      -1400      591        32373      0          17743.49   88.532     22263      6499      
2715.2     5.22       225        1          0          251.803    14208      -1400      593        32374      0          17744.73   88.542     22266      6498      
2715.4     5.3        228        1          0          251.839    14210      -1400      590        32374      0          17745.97   88.55      22268      6497      
2715.6     5.32       228        1          0          251.857    14211      -1400      588        32372      0          17747.14   88.558     22270      6498      
2715.8     5.68       251        1          0          251.846    14210      -1400      590        32374      0          17748.38   88.566     22272      6499      
2716       5.81       251        1          0          251.908    14213      -1400      587        32373      0          17749.62   88.574     22274      6498      
2716.2     6.02       263        1          0          251.891    14212      -1400      588        32373      0          17750.82   88.583     22276      6498      
2716.4     6.11       263        1          0          251.95     14215      -1400      591        32374      0          17752.04   88.587     22277      6498      
2716.6     5.99       254        1          0          251.915    14213      -1400      596        32374      0          17753.22   88.594     22279      6499      
2716.8     5.96       254        1          0          251.974    14216      -1400      592        32374      0          17754.51   88.602     22281      6498      
2717       6.33       280        1          0          251.983    14217      -1400      594        32372      0          17755.69   88.609     22283      6497      
2717.2     6.48       280        1          0          251.995    14217      -1400      591        32374      0          17756.89   88.612     22283      6498      
2717.4     6.66       290        55         0          252.034    14219      -1400      583        32374      0          17758.16   88.619     22285      6498      
2717.6     6.75       290        1          0          252.031    14219      -1400      585        32374      0          17759.34   88.627     22287      6498      
2717.8     7.15       322        1          0          252.076    14221      -1400      585        32374      0          17760.57   88.627     22287      6498      
2718       7.41       322        1          0          252.055    14220      -1400      588        32373      0          17761.75   88.637     22290      6497      
2718.2     8.19       371        1          0          252.118    14223      -1400      586        32373      0          17762.99   88.64      22290      6498      
