~Version
 VERS              .         2.0                           : CWLS LOG ASCII STANDARD - VERSION 2.0
 WRAP              .         NO                            : ONE LINE PER DEPTH STEP
 DLM               .         SPACE                         : DELIMITING CHARACTER(SPACE TAB OR COMMA)
~Well Information
#_______________________________________________________________________________
#
#PARAMETER_NAME    .UNIT     VALUE                         : DESCRIPTION
#_______________________________________________________________________________
STRT               .M        2654.8                        : First reference value
STOP               .M        2761.6                        : Last reference value
STEP               .M        0.2000001                     : Step increment
NULL               .         -9999                         : Missing value
COMP               .                                       : Company
WELL               .         616                           : Well name
FLD                .                                       : Field
LOC                .                                       : Location
CNTY               .                                       : County
STAT               .                                       : State
CTRY               .                                       : Country
SRVC               .                                       : Service Company
DATE               .                                       : Date
API                .                                       : API number
PROJECT_UPGRADE_TIME .         2021-03-18T21_24_50           : 
group              .         Good                          : 
~Parameter Information Block
#_______________________________________________________________________________
#
#PARAMETER_NAME    .UNIT     VALUE                         : DESCRIPTION
#_______________________________________________________________________________
SET                .         D8107_D                       : 
OTHER              .         Программное обеспечение станции MONITOR-386EX 25/12/99 15_08_10   BGF V52 22/08/01 16_56_30   4_SNGF_BGF_N_011645: 
OTHER_10           .         Тарировки_                    : 
OTHER_11           .         TM.GRD = 0.00412*TM$.UE + -2.13: 
OTHER_12           .         MN.ATM = (5.87652e-006*TM.GRD + 0.01993)*(MN$.UE + -2.72*TM.GRD + -1925): 
OTHER_13           .         GK.MKR/H = GK$.UE / 57.4657   : 
OTHER_2            .         Kedr.exe версия 3.4.2.51      : 
OTHER_3            .         KedrData.dll версия 3.4.2.24  : 
OTHER_4            .         Драйвер версия 2.1.0.2        : 
OTHER_5            .         Мнемоники версия 3.3 S        : 
OTHER_6            .         Прибор_ АКП4-90               : 
OTHER_7            .         Номер прибора_ 53             : 
OTHER_8            .         Режим_ АКП4_90                : 
OTHER_9            .         Форма_ ПК-53ое                : 
PROJECT_UPGRADE_TIME .         2021-03-18T21_24_50           : 
TLFamily_DEPT      .         Measured Depth                : 
TLFamily_GK        .         Gamma Ray                     : 
TLFamily_GK$       .                                       : 
TLFamily_LM        .         Casing Collar locator         : 
TLFamily_METKA     .                                       : 
TLFamily_METKA_1   .                                       : 
TLFamily_MN        .                                       : 
TLFamily_MN$       .                                       : 
TLFamily_RCOR      .                                       : 
TLFamily_SPID      .         Spontaneous Potential         : 
TLFamily_TENS      .         Cable Tension                 : 
TLFamily_TIME      .         Time                          : 
TLFamily_TM        .         Temperature                   : 
TLFamily_TM$       .         Temperature                   : 
group              .         prim                          : 
~Curve Information
#_______________________________________________________________________________
#
#LOGNAME           .UNIT     LOG_ID                        : DESCRIPTION
#_______________________________________________________________________________
DEPT               .M                                      : 1 Глубина, м -    0.0 см 
GK                 .MKR/H                                  : 13 Гамма-активность, мкр./ч -   65.0 см 
GK$                .UE                                     : 10 Гамма-активность, усл.ед. -   65.0 см 
LM                 .                                       : 9 Локатор муфт,  -   30.0 см 
METKA              .                                       : 3 Метки,  -    0.0 см 
METKA_1            .                                       : 14 Маркеры - 65 см 
MN                 .ATM                                    : 12 Давление, атм. -  140.0 см 
MN$                .UE                                     : 8 Давление, усл.ед. -  140.0 см 
RCOR               .CM/KM                                  : 5 Коррекция по ролику, см/км -    0.0 см 
SPID               .M/H                                    : 2 Скорость, м/час -    0.0 см 
TENS               .T                                      : 6 Натяжение кабеля, т -    0.0 см 
TIME               .S                                      : 4 Время, сек -    0.0 см 
TM                 .GRD                                    : 11 Температура, °C -  145.0 см 
TM$                .UE                                     : 7 Температура, усл.ед. -  145.0 см 
~Ascii
# ...
2686       7.65       440        473        0          0          246.036    14270      -19        -626       1.04       15630.98   55.93      14092     
2686.2     7.72       444        411        0          0          246.016    14269      -19        -627       1.03       15629.78   55.864     14076     
2686.4     7.91       454        262        0          0          246.056    14271      -19        -622       1.05       15628.66   55.756     14050     
2686.6     8.38       482        409        0          0          246.096    14273      -19        -622       1.03       15627.49   55.636     14021     
2686.8     8.2        471        380        0          0          246.09     14273      -19        -621       1.03       15626.31   55.538     13997     
2687       7.81       449        452        0          0          246.102    14273      -19        -623       1.05       15625.17   55.451     13976     
2687.2     7.65       440        1154       0          0          246.127    14275      -19        -623       1.03       15624.04   55.378     13958     
2687.4     6.48       373        1417       0          0          246.107    14274      -19        -625       1.03       15622.85   55.286     13936     
2687.6     6.3        362        393        0          0          246.175    14277      -19        -620       1.05       15621.73   55.184     13911     
2687.8     5.34       307        441        0          0          246.164    14276      -19        -626       1.03       15620.6    55.114     13894     
2688       5.35       307        197        0          0          246.175    14277      -19        -629       1.03       15619.42   55.007     13868     
2688.2     5.41       311        387        0          0          246.215    14279      -19        -625       1.04       15618.25   54.915     13846     
2688.4     5.43       312        157        0          0          246.215    14279      -19        -626       1.05       15617.1    54.781     13813     
2688.6     5.77       331        567        0          0          246.232    14280      -19        -621       1.05       15615.97   54.653     13782     
2688.8     5.95       342        1554       0          0          246.295    14283      -19        -622       1.05       15614.84   54.534     13753     
2689       5.5        316        1685       0          0          246.255    14281      -19        -625       1.04       15613.68   54.418     13725     
2689.2     5.29       304        271        0          0          246.275    14282      -19        -624       1.03       15612.53   54.292     13695     
2689.4     5.24       301        342        0          0          246.312    14284      -19        -629       1.04       15611.37   54.2       13672     
2689.6     5.12       294        186        0          0          246.301    14283      -19        -628       1.05       15610.21   54.087     13645     
2689.8     5.18       298        517        2          0          246.348    14286      -19        -624       1.06       15609.08   54.017     13628     
2690       5.73       329        717        0          0          246.355    14286      -16        -631       1.03       15607.77   53.928     13606     
2690.2     5.78       332        115        0          0          246.375    14287      -16        -627       1.05       15606.58   53.814     13579     
2690.4     6.16       354        141        0          0          246.415    14289      -16        -622       1.03       15605.47   53.7       13551     
2690.6     6.19       355        171        0          0          246.404    14288      -16        -623       1.03       15604.32   53.584     13523     
2690.8     6.46       371        379        0          0          246.446    14291      -16        -626       1.04       15603.17   53.467     13494     
2691       6.46       371        424        0          0          246.488    14293      -16        -626       1.04       15602.02   53.378     13473     
2691.2     6.51       374        176        0          0          246.541    14295      -16        -628       1.04       15600.86   53.268     13446     
2691.4     6.53       375        468        0          0          246.528    14295      -16        -624       1.05       15599.68   53.144     13416     
2691.6     6.63       381        503        0          0          246.594    14298      -16        -625       1.05       15598.51   53.058     13395     
2691.8     6.64       382        219        0          0          246.594    14298      -16        -620       1.05       15597.37   52.953     13370     
2692       6.59       379        518        0          0          246.614    14299      -16        -620       1.05       15596.25   52.868     13349     
2692.2     6.49       373        311        0          0          246.614    14299      -16        -627       1.05       15595.06   52.774     13326     
2692.4     6.42       369        225        0          0          246.644    14301      -16        -622       1.05       15593.94   52.663     13299     
2692.6     6.07       349        366        0          0          246.705    14304      -16        -616       1.05       15592.77   52.574     13278     
2692.8     6.02       346        792        0          0          246.694    14303      -16        -628       1.03       15591.62   52.443     13246     
2693       5.76       331        2844       0          0          246.727    14305      -16        -624       1.05       15590.48   52.324     13217     
2693.2     5.79       333        10273      0          0          246.753    14306      -16        -618       1.05       15589.32   52.234     13195     
2693.4     6.16       354        16064      0          0          246.733    14305      -16        -624       1.04       15588.15   52.138     13172     
2693.6     6.17       354        688        0          0          246.813    14309      -16        -618       1.03       15587.07   52.036     13147     
2693.8     6.33       364        594        0          0          246.813    14309      -16        -625       1.03       15585.92   51.975     13132     
2694       6.42       369        256        0          0          246.796    14308      -16        -619       1.04       15584.72   51.882     13110     
2694.2     6.31       363        469        0          0          246.87     14312      -16        -618       1.05       15583.56   51.714     13069     
2694.4     6.26       360        447        0          0          246.886    14313      -16        -621       1.05       15582.41   51.608     13043     
2694.6     6.2        356        331        0          0          246.896    14313      -16        -617       1.05       15581.25   51.508     13019     
2694.8     6.04       347        855        0          0          246.933    14315      -16        -620       1.03       15580.14   51.422     12998     
2695       6.03       347        157        0          0          246.929    14315      -16        -628       1.05       15578.94   51.331     12976     
2695.2     5.99       344        445        0          0          246.973    14317      -16        -624       1.03       15577.81   51.236     12953     
2695.4     6.12       352        747        0          0          246.992    14318      -16        -619       1.03       15576.67   51.146     12931     
2695.6     6.98       401        304        0          0          246.973    14317      -16        -618       1.05       15575.49   51.03      12903     
2695.8     7          402        411        0          0          247.035    14320      -16        -624       1.05       15574.35   50.924     12877     
2696       7.36       423        572        0          0          247.039    14320      -16        -619       1.03       15573.22   50.879     12866     
2696.2     7.33       421        180        0          0          247.045    14321      -16        -625       1.03       15572.03   50.808     12849     
