~Version
 VERS              .         2.0                           : CWLS LOG ASCII STANDARD - VERSION 2.0
 WRAP              .         NO                            : ONE LINE PER DEPTH STEP
 DLM               .         SPACE                         : DELIMITING CHARACTER(SPACE TAB OR COMMA)
~Well Information
#_______________________________________________________________________________
#
#PARAMETER_NAME    .UNIT     VALUE                         : DESCRIPTION
#_______________________________________________________________________________
STRT               .M        2697.4                        : First reference value
STOP               .M        2733.2                        : Last reference value
STEP               .M        0.2000003                     : Step increment
NULL               .         -9999                         : Missing value
COMP               .                                       : Company
WELL               .         616                           : Well name
FLD                .                                       : Field
LOC                .                                       : Location
CNTY               .                                       : County
STAT               .                                       : State
CTRY               .                                       : Country
SRVC               .                                       : Service Company
DATE               .                                       : Date
API                .                                       : API number
PROJECT_UPGRADE_TIME .         2021-03-18T21_24_50           : 
group              .         Good                          : 
~Parameter Information Block
#_______________________________________________________________________________
#
#PARAMETER_NAME    .UNIT     VALUE                         : DESCRIPTION
#_______________________________________________________________________________
SET                .         D1168_D                       : 
OTHER              .         Программное обеспечение станции MONITOR-386EX 25/12/99 15_08_10   BGF V52 22/08/01 16_56_30   3.2_BGF_N_3070031: 
OTHER_10           .         Тарировки_                    : 
OTHER_11           .         RGD.M3/SUT = 0.603482 * RGD.UE + 9.9644: 
OTHER_2            .         Kedr.exe версия 3.4.2.51      : 
OTHER_3            .         KedrData.dll версия 3.4.2.24  : 
OTHER_4            .         Драйвер версия 2.1.0.2        : 
OTHER_5            .         Мнемоники версия 3.3 S        : 
OTHER_6            .         Прибор_ Гранат                : 
OTHER_7            .         Номер прибора_ 257            : 
OTHER_8            .         Режим_ КСА_Гранат             : 
OTHER_9            .         Форма_ РАСХОД                 : 
PROJECT_UPGRADE_TIME .         2021-03-18T21_24_49           : 
TLFamily_DEPT      .         Measured Depth                : 
TLFamily_METKA     .                                       : 
TLFamily_RCOR      .                                       : 
TLFamily_RGD       .                                       : 
TLFamily_RGD_2     .                                       : 
TLFamily_SPID      .         Spontaneous Potential         : 
TLFamily_TENS      .         Cable Tension                 : 
TLFamily_TIME      .         Time                          : 
group              .         prim                          : 
~Curve Information
#_______________________________________________________________________________
#
#LOGNAME           .UNIT     LOG_ID                        : DESCRIPTION
#_______________________________________________________________________________
DEPT               .M                                      : 1 Глубина, м -    0.0 см 
METKA              .                                       : 3 Метки,  -    0.0 см 
RCOR               .CM/KM                                  : 5 Коррекция по ролику, см/км -    0.0 см 
RGD                .UE                                     : 7 Расход, имп/мин -  232.0 см 
RGD_2              .M3/SUT                                 : 8 Расход, м3/сут -  232.0 см 
SPID               .M/H                                    : 2 Скорость, м/час -    0.0 см 
TENS               .T                                      : 6 Натяжение кабеля, т -    0.0 см 
TIME               .S                                      : 4 Время, сек -    0.0 см 
~Ascii
# ...
2715.6     0          -1400      153        102.15     -151       0          24743.45  
2715.8     0          -1400      152        101.56     -166       0          24738.76  
2716       0          -1400      162        107.86     -179       0          24734.27  
2716.2     0          -1400      155        103.35     -166       0          24729.87  
2716.4     0          -1400      150        100.55     -141       0          24725.47  
2716.6     0          -1400      148        98.98      -144       0          24720.89  
2716.8     0          -1400      155        103.78     -157       0          24716.49  
2717       0          -1400      150        100.74     -154       0          24711.99  
2717.2     0          -1400      152        101.81     -177       0          24707.41  
2717.4     0          -1400      153        102.59     -166       0          24703.01  
2717.6     0          -1400      152        101.61     -164       0          24698.62  
2717.8     0          -1400      138        93.36      -118       0          24694.12  
2718       0          -1400      139        93.95      -150       0          24689.53  
2718.2     0          -1400      131        89.14      -167       0          24685.14  
2718.4     0          -1400      123        84.06      -167       0          24680.74  
2718.6     0          -1400      112        77.84      -153       0          24676.04  
2718.8     0          -1400      96         67.9       -165       0          24671.66  
2719       0          -1400      91         64.75      -161       0          24667.26  
2719.2     0          -1400      88         63.29      -132       0          24662.86  
2719.4     0          -1400      78         56.77      -154       0          24658.17  
2719.6     0          -1400      74         54.37      -166       0          24653.78  
2719.8     0          -1400      71         52.72      -162       0          24649.38  
2720       2          -1400      77         56.33      -151       0          24644.69  
2720.2     0          -1400      60         46.15      -159       0          24639.4   
2720.4     0          -1400      72         53.71      -163       0          24635     
2720.6     0          -1400      62         47.59      -151       0          24630.61  
2720.8     0          -1400      82         59.27      -174       0          24625.91  
2721       0          -1400      78         56.74      -160       0          24621.52  
2721.2     0          -1400      73         53.93      -168       0          24617.13  
2721.4     0          -1400      70         52.38      -158       0          24612.53  
2721.6     0          -1400      79         57.91      -164       0          24608.04  
2721.8     0          -1400      81         58.79      -164       0          24603.65  
2722       0          -1400      73         54.22      -154       0          24599.25  
2722.2     0          -1400      91         64.66      -161       0          24594.66  
2722.4     0          -1400      96         67.83      -168       0          24590.26  
2722.6     0          -1400      91         64.74      -166       0          24585.77  
2722.8     0          -1400      94         66.51      -155       0          24581.18  
2723       0          -1400      94         66.75      -159       0          24576.78  
2723.2     0          -1400      86         62.15      -174       0          24572.28  
2723.4     0          -1400      78         56.84      -124       0          24567.9   
2723.6     0          -1400      79         57.79      -158       0          24563.3   
2723.8     0          -1400      89         63.41      -164       0          24558.8   
2724       0          -1400      93         65.94      -151       0          24554.41  
2724.2     0          -1400      89         63.89      -160       0          24549.82  
2724.4     0          -1400      86         61.73      -168       0          24545.43  
2724.6     0          -1400      85         61.18      -177       0          24541.03  
2724.8     0          -1400      76         55.55      -138       0          24536.53  
2725       0          -1400      90         64.19      -173       0          24532.05  
2725.2     0          -1400      94         66.57      -154       0          24527.65  
2725.4     0          -1400      90         64.47      -158       0          24523.25  
2725.6     0          -1400      94         66.92      -176       0          24518.56  
2725.8     0          -1400      79         57.75      -159       0          24514.75  
2726       0          -1400      79         57.83      -154       0          24509.77  
2726.2     0          -1400      86         61.65      -147       0          24505.38  
2726.4     0          -1400      98         69.2       -153       0          24500.78  
2726.6     0          -1400      102        71.34      -167       0          24496.39  
2726.8     0          -1400      113        78.01      -159       0          24492     
2727       0          -1400      112        77.55      -173       0          24487.3   
2727.2     0          -1400      98         68.93      -157       0          24482.9   
2727.4     0          -1400      96         67.75      -163       0          24478.52  
2727.6     0          -1400      94         66.45      -139       0          24474.02  
2727.8     0          -1400      95         67.33      -162       0          24469.53  
2728       0          -1400      90         64.01      -160       0          24465.04  
2728.2     0          -1400      98         68.89      -171       0          24460.64  
2728.4     0          -1400      103        72.31      -166       0          24455.95  
2728.6     0          -1400      104        72.82      -154       0          24451.55  
2728.8     0          -1400      108        75.28      -161       0          24447.06  
2729       0          -1400      105        73.55      -142       0          24442.77  
2729.2     0          -1400      106        73.77      -167       0          24438.07  
2729.4     0          -1400      112        77.36      -168       0          24433.67  
2729.6     0          -1400      110        76.23      -167       0          24429.19  
2729.8     0          -1400      117        80.8       -175       0          24424.39  
2730       2          -1400      107        74.38      -149       0          24419.79  
2730.2     0          -1400      116        79.76      -145       0          24418.4   
2730.4     0          -1400      113        78.45      -147       0          24413.61  
2730.6     0          -1400      111        77.14      -147       0          24409.01  
2730.8     0          -1400      111        76.89      -149       0          24404.22  
2731       -9999      -9999      116        79.74      -9999      -9999      -9999     
2731.2     -9999      -9999      127        86.74      -9999      -9999      -9999     
2731.4     -9999      -9999      109        75.82      -9999      -9999      -9999     
2731.6     -9999      -9999      106        73.94      -9999      -9999      -9999     
2731.8     -9999      -9999      107        74.6       -9999      -9999      -9999     
2732       -9999      -9999      98         68.93      -9999      -9999      -9999     
2732.2     -9999      -9999      62         47.27      -9999      -9999      -9999     
2732.4     -9999      -9999      55         43.37      -9999      -9999      -9999     
2732.6     -9999      -9999      30         27.87      -9999      -9999      -9999     
2732.8     -9999      -9999      0          9.98       -9999      -9999      -9999     
2733       -9999      -9999      0          10         -9999      -9999      -9999     
2733.2     -9999      -9999      0          10.06      -9999      -9999      -9999     
