~Version
 VERS              .         2.0                           : CWLS LOG ASCII STANDARD - VERSION 2.0
 WRAP              .         NO                            : ONE LINE PER DEPTH STEP
 DLM               .         SPACE                         : DELIMITING CHARACTER(SPACE TAB OR COMMA)
~Well Information
#_______________________________________________________________________________
#
#PARAMETER_NAME    .UNIT     VALUE                         : DESCRIPTION
#_______________________________________________________________________________
STRT               .M        2658.4                        : First reference value
STOP               .M        2763.200052                   : Last reference value
STEP               .M        0.2000001                     : Step increment
NULL               .         -9999                         : Missing value
COMP               .                                       : Company
WELL               .         616                           : Well name
FLD                .                                       : Field
LOC                .                                       : Location
CNTY               .                                       : County
STAT               .                                       : State
CTRY               .                                       : Country
SRVC               .                                       : Service Company
DATE               .                                       : Date
API                .                                       : API number
PROJECT_UPGRADE_TIME .         2021-03-18T21_24_50           : 
group              .         Good                          : 
~Parameter Information Block
#_______________________________________________________________________________
#
#PARAMETER_NAME    .UNIT     VALUE                         : DESCRIPTION
#_______________________________________________________________________________
SET                .         D7027_D_2                     : 
NPR                .         155                           : Номер прибора
OTHER              .         Kedr.exe версия 2.1.2.32      : 
OTHER_10           .         TM.GRD = 0.00404*TM$.UE + 0.07: 
OTHER_11           .         MN.ATM = (6.33279e-006*TM.GRD + 0.02401)*(MN$.UE + 2.72*TM.GRD + -2018): 
OTHER_12           .         GK.MKR/H = GK$.UE / 43.5489 + 0: 
OTHER_13           .         RES.SM = 0.00476*CRES.UE - 1.51709: 
OTHER_14           .         PL.GSM3 = 0 + 0 * (PL.UE / 1) +  0 * (PL.UE / 1)^2: 
OTHER_15           .         Постоянная времени ГГП = 6 сек: 
OTHER_16           .         Постоянная времени ГК = 6 сек : 
OTHER_2            .         KedrData.dll версия 3.2.2.14  : 
OTHER_3            .         LasInf.dll версия 3.2.0.13    : 
OTHER_4            .         Драйвер версия 1.2.0.5        : 
OTHER_5            .         Прибор_ КСА-M1                : 
OTHER_6            .         Номер прибора_ 155+р204       : 
OTHER_7            .         Режим_ КСА-М1 + ГГП + Резистивиметр: 
OTHER_8            .         Форма_ 223\2                  : 
OTHER_9            .         Тарировки_                    : 
PR                 .         КСА-Т7 М1                     : Тип прибора
PROJECT_UPGRADE_TIME .         2021-03-18T21_24_50           : 
PRTY               .         ПП-223_2                      : Номер партии
SRV                .         ЦКРС                          : Заказчик
SRVC               .         Лузин  А.Б.                   : Начальник партии
TLFamily_DEPT      .         Measured Depth                : 
TLFamily_LM        .         Casing Collar locator         : 
TLFamily_MN        .                                       : 
TLFamily_SPID      .         Spontaneous Potential         : 
TLFamily_TM        .         Temperature                   : 
group              .         second                        : 
~Curve Information
#_______________________________________________________________________________
#
#LOGNAME           .UNIT     LOG_ID                        : DESCRIPTION
#_______________________________________________________________________________
DEPT               .M                                      : Depth curve 
LM                 .е.ацп                                  : Локация муфт 
MN                 .атм                                    : Манометрия, атм 
SPID               .м/ч                                    : Скорость записи,м/час 
TM                 .град.С                                 : Термометрия,град.С 
~Ascii
# ...
2744.800043 60.999     251.74     580        49.22     
2745.000043 75.993     251.76     510.034    49.25     
2745.200043 59.008     251.79     579.966    49.31     
2745.400044 83.988     251.82     580        49.37     
2745.600044 71.006     251.85     510.034    49.41     
2745.800044 69.001     251.88     510        49.45     
2746.000044 72.998     251.92     579.966    49.5      
2746.200044 97.988     251.94     521.028    49.57     
2746.400044 6686.824   251.98     579.972    49.63     
2746.600044 4130.234   252.02     580        49.7      
2746.800044 1023.497   252.03     580        49.79     
2747.000044 264.365    252.08     568.006    49.85     
2747.200044 120.069    252.1      568        49.91     
2747.400045 100.01     252.14     579.994    49.99     
2747.600045 72.013     252.17     557.011    50.09     
2747.800045 72         252.2      510.023    50.18     
2748.000045 60.006     252.25     556.977    50.27     
2748.200045 133.964    252.28     579.989    50.4      
2748.400045 91.021     252.32     522.028    50.5      
2748.600045 63.013     252.33     567.978    50.56     
2748.800045 102.981    252.37     550.009    50.66     
2749.000045 75.013     252.41     579.986    50.73     
2749.200045 64.005     252.44     510.034    50.82     
2749.400046 72.996     252.48     567.972    50.93     
2749.600046 49.012     252.52     579.994    51.06     
2749.800046 62.993     252.56     580        51.21     
2750.000046 77.993     252.58     557.011    51.36     
2750.200046 65.006     252.62     510.023    51.43     
2750.400046 73.996     252.66     529.99     51.54     
2750.600046 74         252.69     579.976    51.65     
2750.800046 59.007     252.71     568.006    51.78     
2751.000046 60         252.75     579.994    51.88     
2751.200046 58.001     252.79     580        52.03     
2751.400046 73.992     252.85     540.019    52.14     
2751.600047 83.995     252.88     579.981    52.37     
2751.800047 82.001     252.92     522.028    52.42     
2752.000047 84.999     252.95     532.995    52.54     
2752.200047 89.998     252.98     579.977    52.6      
2752.400047 87.001     253.02     580        52.79     
2752.600047 102.992    253.06     522.028    52.91     
2752.800047 104.999    253.08     544.989    53.07     
2753.000047 99.003     253.11     579.983    53.18     
2753.200047 95.002     253.16     510.034    53.28     
2753.400048 109.993    253.19     579.966    53.41     
2753.600048 93.008     253.22     545.017    53.52     
2753.800048 82.005     253.24     579.983    53.63     
2754.000048 75.003     253.3      580        53.72     
2754.200048 81.997     253.35     534.022    53.95     
2754.400048 88.997     253.37     533        54.15     
2754.600048 63.013     253.41     579.977    54.27     
2754.800048 40.011     253.45     568.006    54.39     
2755.000048 67.987     253.47     579.994    54.54     
2755.200048 86.991     253.52     580        54.7      
2755.400049 103.992    253.54     510.034    54.86     
2755.600049 105        253.58     579.966    54.98     
2755.800049 106.999    253.61     580        55.12     
2756.000049 113.997    253.65     580        55.23     
2756.200049 86.013     253.67     580        55.34     
2756.400049 204.943    253.71     510.034    55.47     
2756.600049 155.024    253.75     579.966    55.58     
2756.800049 119.017    253.77     580        55.74     
2757.000049 130.994    253.82     510.034    55.88     
2757.200049 101.014    253.85     579.966    56.04     
2757.40005 72.014     253.89     580        56.21     
2757.60005 4983.637   253.93     580        56.4      
2757.80005 3087.913   253.95     580        56.54     
2758.00005 770.115    253.99     568.006    56.63     
2758.20005 151.297    254.04     579.994    56.82     
2758.40005 85.032     254.05     580        56.94     
2758.60005 65.01      254.08     568.006    57.02     
2758.80005 40.012     254.09     579.994    57.07     
2759.00005 33.003     254.13     557.011    57.19     
2759.20005 34         254.17     579.989    57.32     
2759.40005 32.001     254.18     580        57.43     
2759.600051 33         254.22     580        57.52     
2759.800051 34         254.23     580        57.57     
2760.000051 34         254.26     557.011    57.65     
2760.200051 32.001     254.27     579.989    57.71     
2760.400051 32         254.29     568.006    57.77     
2760.600051 32         254.29     579.994    57.92     
2760.800051 -9999      254.3      -9999      58        
2761.000051 -9999      254.27     -9999      57.99     
2761.200051 -9999      254.27     -9999      57.97     
2761.400052 -9999      254.24     -9999      57.94     
2761.600052 -9999      254.23     -9999      57.89     
2761.800052 -9999      254.23     -9999      57.85     
2762.000052 -9999      254.22     -9999      57.82     
2762.200052 -9999      254.19     -9999      57.78     
2762.400052 -9999      -9999      -9999      57.73     
2762.600052 -9999      -9999      -9999      -9999     
2762.800052 -9999      -9999      -9999      -9999     
2763.000052 -9999      -9999      -9999      -9999     
2763.200052 -9999      -9999      -9999      -9999     
