~Version
 VERS              .         2.0                           : CWLS LOG ASCII STANDARD - VERSION 2.0
 WRAP              .         NO                            : ONE LINE PER DEPTH STEP
 DLM               .         SPACE                         : DELIMITING CHARACTER(SPACE TAB OR COMMA)
~Well Information
#_______________________________________________________________________________
#
#PARAMETER_NAME    .UNIT     VALUE                         : DESCRIPTION
#_______________________________________________________________________________
STRT               .M        2645.6                        : First reference value
STOP               .M        2754.199837                   : Last reference value
STEP               .M        0.1999997                     : Step increment
NULL               .         -9999                         : Missing value
COMP               .                                       : Company
WELL               .         616                           : Well name
FLD                .                                       : Field
LOC                .                                       : Location
CNTY               .                                       : County
STAT               .                                       : State
CTRY               .                                       : Country
SRVC               .                                       : Service Company
DATE               .                                       : Date
API                .                                       : API number
PROJECT_UPGRADE_TIME .         2021-03-18T21_24_50           : 
group              .         Good                          : 
~Parameter Information Block
#_______________________________________________________________________________
#
#PARAMETER_NAME    .UNIT     VALUE                         : DESCRIPTION
#_______________________________________________________________________________
SET                .         D7026_D                       : 
OTHER              .         Kedr.exe версия 2.1.2.32      : 
OTHER_10           .         TM.GRD = 0.00404*TM$.UE + 0.07: 
OTHER_11           .         MN.ATM = (6.33279e-006*TM.GRD + 0.02401)*(MN$.UE + 2.72*TM.GRD + -2018): 
OTHER_12           .         GK.MKR/H = GK$.UE / 43.5489 + 0: 
OTHER_13           .         RES.SM = 0.00476*CRES.UE - 1.51709: 
OTHER_14           .         PL.GSM3 = 0 + 0 * (PL.UE / 1) +  0 * (PL.UE / 1)^2: 
OTHER_15           .         Постоянная времени ГГП = 6 сек: 
OTHER_16           .         Постоянная времени ГК = 6 сек : 
OTHER_2            .         KedrData.dll версия 3.2.2.14  : 
OTHER_3            .         LasInf.dll версия 3.2.0.13    : 
OTHER_4            .         Драйвер версия 1.2.0.5        : 
OTHER_5            .         Прибор_ КСА-M1                : 
OTHER_6            .         Номер прибора_ 155+р204       : 
OTHER_7            .         Режим_ КСА-М1 + ГГП + Резистивиметр: 
OTHER_8            .         Форма_ 223\2                  : 
OTHER_9            .         Тарировки_                    : 
PROJECT_UPGRADE_TIME .         2021-03-18T21_24_50           : 
TLFamily_CRES      .                                       : 
TLFamily_DEPT      .         Measured Depth                : 
TLFamily_GK        .         Gamma Ray                     : 
TLFamily_GK$       .                                       : 
TLFamily_LM        .         Casing Collar locator         : 
TLFamily_METKA     .                                       : 
TLFamily_MN        .                                       : 
TLFamily_MN$       .                                       : 
TLFamily_PL        .                                       : 
TLFamily_PL_2      .                                       : 
TLFamily_RCOR      .                                       : 
TLFamily_RES       .         Mud Resistivity               : 
TLFamily_SPID      .         Spontaneous Potential         : 
TLFamily_STD       .                                       : 
TLFamily_TIME      .         Time                          : 
TLFamily_TM        .         Temperature                   : 
TLFamily_TM$       .         Temperature                   : 
TLFamily_VGD       .         Gas Volume                    : 
group              .         prim                          : 
~Curve Information
#_______________________________________________________________________________
#
#LOGNAME           .UNIT     LOG_ID                        : DESCRIPTION
#_______________________________________________________________________________
DEPT               .M                                      : 1 Глубина, м -    0.0 см 
CRES               .UE                                     : 9 Проводимость, усл.ед. -  222.0 см 
GK                 .MKR/H                                  : 16 Гамма-активность, мкр./ч -  106.0 см 
GK$                .UE                                     : 13 Гамма-активность, усл.ед. -  106.0 см 
LM                 .                                       : 11 Локатор муфт,  -   16.0 см 
METKA              .                                       : 3 Метки,  -    0.0 см 
MN                 .ATM                                    : 15 Давление, атм. -  160.0 см 
MN$                .UE                                     : 7 Давление, усл.ед. -  160.0 см 
PL                 .UE                                     : 10 Плотность, усл.ед. -  270.0 см 
PL_2               .GSM3                                   : 18 Плотность, г./см3 -  270.0 см 
RCOR               .CM/KM                                  : 5 Коррекция по ролику, см/км -    0.0 см 
RES                .SM                                     : 17 Проводимость,  -  222.0 см 
SPID               .M/H                                    : 2 Скорость, м/час -    0.0 см 
STD                .                                       : 12 Приток,  -  170.0 см 
TIME               .S                                      : 4 Время, сек -    0.0 см 
TM                 .GRD                                    : 14 Температура, °C -  180.0 см 
TM$                .UE                                     : 6 Температура, усл.ед. -  180.0 см 
VGD                .                                       : 8 Влагомер,  -  170.0 см 
~Ascii
# ...
2661.999975 1238       9.7        428        45         0          244.794    11905      14         0          0          4.3758     522        11242      17256.47   57.468     14207      6679      
2662.199975 1237       9.63       416        62         0          244.818    11906      14         0          0          4.371      580        11240      17257.76   57.462     14206      6679      
2662.399975 1236       9.59       416        54         0          244.84     11907      14         0          0          4.3663     533        11235      17259.04   57.454     14204      6677      
2662.599974 1237       9.11       367        84         0          244.858    11908      14         0          0          4.3717     580        11237      17260.37   57.442     14201      6680      
2662.799974 1236       8.77       367        86         0          244.888    11909      14         0          0          4.367      580        11237      17261.62   57.442     14201      6679      
2662.999974 1236       8.17       328        78         0          244.896    11909      14         0          0          4.3663     580        11236      17262.94   57.434     14199      6679      
2663.199974 1235       7.82       322        106        0          244.911    11910      14         0          0          4.3635     580        11235      17264.27   57.433     14199      6680      
2663.399973 1237       7.55       316        64         0          244.935    11911      14         0          0          4.371      580        11234      17265.52   57.423     14196      6681      
2663.599973 1236       7.4        316        84         0          244.877    11909      14         0          0          4.3663     580        11232      17266.83   57.418     14195      6680      
2663.799973 1236       6.76       264        115        0          244.981    11913      14         0          0          4.3663     640        11228      17268.1    57.413     14194      6680      
2663.999972 1236       6.37       254        85         0          244.996    11914      14         0          0          4.3663     580        11228      17269.42   57.402     14191      6678      
2664.199972 1236       5.98       244        94         0          245.028    11915      14         0          0          4.3671     580        11229      17270.72   57.391     14188      6681      
2664.399972 1235       5.82       248        41         0          245.031    11915      14         0          0          4.3615     510        11226      17272.03   57.381     14186      6679      
2664.599971 1235       5.76       248        87         0          245.05     11916      14         0          0          4.3631     510        11223      17273.38   57.377     14185      6679      
2664.799971 1236       5.88       273        52         0          245.073    11917      14         0          0          4.3647     580        11220      17274.63   57.369     14183      6680      
2664.999971 1236       6.07       273        54         0          245.072    11917      14         0          0          4.3663     580        11219      17275.91   57.354     14179      6680      
2665.199971 1235       6.32       304        69         0          245.103    11918      14         0          0          4.3607     580        11216      17277.24   57.349     14178      6680      
2665.39997 1236       6.65       304        75         0          245.118    11919      14         0          0          4.3639     522        11212      17278.53   57.34      14176      6680      
2665.59997 1236       6.8        301        77         0          245.162    11921      14         0          0          4.3663     580        11212      17279.85   57.327     14172      6680      
2665.79997 1236       6.85       301        80         0          245.164    11921      14         0          0          4.3663     580        11210      17281.11   57.321     14171      6680      
2665.999969 1234       6.79       290        98         0          245.188    11922      14         0          0          4.356      557        11208      17282.43   57.309     14168      6679      
2666.199969 1233       6.72       290        80         0          245.211    11923      14         0          0          4.3544     580        11205      17283.74   57.303     14167      6680      
2666.399969 1236       6.6        278        104        0          245.21     11923      14         0          0          4.3655     530        11203      17285.06   57.293     14164      6681      
2666.599968 1235       6.5        278        99         0          245.233    11924      14         0          0          4.3615     540        11203      17286.36   57.284     14162      6680      
2666.799968 1236       6.71       309        82         0          245.257    11925      14         0          0          4.3663     580        11203      17287.64   57.276     14160      6679      
2666.999968 1235       6.9        309        85         0          245.28     11926      14         0          0          4.3615     510        11204      17288.91   57.268     14158      6681      
2667.199968 1234       7.09       317        82         0          245.304    11927      14         0          0          4.3568     540        11201      17290.26   57.261     14156      6680      
2667.399967 1235       7.18       317        78         0          245.311    11927      14         0          0          4.3602     533        11200      17291.55   57.256     14155      6680      
2667.599967 1233       7.11       304        66         0          245.326    11928      14         0          0          4.3543     580        11199      17292.88   57.251     14154      6680      
2667.799967 1234       7.04       304        70         0          245.349    11929      14         0          0          4.3577     557        11197      17294.19   57.239     14151      6681      
2667.999966 1235       7.25       326        77         0          245.372    11930      14         0          0          4.3615     557        11198      17295.51   57.228     14148      6681      
2668.199966 1235       7.33       316        29         0          245.395    11931      14         0          0          4.3615     510        11197      17296.84   57.219     14146      6679      
2668.399966 1232       7.18       306        57         0          245.415    11932      14         0          0          4.3488     560        11193      17298.14   57.209     14143      6680      
2668.599966 1233       6.94       269        72         0          245.441    11933      14         0          0          4.352      580        11188      17299.47   57.204     14142      6680      
2668.799965 1234       6.56       269        69         0          245.44     11933      14         0          0          4.3568     618        11182      17300.72   57.188     14138      6679      
2668.999965 1235       6.43       283        58         0          245.463    11934      14         0          0          4.3615     580        11182      17301.99   57.182     14137      6680      
2669.199965 1234       6.53       289        71         0          245.486    11935      14         0          0          4.3581     533        11182      17303.3    57.17      14134      6680      
2669.399964 1234       6.86       340        83         0          245.509    11936      14         0          0          4.3568     533        11185      17304.62   57.163     14132      6679      
2669.599964 1234       7.34       340        66         0          245.532    11937      14         0          0          4.3551     580        11184      17305.89   57.15      14129      6681      
2669.799964 1233       7.4        317        62         0          245.556    11938      14         0          0          4.352      568        11178      17307.2    57.14      14126      6681      
2669.999963 1233       7.34       317        87         0          245.554    11938      14         0          0          4.352      580        11174      17308.45   57.131     14124      6680      
