~Version
 VERS              .         2.0                           : CWLS LOG ASCII STANDARD - VERSION 2.0
 WRAP              .         NO                            : ONE LINE PER DEPTH STEP
 DLM               .         SPACE                         : DELIMITING CHARACTER(SPACE TAB OR COMMA)
~Well Information
#_______________________________________________________________________________
#
#PARAMETER_NAME    .UNIT     VALUE                         : DESCRIPTION
#_______________________________________________________________________________
STRT               .M        549.2                         : First reference value
STOP               .M        805.2                         : Last reference value
STEP               .M        0.2                           : Step increment
NULL               .         -9999                         : Missing value
COMP               .                                       : Company
WELL               .         616                           : Well name
FLD                .                                       : Field
LOC                .                                       : Location
CNTY               .                                       : County
STAT               .                                       : State
CTRY               .                                       : Country
SRVC               .                                       : Service Company
DATE               .                                       : Date
API                .                                       : API number
PROJECT_UPGRADE_TIME .         2021-03-18T21_24_50           : 
group              .         Good                          : 
~Parameter Information Block
#_______________________________________________________________________________
#
#PARAMETER_NAME    .UNIT     VALUE                         : DESCRIPTION
#_______________________________________________________________________________
SET                .         616_4                         : 
CONF               .         00                            : 
END                .         0                             : 
ERR                .         0                             : 
GS00               .M        0803.23                       : 
GS01               .M        0546.74                       : 
MM00               .M        0120.00                       : 
NOKG               .         0                             : 
NPR                .         980402                        : 
PART               .         Палагутин                     : 
PROJECT_UPGRADE_TIME .         2021-03-18T21_24_49           : 
PRZK               .         Шакиров                       : 
TLFamily_AZIMUTH   .         True Dip Azimuth              : 
TLFamily_DEPTH     .         Measured Depth                : 
TLFamily_METKA     .                                       : 
TLFamily_ROLL      .                                       : 
TLFamily_SPEED     .         Spontaneous Potential         : 
TLFamily_ZENIT     .                                       : 
VPRG               .         310                           : 
WAY                .         UP                            : 
group              .         prim                          : 
~Curve Information
#_______________________________________________________________________________
#
#LOGNAME           .UNIT     LOG_ID                        : DESCRIPTION
#_______________________________________________________________________________
DEPTH              .M                                      :  
AZIMUTH            .DEG                                    :  
METKA              .                                       :  
ROLL               .DEG                                    :  
SPEED              .M/H                                    :  
ZENIT              .DEG                                    :  
~Ascii
# ...
671.2      264.47     0          225.19     648        29.38     
671.4      260.18     0          225.28     612        29.44     
671.6      258.08     0          225.69     648        29.25     
671.8      257.03     0          226.21     612        28.96     
672        256.47     0          226.36     684        28.96     
672.2      257.1      1          225.83     612        28.98     
672.4      256.7      0          225.79     648        28.87     
672.6      256.86     0          225.54     648        28.95     
672.8      256.3      0          225.5      576        28.98     
673        256.31     0          225.53     684        29.02     
673.2      256.55     0          225.52     648        29.03     
673.4      257.17     0          225.43     612        29.04     
673.6      256.85     0          225.62     648        29.09     
673.8      257.05     0          225.82     612        29.16     
674        256.34     0          225.55     648        28.96     
674.2      254.45     0          225.35     612        28.68     
674.4      256.53     0          225.14     684        29.24     
674.6      256.74     0          225.26     648        29.18     
674.8      256.25     0          225.39     684        29.13     
675        256.6      0          225.63     612        29.27     
675.2      256.76     0          225.76     648        29.33     
675.4      255.61     0          225.58     648        28.92     
675.6      256.25     0          225.76     648        29.15     
675.8      256.61     0          226.35     648        29.21     
676        256.53     0          226.61     684        29.19     
676.2      257.05     0          226.83     576        29.28     
676.4      256.73     0          227.14     648        29.26     
676.6      256.43     0          227.22     648        29.24     
676.8      256.14     0          227.33     684        29.13     
677        256.22     0          227.55     648        29.18     
677.2      256.41     0          227.63     576        29.22     
677.4      256.63     0          227.56     648        29.27     
677.6      257.04     0          227.19     612        29.36     
677.8      256.41     0          226.71     648        29.22     
678        255.79     0          226.26     648        29.18     
678.2      256.9      0          225.91     648        29.31     
678.4      256.07     0          226.21     648        29.16     
678.6      256.9      0          226.63     684        29.27     
678.8      256.82     0          226.95     648        29.31     
679        256.69     0          227.27     648        29.29     
679.2      256.76     0          227.84     648        29.28     
679.4      256.49     0          228.6      612        29.31     
679.6      256.71     0          228.76     684        29.36     
679.8      255.97     0          228.67     648        29.23     
680        256.57     0          228.57     648        29.33     
680.2      256.43     0          228.5      576        29.31     
680.4      255.92     0          228.22     648        29.17     
680.6      256.74     0          227.88     648        29.38     
680.8      256.61     0          227.67     648        29.36     
681        256.82     0          227.6      648        29.38     
681.2      257.62     0          227.63     648        29.51     
681.4      257.58     0          227.84     612        29.43     
681.6      258.54     0          228.22     648        29.49     
681.8      261.02     0          228.96     648        29.58     
682        266.81     1          229.47     648        29.62     
682.2      289.32     0          229.39     612        29.67     
682.4      321.85     0          229.34     648        29.69     
682.6      243.54     0          229.47     648        29.76     
682.8      189.97     0          229.06     612        29.65     
683        331.12     0          228.45     648        29.77     
683.2      282.47     0          227.89     648        30        
683.4      265.09     0          227.22     612        29.89     
683.6      260.23     0          226.72     684        29.92     
683.8      258.65     0          225.87     612        29.89     
684        257.01     0          225.44     648        29.76     
684.2      256.9      0          225.66     612        29.72     
684.4      256.51     0          225.92     648        29.72     
684.6      256.71     0          226.29     648        29.78     
684.8      256.89     0          226.79     648        29.67     
685        256.66     0          226.85     612        29.71     
685.2      255.94     0          226.89     648        29.64     
685.4      256.05     0          227.2      648        29.62     
685.6      256.07     0          227.49     648        29.65     
685.8      255.96     0          227.59     684        29.55     
686        256.26     0          227.58     648        29.5      
686.2      256.77     0          227.44     540        29.72     
686.4      257.91     0          226.18     684        29.88     
686.6      256.02     0          226.39     648        29.77     
686.8      256.29     0          227.11     684        29.84     
687        256.34     0          226.9      648        29.61     
687.2      255.7      0          226.99     576        29.51     
687.4      255.81     0          227.19     648        29.57     
687.6      256.27     0          227.08     648        29.66     
687.8      255.17     0          227.59     648        29.51     
688        256.14     0          228.31     648        29.64     
688.2      256.23     0          228.75     540        29.72     
688.4      255.91     0          228.72     648        29.66     
688.6      256.42     0          228.3      648        29.8      
688.8      256.25     0          228.06     684        29.77     
689        255.69     0          227.99     648        29.66     
689.2      256.65     0          228.3      648        29.9      
689.4      255.86     0          228.95     648        29.7      
689.6      256.52     0          229.01     648        29.86     
689.8      255.79     0          229.25     648        29.68     
690        255.88     0          229.3      648        29.71     
690.2      255.09     0          229.33     612        29.62     
690.4      255.31     0          229.67     648        29.68     
690.6      256.12     0          229.94     612        29.86     
690.8      255.51     0          230        648        29.72     
691        256.05     0          230        684        29.83     
691.2      256.82     0          229.83     648        30        
691.4      255.49     0          229.43     648        29.76     
691.6      256.47     0          228.93     612        29.98     
691.8      256.68     0          228.69     648        30.05     
692        256.41     0          228.58     648        29.96     
692.2      256.35     1          228.42     576        29.99     
692.4      256.41     0          228.15     612        30        
692.6      256.72     0          227.89     684        30.02     
692.8      256.63     0          228.27     648        29.96     
693        256.61     0          228.75     648        29.99     
693.2      256.64     0          228.73     612        29.92     
693.4      256.65     0          228.41     648        29.89     
693.6      257.01     0          228.3      648        29.92     
693.8      257.64     0          228.5      684        29.83     
694        259.13     0          229.39     612        29.93     
694.2      266.26     0          230.1      648        30.22     
694.4      286.58     0          230.07     648        30.11     
694.6      296.15     0          230.09     648        30.17     
694.8      169.02     0          229.79     648        30.29     
695        87.39      0          229.18     612        30.22     
695.2      337.3      0          228.61     612        30.02     
695.4      279.66     0          228.45     648        30.24     
