~Version
 VERS              .         2.0                           : CWLS LOG ASCII STANDARD - VERSION 2.0
 WRAP              .         NO                            : ONE LINE PER DEPTH STEP
 DLM               .         SPACE                         : DELIMITING CHARACTER(SPACE TAB OR COMMA)
~Well Information
#_______________________________________________________________________________
#
#PARAMETER_NAME    .UNIT     VALUE                         : DESCRIPTION
#_______________________________________________________________________________
STRT               .M        1.8                           : First reference value
STOP               .M        2776                          : Last reference value
STEP               .M        0.2                           : Step increment
NULL               .         -9999                         : Missing value
COMP               .                                       : Company
WELL               .         616                           : Well name
FLD                .                                       : Field
LOC                .                                       : Location
CNTY               .                                       : County
STAT               .                                       : State
CTRY               .                                       : Country
SRVC               .                                       : Service Company
DATE               .                                       : Date
API                .                                       : API number
PROJECT_UPGRADE_TIME .         2021-03-18T21_24_50           : 
group              .         Good                          : 
~Parameter Information Block
#_______________________________________________________________________________
#
#PARAMETER_NAME    .UNIT     VALUE                         : DESCRIPTION
#_______________________________________________________________________________
SET                .         D1799_D                       : 
OTHER              .         Программное обеспечение станции MONITOR-386EX 25/12/99 15_08_10   BGF V52 22/08/01 16_56_30   3.1_SNGF___BGF_N_092049: 
OTHER_10           .         Тарировки_                    : 
OTHER_11           .         TM.GRD = 0.00403*TM$.UE + -1.07: 
OTHER_12           .         MN.ATM = (9.34907e-006*TM.GRD + 0.02171)*(MN$.UE + -7.93*TM.GRD + -1787): 
OTHER_13           .         GK.MKR/H = LM. / 42.4676      : 
OTHER_14           .         GK.FLT = 0.1*GK.MKR/H[-1] + (1-0.1)*GK.MKR/H[0]: 
OTHER_2            .         Kedr.exe версия 3.4.2.51      : 
OTHER_3            .         KedrData.dll версия 3.4.2.24  : 
OTHER_4            .         Драйвер версия 2.1.1.3        : 
OTHER_5            .         Мнемоники версия 3.3 S        : 
OTHER_6            .         Прибор_ КСА-Т4                : 
OTHER_7            .         Номер прибора_ 03             : 
OTHER_8            .         Режим_ КСА-Т4                 : 
OTHER_9            .         Форма_ КВА.                   : 
PROJECT_UPGRADE_TIME .         2021-03-18T21_24_49           : 
TLFamily_DEPT      .         Measured Depth                : 
TLFamily_GK        .         Gamma Ray                     : 
TLFamily_GK$       .                                       : 
TLFamily_GK_2      .         Gamma Ray                     : 
TLFamily_LM        .         Casing Collar locator         : 
TLFamily_METKA     .                                       : 
TLFamily_MN        .                                       : 
TLFamily_MN$       .                                       : 
TLFamily_RCOR      .                                       : 
TLFamily_SPID      .         Spontaneous Potential         : 
TLFamily_TENS      .         Cable Tension                 : 
TLFamily_TIME      .         Time                          : 
TLFamily_TM        .         Temperature                   : 
TLFamily_TM$       .         Temperature                   : 
group              .         prim                          : 
~Curve Information
#_______________________________________________________________________________
#
#LOGNAME           .UNIT     LOG_ID                        : DESCRIPTION
#_______________________________________________________________________________
DEPT               .M                                      : 1 Глубина, м -    0.0 см 
GK                 .MKR/H                                  : 13 Гамма-активность, мкр./ч -  110.0 см 
GK$                .UE                                     : 10 Гамма-активность, усл.ед. -  110.0 см 
GK_2               .FLT                                    : 14 Гамма-активность фильтрованная, мкр./ч -  110.0 см 
LM                 .                                       : 9 Локатор муфт,  -   20.0 см 
METKA              .                                       : 3 Метки,  -    0.0 см 
MN                 .ATM                                    : 12 Давление, атм. -  160.0 см 
MN$                .UE                                     : 8 Давление, усл.ед. -  160.0 см 
RCOR               .CM/KM                                  : 5 Коррекция по ролику, см/км -    0.0 см 
SPID               .M/H                                    : 2 Скорость, м/час -    0.0 см 
TENS               .T                                      : 6 Натяжение кабеля, т -    0.0 см 
TIME               .S                                      : 4 Время, сек -    0.0 см 
TM                 .GRD                                    : 11 Температура, °C -  170.0 см 
TM$                .UE                                     : 7 Температура, усл.ед. -  170.0 см 
~Ascii
# ...
553        4          170        4.04       627        0          51.585     4363       -790       2090       -0.1       1385.88    28.886     7433      
553.2      4          170        4.02       608        0          51.614     4364       -790       2092       -0.1       1386.21    28.891     7434      
553.4      4          170        4.01       568        0          51.641     4366       -790       2093       -0.1       1386.58    28.898     7436      
553.6      4          170        4.01       552        0          51.649     4366       -790       2090       -0.1       1386.92    28.901     7437      
553.8      4          170        4          628        0          51.671     4367       -790       2091       -0.1       1387.25    28.901     7437      
554        4          170        4          581        0          51.701     4368       -790       2093       -0.1       1387.59    28.909     7439      
554.2      4.36       185        4.23       600        0          51.713     4369       -790       2095       -0.1       1387.93    28.913     7440      
554.4      4.52       192        4.41       596        0          51.719     4369       -790       2096       -0.1       1388.27    28.913     7440      
554.6      4.52       192        4.48       641        0          51.739     4370       -790       2098       -0.1       1388.63    28.919     7441      
554.8      4.52       192        4.5        652        0          51.759     4371       -790       2099       -0.1       1388.98    28.924     7443      
555        4.52       192        4.51       627        0          51.779     4372       -790       2096       -0.1       1389.31    28.931     7444      
555.2      4.52       192        4.52       607        0          51.8       4373       -790       2091       -0.1       1389.64    28.936     7446      
555.4      4.52       192        4.52       566        0          51.819     4374       -790       2095       -0.1       1390       28.94      7447      
555.6      4.53       192        4.53       564        0          51.839     4375       -790       2096       -0.1       1390.33    28.943     7447      
555.8      4.54       193        4.54       600        0          51.839     4375       -790       2092       -0.1       1390.66    28.949     7449      
556        4.54       193        4.54       600        0          51.875     4377       -790       2090       -0.1       1391.01    28.955     7450      
556.2      4.54       193        4.54       521        0          51.899     4378       -790       2092       -0.1       1391.34    28.96      7452      
556.4      4.54       193        4.54       503        0          51.903     4378       -790       2094       -0.1       1391.68    28.967     7453      
556.6      4.54       193        4.54       531        0          51.932     4379       -790       2095       -0.1       1392.02    28.971     7454      
556.8      4.54       193        4.54       541        0          51.946     4380       -790       2097       -0.1       1392.36    28.974     7455      
557        4.54       193        4.54       602        0          51.957     4381       -790       2098       -0.1       1392.7     28.978     7456      
557.2      4.54       193        4.54       599        0          51.976     4381       -790       2099       -0.1       1393.06    28.986     7458      
557.4      4.54       193        4.54       594        0          51.996     4382       -790       2094       -0.1       1393.39    28.989     7459      
557.6      4.54       193        4.54       547        0          52.016     4383       -790       2090       -0.1       1393.73    28.997     7461      
557.8      4.54       193        4.54       570        0          52.036     4384       -790       2091       -0.1       1394.09    29.001     7462      
558        4.54       193        4.54       545        0          52.051     4385       -790       2093       -0.1       1394.42    29.005     7463      
558.2      4.54       193        4.54       542        0          52.054     4385       -790       2095       -0.1       1394.76    29.012     7464      
558.4      4.54       193        4.54       519        0          52.073     4386       -790       2096       -0.1       1395.11    29.017     7466      
558.6      4.77       202        4.68       542        0          52.093     4387       -790       2094       -0.1       1395.46    29.02      7467      
558.8      5.06       215        4.92       595        0          52.092     4387       -790       2090       -0.1       1395.79    29.024     7468      
559        5.06       215        5.01       8781       0          52.091     4387       -790       2089       -0.1       1396.12    29.03      7469      
559.2      5.06       215        5.04       5540       0          52.15      4390       -790       2091       -0.1       1396.45    29.036     7470      
559.4      5.06       215        5.05       5540       0          52.156     4390       -790       2093       -0.1       1396.81    29.04      7471      
559.6      5.06       215        5.06       3570       0          52.189     4392       -790       2094       -0.1       1397.15    29.043     7472      
559.8      5.06       215        5.06       2328       0          52.198     4392       -790       2096       -0.1       1397.51    29.048     7473      
560        5.06       215        5.06       1559       0          52.213     4393       -791       2097       -0.1       1397.86    29.055     7475      
560.2      5.3        225        5.21       1132       2          52.233     4394       -793       2099       -0.1       1398.23    29.059     7476      
560.4      5.32       226        5.28       816        0          52.252     4395       -793       2100       -0.1       1398.54    29.063     7477      
560.6      5.32       226        5.3        661        0          52.271     4395       -793       2101       -0.1       1398.89    29.066     7478      
560.8      5.32       226        5.32       633        0          52.291     4396       -793       2101       -0.1       1399.24    29.074     7480      
561        5.32       226        5.32       611        0          52.311     4397       -793       2096       -0.1       1399.59    29.078     7481      
561.2      5.32       226        5.32       585        0          52.331     4398       -793       2092       -0.1       1399.94    29.082     7482      
561.4      4.69       199        4.92       537        0          52.346     4399       -793       2093       -0.1       1400.26    29.086     7483      
561.6      4.38       186        4.59       510        0          52.356     4399       -793       2095       -0.1       1400.6     29.089     7484      
561.8      4.38       186        4.46       506        0          52.389     4401       -793       2096       -0.1       1400.95    29.094     7485      
562        4.38       186        4.41       509        0          52.391     4401       -793       2103       -0.1       1401.3     29.097     7486      
562.2      4.38       186        4.39       513        0          52.414     4402       -793       2097       -0.1       1401.65    29.103     7487      
562.4      4.38       186        4.38       507        0          52.453     4404       -793       2085       -0.1       1401.99    29.109     7489      
562.6      4.38       186        4.38       455        0          52.452     4404       -793       2087       -0.1       1402.32    29.115     7490      
562.8      4.36       185        4.37       449        0          52.472     4405       -793       2089       -0.1       1402.65    29.121     7491      
563        4.31       183        4.33       449        0          52.491     4406       -793       2085       -0.1       1403       29.126     7493      
563.2      4.31       183        4.32       481        0          52.493     4406       -793       2087       -0.1       1403.36    29.132     7494      
