~Version
 VERS              .         2.0                           : CWLS LOG ASCII STANDARD - VERSION 2.0
 WRAP              .         NO                            : ONE LINE PER DEPTH STEP
 DLM               .         SPACE                         : DELIMITING CHARACTER(SPACE TAB OR COMMA)
~Well Information
#_______________________________________________________________________________
#
#PARAMETER_NAME    .UNIT     VALUE                         : DESCRIPTION
#_______________________________________________________________________________
STRT               .M        1149                          : First reference value
STOP               .M        2127.4                        : Last reference value
STEP               .M        0.2                           : Step increment
NULL               .         -9999                         : Missing value
COMP               .                                       : Company
WELL               .         616                           : Well name
FLD                .                                       : Field
LOC                .                                       : Location
CNTY               .                                       : County
STAT               .                                       : State
CTRY               .                                       : Country
SRVC               .                                       : Service Company
DATE               .                                       : Date
API                .                                       : API number
PROJECT_UPGRADE_TIME .         2021-03-18T21_24_50           : 
group              .         Good                          : 
~Parameter Information Block
#_______________________________________________________________________________
#
#PARAMETER_NAME    .UNIT     VALUE                         : DESCRIPTION
#_______________________________________________________________________________
SET                .         616_9                         : 
CONF               .         00                            : 
END                .         0                             : 
ERR                .         0                             : 
GS00               .M        2125.46                       : 
GS01               .M        1146.68                       : 
MM00               .M        2120.00                       : 
NOKG               .         0                             : 
NPR                .         990907                        : 
PART               .         Ивашин                        : 
PROJECT_UPGRADE_TIME .         2021-03-18T21_24_49           : 
PRZK               .         Шакиров                       : 
TLFamily_AZIMUTH   .         True Dip Azimuth              : 
TLFamily_DEPTH     .         Measured Depth                : 
TLFamily_METKA     .                                       : 
TLFamily_ROLL      .                                       : 
TLFamily_SPEED     .         Spontaneous Potential         : 
TLFamily_ZENIT     .                                       : 
VPRG               .         310                           : 
WAY                .         UP                            : 
group              .         prim                          : 
~Curve Information
#_______________________________________________________________________________
#
#LOGNAME           .UNIT     LOG_ID                        : DESCRIPTION
#_______________________________________________________________________________
DEPTH              .M                                      :  
AZIMUTH            .DEG                                    :  
METKA              .                                       :  
ROLL               .DEG                                    :  
SPEED              .M/H                                    :  
ZENIT              .DEG                                    :  
~Ascii
# ...
1588.2     261.28     0          328.56     684        29.52     
1588.4     260.33     0          329.42     684        29.37     
1588.6     260.55     0          328.65     648        29.33     
1588.8     261.19     0          327.58     684        29.49     
1589       260.39     0          327.32     684        29.39     
1589.2     260.15     0          328        648        29.28     
1589.4     260.93     0          328.51     684        29.22     
1589.6     260.56     0          329.02     684        29.14     
1589.8     261.81     0          329.28     648        29.39     
1590       265.85     0          328.5      684        30.21     
1590.2     265.51     0          326.67     684        29.57     
1590.4     261.02     0          326.16     684        29.47     
1590.6     260.1      0          326.85     720        29.25     
1590.8     260.89     0          326.9      648        29.38     
1591       261.48     0          326.22     684        29.48     
1591.2     260.32     0          325.69     684        29.24     
1591.4     261.12     0          326.05     684        29.49     
1591.6     260.78     0          327.04     648        29.37     
1591.8     260.99     0          327.47     684        29.31     
1592       261.97     0          327.31     684        29.6      
1592.2     260.94     1          327.07     648        29.36     
1592.4     262.02     0          326.25     684        29.51     
1592.6     261.41     0          326.43     684        29.45     
1592.8     262.34     0          327.16     684        29.61     
1593       262.07     0          327.7      684        29.53     
1593.2     261.26     0          327.76     648        29.35     
1593.4     261.38     0          327.59     684        29.43     
1593.6     260.74     0          327.52     684        29.28     
1593.8     261.3      0          327.22     648        29.35     
1594       261.32     0          326.76     684        29.37     
1594.2     260.47     0          326.58     648        29.21     
1594.4     261.69     0          326.91     684        29.45     
1594.6     260.56     0          327.16     684        29.19     
1594.8     261.09     0          326.81     648        29.23     
1595       261.79     0          326.49     720        29.46     
1595.2     261.03     0          326.68     684        29.27     
1595.4     261.03     0          327.05     648        29.27     
1595.6     261.85     0          327.09     684        29.39     
1595.8     261.26     0          326.85     684        29.23     
1596       261.8      0          326.98     648        29.3      
1596.2     261.83     0          326.81     684        29.27     
1596.4     261.87     0          326.54     684        29.27     
1596.6     262.13     0          326.69     648        29.26     
1596.8     261.84     0          327.16     684        29.15     
1597       262.99     0          327.65     684        29.33     
1597.2     262.83     0          327.88     684        29.18     
1597.4     264.14     0          327.75     684        29.19     
1597.6     266.92     0          327.8      684        29.26     
1597.8     273.96     0          328.73     648        29.15     
1598       308.8      0          328.94     684        29.29     
1598.2     304.19     0          328.85     684        29.27     
1598.4     180        0          328.67     648        29.32     
1598.6     231.49     0          328.62     684        29.21     
1598.8     317.91     0          328.3      648        29.32     
1599       273.85     0          327.63     684        29.32     
1599.2     266.87     0          326.91     684        29.39     
1599.4     264.26     0          326.86     684        29.31     
1599.6     262.73     0          327.88     684        29.13     
1599.8     261.68     0          329.17     684        29.1      
1600       262.35     0          329.65     648        28.81     
1600.2     262.23     0          329.87     684        28.77     
1600.4     263.04     0          329.63     684        28.99     
1600.6     261.82     0          329.69     684        28.82     
1600.8     263.14     0          328.53     684        28.94     
1601       261.71     0          327.96     684        28.88     
1601.2     261.61     0          327.67     684        28.75     
1601.4     262.2      0          327.27     648        28.77     
1601.6     261.76     0          327.41     684        28.65     
1601.8     262.16     0          327.96     684        28.71     
1602       264.98     0          328        504        28.98     
1602.2     262.67     1          327.23     468        28.83     
1602.4     261.5      0          326.14     684        28.71     
1602.6     262.66     0          325.73     684        28.88     
1602.8     261.59     0          325.43     684        28.69     
1603       261.2      0          325.68     684        28.52     
1603.2     262.02     0          325.92     684        28.66     
1603.4     262.77     0          326.68     648        28.83     
1603.6     262.43     0          327.29     684        28.67     
1603.8     262.36     0          327.23     684        28.62     
1604       262.69     0          327.03     684        28.6      
1604.2     263.66     0          327        648        28.65     
1604.4     264.26     0          327.17     684        28.65     
1604.6     264.42     0          327.24     684        28.6      
1604.8     264.73     0          327.14     684        28.59     
1605       265.3      0          327.14     648        28.57     
1605.2     265.26     0          326.96     684        28.48     
1605.4     266.03     0          326.8      684        28.54     
1605.6     266.38     0          326.92     684        28.53     
1605.8     267.07     0          327.3      684        28.64     
1606       267.03     0          327.59     684        28.48     
1606.2     267.08     0          327.31     684        28.44     
1606.4     268.81     0          326.8      684        28.62     
1606.6     269.39     0          326.68     684        28.69     
1606.8     269.64     0          326.69     648        28.53     
1607       270.5      0          326.72     684        28.57     
1607.2     271.35     0          326.83     684        28.55     
1607.4     272.51     0          327.05     648        28.58     
1607.6     274        0          327.21     684        28.58     
1607.8     275.19     0          327.18     684        28.48     
1608       277.85     0          327.22     648        28.58     
1608.2     280.27     0          327.34     684        28.52     
1608.4     282.72     0          327.19     684        28.38     
1608.6     288.2      0          326.72     684        28.63     
1608.8     292.72     0          326.68     684        28.52     
1609       298.99     0          327.03     684        28.33     
1609.2     308.45     0          327.34     684        28.52     
1609.4     317.97     0          327.47     648        28.36     
1609.6     330.7      0          327.72     684        28.46     
1609.8     342.07     0          328.28     684        28.45     
1610       351.44     0          328.87     684        28.44     
1610.2     353.34     0          329.17     648        28.54     
1610.4     2.56       0          329.34     684        28.53     
1610.6     5.04       1          329.75     684        28.75     
1610.8     282.02     0          329.96     1188       28.73     
1611       154.72     0          330        1188       28.63     
1611.2     172.4      0          329.96     684        28.62     
1611.4     198.43     0          329.67     684        28.87     
1611.6     180        0          329.18     648        28.41     
1611.8     182.92     0          328.82     684        29.04     
1612       190.22     1          328.7      684        29.09     
1612.2     180        0          329.13     684        28.11     
1612.4     180        0          330.06     684        27.87     
