~Version
 VERS              .         2.0                           : CWLS LOG ASCII STANDARD - VERSION 2.0
 WRAP              .         NO                            : ONE LINE PER DEPTH STEP
 DLM               .         SPACE                         : DELIMITING CHARACTER(SPACE TAB OR COMMA)
~Well Information
#_______________________________________________________________________________
#
#PARAMETER_NAME    .UNIT     VALUE                         : DESCRIPTION
#_______________________________________________________________________________
STRT               .M        1740.47                       : First reference value
STOP               .M        2787.78                       : Last reference value
STEP               .M        0                             : Step increment
NULL               .         -9999                         : Missing value
COMP               .                                       : Company
WELL               .         616                           : Well name
FLD                .                                       : Field
LOC                .                                       : Location
CNTY               .                                       : County
STAT               .                                       : State
CTRY               .                                       : Country
SRVC               .                                       : Service Company
DATE               .                                       : Date
API                .                                       : API number
PROJECT_UPGRADE_TIME .         2021-03-18T21_24_50           : 
group              .         Good                          : 
~Parameter Information Block
#_______________________________________________________________________________
#
#PARAMETER_NAME    .UNIT     VALUE                         : DESCRIPTION
#_______________________________________________________________________________
SET                .         D2664                         : 
NPR                .         980607                        : ЗАВ НОМЕР ПРИБОРА
NPRT               .         Мещеряков                     : НАЧ ПАРТИИ
PROJECT_UPGRADE_TIME .         2021-03-18T21_24_50           : 
TLFamily_AZIMUTH   .         True Dip Azimuth              : 
TLFamily_DEPTH     .         Measured Depth                : 
TLFamily_DRILL     .                                       : 
TLFamily_METKA     .                                       : 
TLFamily_ZENIT     .                                       : 
group              .         prim                          : 
~Curve Information
#_______________________________________________________________________________
#
#LOGNAME           .UNIT     LOG_ID                        : DESCRIPTION
#_______________________________________________________________________________
DEPTH              .M                                      : 1 ГЛУБИНА 
AZIMUTH            .ГРАД                                   : 4 АЗИМУТ 
DRILL              .ГРАД                                   : 2 ПОВОРОТ 
METKA              .                                       : 5 МАГН МЕТКА 
ZENIT              .ГРАД                                   : 3 ЗЕНИТ 
~Ascii
# ...
2444.2     5.54       157.01     0          0.59      
2444.4     5.66       158.14     0          0.58      
2444.59    5.81       159.2      0          0.58      
2444.79    6.06       160.07     0          0.58      
2444.98    6.27       160.88     0          0.58      
2445.18    6.58       161.44     0          0.58      
2445.37    6.81       161.95     0          0.58      
2445.57    7.02       162.43     0          0.57      
2445.76    7.05       163.11     0          0.57      
2445.96    7.18       163.73     0          0.57      
2446.15    7.34       164.38     0          0.57      
2446.35    7.49       165.07     0          0.57      
2446.54    7.81       165.54     0          0.57      
2446.74    7.86       166.16     0          0.56      
2446.93    7.9        166.66     0          0.57      
2447.13    7.86       167.09     0          0.57      
2447.32    7.71       167.53     0          0.57      
2447.52    7.5        168.04     0          0.57      
2447.71    7.25       168.63     0          0.58      
2447.91    7.14       169.13     0          0.58      
2448.11    6.93       169.74     0          0.58      
2448.3     6.84       170.15     0          0.59      
2448.5     6.64       170.59     0          0.59      
2448.69    6.63       170.78     0          0.6       
2448.89    6.51       171.06     0          0.6       
2449.08    6.51       171.21     0          0.6       
2449.28    6.54       171.36     0          0.61      
2449.47    6.47       171.58     0          0.61      
2449.67    6.47       171.73     0          0.61      
2449.86    6.53       171.87     0          0.61      
2450.06    6.83       171.8      0          0.61      
2450.25    7.03       171.87     0          0.61      
2450.45    7.22       171.92     0          0.61      
2450.64    7.44       171.88     0          0.6       
2450.84    7.74       171.69     0          0.6       
2451.03    7.9        171.67     0          0.6       
2451.23    8.14       171.63     0          0.6       
2451.42    8.11       171.9      0          0.6       
2451.62    8.31       171.97     0          0.6       
2451.81    8.4        172.2      0          0.6       
2452.01    8.67       172.26     0          0.6       
2452.21    8.97       172.25     0          0.6       
2452.4     8.93       172.55     0          0.6       
2452.59    9.23       172.48     0          0.6       
2452.79    9.45       172.53     0          0.59      
2452.98    9.62       172.74     0          0.59      
2453.18    9.92       172.88     0          0.59      
2453.37    10.22      173.03     0          0.59      
2453.57    10.5       173.27     0          0.58      
2453.76    10.74      173.58     0          0.58      
2453.96    11.14      173.75     0          0.58      
2454.15    11.44      174.04     0          0.57      
2454.35    11.65      174.47     0          0.56      
2454.54    11.95      174.81     0          0.56      
2454.74    12.23      175.2      0          0.55      
2454.93    12.24      175.87     0          0.55      
2455.13    12.27      176.54     0          0.55      
2455.32    12.25      177.3      0          0.55      
2455.52    12.13      178.23     0          0.55      
2455.71    12.11      179.08     0          0.55      
2455.91    11.94      180.12     0          0.55      
2456.1     11.96      180.95     0          0.55      
2456.3     11.9       181.86     0          0.55      
2456.49    11.78      182.91     0          0.55      
2456.69    11.59      184.1      0          0.56      
2456.88    11.35      185.41     0          0.56      
2457.08    11.12      186.78     0          0.56      
2457.27    11.12      187.94     0          0.56      
2457.47    11.1       189.2      0          0.56      
2457.66    11.01      190.59     0          0.56      
2457.86    10.71      192.25     0          0.56      
2458.05    10.52      193.92     0          0.57      
2458.25    10.62      195.4      0          0.57      
2458.44    10.5       197.23     0          0.57      
2458.64    10.4       199.14     0          0.57      
2458.83    10.5       200.94     0          0.57      
2459.03    10.45      202.97     0          0.57      
2459.22    10.51      204.97     0          0.57      
2459.42    10.53      207.03     0          0.58      
2459.61    10.69      209.02     0          0.58      
2459.81    10.81      211.13     0          0.58      
2460       10.91      213.4      0          0.58      
2460.2     11.2       215.64     0          0.59      
2460.39    11.43      218.09     0          0.59      
2460.59    11.77      220.56     0          0.59      
2460.78    12.27      222.97     0          0.59      
2460.98    12.88      225.37     0          0.58      
2461.17    13.6       227.71     0          0.58      
2461.37    14.36      229.99     0          0.58      
2461.56    15.01      232.36     0          0.57      
2461.75    15.67      234.67     0          0.57      
2461.95    16.13      237.21     0          0.57      
2462.14    16.7       239.76     0          0.56      
2462.34    17.19      242.47     0          0.56      
2462.53    17.55      245.39     0          0.55      
2462.73    18.15      248.16     0          0.55      
2462.92    18.6       251.02     0          0.54      
2463.12    18.97      253.94     0          0.54      
2463.31    19.27      256.85     0          0.54      
2463.5     19.63      259.64     0          0.53      
2463.7     20.15      262.22     0          0.53      
2463.89    20.58      264.84     0          0.53      
2464.09    20.68      267.72     0          0.53      
2464.28    20.85      270.52     0          0.53      
2464.48    21.21      273.14     0          0.53      
2464.67    21.46      275.78     0          0.52      
2464.87    21.86      278.23     0          0.52      
2465.06    22.09      280.78     0          0.52      
2465.26    22.49      283.14     0          0.51      
2465.45    22.89      285.46     0          0.51      
2465.64    23.19      287.87     0          0.5       
2465.84    23.52      290.21     0          0.5       
2466.03    23.92      292.42     0          0.49      
2466.23    24.37      294.52     0          0.49      
2466.43    24.67      296.72     0          0.48      
2466.62    25.14      298.73     0          0.48      
2466.82    25.27      301.03     0          0.47      
2467.01    25.47      303.23     0          0.47      
2467.21    25.58      305.55     0          0.47      
2467.4     25.79      307.79     0          0.47      
2467.6     26.17      309.9      0          0.46      
2467.79    26.48      312.09     0          0.46      
2467.98    26.85      314.15     0          0.46      
2468.18    27.35      316.04     0          0.46      
2468.37    27.99      317.76     0          0.46      
2468.57    28.39      319.69     0          0.45      
2468.76    28.98      321.4      0          0.45      
2468.96    29.55      323.13     0          0.45      
2469.15    30.25      324.76     0          0.45      
2469.35    30.84      326.53     0          0.45      
2469.54    31.25      328.54     0          0.44      
2469.74    31.67      330.61     0          0.44      
2469.93    32.18      332.59     0          0.44      
2470.13    32.85      334.45     0          0.44      
2470.32    33.23      336.61     0          0.44      
2470.52    33.55      338.89     0          0.43      
2470.71    33.63      341.41     0          0.43      
2470.91    33.71      343.92     0          0.43      
2471.1     33.56      346.66     0          0.44      
2471.3     33.22      349.64     0          0.44      
2471.49    32.85      352.68     0          0.44      
2471.69    32.4       355.82     0          0.44      
2471.88    31.9       359.12     0          0.45      
2472.07    31.1       2.71       0          0.45      
2472.27    30.41      6.26       0          0.45      
2472.46    29.76      9.83       0          0.45      
