~Version
 VERS              .         2.0                           : CWLS LOG ASCII STANDARD - VERSION 2.0
 WRAP              .         NO                            : ONE LINE PER DEPTH STEP
 DLM               .         SPACE                         : DELIMITING CHARACTER(SPACE TAB OR COMMA)
~Well Information
#_______________________________________________________________________________
#
#PARAMETER_NAME    .UNIT     VALUE                         : DESCRIPTION
#_______________________________________________________________________________
STRT               .M        3.8                           : First reference value
STOP               .M        216                           : Last reference value
STEP               .M        0.2                           : Step increment
NULL               .         -9999                         : Missing value
COMP               .                                       : Company
WELL               .         616                           : Well name
FLD                .                                       : Field
LOC                .                                       : Location
CNTY               .                                       : County
STAT               .                                       : State
CTRY               .                                       : Country
SRVC               .                                       : Service Company
DATE               .                                       : Date
API                .                                       : API number
PROJECT_UPGRADE_TIME .         2021-03-18T21_24_50           : 
group              .         Good                          : 
~Parameter Information Block
#_______________________________________________________________________________
#
#PARAMETER_NAME    .UNIT     VALUE                         : DESCRIPTION
#_______________________________________________________________________________
SET                .         D1350_D                       : 
OTHER              .         Программное обеспечение станции MONITOR-386EX 25/12/99 15_08_10   BGF V52 22/08/01 16_56_30   3.1_SNGF__BGF_								111238: 
OTHER_10           .         Тарировки_                    : 
OTHER_11           .         <_techsia_sc_> Постоянная времени фильтра  0.5 сек, kf=0.181269: 
OTHER_12           .         TM.GRD = 0.00428968*TM$.UE + -0.3284: 
OTHER_13           .         GK.MKR/H = GK$.UE / 40.16     : 
OTHER_14           .         NKT. = NKT$.UE / 1            : 
OTHER_2            .         Kedr.exe версия 3.3.2.43      : 
OTHER_3            .         KedrData.dll версия 3.3.2.22  : 
OTHER_4            .         Драйвер версия 2.1.1.3        : 
OTHER_5            .         Мнемоники версия 3.3 S        : 
OTHER_6            .         Прибор_ РК4-38                : 
OTHER_7            .         Номер прибора_ 35с            : 
OTHER_8            .         Режим_ РК4-38                 : 
OTHER_9            .         Форма_ 3                      : 
PROJECT_UPGRADE_TIME .         2021-03-18T21_24_49           : 
TLFamily_DEPT      .         Measured Depth                : 
TLFamily_GK        .         Gamma Ray                     : 
TLFamily_GK$       .                                       : 
TLFamily_LM        .         Casing Collar locator         : 
TLFamily_METKA     .                                       : 
TLFamily_NKT       .         Neutron Far                   : 
TLFamily_NKT$      .         Neutron Far                   : 
TLFamily_RCOR      .                                       : 
TLFamily_SPID      .         Spontaneous Potential         : 
TLFamily_TENS      .         Cable Tension                 : 
TLFamily_TIME      .         Time                          : 
TLFamily_TM        .         Temperature                   : 
TLFamily_TM$       .         Temperature                   : 
group              .         prim                          : 
~Curve Information
#_______________________________________________________________________________
#
#LOGNAME           .UNIT     LOG_ID                        : DESCRIPTION
#_______________________________________________________________________________
DEPT               .M                                      : 1 Глубина, м -    0.0 см 
GK                 .MKR/H                                  : 12 Гамма-активность, мкр./ч -   23.0 см 
GK$                .UE                                     : 10 Гамма-активность, усл.ед. -   23.0 см 
LM                 .                                       : 8 Локатор муфт,  -  180.0 см 
METKA              .                                       : 3 Метки,  -    0.0 см 
NKT                .                                       : 13 НКТ, прив. -  160.0 см 
NKT$               .UE                                     : 9 НКТ, усл.ед. -  160.0 см 
RCOR               .CM/KM                                  : 5 Коррекция по ролику, см/км -    0.0 см 
SPID               .M/H                                    : 2 Скорость, м/час -    0.0 см 
TENS               .T                                      : 6 Натяжение кабеля, т -    0.0 см 
TIME               .S                                      : 4 Время, сек -    0.0 см 
TM                 .GRD                                    : 11 Температура, °C -  193.0 см 
TM$                .UE                                     : 7 Температура, усл.ед. -  193.0 см 
~Ascii
# ...
149.4      2.55       101        198        0          0          0          7013       -320       0          2511       4.725      1178      
149.6      2.65       107        210        0          0          0          7013       -320       0          2508.79    4.691      1170      
149.8      2.61       104        191        0          0          0          7013       -319       0          2506.47    4.68       1167      
150        2.74       105        153        2          0          0          7013       -319       0          2504.31    4.626      1155      
150.2      2.92       109        356        0          0          0          7013       -317       0          2502.3     4.611      1152      
150.4      2.75       124        301        0          0          0          7013       -317       0          2501.59    4.626      1155      
150.6      2.64       118        309        0          0          0          7013       -313       0          2499.32    4.579      1144      
150.8      2.4        106        287        0          0          0          7013       -325       0          2496.99    4.588      1146      
151        2.36       90         201        0          0          0          7013       -320       0          2494.7     4.57       1142      
151.2      2.52       95         295        0          0          0          7013       -308       0          2492.48    4.559      1139      
151.4      2.6        108        216        0          0          0          7013       -311       0          2490.27    4.553      1138      
151.6      2.47       100        284        0          0          0          7013       -320       0          2488.01    4.53       1133      
151.8      2.49       95         320        0          0          0          7013       -322       0          2485.74    4.511      1128      
152        2.75       112        234        0          0          0          7013       -315       0          2483.48    4.477      1120      
152.2      2.64       109        272        0          0          0          7013       -325       0          2481.21    4.487      1123      
152.4      2.4        97         291        0          0          0          7013       -318       0          2478.99    4.461      1117      
152.6      2.61       97         733        0          0          0          7013       -314       0          2476.68    4.456      1115      
152.8      2.7        106        638        0          0          0          7013       -315       0          2474.42    4.461      1117      
153        2.46       113        542        0          0          0          7013       -321       0          2472.15    4.425      1108      
153.2      2.33       94         330        0          0          0          7013       -313       0          2469.89    4.377      1097      
153.4      2.34       93         334        0          0          0          7013       -313       0          2467.78    4.39       1100      
153.6      2.31       97         342        0          0          0          7013       -315       0          2465.5     4.381      1098      
153.8      2.21       85         331        0          0          0          7013       -318       0          2463.09    4.339      1088      
154        2.47       95         329        0          0          0          7013       -321       0          2460.83    4.343      1089      
154.2      2.7        111        251        0          0          0          7013       -322       0          2458.57    4.357      1092      
154.4      2.52       97         233        0          0          0          7013       -313       0          2456.3     4.347      1090      
154.6      2.88       114        199        0          0          0          7013       -318       0          2454.12    4.337      1087      
154.8      3.06       114        252        0          0          0          7013       -316       0          2451.9     4.303      1080      
155        2.98       127        374        0          0          0          7013       -310       0          2449.58    4.283      1075      
155.2      3.2        110        226        0          0          0          7013       -315       0          2447.29    4.274      1073      
155.4      3.8        134        307        0          0          0          7013       -319       0          2445.05    4.263      1070      
155.6      4.09       166        129        0          0          0          7013       -318       0          2442.73    4.249      1067      
155.8      3.95       165        235        0          0          0          7013       -315       0          2440.42    4.212      1059      
156        3.68       147        382        0          0          0          7013       -316       0          2438.31    4.214      1059      
156.2      3.74       147        1089       0          0          0          7013       -320       0          2436       4.179      1051      
156.4      3.99       157        6127       0          0          0          7013       -309       0          2433.71    4.202      1056      
156.6      4.25       172        135        0          0          0          7013       -314       0          2431.44    4.151      1044      
156.8      4.15       172        164        0          0          0          7013       -324       0          2429.25    4.137      1041      
157        3.73       172        66         0          0          0          7013       -307       0          2426.83    4.16       1046      
157.2      3.68       144        270        0          0          0          7013       -318       0          2424.73    4.124      1038      
157.4      3.94       146        323        0          0          0          7013       -319       0          2422.41    4.12       1037      
157.6      4.26       165        183        0          0          0          7013       -322       0          2420.1     4.081      1028      
157.8      4.5        174        169        0          0          0          7013       -313       0          2417.93    4.06       1023      
158        4.69       189        161        0          0          0          7013       -309       0          2415.6     4.06       1023      
158.2      4.57       193        238        0          0          0          7013       -318       0          2413.25    4.038      1018      
158.4      3.98       165        223        0          0          0          7013       -317       0          2411.04    4.021      1014      
158.6      3.65       144        301        0          0          0          7013       -313       0          2408.82    3.997      1008      
158.8      3.88       151        209        0          0          0          7013       -312       0          2406.51    4.026      1015      
159        4.04       155        303        0          0          0          7013       -317       0          2404.2     4.01       1011      
159.2      4.05       164        228        0          0          0          7013       -314       0          2401.98    4.004      1010      
159.4      4.05       162        145        0          0          0          7013       -313       0          2399.67    3.981      1005      
159.6      4.04       163        198        0          0          0          7013       -316       0          2397.4     3.92       990       
159.8      3.96       164        67         0          0          0          7013       -317       0          2395.29    3.926      992       
160        3.72       156        160        2          0          0          7013       -315       0          2393.02    3.893      984       
160.2      3.4        143        231        0          0          0          7013       -318       0          2390.87    3.914      989       
160.4      3.03       121        238        0          0          0          7013       -317       0          2390.01    3.906      987       
