~Version
 VERS              .         2.0                           : CWLS LOG ASCII STANDARD - VERSION 2.0
 WRAP              .         NO                            : ONE LINE PER DEPTH STEP
 DLM               .         SPACE                         : DELIMITING CHARACTER(SPACE TAB OR COMMA)
~Well Information
#_______________________________________________________________________________
#
#PARAMETER_NAME    .UNIT     VALUE                         : DESCRIPTION
#_______________________________________________________________________________
STRT               .M        2645.4                        : First reference value
STOP               .M        2753.4                        : Last reference value
STEP               .M        0.2                           : Step increment
NULL               .         -9999                         : Missing value
COMP               .                                       : Company
WELL               .         616                           : Well name
FLD                .                                       : Field
LOC                .                                       : Location
CNTY               .                                       : County
STAT               .                                       : State
CTRY               .                                       : Country
SRVC               .                                       : Service Company
DATE               .                                       : Date
API                .                                       : API number
PROJECT_UPGRADE_TIME .         2021-03-18T21_24_50           : 
group              .         Good                          : 
~Parameter Information Block
#_______________________________________________________________________________
#
#PARAMETER_NAME    .UNIT     VALUE                         : DESCRIPTION
#_______________________________________________________________________________
SET                .         D4410_D                       : 
OTHER              .         Запись производится в присутствии: 
OTHER_10           .         Максимальная температура      : 
OTHER_11           .         Тип промывочной жидкости      : 
OTHER_12           .         Сопротивление ПЖ (Ом*м) при 20°C: 
OTHER_13           .         Плотность ПЖ(г/см3)           : 
OTHER_14           .         Вязкость ПЖ(с)                : 
OTHER_15           .         Водоотдача ПЖ(см3/30мин)      : 
OTHER_16           .         Уровень ПЖ                    : 
OTHER_17           .         Нефть ПЖ (%)                  : 
OTHER_18           .         Барит ПЖ (%)                  : 
OTHER_19           .         Гематит ПЖ (%)                : 
OTHER_2            .         Заказчик ННСН  ЦДНГ-1         : 
OTHER_20           .         КМЦ ПЖ (%)                    : 
OTHER_21           .         Разгазирование ПЖ (да,нет)    : 
OTHER_22           .         Подъемник                     : 
OTHER_23           .         Лаборатория                   : 
OTHER_24           .         Тип кабеля                    : 
OTHER_25           .         Длина кабеля (м)              : 
OTHER_26           .         Цена последней метки          : 
OTHER_27           .         Цена контрольной метки        : 
OTHER_28           .         Диаметр долота (мм)           : 
OTHER_29           .         Глубина бурения (м)           : 
OTHER_3            .         Площадь                       : 
OTHER_30           .         Искусственный забой (м)       : 
OTHER_31           .         Диаметр колонны (мм)          : 
OTHER_32           .         Толщина колонны (мм)          : 
OTHER_33           .         Башмак колонны (м)            : 
OTHER_34           .         Диаметр НКТ (мм)              : 
OTHER_35           .         Толщина НКТ (мм)              : 
OTHER_36           .         Воронка НКТ (м)               : 
OTHER_37           .         Дата цементожа                : 
OTHER_38           .         Тип, количество(т) и плотность цемента: 
OTHER_39           .         Интервалы перфорации (м)      : 
OTHER_4            .         Категория                     : 
OTHER_40           .         Направление, диаметр (мм)     : 
OTHER_41           .         Направление, глубина (м)      : 
OTHER_42           .         Кондуктор, диаметр (мм)       : 
OTHER_43           .         Кондуктор, глубина (м)        : 
OTHER_44           .         Техническая колонна, диаметр (мм): 
OTHER_45           .         Техническая колонна, глубина (м): 
OTHER_46           .         Эксплуатационная колонна, диаметр (мм): 
OTHER_47           .         Эксплуатационная колонна, глубина (м): 
OTHER_48           .         Программа Кедр-02 версия 3.4  : 
OTHER_49           .         Операционная система Windows NT 5.1 build 2600 Service Pack 2: 
OTHER_5            .         Назначение исследований       : 
OTHER_50           .         Программное обеспечение станции MONITOR-386EX 25/12/99 15_08_10   BGF V54 20/09/05 15_32_17   3.3__BGF_9030071: 
OTHER_51           .         Kedr.exe версия 3.4.2.74      : 
OTHER_52           .         KedrData.dll версия 3.4.2.29  : 
OTHER_53           .         Мнемоники версия 3.18 S       : 
OTHER_54           .         Драйвер версия 2.1.1.4        : 
OTHER_55           .         LasInf.dll 4.3.0.35           : 
OTHER_56           .         Прибор_ КСА-Т4                : 
OTHER_57           .         Номер прибора_ 160            : 
OTHER_58           .         Режим_ КСА-Т4                 : 
OTHER_59           .         Форма_ С.А.Б.                 : 
OTHER_6            .         Альтитуда стола ротора        : 
OTHER_60           .         Тарировки_                    : 
OTHER_61           .         <_techsia_sc_> Дата тарировки температуры 25.05.2010: 
OTHER_62           .         Ручной ввод коэффициентов     : 
OTHER_63           .         TM.DEGC = 0.00402*RTM.E.ACP + -0.994: 
OTHER_64           .         <_techsia_sc_> Дата тарировки давления 25.05.2010: 
OTHER_65           .         Ручной ввод коэффициентов     : 
OTHER_66           .         MN.ATM = (2.27521e-006*TM.DEGC + 0.02078)*(RMN.E.ACP + 6.2*TM.DEGC + -1688): 
OTHER_67           .         <_techsia_sc_> Дата тарировки ГК 25.05.2010: 
OTHER_68           .         Ручной ввод коэффициентов     : 
OTHER_69           .         GR.UR/H = RGR.IMP/MIN / 45.5144: 
OTHER_7            .         Вид исследований 3  6         : 
OTHER_70           .         GK.FLT = 0.1*GR.UR/H[-1] + (1-0.1)*GR.UR/H[0]: 
OTHER_8            .         Начало бурения интервала каротажа: 
OTHER_9            .         Окончание бурения интервала каротажа: 
PROJECT_UPGRADE_TIME .         2021-03-18T21_24_50           : 
TLFamily_CCLC      .                                       : 
TLFamily_DEPT      .         Measured Depth                : 
TLFamily_GK        .         Gamma Ray                     : 
TLFamily_GR        .         Gamma Ray                     : 
TLFamily_METKA     .                                       : 
TLFamily_MN        .                                       : 
TLFamily_RCOR      .                                       : 
TLFamily_RGR       .                                       : 
TLFamily_RMN       .                                       : 
TLFamily_RTEN      .                                       : 
TLFamily_RTM       .                                       : 
TLFamily_SPEE      .         Cable Speed                   : 
TLFamily_TIME      .         Time                          : 
TLFamily_TM        .         Temperature                   : 
group              .         prim                          : 
~Curve Information
#_______________________________________________________________________________
#
#LOGNAME           .UNIT     LOG_ID                        : DESCRIPTION
#_______________________________________________________________________________
DEPT               .M                                      : 1 Глубина, м -    0.0 см 
CCLC               .E.ACP                                  : 9 Локатор муфт,  -   20.0 см 
GK                 .FLT                                    : 14 Гамма-активность фильтрованная, мкр./ч -  110.0 см 
GR                 .UR/H                                   : 13 Гамма-активность, мкр./ч -  110.0 см 
METKA              .CU                                     : 3 Метки,  -    0.0 см 
MN                 .ATM                                    : 12 Давление, атм. -  160.0 см 
RCOR               .CM/KM                                  : 5 Коррекция по ролику, см/км -    0.0 см 
RGR                .IMP/MIN                                : 10 Гамма-активность, усл.ед. -  110.0 см 
RMN                .E.ACP                                  : 8 Давление, усл.ед. -  160.0 см 
RTEN               .T                                      : 6 Натяжение кабеля, т -    0.0 см 
RTM                .E.ACP                                  : 7 Температура, усл.ед. -  170.0 см 
SPEE               .M/H                                    : 2 Скорость, м/час -    0.0 см 
TIME               .S                                      : 4 Время, сек -    0.0 см 
TM                 .DEGC                                   : 11 Температура, °C -  170.0 см 
~Ascii
# ...
2687       154        8.44       8.44       0          366.749    -1107      384        18810      0.19       16399      645        248.2      64.93     
2687.2     129        8.83       8.83       0          366.809    -1107      402        18813      0.19       16400      645        249.41     64.932    
2687.4     147        8.9        8.9        0          366.852    -1107      405        18815      0.19       16399      646        250.5      64.93     
2687.6     144        9.28       9.28       0          366.897    -1107      422        18817      0.19       16400      646        251.6      64.934    
2687.8     108        9.4        9.4        0          366.944    -1107      428        18819      0.19       16400      646        252.7      64.934    
2688       89         9.4        9.4        0          366.987    -1107      428        18821      0.19       16400      647        253.83     64.934    
2688.2     132        9.36       9.36       0          367.03     -1107      426        18823      0.19       16401      646        255        64.938    
2688.4     109        9.36       9.36       0          367.068    -1107      426        18825      0.19       16402      647        256.09     64.941    
2688.6     78         9.8        9.8        0          367.108    -1107      446        18827      0.19       16402      647        257.18     64.944    
2688.8     129        9.8        9.8        0          367.129    -1107      446        18828      0.19       16403      647        258.28     64.944    
2689       69         10.28      10.28      0          367.192    -1107      468        18831      0.19       16403      648        259.46     64.946    
2689.2     91         10.28      10.28      0          367.255    -1107      468        18834      0.19       16404      648        260.58     64.948    
2689.4     99         10.04      10.04      0          367.234    -1107      457        18833      0.19       16404      646        261.68     64.95     
2689.6     150        10.04      10.04      0          367.291    -1107      457        18836      0.19       16404      645        262.82     64.951    
2689.8     163        10.04      10.04      0          367.298    -1107      457        18836      0.19       16405      646        263.92     64.954    
2690       147        9.73       9.73       0          367.352    -1107      443        18839      0.19       16405      646        265.06     64.955    
2690.2     191        9.73       9.73       0          367.361    -1107      443        18839      0.19       16406      646        266.16     64.958    
2690.4     205        9.47       9.47       0          367.382    -1107      431        18840      0.19       16406      647        267.26     64.958    
2690.6     206        9.47       9.47       0          367.453    -1107      431        18843      0.19       16406      646        268.41     64.958    
2690.8     121        9.84       9.84       0          367.508    -1107      448        18846      0.19       16406      648        269.56     64.958    
2691       144        9.84       9.84       0          367.551    -1107      448        18848      0.19       16407      647        270.65     64.962    
2691.2     139        10.33      10.33      0          367.551    -1107      470        18848      0.19       16408      647        271.77     64.964    
2691.4     111        10.33      10.33      0          367.593    -1107      470        18850      0.19       16408      646        272.9      64.966    
2691.6     105        10.42      10.42      0          367.614    -1107      474        18851      0.19       16409      646        274.02     64.968    
2691.8     95         10.66      10.66      0          367.653    -1107      485        18853      0.19       16409      647        275.14     64.97     
2692       154        10.62      10.62      0          367.713    -1107      483        18856      0.19       16409      646        276.24     64.97     
2692.2     1509       10.41      10.41      0          367.719    -1107      474        18856      0.19       16410      646        277.4      64.973    
2692.4     651        10.41      10.41      0          367.698    -1107      474        18855      0.19       16410      645        278.49     64.974    
2692.6     182        8.99       8.99       0          367.699    -1107      409        18855      0.19       16410      646        279.64     64.974    
2692.8     60         8.99       8.99       0          367.72     -1107      409        18856      0.19       16410      646        280.73     64.974    
2693       32         8.94       8.94       0          367.74     -1107      407        18857      0.19       16410      647        281.87     64.974    
2693.2     34         8.94       8.94       0          367.768    -1107      407        18858      0.19       16410      647        282.96     64.974    
2693.4     38         9.76       9.76       0          367.818    -1107      444        18861      0.2        16410      648        284.11     64.974    
2693.6     46         10.37      10.37      0          367.803    -1107      472        18860      0.2        16410      649        285.22     64.974    
2693.8     51         10.4       10.4       0          367.825    -1107      473        18861      0.2        16410      649        286.32     64.974    
2694       46         10.44      10.44      0          367.845    -1107      475        18862      0.2        16410      648        287.44     64.976    
2694.2     34         10.44      10.44      0          367.867    -1107      475        18863      0.2        16411      647        288.56     64.976    
2694.4     39         10.24      10.24      0          367.912    -1107      466        18865      0.2        16411      647        289.72     64.978    
2694.6     35         10.24      10.24      0          367.926    -1107      466        18866      0.2        16411      647        290.81     64.978    
2694.8     36         10.48      10.48      0          367.965    -1107      477        18868      0.2        16412      647        291.95     64.982    
2695       55         10.48      10.48      0          368.028    -1107      477        18871      0.2        16411      648        293.05     64.979    
2695.2     42         10.57      10.57      0          368.035    -1107      481        18871      0.2        16412      647        294.2      64.982    
2695.4     27         10.59      10.59      0          368.023    -1107      482        18870      0.2        16412      646        295.3      64.982    
2695.6     31         11.06      11.06      0          368.05     -1107      503        18872      0.2        16412      646        296.39     64.982    
2695.8     32         11.25      11.25      0          368.286    -1107      512        18883      0.2        16412      647        297.55     64.982    
2696       68         11.25      11.25      2          368.352    -1102      512        18886      0.2        16412      647        298.36     64.982    
2696.2     40         11.1       11.1       0          368.355    -1101      505        18886      0.2        16412      648        299.46     64.982    
2696.4     32         11.1       11.1       0          368.33     -1101      505        18885      0.2        16412      649        300.55     64.982    
2696.6     35         11.38      11.38      0          368.453    -1101      518        18891      0.2        16412      649        301.65     64.984    
2696.8     39         11.38      11.38      0          368.474    -1101      518        18892      0.2        16412      648        302.74     64.982    
2697       111        12.9       12.9       0          368.511    -1101      587        18894      0.2        16412      647        303.91     64.982    
2697.2     87         12.9       12.9       0          368.531    -1101      587        18895      0.2        16412      648        305.05     64.982    
