~Version
 VERS              .         2.0                           : CWLS LOG ASCII STANDARD - VERSION 2.0
 WRAP              .         NO                            : ONE LINE PER DEPTH STEP
 DLM               .         SPACE                         : DELIMITING CHARACTER(SPACE TAB OR COMMA)
~Well Information
#_______________________________________________________________________________
#
#PARAMETER_NAME    .UNIT     VALUE                         : DESCRIPTION
#_______________________________________________________________________________
STRT               .M        2650.6                        : First reference value
STOP               .M        2759.999891                   : Last reference value
STEP               .M        0.1999998                     : Step increment
NULL               .         -9999                         : Missing value
COMP               .                                       : Company
WELL               .         616                           : Well name
FLD                .                                       : Field
LOC                .                                       : Location
CNTY               .                                       : County
STAT               .                                       : State
CTRY               .                                       : Country
SRVC               .                                       : Service Company
DATE               .                                       : Date
API                .                                       : API number
PROJECT_UPGRADE_TIME .         2021-03-18T21_24_50           : 
group              .         Good                          : 
~Parameter Information Block
#_______________________________________________________________________________
#
#PARAMETER_NAME    .UNIT     VALUE                         : DESCRIPTION
#_______________________________________________________________________________
SET                .         D4417_D                       : 
OTHER              .         Запись производится в присутствии: 
OTHER_10           .         Максимальная температура      : 
OTHER_11           .         Тип промывочной жидкости      : 
OTHER_12           .         Сопротивление ПЖ (Ом*м) при 20°C: 
OTHER_13           .         Плотность ПЖ(г/см3)           : 
OTHER_14           .         Вязкость ПЖ(с)                : 
OTHER_15           .         Водоотдача ПЖ(см3/30мин)      : 
OTHER_16           .         Уровень ПЖ                    : 
OTHER_17           .         Нефть ПЖ (%)                  : 
OTHER_18           .         Барит ПЖ (%)                  : 
OTHER_19           .         Гематит ПЖ (%)                : 
OTHER_2            .         Заказчик ННСН  ЦДНГ-1         : 
OTHER_20           .         КМЦ ПЖ (%)                    : 
OTHER_21           .         Разгазирование ПЖ (да,нет)    : 
OTHER_22           .         Подъемник                     : 
OTHER_23           .         Лаборатория                   : 
OTHER_24           .         Тип кабеля                    : 
OTHER_25           .         Длина кабеля (м)              : 
OTHER_26           .         Цена последней метки          : 
OTHER_27           .         Цена контрольной метки        : 
OTHER_28           .         Диаметр долота (мм)           : 
OTHER_29           .         Глубина бурения (м)           : 
OTHER_3            .         Площадь                       : 
OTHER_30           .         Искусственный забой (м)       : 
OTHER_31           .         Диаметр колонны (мм)          : 
OTHER_32           .         Толщина колонны (мм)          : 
OTHER_33           .         Башмак колонны (м)            : 
OTHER_34           .         Диаметр НКТ (мм)              : 
OTHER_35           .         Толщина НКТ (мм)              : 
OTHER_36           .         Воронка НКТ (м)               : 
OTHER_37           .         Дата цементожа                : 
OTHER_38           .         Тип, количество(т) и плотность цемента: 
OTHER_39           .         Интервалы перфорации (м)      : 
OTHER_4            .         Категория                     : 
OTHER_40           .         Направление, диаметр (мм)     : 
OTHER_41           .         Направление, глубина (м)      : 
OTHER_42           .         Кондуктор, диаметр (мм)       : 
OTHER_43           .         Кондуктор, глубина (м)        : 
OTHER_44           .         Техническая колонна, диаметр (мм): 
OTHER_45           .         Техническая колонна, глубина (м): 
OTHER_46           .         Эксплуатационная колонна, диаметр (мм): 
OTHER_47           .         Эксплуатационная колонна, глубина (м): 
OTHER_48           .         Программа Кедр-02 версия 3.4  : 
OTHER_49           .         Операционная система Windows NT 5.1 build 2600 Service Pack 2: 
OTHER_5            .         Назначение исследований       : 
OTHER_50           .         Программное обеспечение станции MONITOR-386EX 25/12/99 15_08_10   BGF V54 20/09/05 15_32_17   3.3__BGF_9030071: 
OTHER_51           .         Kedr.exe версия 3.4.2.74      : 
OTHER_52           .         KedrData.dll версия 3.4.2.29  : 
OTHER_53           .         Мнемоники версия 3.18 S       : 
OTHER_54           .         Драйвер версия 2.1.1.4        : 
OTHER_55           .         LasInf.dll 4.3.0.35           : 
OTHER_56           .         Прибор_ КСА-Т4                : 
OTHER_57           .         Номер прибора_ 160            : 
OTHER_58           .         Режим_ КСА-Т4                 : 
OTHER_59           .         Форма_ С.А.Б.                 : 
OTHER_6            .         Альтитуда стола ротора        : 
OTHER_60           .         Тарировки_                    : 
OTHER_61           .         <_techsia_sc_> Дата тарировки температуры 25.05.2010: 
OTHER_62           .         Ручной ввод коэффициентов     : 
OTHER_63           .         TM.DEGC = 0.00402*RTM.E.ACP + -0.994: 
OTHER_64           .         <_techsia_sc_> Дата тарировки давления 25.05.2010: 
OTHER_65           .         Ручной ввод коэффициентов     : 
OTHER_66           .         MN.ATM = (2.27521e-006*TM.DEGC + 0.02078)*(RMN.E.ACP + 6.2*TM.DEGC + -1688): 
OTHER_67           .         <_techsia_sc_> Дата тарировки ГК 25.05.2010: 
OTHER_68           .         Ручной ввод коэффициентов     : 
OTHER_69           .         GR.UR/H = RGR.IMP/MIN / 45.5144: 
OTHER_7            .         Вид исследований 3  6         : 
OTHER_70           .         GK.FLT = 0.1*GR.UR/H[-1] + (1-0.1)*GR.UR/H[0]: 
OTHER_8            .         Начало бурения интервала каротажа: 
OTHER_9            .         Окончание бурения интервала каротажа: 
PROJECT_UPGRADE_TIME .         2021-03-18T21_24_50           : 
TLFamily_CCLC      .                                       : 
TLFamily_DEPT      .         Measured Depth                : 
TLFamily_GK        .         Gamma Ray                     : 
TLFamily_GR        .         Gamma Ray                     : 
TLFamily_METKA     .                                       : 
TLFamily_MN        .                                       : 
TLFamily_RCOR      .                                       : 
TLFamily_RGR       .                                       : 
TLFamily_RMN       .                                       : 
TLFamily_RTEN      .                                       : 
TLFamily_RTM       .                                       : 
TLFamily_SPEE      .         Cable Speed                   : 
TLFamily_TIME      .         Time                          : 
TLFamily_TM        .         Temperature                   : 
group              .         prim                          : 
~Curve Information
#_______________________________________________________________________________
#
#LOGNAME           .UNIT     LOG_ID                        : DESCRIPTION
#_______________________________________________________________________________
DEPT               .M                                      : 1 Глубина, м -    0.0 см 
CCLC               .E.ACP                                  : 9 Локатор муфт,  -   20.0 см 
GK                 .FLT                                    : 14 Гамма-активность фильтрованная, мкр./ч -  110.0 см 
GR                 .UR/H                                   : 13 Гамма-активность, мкр./ч -  110.0 см 
METKA              .CU                                     : 3 Метки,  -    0.0 см 
MN                 .ATM                                    : 12 Давление, атм. -  160.0 см 
RCOR               .CM/KM                                  : 5 Коррекция по ролику, см/км -    0.0 см 
RGR                .IMP/MIN                                : 10 Гамма-активность, усл.ед. -  110.0 см 
RMN                .E.ACP                                  : 8 Давление, усл.ед. -  160.0 см 
RTEN               .T                                      : 6 Натяжение кабеля, т -    0.0 см 
RTM                .E.ACP                                  : 7 Температура, усл.ед. -  170.0 см 
SPEE               .M/H                                    : 2 Скорость, м/час -    0.0 см 
TIME               .S                                      : 4 Время, сек -    0.0 см 
TM                 .DEGC                                   : 11 Температура, °C -  170.0 см 
~Ascii
# ...
2733.799917 480        8.9        8.9        0          245.694    -1085      405        13112      0.25       13545      494        590.61     53.456    
2733.999917 218        9.49       9.49       0          245.688    -1085      432        13113      0.25       13503      493        592.06     53.288    
2734.199916 71         9.49       9.49       0          245.686    -1085      432        13114      0.25       13461      493        593.49     53.119    
2734.399916 68         9.12       9.12       0          245.708    -1085      415        13116      0.25       13431      493        594.99     52.999    
2734.599916 62         8.02       8.02       0          245.7      -1085      365        13117      0.25       13398      492        596.49     52.864    
2734.799916 539        8.02       8.02       0          245.682    -1085      365        13119      0.25       13327      493        597.92     52.579    
2734.999916 167        7.18       7.18       0          245.655    -1085      327        13120      0.25       13249      493        599.41     52.267    
2735.199915 104        7.18       7.18       0          245.608    -1085      327        13121      0.25       13138      493        600.84     51.819    
2735.399915 313        7.84       7.84       0          245.587    -1085      357        13123      0.25       13028      494        602.31     51.377    
2735.599915 118        9.05       9.05       0          245.568    -1085      412        13124      0.25       12952      495        603.81     51.074    
2735.799915 95         9.29       9.29       0          245.577    -1085      423        13126      0.25       12888      495        605.25     50.816    
2735.999915 61         9.25       9.25       2          245.583    -1087      421        13127      0.25       12857      494        606.81     50.691    
2736.199914 98         9.25       9.25       0          245.59     -1088      421        13128      0.25       12838      492        608.39     50.614    
2736.399914 9216       8.24       8.24       0          245.62     -1088      375        13130      0.25       12816      492        609.91     50.526    
2736.599914 2691       7.3        7.3        0          245.639    -1088      332        13131      0.24       12807      493        611.38     50.488    
2736.799914 538        6.68       6.68       0          245.67     -1088      304        13133      0.25       12803      494        612.81     50.474    
2736.999914 123        6.92       6.92       0          245.697    -1088      315        13135      0.25       12792      493        614.25     50.43     
2737.199913 69         6.92       6.92       0          245.717    -1088      315        13136      0.25       12770      492        615.73     50.34     
2737.399913 62         8.22       8.22       0          245.731    -1088      374        13137      0.25       12756      492        617.23     50.284    
2737.599913 70         7.58       7.58       0          245.767    -1088      345        13139      0.25       12744      491        618.74     50.238    
2737.799913 64         7.16       7.16       0          245.783    -1088      326        13140      0.25       12738      489        620.23     50.214    
2737.999913 59         6.31       6.31       0          245.798    -1088      287        13141      0.25       12729      489        621.67     50.177    
2738.199912 90         6.31       6.31       0          245.853    -1088      287        13144      0.25       12725      489        623.25     50.16     
2738.399912 79         6.72       6.72       0          245.862    -1088      306        13144      0.25       12726      489        624.67     50.163    
2738.599912 65         6.98       6.98       0          245.899    -1088      318        13146      0.25       12723      489        626.11     50.154    
2738.799912 60         7.98       7.98       0          245.92     -1088      363        13147      0.25       12716      487        627.6      50.124    
2738.999912 73         8.81       8.81       0          245.956    -1088      401        13149      0.25       12710      487        629.1      50.1      
2739.199911 63         8.81       8.81       0          245.982    -1088      401        13150      0.25       12712      487        630.67     50.108    
2739.399911 60         8.44       8.44       0          246.017    -1088      384        13152      0.25       12710      487        632.1      50.099    
2739.599911 114        8.44       8.44       0          246.034    -1088      384        13153      0.25       12704      488        633.55     50.076    
2739.799911 133        8.55       8.55       0          246.079    -1088      389        13155      0.25       12700      488        635.03     50.06     
2739.999911 87         9.96       9.96       0          246.116    -1088      453        13157      0.25       12700      488        636.59     50.06     
2740.19991 68         10.3       10.3       0          246.134    -1088      469        13158      0.25       12697      489        638.04     50.048    
2740.39991 71         11.82      11.82      0          246.168    -1088      538        13160      0.25       12690      488        639.54     50.02     
2740.59991 81         11.82      11.82      0          246.19     -1088      538        13161      0.25       12687      488        641        50.009    
2740.79991 117        11.89      11.89      0          246.23     -1088      541        13163      0.25       12681      488        642.46     49.984    
2740.99991 104        12.22      12.22      0          246.25     -1088      556        13164      0.25       12680      489        643.96     49.98     
2741.199909 115        12.44      12.44      0          246.292    -1088      566        13166      0.25       12678      489        645.46     49.972    
2741.399909 66         13.95      13.95      0          246.324    -1088      635        13168      0.25       12678      488        646.91     49.972    
2741.599909 55         13.95      13.95      0          246.348    -1088      635        13169      0.25       12677      488        648.39     49.968    
2741.799909 66         14.46      14.46      0          246.382    -1088      658        13170      0.25       12677      488        649.89     49.968    
2741.999909 78         14.1       14.1       0          246.416    -1088      642        13172      0.25       12677      488        651.39     49.966    
2742.199908 83         13.58      13.58      0          246.457    -1088      618        13174      0.25       12676      488        652.9      49.964    
2742.399908 65         12.59      12.59      0          246.479    -1088      573        13175      0.25       12676      489        654.33     49.964    
2742.599908 82         12.59      12.59      0          246.5      -1088      573        13176      0.25       12677      490        655.77     49.968    
2742.799908 94         11.73      11.73      0          246.542    -1088      534        13178      0.25       12678      492        657.33     49.972    
2742.999908 87         11.45      11.45      0          246.569    -1088      521        13179      0.25       12679      491        658.75     49.976    
2743.199907 61         10.9       10.9       0          246.628    -1088      496        13182      0.25       12680      491        660.25     49.98     
2743.399907 99         11.42      11.42      0          246.65     -1088      520        13183      0.25       12683      491        661.68     49.992    
2743.599907 72         11.42      11.42      0          246.677    -1088      520        13184      0.25       12685      489        663.18     50        
2743.799907 65         10.96      10.96      0          246.717    -1088      499        13186      0.25       12689      489        664.7      50.016    
2743.999907 141        10.96      10.96      0          246.741    -1088      499        13187      0.25       12693      489        666.18     50.032    
