~Version
 VERS              .         2.0                           : CWLS LOG ASCII STANDARD - VERSION 2.0
 WRAP              .         NO                            : ONE LINE PER DEPTH STEP
 DLM               .         SPACE                         : DELIMITING CHARACTER(SPACE TAB OR COMMA)
~Well Information
#_______________________________________________________________________________
#
#PARAMETER_NAME    .UNIT     VALUE                         : DESCRIPTION
#_______________________________________________________________________________
STRT               .M        2733.1                        : First reference value
STOP               .M        2798.6                        : Last reference value
STEP               .M        0.1                           : Step increment
NULL               .         -9999                         : Missing value
COMP               .                                       : Company
WELL               .         616                           : Well name
FLD                .                                       : Field
LOC                .                                       : Location
CNTY               .                                       : County
STAT               .                                       : State
CTRY               .                                       : Country
SRVC               .                                       : Service Company
DATE               .                                       : Date
API                .                                       : API number
PROJECT_UPGRADE_TIME .         2021-03-18T21_24_50           : 
group              .         Good                          : 
~Parameter Information Block
#_______________________________________________________________________________
#
#PARAMETER_NAME    .UNIT     VALUE                         : DESCRIPTION
#_______________________________________________________________________________
SET                .         D2661_D                       : 
OTHER              .         Программное обеспечение станции MONITOR-386EX 25/12/99 15_08_10   BGF V50 26/12/00 07_26_01   3.1_SNGF___BGF_N_092085: 
OTHER_10           .         Тарировки_                    : 
OTHER_11           .         IK1.GRD = IK1$.UE - -5.96     : 
OTHER_12           .         IK5.GRD = IK5$.UE - -0.74     : 
OTHER_13           .         IK4.GRD = IK4$.UE - -0.9      : 
OTHER_14           .         IK3.GRD = IK3$.UE - -1.28     : 
OTHER_15           .         IK2.GRD = IK2$.UE - -3.55     : 
OTHER_2            .         Kedr.exe версия 3.3.2.32      : 
OTHER_3            .         KedrData.dll версия 3.3.2.17  : 
OTHER_4            .         Драйвер версия 2.1.0.4        : 
OTHER_5            .         Мнемоники версия 3.3 S        : 
OTHER_6            .         Прибор_ Викиз                 : 
OTHER_7            .         Номер прибора_ 0006012        : 
OTHER_8            .         Режим_ Викиз                  : 
OTHER_9            .         Форма_ ВИКИЗ                  : 
PROJECT_UPGRADE_TIME .         2021-03-18T21_24_49           : 
TLFamily_DEPT      .         Measured Depth                : 
TLFamily_IK1       .         Extra Shallow Resistivity     : 
TLFamily_IK1$      .         Extra Shallow Resistivity     : 
TLFamily_IK2       .         Shallow Resistivity           : 
TLFamily_IK2$      .         Shallow Resistivity           : 
TLFamily_IK3       .         Medium Resistivity            : 
TLFamily_IK3$      .         Medium Resistivity            : 
TLFamily_IK4       .         Deep Resistivity              : 
TLFamily_IK4$      .         Deep Resistivity              : 
TLFamily_IK5       .         Resistivity 20                : 
TLFamily_IK5$      .         Resistivity 20                : 
TLFamily_METKA     .                                       : 
TLFamily_PS        .         Spontaneous Potential         : 
TLFamily_RCOR      .                                       : 
TLFamily_SPID      .         Spontaneous Potential         : 
TLFamily_TENS      .         Cable Tension                 : 
TLFamily_TIME      .         Time                          : 
group              .         prim                          : 
~Curve Information
#_______________________________________________________________________________
#
#LOGNAME           .UNIT     LOG_ID                        : DESCRIPTION
#_______________________________________________________________________________
DEPT               .M                                      : 1 Глубина, м -    0.0 см 
IK1                .GRD                                    : 13 3Ф0.5, град. -  226.0 см 
IK1$               .UE                                     : 7 3Ф0.5, усл.ед. -  226.0 см 
IK2                .GRD                                    : 17 3Ф0.7, град. -  240.0 см 
IK2$               .UE                                     : 11 3Ф0.7, усл.ед. -  240.0 см 
IK3                .GRD                                    : 16 3Ф1.0, град. -  260.0 см 
IK3$               .UE                                     : 10 3Ф1.0, усл.ед. -  260.0 см 
IK4                .GRD                                    : 15 3Ф1.4, град. -  288.0 см 
IK4$               .UE                                     : 9 3Ф1.4, усл.ед. -  288.0 см 
IK5                .GRD                                    : 14 3Ф2.0, град. -  328.0 см 
IK5$               .UE                                     : 8 3Ф2.0, усл.ед. -  328.0 см 
METKA              .                                       : 3 Метки,  -    0.0 см 
PS                 .mV                                     : 12 ПС, мВ -  372.0 см 
RCOR               .CM/KM                                  : 5 Коррекция по ролику, см/км -    0.0 см 
SPID               .M/H                                    : 2 Скорость, м/час -    0.0 см 
TENS               .T                                      : 6 Натяжение кабеля, т -    0.0 см 
TIME               .S                                      : 4 Время, сек -    0.0 см 
~Ascii
# ...
2784.7     14.04      8.08       14.14      10.59      14.53      13.25      14         13.1       13.82      13.08      0          325.53     -286       -1787      0          34380.66  
2784.8     14.62      8.66       14.54      10.99      14.84      13.56      14.24      13.34      13.96      13.22      0          325.76     -286       -1786      0          34380.46  
2784.9     14.93      8.97       14.61      11.06      14.89      13.61      14.35      13.45      14.04      13.3       0          326.42     -286       -1785      0          34380.26  
2785       14.96      9          14.52      10.97      14.78      13.5       14.35      13.45      14.04      13.3       0          326.72     -286       -1784      0          34380.07  
2785.1     15.03      9.07       14.47      10.92      14.71      13.43      14.34      13.44      14.03      13.29      0          327.19     -286       -1782      0          34379.86  
2785.2     15.3       9.34       14.63      11.08      14.74      13.46      14.38      13.48      14.03      13.29      0          328.23     -286       -1780      0          34379.67  
2785.3     15.71      9.75       14.9       11.35      14.86      13.58      14.43      13.53      14.06      13.32      0          328.88     -286       -1778      0          34379.48  
2785.4     15.9       9.94       15.11      11.56      14.9       13.62      14.46      13.56      14.08      13.34      0          328.86     -286       -1775      0          34379.26  
2785.5     15.96      10         15.16      11.61      14.89      13.61      14.41      13.51      14.09      13.35      0          328.95     -286       -1771      0          34379.05  
2785.6     15.91      9.95       15.12      11.57      14.83      13.55      14.3       13.4       14.05      13.31      0          329.18     -286       -1766      0          34378.86  
2785.7     15.87      9.91       15.03      11.48      14.75      13.47      14.2       13.3       14.01      13.27      0          328.83     -286       -1759      0          34378.63  
2785.8     15.81      9.85       14.94      11.39      14.69      13.41      14.09      13.19      13.95      13.21      0          328.59     -286       -1752      0          34378.45  
2785.9     15.61      9.65       14.81      11.26      14.59      13.31      13.99      13.09      13.88      13.14      0          328.67     -286       -1743      0          34378.27  
2786       15.46      9.5        14.7       11.15      14.49      13.21      13.92      13.02      13.84      13.1       0          328.44     -286       -1730      0          34378.04  
2786.1     15.29      9.33       14.6       11.05      14.42      13.14      13.89      12.99      13.82      13.08      0          328.36     -286       -1716      0          34377.86  
2786.2     15.16      9.2        14.55      11         14.4       13.12      13.91      13.01      13.83      13.09      0          328.72     -286       -1701      0          34377.68  
2786.3     15.25      9.29       14.63      11.08      14.49      13.21      13.98      13.08      13.88      13.14      0          328.43     -286       -1680      0          34377.49  
2786.4     15.27      9.31       14.68      11.13      14.58      13.3       14.08      13.18      13.95      13.21      0          328.8      -286       -1646      0          34377.26  
2786.5     15.34      9.38       14.77      11.22      14.68      13.4       14.22      13.32      14.04      13.3       0          329.63     -286       -1635      0          34377.07  
2786.6     15.65      9.69       15.01      11.46      14.91      13.63      14.4       13.5       14.17      13.43      0          329.25     -286       -1629      0          34376.88  
2786.7     16.09      10.13      15.35      11.8       15.14      13.86      14.57      13.67      14.28      13.54      0          329.05     -286       -1619      0          34376.63  
2786.8     16.36      10.4       15.52      11.97      15.26      13.98      14.67      13.77      14.37      13.63      0          329.43     -286       -1608      0          34376.43  
2786.9     16.42      10.46      15.54      11.99      15.27      13.99      14.68      13.78      14.39      13.65      0          329.08     -286       -1595      0          34376.23  
2787       16.45      10.49      15.54      11.99      15.23      13.95      14.63      13.73      14.34      13.6       0          328.96     -286       -1576      0          34376     
2787.1     16.45      10.49      15.51      11.96      15.19      13.91      14.56      13.66      14.25      13.51      0          328.98     -286       -1553      0          34375.79  
2787.2     16.39      10.43      15.44      11.89      15.11      13.83      14.44      13.54      14.15      13.41      0          328.47     -286       -1528      0          34375.59  
2787.3     16.3       10.34      15.37      11.82      15.01      13.73      14.32      13.42      13.99      13.25      0          328.46     -286       -1506      0          34375.35  
2787.4     16.18      10.22      15.29      11.74      14.89      13.61      14.17      13.27      13.84      13.1       0          327.68     -286       -1481      0          34375.14  
2787.5     16.01      10.05      15.1       11.55      14.71      13.43      13.97      13.07      13.65      12.91      0          326.85     -286       -1461      0          34374.95  
2787.6     15.64      9.68       14.83      11.28      14.46      13.18      13.72      12.82      13.43      12.69      0          326.6      -286       -1435      0          34374.7   
2787.7     15.23      9.27       14.49      10.94      14.15      12.87      13.48      12.58      13.22      12.48      0          325.73     -286       -1406      0          34374.48  
2787.8     14.86      8.9        14.13      10.58      13.9       12.62      13.25      12.35      13.01      12.27      0          325.58     -286       -1380      0          34374.25  
2787.9     14.54      8.58       13.83      10.28      13.67      12.39      13.03      12.13      12.81      12.07      0          325.44     -286       -1353      0          34374.02  
2788       14.22      8.26       13.57      10.02      13.42      12.14      12.86      11.96      12.64      11.9       0          325.18     -286       -1329      0          34373.78  
2788.1     13.95      7.99       13.32      9.77       13.22      11.94      12.73      11.83      12.5       11.76      0          325.92     -286       -1326      0          34373.55  
2788.2     13.75      7.79       13.19      9.64       13.12      11.84      12.62      11.72      12.4       11.66      0          326.3      -286       -1321      0          34373.3   
2788.3     13.9       7.94       13.28      9.73       13.14      11.86      12.59      11.69      12.34      11.6       0          326.1      -286       -1315      0          34373.04  
2788.4     14.26      8.3        13.51      9.96       13.22      11.94      12.57      11.67      12.29      11.55      0          325.89     -286       -1310      0          34372.77  
2788.5     14.35      8.39       13.48      9.93       13.15      11.87      12.47      11.57      12.2       11.46      0          325        -286       -1322      0          34372.49  
2788.6     14.15      8.19       13.3       9.75       12.83      11.55      12.2       11.3       12.05      11.31      0          325.05     -286       -1333      0          34372.23  
2788.7     13.84      7.88       12.99      9.44       12.47      11.19      11.86      10.96      11.83      11.09      0          324.4      -286       -1330      0          34371.93  
2788.8     13.43      7.47       12.48      8.93       12.1       10.82      11.52      10.62      11.57      10.83      0          324.02     -286       -1327      0          34371.68  
2788.9     12.86      6.9        12.03      8.48       11.7       10.42      11.14      10.24      11.35      10.61      0          324.29     -286       -1322      0          34371.39  
