~Version
 VERS              .         2.0                           : CWLS LOG ASCII STANDARD - VERSION 2.0
 WRAP              .         NO                            : ONE LINE PER DEPTH STEP
 DLM               .         SPACE                         : DELIMITING CHARACTER(SPACE TAB OR COMMA)
~Well Information
#_______________________________________________________________________________
#
#PARAMETER_NAME    .UNIT     VALUE                         : DESCRIPTION
#_______________________________________________________________________________
STRT               .M        549.2                         : First reference value
STOP               .M        805.2                         : Last reference value
STEP               .M        0.2                           : Step increment
NULL               .         -9999                         : Missing value
COMP               .                                       : Company
WELL               .         616                           : Well name
FLD                .                                       : Field
LOC                .                                       : Location
CNTY               .                                       : County
STAT               .                                       : State
CTRY               .                                       : Country
SRVC               .                                       : Service Company
DATE               .                                       : Date
API                .                                       : API number
PROJECT_UPGRADE_TIME .         2021-03-18T21_24_50           : 
group              .         Good                          : 
~Parameter Information Block
#_______________________________________________________________________________
#
#PARAMETER_NAME    .UNIT     VALUE                         : DESCRIPTION
#_______________________________________________________________________________
SET                .         616_4                         : 
CONF               .         00                            : 
END                .         0                             : 
ERR                .         0                             : 
GS00               .M        0803.23                       : 
GS01               .M        0546.74                       : 
MM00               .M        0120.00                       : 
NOKG               .         0                             : 
NPR                .         980402                        : 
PART               .         Палагутин                     : 
PROJECT_UPGRADE_TIME .         2021-03-18T21_24_49           : 
PRZK               .         Шакиров                       : 
TLFamily_AZIMUTH   .         True Dip Azimuth              : 
TLFamily_DEPTH     .         Measured Depth                : 
TLFamily_METKA     .                                       : 
TLFamily_ROLL      .                                       : 
TLFamily_SPEED     .         Spontaneous Potential         : 
TLFamily_ZENIT     .                                       : 
VPRG               .         310                           : 
WAY                .         UP                            : 
group              .         prim                          : 
~Curve Information
#_______________________________________________________________________________
#
#LOGNAME           .UNIT     LOG_ID                        : DESCRIPTION
#_______________________________________________________________________________
DEPTH              .M                                      :  
AZIMUTH            .DEG                                    :  
METKA              .                                       :  
ROLL               .DEG                                    :  
SPEED              .M/H                                    :  
ZENIT              .DEG                                    :  
~Ascii
# ...
768.8      255.21     0          234.21     648        31.94     
769        255.32     0          234.57     648        31.92     
769.2      254.84     0          234.54     612        31.68     
769.4      255.57     0          234.3      576        31.82     
769.6      255.47     0          233.65     684        31.86     
769.8      255.39     0          233.16     648        31.82     
770        255.03     0          233.33     648        31.91     
770.2      255.84     0          234.12     612        31.92     
770.4      254        0          234.36     612        31.53     
770.6      255.44     0          234.56     648        31.65     
770.8      255.2      0          234.82     648        31.66     
771        254.63     0          234.9      648        31.57     
771.2      256.57     0          235.08     648        31.88     
771.4      256.46     0          234.95     648        31.87     
771.6      254.49     0          234.75     612        31.63     
771.8      253.29     0          234.53     648        31.45     
772        255.06     1          234.58     684        31.8      
772.2      254.41     0          234.74     612        31.68     
772.4      254.62     0          234.69     612        31.75     
772.6      255.49     0          234.64     612        31.96     
772.8      254.65     0          234.81     648        31.72     
773        255.1      0          235.02     648        31.79     
773.2      255.41     0          234.85     648        31.95     
773.4      254.74     0          234.81     612        31.65     
773.6      254.28     0          234.84     648        31.78     
773.8      254.59     0          234.93     648        31.8      
774        254.08     0          235.01     648        31.69     
774.2      254.2      0          235.16     684        31.71     
774.4      255.23     0          235.32     612        31.93     
774.6      254.17     0          235.1      648        31.74     
774.8      253.66     0          234.63     648        31.64     
775        254.71     0          234.5      612        31.89     
775.2      254.38     0          235.22     648        31.76     
775.4      254.04     0          235.81     648        31.64     
775.6      255.65     0          235.61     648        31.9      
775.8      254.84     0          235.28     648        31.67     
776        254.54     0          235.26     648        31.65     
776.2      254.65     0          235.18     648        31.78     
776.4      254.69     0          235.23     612        31.72     
776.6      254.47     0          235.37     684        31.6      
776.8      255.28     0          235.63     648        31.8      
777        254.84     0          235.91     612        31.76     
777.2      254.16     0          235.84     612        31.58     
777.4      254.49     0          235.34     648        31.72     
777.6      254.73     0          234.95     648        31.76     
777.8      254.36     0          234.86     648        31.57     
778        255.13     0          234.62     684        31.73     
778.2      255.55     0          234.5      612        31.78     
778.4      255.18     0          234.48     648        31.64     
778.6      255.98     0          234.1      648        31.68     
778.8      257.1      0          233.43     648        31.61     
779        260.83     0          232.11     612        31.74     
779.2      270.82     0          229.22     576        31.81     
779.4      310.65     0          223.44     576        32        
779.6      297.24     0          216.07     576        32.01     
779.8      190.26     0          209.75     612        32        
780        35.48      0          204.67     576        31.78     
780.2      320.83     0          200.78     576        31.78     
780.4      270.58     0          197.73     504        31.85     
780.6      259.64     0          195.55     540        31.79     
780.8      256.39     0          194.55     540        31.77     
781        255.68     0          192.68     504        31.79     
781.2      254.96     0          191.66     468        31.82     
781.4      254.49     0          190.7      468        31.49     
781.6      254.75     0          189.45     468        31.58     
781.8      254.48     0          188.11     504        31.57     
782        254.97     0          185.99     468        31.61     
782.2      254.84     1          184.06     504        31.69     
782.4      254.98     0          182.37     396        31.75     
782.6      254.06     0          180.7      432        31.56     
782.8      253.26     0          178.64     504        31.5      
783        254.68     0          177.71     468        31.36     
783.2      253.31     0          175.99     432        31.14     
783.4      254.57     0          175.14     504        31.48     
783.6      254.35     0          174.46     432        31.35     
783.8      253.42     0          173.82     504        31.42     
784        254.33     0          173.25     504        31.58     
784.2      254.25     0          172.35     468        31.53     
784.4      252.69     0          170.61     504        31.31     
784.6      252.9      0          166.76     468        31.49     
784.8      253.45     0          165.13     468        31.5      
785        253.27     0          164.52     468        31.39     
785.2      254.27     0          163.65     432        31.44     
785.4      254.5      0          162.02     504        31.59     
785.6      254.17     0          161.51     504        31.42     
785.8      254.52     0          160.82     504        31.52     
786        254.68     0          159.72     504        31.59     
786.2      253.8      0          157.92     432        31.36     
786.4      254.04     0          155.17     468        31.43     
786.6      255.13     0          150.16     504        31.4      
786.8      255.32     0          139.47     504        31.34     
787        254.53     0          128.98     432        31.48     
787.2      255.33     0          118.83     432        31.33     
787.4      254.5      0          105.55     504        31.47     
787.6      255.87     0          92.55      504        31.76     
787.8      255.69     0          78.83      504        32.01     
788        255.61     0          63.97      504        31.98     
788.2      253.95     0          52.37      432        31.8      
788.4      257.22     0          43.59      504        31.95     
788.6      254.77     0          21.45      468        31.77     
788.8      255.14     0          0.4        504        31.26     
789        255.54     0          337.18     468        30.94     
789.2      256.67     0          310.14     396        30.97     
789.4      256.26     0          286.56     504        31.41     
789.6      254.69     0          268.78     504        31.45     
789.8      252.35     0          256.47     504        31.28     
790        254        2          252.51     324        31.56     
790.2      254.61     0          248.59     72         31.61     
790.4      254.66     0          247.03     144        31.6      
790.6      254.88     0          245.69     144        31.61     
790.8      255.45     0          244.67     144        31.7      
791        256.27     0          243.35     144        31.73     
791.2      257.84     0          242.69     144        31.73     
791.4      261.87     0          240.68     144        31.74     
791.6      276.29     0          238.82     180        31.85     
791.8      327.97     0          237.6      144        31.82     
792        188.71     0          236.37     144        31.91     
792.2      199.16     0          234.85     108        31.9      
792.4      281.15     1          233.76     144        31.97     
792.6      326.56     0          231.52     144        31.96     
792.8      271.64     0          228.02     144        31.98     
793        260.87     0          220.01     144        32.07     
