~Version
 VERS              .         2.0                           : CWLS LOG ASCII STANDARD - VERSION 2.0
 WRAP              .         NO                            : ONE LINE PER DEPTH STEP
 DLM               .         SPACE                         : DELIMITING CHARACTER(SPACE TAB OR COMMA)
~Well Information
#_______________________________________________________________________________
#
#PARAMETER_NAME    .UNIT     VALUE                         : DESCRIPTION
#_______________________________________________________________________________
STRT               .M        2657.95                       : First reference value
STOP               .M        2764.750053                   : Last reference value
STEP               .M        0.2000001                     : Step increment
NULL               .         -9999                         : Missing value
COMP               .                                       : Company
WELL               .         616                           : Well name
FLD                .                                       : Field
LOC                .                                       : Location
CNTY               .                                       : County
STAT               .                                       : State
CTRY               .                                       : Country
SRVC               .                                       : Service Company
DATE               .                                       : Date
API                .                                       : API number
PROJECT_UPGRADE_TIME .         2021-03-18T21_24_50           : 
group              .         Good                          : 
~Parameter Information Block
#_______________________________________________________________________________
#
#PARAMETER_NAME    .UNIT     VALUE                         : DESCRIPTION
#_______________________________________________________________________________
SET                .         D7022_D_2                     : 
NPR                .         155                           : Номер прибора
OTHER              .         Kedr.exe версия 2.1.2.32      : 
OTHER_10           .         TM.GRD = 0.00404*TM$.UE + 0.07: 
OTHER_11           .         MN.ATM = (6.33279e-006*TM.GRD + 0.02401)*(MN$.UE + 2.72*TM.GRD + -2018): 
OTHER_12           .         GK.MKR/H = GK$.UE / 43.5489 + 0: 
OTHER_13           .         RES.SM = 0.00476*CRES.UE - 1.51709: 
OTHER_14           .         PL.GSM3 = 0 + 0 * (PL.UE / 1) +  0 * (PL.UE / 1)^2: 
OTHER_15           .         Постоянная времени ГГП = 6 сек: 
OTHER_16           .         Постоянная времени ГК = 6 сек : 
OTHER_2            .         KedrData.dll версия 3.2.2.14  : 
OTHER_3            .         LasInf.dll версия 3.2.0.13    : 
OTHER_4            .         Драйвер версия 1.2.0.5        : 
OTHER_5            .         Прибор_ КСА-M1                : 
OTHER_6            .         Номер прибора_ 155+р204       : 
OTHER_7            .         Режим_ КСА-М1 + ГГП + Резистивиметр: 
OTHER_8            .         Форма_ 223\2                  : 
OTHER_9            .         Тарировки_                    : 
PR                 .         КСА-Т7 М1                     : Тип прибора
PROJECT_UPGRADE_TIME .         2021-03-18T21_24_50           : 
PRTY               .         ПП-223_2                      : Номер партии
SRV                .         ЦКРС                          : Заказчик
SRVC               .         Лузин  А.Б.                   : Начальник партии
TLFamily_DEPT      .         Measured Depth                : 
TLFamily_LM        .         Casing Collar locator         : 
TLFamily_MN        .                                       : 
TLFamily_SPID      .         Spontaneous Potential         : 
TLFamily_TM        .         Temperature                   : 
group              .         second                        : 
~Curve Information
#_______________________________________________________________________________
#
#LOGNAME           .UNIT     LOG_ID                        : DESCRIPTION
#_______________________________________________________________________________
DEPT               .M                                      : Depth curve 
LM                 .е.ацп                                  : Локация муфт 
MN                 .атм                                    : Манометрия, атм 
SPID               .м/ч                                    : Скорость записи,м/час 
TM                 .град.С                                 : Термометрия,град.С 
~Ascii
# ...
2686.750014 106        334.31     556.998    51.92     
2686.950014 101.001    333.79     579.994    51.92     
2687.150015 116.996    334.88     580        51.91     
2687.350015 116        334.77     580        51.9      
2687.550015 121.999    334.32     510.017    51.9      
2687.750015 132.997    335.14     579.983    51.88     
2687.950015 132        335.48     580        51.87     
2688.150015 164.992    334.26     510.017    51.86     
2688.350015 166        333.92     529.995    51.84     
2688.550015 127.009    333.9      579.988    51.84     
2688.750015 121.001    333.59     522.014    51.84     
2688.950015 135.996    333.26     544.994    51.82     
2689.150016 149.997    332.68     579.992    51.82     
2689.350016 205.986    333.17     580        51.81     
2689.550016 169.009    333.02     522.014    51.8      
2689.750016 145.006    334.83     544.994    51.79     
2689.950016 118.007    335.11     510.008    51.78     
2690.150016 107.003    336.5      579.983    51.77     
2690.350016 84.006     336.2      569.003    51.76     
2690.550016 86.999     336.44     510.014    51.76     
2690.750016 100.997    336.18     579.983    51.74     
2690.950016 98.001     336.48     533.011    51.74     
2691.150017 87.003     336.44     510.006    51.73     
2691.350017 1088.758   335.55     555.989    51.72     
2691.550017 423.161    336.15     579.994    51.72     
2691.750017 86.081     336.3      568.003    51.7      
2691.950017 41.011     337.39     510.014    51.69     
2692.150017 42         337.48     579.983    51.68     
2692.350017 39.001     337.18     545.008    51.67     
2692.550017 38         336.33     522.006    51.67     
2692.750017 35.001     336.35     579.986    51.66     
2692.950017 37.999     335.45     557.006    51.65     
2693.150018 42.999     335.03     545.003    51.64     
2693.350018 42         335.01     579.992    51.63     
2693.550018 36.001     334.57     580        51.62     
2693.750018 33.001     336.19     557.006    51.61     
2693.950018 37.999     336.47     579.994    51.6      
2694.150018 52.996     337.91     580        51.6      
2694.350018 44.002     337.51     580        51.6      
2694.550018 46         338.3      580        51.6      
2694.750018 38.002     338.59     533.011    51.59     
2694.950018 28.002     338.41     520.003    51.58     
2695.150019 30.999     338.87     579.986    51.57     
2695.350019 49.995     338.64     556.006    51.56     
2695.550019 57.998     337.59     579.994    51.56     
2695.750019 42.004     336.85     568.003    51.55     
2695.950019 33.002     337.33     522.011    51.55     
2696.150019 31         337.01     544.994    51.54     
2696.350019 54.994     336.54     524.005    51.53     
2696.550019 73.995     336.05     510.003    51.52     
2696.750019 32.01      337.1      579.983    51.51     
2696.950019 121.978    337.05     545.008    51.49     
2697.15002 148.993    338.91     579.992    51.49     
2697.35002 131.004    339.02     570.002    51.48     
2697.55002 111.005    339.62     579.998    51.47     
2697.75002 94.004     339.26     540.01     51.47     
2697.95002 82.003     339.85     510.007    51.46     
2698.15002 90.998     340.14     579.983    51.46     
2698.35002 101.997    339.24     580        51.46     
2698.55002 113.997    338.91     580        51.45     
2698.75002 78.009     339        510.017    51.44     
2698.95002 60.004     338        579.983    51.43     
2699.150021 54.001     337.98     510.017    51.42     
2699.350021 47.002     338        533.994    51.41     
2699.550021 37.002     337.55     549.996    51.4      
2699.750021 33.001     337.53     579.993    51.39     
2699.950021 97.984     337.87     580        51.38     
2700.150021 109.997    339.33     580        51.37     
2700.350021 80.007     339.49     580        51.36     
2700.550021 91.997     340.69     580        51.35     
2700.750021 100.998    340.09     580        51.34     
2700.950021 92.002     340.31     568.003    51.34     
2701.150022 90         339.95     510.014    51.33     
2701.350022 122.992    340.24     555.989    51.32     
2701.550022 125        338.04     579.994    51.32     
2701.750022 127.999    340.02     568.003    51.31     
2701.950022 125.001    339.15     579.997    51.3      
2702.150022 5153.789   339.21     522.014    51.29     
2702.350022 2003.759   339.3      544.994    51.28     
2702.550022 501.362    340.69     579.992    51.27     
2702.750022 158.083    341.32     580        51.25     
2702.950022 107.012    339.74     557.006    51.25     
2703.150023 97.002     339.65     557        51.24     
2703.350023 91.001     339.3      510.011    51.23     
2703.550023 100.998    338.86     579.983    51.22     
2703.750023 215.972    339.14     580        51.2      
2703.950023 171.011    338.58     580        51.2      
2704.150023 118.013    338.32     580        51.19     
2704.350023 74.011     337.84     510.017    51.18     
2704.550023 66.002     338.86     579.983    51.17     
2704.750023 74.998     339.54     580        51.16     
2704.950023 80.999     339.19     580        51.15     
2705.150024 83.999     341.2      580        51.14     
2705.350024 85         339.91     538.01     51.12     
2705.550024 116.992    340.43     533.001    51.11     
2705.750024 55.015     341.16     579.989    51.09     
2705.950024 35.005     341.17     580        51.08     
2706.150024 39.999     340.62     580        51.06     
2706.350024 40         339.71     510.017    51.05     
2706.550024 70.993     339.71     579.983    51.04     
2706.750024 76.999     338.91     522.014    51.04     
2706.950024 78         338.47     544.994    51.04     
2707.150025 83.999     338.51     579.992    51.04     
2707.350025 86.999     338.12     580        51.04     
2707.550025 77.002     338.77     580        51.02     
2707.750025 78         339.16     557.006    50.99     
2707.950025 80.999     340.05     579.994    50.98     
2708.150025 76.001     340.55     580        50.97     
2708.350025 99.994     340.22     510.017    50.97     
2708.550025 70.007     341.46     510        50.95     
2708.750025 73.999     341.05     579.983    50.94     
2708.950025 69.001     341.38     568.003    50.93     
2709.150026 61.002     341.68     510.014    50.92     
2709.350026 66.999     340.92     579.983    50.91     
2709.550026 83.996     340.14     550.007    50.9      
2709.750026 69.004     339.89     579.993    50.89     
2709.950026 71.999     339.63     580        50.87     
2710.150026 73         339.15     540.01     50.86     
2710.350026 86.997     338.67     533.002    50.85     
2710.550026 88         338.95     579.989    50.84     
2710.750026 74.003     338.91     580        50.82     
2710.950026 65.002     339.81     540.01     50.8      
2711.150027 98.992     340.16     533.002    50.79     
2711.350027 93.001     341.01     579.989    50.78     
2711.550027 101.998    341.45     580        50.77     
2711.750027 87.004     341.15     545.008    50.76     
2711.950027 102.996    342.21     579.992    50.74     
2712.150027 82.005     342.37     580        50.73     
2712.350027 96.996     341.96     522.014    50.71     
2712.550027 83.003     341.6      579.986    50.69     
2712.750027 99.996     341.15     580        50.67     
2712.950028 107.998    340.5      570.002    50.66     
2713.150028 143.991    340.13     510.014    50.66     
2713.350028 4887.861   339.7      579.983    50.66     
2713.550028 3009.451   340.1      533.011    50.65     
2713.750028 463.611    339.24     579.989    50.64     
2713.950028 143.077    340.35     568.003    50.62     
2714.150028 81.015     341.04     579.997    50.6      
2714.350028 98.996     341.55     560.005    50.57     
2714.550028 99         341.91     520.01     50.55     
2714.750028 108.998    342.25     559.99     50.55     
2714.950028 86.006     343.04     538.005    50.52     
2715.150029 80.001     342.79     567.993    50.51     
2715.350029 89.998     343.51     522.011    50.5      
