~Version
 VERS              .         2.0                           : CWLS LOG ASCII STANDARD - VERSION 2.0
 WRAP              .         NO                            : ONE LINE PER DEPTH STEP
 DLM               .         SPACE                         : DELIMITING CHARACTER(SPACE TAB OR COMMA)
~Well Information
#_______________________________________________________________________________
#
#PARAMETER_NAME    .UNIT     VALUE                         : DESCRIPTION
#_______________________________________________________________________________
STRT               .M        2650.8                        : First reference value
STOP               .M        2752.199899                   : Last reference value
STEP               .M        0.1999998                     : Step increment
NULL               .         -9999                         : Missing value
COMP               .                                       : Company
WELL               .         616                           : Well name
FLD                .                                       : Field
LOC                .                                       : Location
CNTY               .                                       : County
STAT               .                                       : State
CTRY               .                                       : Country
SRVC               .                                       : Service Company
DATE               .                                       : Date
API                .                                       : API number
PROJECT_UPGRADE_TIME .         2021-03-18T21_24_50           : 
group              .         Good                          : 
~Parameter Information Block
#_______________________________________________________________________________
#
#PARAMETER_NAME    .UNIT     VALUE                         : DESCRIPTION
#_______________________________________________________________________________
SET                .         D4415_D                       : 
OTHER              .         Запись производится в присутствии: 
OTHER_10           .         Максимальная температура      : 
OTHER_11           .         Тип промывочной жидкости      : 
OTHER_12           .         Сопротивление ПЖ (Ом*м) при 20°C: 
OTHER_13           .         Плотность ПЖ(г/см3)           : 
OTHER_14           .         Вязкость ПЖ(с)                : 
OTHER_15           .         Водоотдача ПЖ(см3/30мин)      : 
OTHER_16           .         Уровень ПЖ                    : 
OTHER_17           .         Нефть ПЖ (%)                  : 
OTHER_18           .         Барит ПЖ (%)                  : 
OTHER_19           .         Гематит ПЖ (%)                : 
OTHER_2            .         Заказчик ННСН  ЦДНГ-1         : 
OTHER_20           .         КМЦ ПЖ (%)                    : 
OTHER_21           .         Разгазирование ПЖ (да,нет)    : 
OTHER_22           .         Подъемник                     : 
OTHER_23           .         Лаборатория                   : 
OTHER_24           .         Тип кабеля                    : 
OTHER_25           .         Длина кабеля (м)              : 
OTHER_26           .         Цена последней метки          : 
OTHER_27           .         Цена контрольной метки        : 
OTHER_28           .         Диаметр долота (мм)           : 
OTHER_29           .         Глубина бурения (м)           : 
OTHER_3            .         Площадь                       : 
OTHER_30           .         Искусственный забой (м)       : 
OTHER_31           .         Диаметр колонны (мм)          : 
OTHER_32           .         Толщина колонны (мм)          : 
OTHER_33           .         Башмак колонны (м)            : 
OTHER_34           .         Диаметр НКТ (мм)              : 
OTHER_35           .         Толщина НКТ (мм)              : 
OTHER_36           .         Воронка НКТ (м)               : 
OTHER_37           .         Дата цементожа                : 
OTHER_38           .         Тип, количество(т) и плотность цемента: 
OTHER_39           .         Интервалы перфорации (м)      : 
OTHER_4            .         Категория                     : 
OTHER_40           .         Направление, диаметр (мм)     : 
OTHER_41           .         Направление, глубина (м)      : 
OTHER_42           .         Кондуктор, диаметр (мм)       : 
OTHER_43           .         Кондуктор, глубина (м)        : 
OTHER_44           .         Техническая колонна, диаметр (мм): 
OTHER_45           .         Техническая колонна, глубина (м): 
OTHER_46           .         Эксплуатационная колонна, диаметр (мм): 
OTHER_47           .         Эксплуатационная колонна, глубина (м): 
OTHER_48           .         Программа Кедр-02 версия 3.4  : 
OTHER_49           .         Операционная система Windows NT 5.1 build 2600 Service Pack 2: 
OTHER_5            .         Назначение исследований       : 
OTHER_50           .         Программное обеспечение станции MONITOR-386EX 25/12/99 15_08_10   BGF V54 20/09/05 15_32_17   3.3__BGF_9030071: 
OTHER_51           .         Kedr.exe версия 3.4.2.74      : 
OTHER_52           .         KedrData.dll версия 3.4.2.29  : 
OTHER_53           .         Мнемоники версия 3.18 S       : 
OTHER_54           .         Драйвер версия 2.1.1.4        : 
OTHER_55           .         LasInf.dll 4.3.0.35           : 
OTHER_56           .         Прибор_ КСА-Т4                : 
OTHER_57           .         Номер прибора_ 160            : 
OTHER_58           .         Режим_ КСА-Т4                 : 
OTHER_59           .         Форма_ С.А.Б.                 : 
OTHER_6            .         Альтитуда стола ротора        : 
OTHER_60           .         Тарировки_                    : 
OTHER_61           .         <_techsia_sc_> Дата тарировки температуры 25.05.2010: 
OTHER_62           .         Ручной ввод коэффициентов     : 
OTHER_63           .         TM.DEGC = 0.00402*RTM.E.ACP + -0.994: 
OTHER_64           .         <_techsia_sc_> Дата тарировки давления 25.05.2010: 
OTHER_65           .         Ручной ввод коэффициентов     : 
OTHER_66           .         MN.ATM = (2.27521e-006*TM.DEGC + 0.02078)*(RMN.E.ACP + 6.2*TM.DEGC + -1688): 
OTHER_67           .         <_techsia_sc_> Дата тарировки ГК 25.05.2010: 
OTHER_68           .         Ручной ввод коэффициентов     : 
OTHER_69           .         GR.UR/H = RGR.IMP/MIN / 45.5144: 
OTHER_7            .         Вид исследований 3  6         : 
OTHER_70           .         GK.FLT = 0.1*GR.UR/H[-1] + (1-0.1)*GR.UR/H[0]: 
OTHER_8            .         Начало бурения интервала каротажа: 
OTHER_9            .         Окончание бурения интервала каротажа: 
PROJECT_UPGRADE_TIME .         2021-03-18T21_24_50           : 
TLFamily_CCLC      .                                       : 
TLFamily_DEPT      .         Measured Depth                : 
TLFamily_GK        .         Gamma Ray                     : 
TLFamily_GR        .         Gamma Ray                     : 
TLFamily_METKA     .                                       : 
TLFamily_MN        .                                       : 
TLFamily_RCOR      .                                       : 
TLFamily_RGR       .                                       : 
TLFamily_RMN       .                                       : 
TLFamily_RTEN      .                                       : 
TLFamily_RTM       .                                       : 
TLFamily_SPEE      .         Cable Speed                   : 
TLFamily_TIME      .         Time                          : 
TLFamily_TM        .         Temperature                   : 
group              .         prim                          : 
~Curve Information
#_______________________________________________________________________________
#
#LOGNAME           .UNIT     LOG_ID                        : DESCRIPTION
#_______________________________________________________________________________
DEPT               .M                                      : 1 Глубина, м -    0.0 см 
CCLC               .E.ACP                                  : 9 Локатор муфт,  -   20.0 см 
GK                 .FLT                                    : 14 Гамма-активность фильтрованная, мкр./ч -  110.0 см 
GR                 .UR/H                                   : 13 Гамма-активность, мкр./ч -  110.0 см 
METKA              .CU                                     : 3 Метки,  -    0.0 см 
MN                 .ATM                                    : 12 Давление, атм. -  160.0 см 
RCOR               .CM/KM                                  : 5 Коррекция по ролику, см/км -    0.0 см 
RGR                .IMP/MIN                                : 10 Гамма-активность, усл.ед. -  110.0 см 
RMN                .E.ACP                                  : 8 Давление, усл.ед. -  160.0 см 
RTEN               .T                                      : 6 Натяжение кабеля, т -    0.0 см 
RTM                .E.ACP                                  : 7 Температура, усл.ед. -  170.0 см 
SPEE               .M/H                                    : 2 Скорость, м/час -    0.0 см 
TIME               .S                                      : 4 Время, сек -    0.0 см 
TM                 .DEGC                                   : 11 Температура, °C -  170.0 см 
~Ascii
# ...
2681.999969 187        5.84       5.84       0          241.574    -1093      266        12830      0.25       16356      592        191.86     64.757    
2682.199969 160        6          6          0          241.574    -1093      273        12830      0.25       16355      593        193.08     64.753    
2682.399968 149        6          6          0          241.609    -1093      273        12832      0.25       16355      593        194.27     64.753    
2682.599968 85         6.57       6.57       0          241.636    -1093      299        12833      0.25       16354      593        195.47     64.75     
2682.799968 105        6.57       6.57       0          241.635    -1093      299        12833      0.25       16353      593        196.72     64.746    
2682.999968 71         7.36       7.36       0          241.656    -1093      335        12834      0.25       16353      591        197.95     64.745    
2683.199968 182        7.36       7.36       0          241.669    -1093      335        12835      0.25       16352      591        199.19     64.74     
2683.399967 129        6.99       6.99       0          241.694    -1093      318        12836      0.25       16351      590        200.38     64.737    
2683.599967 233        6.99       6.99       0          241.718    -1093      318        12837      0.25       16350      592        201.58     64.733    
2683.799967 244        6.77       6.77       0          241.727    -1093      308        12838      0.25       16350      591        202.85     64.733    
2683.999967 289        6.77       6.77       0          241.751    -1093      308        12839      0.25       16348      592        204.06     64.725    
2684.199967 290        6.96       6.96       0          241.775    -1093      317        12840      0.25       16347      592        205.25     64.721    
2684.399966 287        6.96       6.96       0          241.781    -1093      317        12840      0.25       16347      592        206.49     64.719    
2684.599966 250        7.16       7.16       0          241.82     -1093      326        12842      0.25       16346      592        207.75     64.717    
2684.799966 239        7.16       7.16       0          241.834    -1093      326        12843      0.25       16347      592        208.98     64.721    
2684.999966 237        7.43       7.43       0          241.84     -1093      338        12843      0.25       16346      594        210.16     64.717    
2685.199966 181        7.43       7.43       1          241.861    -1093      338        12844      0.25       16346      593        211.41     64.715    
2685.399965 170        6.79       6.79       0          241.881    -1093      309        12845      0.25       16344      593        212.61     64.71     
2685.599965 109        6.79       6.79       0          241.902    -1093      309        12846      0.25       16344      593        213.86     64.709    
2685.799965 267        6.53       6.53       0          241.916    -1093      297        12847      0.25       16344      592        215.06     64.709    
2685.999965 318        6.53       6.53       2          241.943    -1091      297        12848      0.25       16343      592        216.15     64.705    
2686.199965 296        6.58       6.58       0          241.964    -1090      300        12849      0.25       16343      592        217.29     64.705    
2686.399964 231        6.7        6.7        0          241.985    -1090      305        12850      0.25       16343      591        218.53     64.705    
2686.599964 3291       7.66       7.66       0          242        -1090      348        12851      0.25       16343      591        219.79     64.705    
2686.799964 2054       7.84       7.84       0          242.004    -1090      357        12851      0.25       16342      592        220.99     64.699    
2686.999964 596        8.27       8.27       0          242.045    -1090      377        12853      0.25       16339      592        222.19     64.691    
2687.199964 198        9.34       9.34       0          242.054    -1090      425        12854      0.25       16338      592        223.41     64.685    
2687.399963 157        9.42       9.42       0          242.079    -1090      429        12855      0.25       16337      592        224.7      64.681    
2687.599963 133        9.84       9.84       0          242.085    -1090      448        12855      0.25       16337      593        225.91     64.68     
2687.799963 103        9.84       9.84       0          242.105    -1090      448        12856      0.25       16335      593        227.1      64.673    
2687.999963 117        9.18       9.18       0          242.125    -1090      418        12857      0.25       16334      593        228.3      64.669    
2688.199963 72         9.18       9.18       0          242.148    -1090      418        12858      0.25       16332      592        229.5      64.661    
2688.399962 92         8.7        8.7        0          242.165    -1090      396        12859      0.25       16331      593        230.75     64.657    
2688.599962 114        8.7        8.7        0          242.185    -1090      396        12860      0.25       16329      593        231.99     64.649    
2688.799962 110        9.32       9.32       0          242.205    -1090      424        12861      0.25       16327      594        233.18     64.641    
2688.999962 123        9.32       9.32       0          242.225    -1090      424        12862      0.25       16326      594        234.41     64.637    
2689.199962 90         9.56       9.56       0          242.232    -1090      435        12862      0.25       16325      593        235.67     64.632    
2689.399961 88         9.56       9.56       0          242.266    -1090      435        12864      0.25       16324      595        236.87     64.628    
2689.599961 98         9.32       9.32       0          242.286    -1090      424        12865      0.25       16323      594        238.06     64.624    
2689.799961 106        9.32       9.32       0          242.285    -1090      424        12865      0.25       16322      594        239.27     64.619    
2689.999961 160        9.47       9.47       0          242.308    -1090      431        12866      0.26       16320      594        240.46     64.614    
2690.199961 113        9.47       9.47       0          242.333    -1090      431        12867      0.26       16318      595        241.76     64.605    
2690.39996 154        9.84       9.84       0          242.344    -1090      448        12868      0.26       16316      594        242.96     64.596    
2690.59996 265        9.84       9.84       0          242.364    -1090      448        12869      0.26       16314      595        244.17     64.588    
2690.79996 202        10.04      10.04      0          242.387    -1090      457        12870      0.25       16312      594        245.38     64.58     
2690.99996 190        10.04      10.04      0          242.41     -1090      457        12871      0.25       16310      594        246.63     64.573    
2691.19996 95         10.33      10.33      0          242.422    -1090      470        12872      0.25       16308      593        247.83     64.564    
2691.399959 100        10.33      10.33      0          242.442    -1090      470        12873      0.25       16304      593        249.03     64.548    
2691.599959 94         10.46      10.46      0          242.46     -1090      476        12874      0.25       16302      593        250.24     64.541    
2691.799959 104        10.46      10.46      0          242.479    -1090      476        12875      0.25       16298      594        251.48     64.525    
2691.999959 148        10.41      10.41      0          242.486    -1090      474        12875      0.25       16295      593        252.75     64.513    
2692.199959 103        10.41      10.41      0          242.503    -1090      474        12876      0.25       16292      594        253.94     64.5      
