~Version
 VERS              .         2.0                           : CWLS LOG ASCII STANDARD - VERSION 2.0
 WRAP              .         NO                            : ONE LINE PER DEPTH STEP
 DLM               .         SPACE                         : DELIMITING CHARACTER(SPACE TAB OR COMMA)
~Well Information
#_______________________________________________________________________________
#
#PARAMETER_NAME    .UNIT     VALUE                         : DESCRIPTION
#_______________________________________________________________________________
STRT               .M        2669.8                        : First reference value
STOP               .M        2775.8                        : Last reference value
STEP               .M        0.2                           : Step increment
NULL               .         -9999                         : Missing value
COMP               .                                       : Company
WELL               .         616                           : Well name
FLD                .                                       : Field
LOC                .                                       : Location
CNTY               .                                       : County
STAT               .                                       : State
CTRY               .                                       : Country
SRVC               .                                       : Service Company
DATE               .                                       : Date
API                .                                       : API number
PROJECT_UPGRADE_TIME .         2021-03-18T21_24_50           : 
group              .         Good                          : 
~Parameter Information Block
#_______________________________________________________________________________
#
#PARAMETER_NAME    .UNIT     VALUE                         : DESCRIPTION
#_______________________________________________________________________________
SET                .         D1812_D                       : 
OTHER              .         Программное обеспечение станции MONITOR-386EX 25/12/99 15_08_10   BGF V52 22/08/01 16_56_30   3.1_SNGF___BGF_N_092049: 
OTHER_10           .         Тарировки_                    : 
OTHER_11           .         TM.GRD = 0.00403*TM$.UE + -1.07: 
OTHER_12           .         MN.ATM = (9.34907e-006*TM.GRD + 0.02171)*(MN$.UE + -7.93*TM.GRD + -1787): 
OTHER_13           .         GK.MKR/H = LM. / 42.4676      : 
OTHER_14           .         GK.FLT = 0.1*GK.MKR/H[-1] + (1-0.1)*GK.MKR/H[0]: 
OTHER_2            .         Kedr.exe версия 3.4.2.51      : 
OTHER_3            .         KedrData.dll версия 3.4.2.24  : 
OTHER_4            .         Драйвер версия 2.1.1.3        : 
OTHER_5            .         Мнемоники версия 3.3 S        : 
OTHER_6            .         Прибор_ КСА-Т4                : 
OTHER_7            .         Номер прибора_ 03             : 
OTHER_8            .         Режим_ КСА-Т4                 : 
OTHER_9            .         Форма_ КВА.                   : 
PROJECT_UPGRADE_TIME .         2021-03-18T21_24_49           : 
TLFamily_DEPT      .         Measured Depth                : 
TLFamily_GK        .         Gamma Ray                     : 
TLFamily_GK$       .                                       : 
TLFamily_GK_2      .         Gamma Ray                     : 
TLFamily_LM        .         Casing Collar locator         : 
TLFamily_METKA     .                                       : 
TLFamily_MN        .                                       : 
TLFamily_MN$       .                                       : 
TLFamily_RCOR      .                                       : 
TLFamily_SPID      .         Spontaneous Potential         : 
TLFamily_TENS      .         Cable Tension                 : 
TLFamily_TIME      .         Time                          : 
TLFamily_TM        .         Temperature                   : 
TLFamily_TM$       .         Temperature                   : 
group              .         prim                          : 
~Curve Information
#_______________________________________________________________________________
#
#LOGNAME           .UNIT     LOG_ID                        : DESCRIPTION
#_______________________________________________________________________________
DEPT               .M                                      : 1 Глубина, м -    0.0 см 
GK                 .MKR/H                                  : 13 Гамма-активность, мкр./ч -  110.0 см 
GK$                .UE                                     : 10 Гамма-активность, усл.ед. -  110.0 см 
GK_2               .FLT                                    : 14 Гамма-активность фильтрованная, мкр./ч -  110.0 см 
LM                 .                                       : 9 Локатор муфт,  -   20.0 см 
METKA              .                                       : 3 Метки,  -    0.0 см 
MN                 .ATM                                    : 12 Давление, атм. -  160.0 см 
MN$                .UE                                     : 8 Давление, усл.ед. -  160.0 см 
RCOR               .CM/KM                                  : 5 Коррекция по ролику, см/км -    0.0 см 
SPID               .M/H                                    : 2 Скорость, м/час -    0.0 см 
TENS               .T                                      : 6 Натяжение кабеля, т -    0.0 см 
TIME               .S                                      : 4 Время, сек -    0.0 см 
TM                 .GRD                                    : 11 Температура, °C -  170.0 см 
TM$                .UE                                     : 7 Температура, усл.ед. -  170.0 см 
~Ascii
# ...
2690.6     10.88      462        10.6       204        0          247.173    13332      -611       527        0.05       7204.5     50.859     12886     
2690.8     10.88      462        10.87      221        0          247.207    13333      -611       531        0.05       7205.88    50.852     12884     
2691       11.49      488        11.34      221        0          247.218    13334      -611       527        0.05       7207.2     50.844     12882     
2691.2     11.49      488        11.49      162        0          247.234    13334      -611       540        0.05       7208.48    50.835     12880     
2691.4     10.69      454        10.72      196        0          247.253    13335      -611       531        0.05       7209.83    50.821     12876     
2691.6     10.68      454        10.69      174        0          247.291    13337      -611       530        0.05       7211.2     50.814     12874     
2691.8     10.64      452        10.64      195        0          247.299    13337      -611       525        0.05       7212.53    50.804     12872     
2692       10.13      430        10.3       199        0          247.322    13338      -611       529        0.05       7213.83    50.792     12869     
2692.2     10.13      430        10.13      200        0          247.345    13339      -611       527        0.05       7215.2     50.784     12867     
2692.4     9.73       413        9.86       214        0          247.345    13339      -611       537        0.05       7216.52    50.776     12865     
2692.6     9.73       413        9.73       191        0          247.368    13340      -611       535        0.05       7217.83    50.768     12863     
2692.8     10.88      462        10.56      294        0          247.391    13341      -611       546        0.05       7219.22    50.757     12860     
2693       10.88      462        10.87      2208       0          247.414    13342      -611       538        0.05       7220.49    50.747     12858     
2693.2     9.87       419        9.96       894        0          247.429    13343      -611       538        0.05       7221.91    50.727     12853     
2693.4     9.87       419        9.87       306        0          247.442    13343      -611       525        0.05       7223.22    50.73      12854     
2693.6     9.21       391        9.26       185        0          247.482    13345      -611       536        0.05       7224.54    50.72      12851     
2693.8     9.21       391        9.21       140        0          247.483    13345      -611       532        0.05       7225.91    50.711     12849     
2694       10.71      455        10.6       167        0          247.524    13347      -611       533        0.05       7227.23    50.707     12848     
2694.2     10.79      458        10.76      217        0          247.536    13347      -611       535        0.05       7228.54    50.699     12846     
2694.4     11.07      470        11.06      206        0          247.574    13349      -611       535        0.05       7229.92    50.687     12843     
2694.6     11.17      475        11.13      219        0          247.575    13349      -611       534        0.05       7231.24    50.673     12839     
2694.8     11.28      479        11.28      219        0          247.575    13349      -611       543        0.05       7232.59    50.662     12837     
2695       11.82      502        11.62      231        0          247.598    13350      -611       538        0.05       7233.93    50.652     12834     
2695.2     12.36      525        12.34      175        0          247.621    13351      -611       539        0.05       7235.28    50.645     12833     
2695.4     11.87      504        11.97      113        0          247.64     13352      -611       533        0.05       7236.61    50.639     12831     
2695.6     11.87      504        11.87      159        0          247.667    13353      -611       542        0.05       7237.92    50.627     12828     
2695.8     10.38      441        10.65      255        0          247.667    13353      -611       539        0.05       7239.26    50.618     12826     
2696       10.38      441        10.39      211        0          247.701    13355      -611       536        0.05       7240.61    50.608     12823     
2696.2     10.76      457        10.71      205        0          247.713    13355      -611       538        0.05       7241.93    50.603     12822     
2696.4     10.76      457        10.76      161        0          247.748    13357      -611       538        0.05       7243.24    50.599     12821     
2696.6     11.44      486        11.41      139        0          247.758    13357      -611       524        0.05       7244.68    50.589     12819     
2696.8     11.44      486        11.44      162        0          247.781    13358      -611       532        0.05       7246       50.574     12815     
2697       11.47      487        11.47      216        0          247.782    13358      -611       531        0.05       7247.31    50.564     12812     
2697.2     11.47      487        11.47      197        0          247.805    13359      -611       537        0.05       7248.63    50.558     12811     
2697.4     12.27      521        12.24      228        0          247.827    13360      -611       541        0.05       7249.94    50.552     12809     
2697.6     12.57      534        12.46      193        0          247.85     13361      -611       545        0.05       7251.28    50.541     12807     
2697.8     12.57      534        12.57      156        0          247.873    13362      -611       541        0.05       7252.63    50.534     12805     
2698       13.3       565        13.06      154        0          247.874    13362      -611       538        0.05       7253.94    50.525     12803     
2698.2     13.3       565        13.3       148        0          247.914    13364      -611       532        0.05       7255.33    50.514     12800     
2698.4     13.63      579        13.53      121        0          247.942    13365      -611       535        0.05       7256.63    50.504     12797     
2698.6     13.63      579        13.63      197        0          247.964    13366      -611       540        0.05       7258.01    50.494     12795     
2698.8     11.14      473        11.44      281        0          247.98     13367      -611       543        0.05       7259.31    50.486     12793     
2699       11.14      473        11.15      223        0          247.984    13367      -611       540        0.05       7260.64    50.478     12791     
2699.2     8.62       366        8.85       161        0          247.989    13367      -611       536        0.05       7262.02    50.467     12788     
2699.4     8.62       366        8.62       150        0          248.011    13368      -611       535        0.05       7263.29    50.457     12786     
2699.6     7.51       319        7.6        148        0          248.045    13370      -611       532        0.05       7264.64    50.45      12784     
2699.8     7.51       319        7.51       166        0          248.061    13370      -611       525        0.05       7266.06    50.439     12781     
2700       7.51       319        7.51       174        2          248.08     13371      -611       532        0.05       7267.34    50.433     12780     
2700.2     7.56       321        7.54       171        0          248.102    13372      -619       536        0.05       7269.2     50.423     12777     
2700.4     7.79       331        7.79       162        0          248.121    13373      -619       528        0.05       7270.57    50.417     12776     
2700.6     7.74       329        7.76       187        0          248.148    13374      -619       541        0.05       7271.9     50.413     12775     
2700.8     7.51       319        7.52       193        0          248.17     13375      -619       537        0.05       7273.21    50.405     12773     
