~Version
 VERS              .         2.0                           : CWLS LOG ASCII STANDARD - VERSION 2.0
 WRAP              .         NO                            : ONE LINE PER DEPTH STEP
 DLM               .         SPACE                         : DELIMITING CHARACTER(SPACE TAB OR COMMA)
~Well Information
#_______________________________________________________________________________
#
#PARAMETER_NAME    .UNIT     VALUE                         : DESCRIPTION
#_______________________________________________________________________________
STRT               .M        2650.8                        : First reference value
STOP               .M        2752.199899                   : Last reference value
STEP               .M        0.1999998                     : Step increment
NULL               .         -9999                         : Missing value
COMP               .                                       : Company
WELL               .         616                           : Well name
FLD                .                                       : Field
LOC                .                                       : Location
CNTY               .                                       : County
STAT               .                                       : State
CTRY               .                                       : Country
SRVC               .                                       : Service Company
DATE               .                                       : Date
API                .                                       : API number
PROJECT_UPGRADE_TIME .         2021-03-18T21_24_50           : 
group              .         Good                          : 
~Parameter Information Block
#_______________________________________________________________________________
#
#PARAMETER_NAME    .UNIT     VALUE                         : DESCRIPTION
#_______________________________________________________________________________
SET                .         D4415_D                       : 
OTHER              .         Запись производится в присутствии: 
OTHER_10           .         Максимальная температура      : 
OTHER_11           .         Тип промывочной жидкости      : 
OTHER_12           .         Сопротивление ПЖ (Ом*м) при 20°C: 
OTHER_13           .         Плотность ПЖ(г/см3)           : 
OTHER_14           .         Вязкость ПЖ(с)                : 
OTHER_15           .         Водоотдача ПЖ(см3/30мин)      : 
OTHER_16           .         Уровень ПЖ                    : 
OTHER_17           .         Нефть ПЖ (%)                  : 
OTHER_18           .         Барит ПЖ (%)                  : 
OTHER_19           .         Гематит ПЖ (%)                : 
OTHER_2            .         Заказчик ННСН  ЦДНГ-1         : 
OTHER_20           .         КМЦ ПЖ (%)                    : 
OTHER_21           .         Разгазирование ПЖ (да,нет)    : 
OTHER_22           .         Подъемник                     : 
OTHER_23           .         Лаборатория                   : 
OTHER_24           .         Тип кабеля                    : 
OTHER_25           .         Длина кабеля (м)              : 
OTHER_26           .         Цена последней метки          : 
OTHER_27           .         Цена контрольной метки        : 
OTHER_28           .         Диаметр долота (мм)           : 
OTHER_29           .         Глубина бурения (м)           : 
OTHER_3            .         Площадь                       : 
OTHER_30           .         Искусственный забой (м)       : 
OTHER_31           .         Диаметр колонны (мм)          : 
OTHER_32           .         Толщина колонны (мм)          : 
OTHER_33           .         Башмак колонны (м)            : 
OTHER_34           .         Диаметр НКТ (мм)              : 
OTHER_35           .         Толщина НКТ (мм)              : 
OTHER_36           .         Воронка НКТ (м)               : 
OTHER_37           .         Дата цементожа                : 
OTHER_38           .         Тип, количество(т) и плотность цемента: 
OTHER_39           .         Интервалы перфорации (м)      : 
OTHER_4            .         Категория                     : 
OTHER_40           .         Направление, диаметр (мм)     : 
OTHER_41           .         Направление, глубина (м)      : 
OTHER_42           .         Кондуктор, диаметр (мм)       : 
OTHER_43           .         Кондуктор, глубина (м)        : 
OTHER_44           .         Техническая колонна, диаметр (мм): 
OTHER_45           .         Техническая колонна, глубина (м): 
OTHER_46           .         Эксплуатационная колонна, диаметр (мм): 
OTHER_47           .         Эксплуатационная колонна, глубина (м): 
OTHER_48           .         Программа Кедр-02 версия 3.4  : 
OTHER_49           .         Операционная система Windows NT 5.1 build 2600 Service Pack 2: 
OTHER_5            .         Назначение исследований       : 
OTHER_50           .         Программное обеспечение станции MONITOR-386EX 25/12/99 15_08_10   BGF V54 20/09/05 15_32_17   3.3__BGF_9030071: 
OTHER_51           .         Kedr.exe версия 3.4.2.74      : 
OTHER_52           .         KedrData.dll версия 3.4.2.29  : 
OTHER_53           .         Мнемоники версия 3.18 S       : 
OTHER_54           .         Драйвер версия 2.1.1.4        : 
OTHER_55           .         LasInf.dll 4.3.0.35           : 
OTHER_56           .         Прибор_ КСА-Т4                : 
OTHER_57           .         Номер прибора_ 160            : 
OTHER_58           .         Режим_ КСА-Т4                 : 
OTHER_59           .         Форма_ С.А.Б.                 : 
OTHER_6            .         Альтитуда стола ротора        : 
OTHER_60           .         Тарировки_                    : 
OTHER_61           .         <_techsia_sc_> Дата тарировки температуры 25.05.2010: 
OTHER_62           .         Ручной ввод коэффициентов     : 
OTHER_63           .         TM.DEGC = 0.00402*RTM.E.ACP + -0.994: 
OTHER_64           .         <_techsia_sc_> Дата тарировки давления 25.05.2010: 
OTHER_65           .         Ручной ввод коэффициентов     : 
OTHER_66           .         MN.ATM = (2.27521e-006*TM.DEGC + 0.02078)*(RMN.E.ACP + 6.2*TM.DEGC + -1688): 
OTHER_67           .         <_techsia_sc_> Дата тарировки ГК 25.05.2010: 
OTHER_68           .         Ручной ввод коэффициентов     : 
OTHER_69           .         GR.UR/H = RGR.IMP/MIN / 45.5144: 
OTHER_7            .         Вид исследований 3  6         : 
OTHER_70           .         GK.FLT = 0.1*GR.UR/H[-1] + (1-0.1)*GR.UR/H[0]: 
OTHER_8            .         Начало бурения интервала каротажа: 
OTHER_9            .         Окончание бурения интервала каротажа: 
PROJECT_UPGRADE_TIME .         2021-03-18T21_24_50           : 
TLFamily_CCLC      .                                       : 
TLFamily_DEPT      .         Measured Depth                : 
TLFamily_GK        .         Gamma Ray                     : 
TLFamily_GR        .         Gamma Ray                     : 
TLFamily_METKA     .                                       : 
TLFamily_MN        .                                       : 
TLFamily_RCOR      .                                       : 
TLFamily_RGR       .                                       : 
TLFamily_RMN       .                                       : 
TLFamily_RTEN      .                                       : 
TLFamily_RTM       .                                       : 
TLFamily_SPEE      .         Cable Speed                   : 
TLFamily_TIME      .         Time                          : 
TLFamily_TM        .         Temperature                   : 
group              .         prim                          : 
~Curve Information
#_______________________________________________________________________________
#
#LOGNAME           .UNIT     LOG_ID                        : DESCRIPTION
#_______________________________________________________________________________
DEPT               .M                                      : 1 Глубина, м -    0.0 см 
CCLC               .E.ACP                                  : 9 Локатор муфт,  -   20.0 см 
GK                 .FLT                                    : 14 Гамма-активность фильтрованная, мкр./ч -  110.0 см 
GR                 .UR/H                                   : 13 Гамма-активность, мкр./ч -  110.0 см 
METKA              .CU                                     : 3 Метки,  -    0.0 см 
MN                 .ATM                                    : 12 Давление, атм. -  160.0 см 
RCOR               .CM/KM                                  : 5 Коррекция по ролику, см/км -    0.0 см 
RGR                .IMP/MIN                                : 10 Гамма-активность, усл.ед. -  110.0 см 
RMN                .E.ACP                                  : 8 Давление, усл.ед. -  160.0 см 
RTEN               .T                                      : 6 Натяжение кабеля, т -    0.0 см 
RTM                .E.ACP                                  : 7 Температура, усл.ед. -  170.0 см 
SPEE               .M/H                                    : 2 Скорость, м/час -    0.0 см 
TIME               .S                                      : 4 Время, сек -    0.0 см 
TM                 .DEGC                                   : 11 Температура, °C -  170.0 см 
~Ascii
# ...
2713.199938 81         14.08      14.08      0          244.189    -1093      641        12979      0.25       15558      580        383.11     61.549    
2713.399937 93         14.08      14.08      0          244.208    -1093      641        12980      0.25       15550      580        384.3      61.518    
2713.599937 135        13.03      13.03      0          244.242    -1093      593        12982      0.25       15543      581        385.63     61.487    
2713.799937 109        13.03      13.03      0          244.251    -1093      593        12983      0.25       15536      580        386.83     61.461    
2713.999937 61         13.64      13.64      0          244.272    -1093      621        12984      0.25       15524      580        388.08     61.413    
2714.199937 140        13.64      13.64      0          244.288    -1093      621        12985      0.25       15516      580        389.34     61.378    
2714.399936 3221       11.42      11.42      0          244.294    -1093      520        12986      0.25       15507      580        390.55     61.344    
2714.599936 1429       11.42      11.42      0          244.315    -1093      520        12987      0.25       15498      579        391.88     61.31     
2714.799936 401        7.47       7.47       0          244.315    -1093      340        12987      0.25       15488      579        393.11     61.27     
2714.999936 161        7.47       7.47       0          244.339    -1093      340        12989      0.25       15478      580        394.33     61.226    
2715.199936 92         6.59       6.59       0          244.36     -1093      300        12990      0.25       15465      579        395.59     61.175    
2715.399935 100        6.59       6.59       0          244.376    -1093      300        12991      0.25       15456      580        396.85     61.139    
2715.599935 63         7.65       7.65       0          244.413    -1093      348        12993      0.25       15449      579        398.11     61.109    
2715.799935 60         7.65       7.65       0          244.422    -1093      348        12994      0.25       15441      579        399.38     61.079    
2715.999935 56         8.92       8.92       2          244.439    -1092      406        12995      0.25       15431      578        400.56     61.039    
2716.199935 83         8.92       8.92       0          244.457    -1091      406        12996      0.25       15421      579        401.7      60.997    
2716.399934 79         12.9       12.9       0          244.461    -1091      587        12997      0.25       15409      579        403.03     60.95     
2716.599934 67         12.9       12.9       0          244.482    -1091      587        12998      0.25       15395      581        404.22     60.895    
2716.799934 108        14.41      14.41      0          244.482    -1091      656        12998      0.25       15382      580        405.49     60.842    
2716.999934 58         14.41      14.41      0          244.508    -1091      656        13000      0.25       15370      579        406.75     60.792    
2717.199934 57         10.96      10.96      0          244.534    -1091      499        13002      0.25       15353      580        408        60.725    
2717.399933 58         10.96      10.96      0          244.549    -1091      499        13003      0.25       15334      580        409.27     60.651    
2717.599933 62         9.62       9.62       0          244.549    -1091      438        13003      0.25       15323      579        410.48     60.606    
2717.799933 45         9.62       9.62       0          244.561    -1091      438        13004      0.25       15311      579        411.72     60.555    
2717.999933 48         9.45       9.45       0          244.581    -1091      430        13006      0.25       15294      579        412.99     60.489    
2718.199933 56         9.45       9.45       0          244.573    -1091      430        13006      0.25       15275      578        414.27     60.41     
2718.399932 46         9.49       9.49       0          244.589    -1091      432        13007      0.25       15257      580        415.5      60.339    
2718.599932 80         9.49       9.49       0          244.588    -1091      432        13008      0.25       15236      580        416.77     60.255    
2718.799932 89         9.58       9.58       0          244.618    -1091      436        13010      0.25       15215      580        417.95     60.171    
2718.999932 64         9.58       9.58       0          244.628    -1091      436        13011      0.25       15196      578        419.27     60.094    
2719.199932 85         9.58       9.58       0          244.64     -1091      436        13012      0.25       15179      579        420.53     60.026    
2719.399931 79         9.58       9.58       0          244.667    -1091      436        13014      0.25       15164      580        421.77     59.966    
2719.599931 78         10.24      10.24      0          244.659    -1091      466        13014      0.25       15145      580        423        59.891    
2719.799931 162        10.24      10.24      0          244.683    -1091      466        13016      0.25       15129      580        424.25     59.825    
2719.999931 108        10.74      10.74      0          244.708    -1091      489        13017      0.25       15119      580        425.52     59.783    
2720.199931 66         10.74      10.74      0          244.704    -1091      489        13017      0.25       15109      580        426.78     59.744    
2720.39993 110        10.72      10.72      0          244.735    -1091      488        13019      0.25       15097      580        427.98     59.698    
2720.59993 115        10.72      10.72      0          244.744    -1091      488        13020      0.25       15083      579        429.24     59.64     
2720.79993 77         9.82       9.82       0          244.758    -1091      447        13021      0.25       15064      580        430.53     59.563    
2720.99993 78         9.82       9.82       0          244.776    -1091      447        13022      0.25       15050      581        431.75     59.506    
2721.19993 89         9.23       9.23       0          244.794    -1091      420        13024      0.25       15036      582        433.01     59.451    
2721.399929 101        9.23       9.23       0          244.795    -1091      420        13024      0.25       15025      583        434.21     59.407    
2721.599929 64         9.73       9.73       0          244.816    -1091      443        13025      0.25       15015      582        435.47     59.367    
2721.799929 57         9.73       9.73       0          244.836    -1091      443        13027      0.25       15006      582        436.73     59.33     
2721.999929 70         9.51       9.51       0          244.855    -1091      433        13028      0.25       14990      581        437.98     59.267    
2722.199929 128        9.51       9.51       0          244.87     -1091      433        13029      0.25       14976      581        439.22     59.208    
2722.399928 94         9.67       9.67       0          244.898    -1091      440        13031      0.25       14960      580        440.45     59.144    
2722.599928 69         9.67       9.67       0          244.911    -1091      440        13032      0.25       14946      579        441.72     59.09     
2722.799928 89         11.01      11.01      0          244.924    -1091      501        13033      0.25       14933      579        443        59.037    
2722.999928 69         11.01      11.01      0          244.936    -1091      501        13034      0.25       14920      579        444.23     58.986    
2723.199928 49         11.42      11.42      0          244.948    -1091      520        13035      0.25       14905      580        445.48     58.924    
2723.399927 119        11.42      11.42      0          244.961    -1091      520        13036      0.25       14893      579        446.69     58.876    
