~Version
 VERS              .         2.0                           : CWLS LOG ASCII STANDARD - VERSION 2.0
 WRAP              .         NO                            : ONE LINE PER DEPTH STEP
 DLM               .         SPACE                         : DELIMITING CHARACTER(SPACE TAB OR COMMA)
~Well Information
#_______________________________________________________________________________
#
#PARAMETER_NAME    .UNIT     VALUE                         : DESCRIPTION
#_______________________________________________________________________________
STRT               .M        2700.4                        : First reference value
STOP               .M        2756.2                        : Last reference value
STEP               .M        0.2000002                     : Step increment
NULL               .         -9999                         : Missing value
COMP               .                                       : Company
WELL               .         616                           : Well name
FLD                .                                       : Field
LOC                .                                       : Location
CNTY               .                                       : County
STAT               .                                       : State
CTRY               .                                       : Country
SRVC               .                                       : Service Company
DATE               .                                       : Date
API                .                                       : API number
PROJECT_UPGRADE_TIME .         2021-03-18T21_24_50           : 
group              .         Good                          : 
~Parameter Information Block
#_______________________________________________________________________________
#
#PARAMETER_NAME    .UNIT     VALUE                         : DESCRIPTION
#_______________________________________________________________________________
SET                .         D4405_D                       : 
OTHER              .         Запись производится в присутствии: 
OTHER_10           .         Максимальная температура      : 
OTHER_11           .         Тип промывочной жидкости      : 
OTHER_12           .         Сопротивление ПЖ (Ом*м) при 20°C: 
OTHER_13           .         Плотность ПЖ(г/см3)           : 
OTHER_14           .         Вязкость ПЖ(с)                : 
OTHER_15           .         Водоотдача ПЖ(см3/30мин)      : 
OTHER_16           .         Уровень ПЖ                    : 
OTHER_17           .         Нефть ПЖ (%)                  : 
OTHER_18           .         Барит ПЖ (%)                  : 
OTHER_19           .         Гематит ПЖ (%)                : 
OTHER_2            .         Заказчик ННСН  ЦДНГ-1         : 
OTHER_20           .         КМЦ ПЖ (%)                    : 
OTHER_21           .         Разгазирование ПЖ (да,нет)    : 
OTHER_22           .         Подъемник                     : 
OTHER_23           .         Лаборатория                   : 
OTHER_24           .         Тип кабеля                    : 
OTHER_25           .         Длина кабеля (м)              : 
OTHER_26           .         Цена последней метки          : 
OTHER_27           .         Цена контрольной метки        : 
OTHER_28           .         Диаметр долота (мм)           : 
OTHER_29           .         Глубина бурения (м)           : 
OTHER_3            .         Площадь                       : 
OTHER_30           .         Искусственный забой (м)       : 
OTHER_31           .         Диаметр колонны (мм)          : 
OTHER_32           .         Толщина колонны (мм)          : 
OTHER_33           .         Башмак колонны (м)            : 
OTHER_34           .         Диаметр НКТ (мм)              : 
OTHER_35           .         Толщина НКТ (мм)              : 
OTHER_36           .         Воронка НКТ (м)               : 
OTHER_37           .         Дата цементожа                : 
OTHER_38           .         Тип, количество(т) и плотность цемента: 
OTHER_39           .         Интервалы перфорации (м)      : 
OTHER_4            .         Категория                     : 
OTHER_40           .         Направление, диаметр (мм)     : 
OTHER_41           .         Направление, глубина (м)      : 
OTHER_42           .         Кондуктор, диаметр (мм)       : 
OTHER_43           .         Кондуктор, глубина (м)        : 
OTHER_44           .         Техническая колонна, диаметр (мм): 
OTHER_45           .         Техническая колонна, глубина (м): 
OTHER_46           .         Эксплуатационная колонна, диаметр (мм): 
OTHER_47           .         Эксплуатационная колонна, глубина (м): 
OTHER_48           .         Программа Кедр-02 версия 3.4  : 
OTHER_49           .         Операционная система Windows NT 5.1 build 2600 Service Pack 2: 
OTHER_5            .         Назначение исследований       : 
OTHER_50           .         Программное обеспечение станции MONITOR-386EX 25/12/99 15_08_10   BGF V54 20/09/05 15_32_17   3.3__BGF_9030071: 
OTHER_51           .         Kedr.exe версия 3.4.2.74      : 
OTHER_52           .         KedrData.dll версия 3.4.2.29  : 
OTHER_53           .         Мнемоники версия 3.18 S       : 
OTHER_54           .         Драйвер версия 2.1.1.4        : 
OTHER_55           .         LasInf.dll 4.3.0.35           : 
OTHER_56           .         Прибор_ КСА-Т4                : 
OTHER_57           .         Номер прибора_ 160            : 
OTHER_58           .         Режим_ КСА-Т4                 : 
OTHER_59           .         Форма_ С.А.Б.                 : 
OTHER_6            .         Альтитуда стола ротора        : 
OTHER_60           .         Тарировки_                    : 
OTHER_61           .         <_techsia_sc_> Дата тарировки температуры 25.05.2010: 
OTHER_62           .         Ручной ввод коэффициентов     : 
OTHER_63           .         TM.DEGC = 0.00402*RTM.E.ACP + -0.994: 
OTHER_64           .         <_techsia_sc_> Дата тарировки давления 25.05.2010: 
OTHER_65           .         Ручной ввод коэффициентов     : 
OTHER_66           .         MN.ATM = (2.27521e-006*TM.DEGC + 0.02078)*(RMN.E.ACP + 6.2*TM.DEGC + -1688): 
OTHER_67           .         <_techsia_sc_> Дата тарировки ГК 25.05.2010: 
OTHER_68           .         Ручной ввод коэффициентов     : 
OTHER_69           .         GR.UR/H = RGR.IMP/MIN / 45.5144: 
OTHER_7            .         Вид исследований 3  6         : 
OTHER_70           .         GK.FLT = 0.1*GR.UR/H[-1] + (1-0.1)*GR.UR/H[0]: 
OTHER_8            .         Начало бурения интервала каротажа: 
OTHER_9            .         Окончание бурения интервала каротажа: 
PROJECT_UPGRADE_TIME .         2021-03-18T21_24_50           : 
TLFamily_CCLC      .                                       : 
TLFamily_DEPT      .         Measured Depth                : 
TLFamily_GK        .         Gamma Ray                     : 
TLFamily_GR        .         Gamma Ray                     : 
TLFamily_METKA     .                                       : 
TLFamily_MN        .                                       : 
TLFamily_RCOR      .                                       : 
TLFamily_RGR       .                                       : 
TLFamily_RMN       .                                       : 
TLFamily_RTEN      .                                       : 
TLFamily_RTM       .                                       : 
TLFamily_SPEE      .         Cable Speed                   : 
TLFamily_TIME      .         Time                          : 
TLFamily_TM        .         Temperature                   : 
group              .         prim                          : 
~Curve Information
#_______________________________________________________________________________
#
#LOGNAME           .UNIT     LOG_ID                        : DESCRIPTION
#_______________________________________________________________________________
DEPT               .M                                      : 1 Глубина, м -    0.0 см 
CCLC               .E.ACP                                  : 9 Локатор муфт,  -   20.0 см 
GK                 .FLT                                    : 14 Гамма-активность фильтрованная, мкр./ч -  110.0 см 
GR                 .UR/H                                   : 13 Гамма-активность, мкр./ч -  110.0 см 
METKA              .CU                                     : 3 Метки,  -    0.0 см 
MN                 .ATM                                    : 12 Давление, атм. -  160.0 см 
RCOR               .CM/KM                                  : 5 Коррекция по ролику, см/км -    0.0 см 
RGR                .IMP/MIN                                : 10 Гамма-активность, усл.ед. -  110.0 см 
RMN                .E.ACP                                  : 8 Давление, усл.ед. -  160.0 см 
RTEN               .T                                      : 6 Натяжение кабеля, т -    0.0 см 
RTM                .E.ACP                                  : 7 Температура, усл.ед. -  170.0 см 
SPEE               .M/H                                    : 2 Скорость, м/час -    0.0 см 
TIME               .S                                      : 4 Время, сек -    0.0 см 
TM                 .DEGC                                   : 11 Температура, °C -  170.0 см 
~Ascii
# ...
2731.6     39         7.29       7.29       0          245.94     -1117      332        13149      0.44       12680      -201       416.49     49.98     
2731.8     91         7.51       7.51       0          245.975    -1117      342        13150      0.44       12687      -201       412.99     50.006    
2732       102        7.91       7.91       0          245.99     -1117      360        13151      0.44       12694      -202       409.35     50.036    
2732.2     101        7.69       7.69       0          246.016    -1117      350        13152      0.44       12701      -201       405.84     50.066    
2732.4     116        8.81       8.81       0          246.033    -1117      401        13153      0.44       12710      -201       402.09     50.102    
2732.6     24         9.18       9.18       0          246.063    -1117      418        13154      0.44       12721      -201       398.53     50.144    
2732.8     92         8.92       8.92       0          246.054    -1117      406        13153      0.44       12731      -200       394.97     50.183    
2733       145        8.17       8.17       0          246.081    -1117      372        13154      0.44       12738      -200       391.39     50.213    
2733.2     121        7.96       7.96       0          246.109    -1117      363        13155      0.44       12749      -201       387.64     50.257    
2733.4     74         7.84       7.84       0          246.136    -1117      357        13156      0.44       12758      -201       384.08     50.295    
2733.6     61         8.48       8.48       0          246.142    -1117      386        13156      0.44       12769      -201       380.52     50.337    
2733.8     213        8.59       8.59       0          246.15     -1117      391        13156      0.44       12780      -201       376.94     50.38     
2734       119        8.41       8.41       0          246.177    -1117      383        13157      0.44       12790      -200       373.38     50.424    
2734.2     91         7.8        7.8        0          246.205    -1117      355        13158      0.44       12802      -200       369.63     50.47     
2734.4     103        7.27       7.27       0          246.213    -1117      331        13158      0.44       12813      -201       366.06     50.516    
2734.6     151        9.03       9.03       0          246.241    -1117      411        13159      0.44       12826      -201       362.49     50.567    
2734.8     115        8.17       8.17       0          246.26     -1117      372        13160      0.44       12839      -201       358.92     50.617    
2735       117        6.57       6.57       0          246.279    -1117      299        13160      0.44       12851      -201       355.17     50.669    
2735.2     3232       6.06       6.06       0          246.308    -1117      276        13161      0.44       12865      -200       351.59     50.723    
2735.4     2812       7.58       7.58       0          246.316    -1117      345        13161      0.44       12878      -200       348.02     50.776    
2735.6     83         7.56       7.56       0          246.324    -1117      344        13161      0.44       12891      -200       344.45     50.828    
2735.8     53         7.58       7.58       0          246.355    -1117      345        13162      0.44       12905      -200       340.89     50.884    
2736       207        7.23       7.23       2          246.364    -1112      329        13162      0.44       12920      -200       336.2      50.943    
2736.2     103        6.85       6.85       0          246.396    -1112      312        13163      0.44       12936      -201       332.64     51.009    
2736.4     62         7.36       7.36       0          246.405    -1112      335        13163      0.44       12952      -201       329.06     51.072    
2736.6     202        7.49       7.49       0          246.436    -1112      341        13164      0.44       12967      -200       325.5      51.133    
2736.8     228        7.74       7.74       0          246.457    -1112      352        13165      0.44       12983      -200       321.75     51.199    
2737       86         8.77       8.77       0          246.478    -1112      399        13165      0.44       12999      -200       318.25     51.262    
2737.2     217        8.46       8.46       0          246.488    -1112      385        13165      0.44       13015      -200       314.61     51.328    
2737.4     190        8.5        8.5        0          246.519    -1112      387        13166      0.44       13032      -200       311.05     51.395    
2737.6     79         7.82       7.82       0          246.555    -1112      356        13167      0.44       13051      -201       307.3      51.471    
2737.8     203        8.04       8.04       0          246.566    -1112      366        13167      0.44       13072      -201       303.74     51.556    
2738       182        7.83       7.83       0          246.577    -1112      356        13167      0.44       13090      -200       300.22     51.628    
2738.2     72         8.77       8.77       0          246.589    -1112      399        13167      0.44       13109      -200       296.59     51.704    
2738.4     195        11.29      11.29      0          246.622    -1112      514        13168      0.44       13128      -200       293.03     51.781    
2738.6     196        12.52      12.52      0          246.647    -1112      570        13169      0.44       13146      -200       289.34     51.855    
2738.8     60         13.29      13.29      0          246.667    -1112      605        13169      0.44       13166      -200       285.7      51.933    
2739       266        13.12      13.12      0          246.679    -1112      597        13169      0.45       13185      -200       282.2      52.01     
2739.2     159        13.8       13.8       0          246.712    -1112      628        13170      0.44       13204      -201       278.58     52.086    
2739.4     86         14.06      14.06      0          246.725    -1112      640        13170      0.44       13224      -201       274.83     52.166    
2739.6     275        14.5       14.5       0          246.744    -1112      660        13170      0.44       13244      -200       271.32     52.247    
2739.8     83         13.91      13.91      0          246.751    -1112      633        13170      0.44       13265      -200       267.69     52.331    
2740       192        13.34      13.34      0          246.785    -1112      607        13171      0.44       13285      -200       264.13     52.414    
2740.2     163        14.35      14.35      0          246.799    -1112      653        13171      0.44       13308      -201       260.56     52.504    
2740.4     87         15.16      15.16      0          246.833    -1112      690        13172      0.44       13329      -200       256.81     52.589    
2740.6     218        14.68      14.68      0          246.846    -1112      668        13172      0.44       13351      -200       253.23     52.677    
2740.8     108        12.44      12.44      0          246.86     -1112      566        13172      0.45       13373      -200       249.67     52.766    
2741       277        12.85      12.85      0          246.875    -1112      585        13172      0.45       13394      -200       246.11     52.85     
2741.2     161        10.81      10.81      0          246.909    -1112      492        13173      0.45       13417      -200       242.36     52.942    
2741.4     293        10.26      10.26      0          246.924    -1112      467        13173      0.44       13440      -200       238.8      53.035    
2741.6     246        11.37      11.37      0          246.959    -1112      518        13174      0.45       13462      -200       235.22     53.125    
2741.8     270        11.45      11.45      0          246.973    -1112      521        13174      0.45       13485      -201       231.66     53.216    
