~Version
 VERS              .         2.0                           : CWLS LOG ASCII STANDARD - VERSION 2.0
 WRAP              .         NO                            : ONE LINE PER DEPTH STEP
 DLM               .         SPACE                         : DELIMITING CHARACTER(SPACE TAB OR COMMA)
~Well Information
#_______________________________________________________________________________
#
#PARAMETER_NAME    .UNIT     VALUE                         : DESCRIPTION
#_______________________________________________________________________________
STRT               .M        2650.8                        : First reference value
STOP               .M        2752.199899                   : Last reference value
STEP               .M        0.1999998                     : Step increment
NULL               .         -9999                         : Missing value
COMP               .                                       : Company
WELL               .         616                           : Well name
FLD                .                                       : Field
LOC                .                                       : Location
CNTY               .                                       : County
STAT               .                                       : State
CTRY               .                                       : Country
SRVC               .                                       : Service Company
DATE               .                                       : Date
API                .                                       : API number
PROJECT_UPGRADE_TIME .         2021-03-18T21_24_50           : 
group              .         Good                          : 
~Parameter Information Block
#_______________________________________________________________________________
#
#PARAMETER_NAME    .UNIT     VALUE                         : DESCRIPTION
#_______________________________________________________________________________
SET                .         D4415_D                       : 
OTHER              .         Запись производится в присутствии: 
OTHER_10           .         Максимальная температура      : 
OTHER_11           .         Тип промывочной жидкости      : 
OTHER_12           .         Сопротивление ПЖ (Ом*м) при 20°C: 
OTHER_13           .         Плотность ПЖ(г/см3)           : 
OTHER_14           .         Вязкость ПЖ(с)                : 
OTHER_15           .         Водоотдача ПЖ(см3/30мин)      : 
OTHER_16           .         Уровень ПЖ                    : 
OTHER_17           .         Нефть ПЖ (%)                  : 
OTHER_18           .         Барит ПЖ (%)                  : 
OTHER_19           .         Гематит ПЖ (%)                : 
OTHER_2            .         Заказчик ННСН  ЦДНГ-1         : 
OTHER_20           .         КМЦ ПЖ (%)                    : 
OTHER_21           .         Разгазирование ПЖ (да,нет)    : 
OTHER_22           .         Подъемник                     : 
OTHER_23           .         Лаборатория                   : 
OTHER_24           .         Тип кабеля                    : 
OTHER_25           .         Длина кабеля (м)              : 
OTHER_26           .         Цена последней метки          : 
OTHER_27           .         Цена контрольной метки        : 
OTHER_28           .         Диаметр долота (мм)           : 
OTHER_29           .         Глубина бурения (м)           : 
OTHER_3            .         Площадь                       : 
OTHER_30           .         Искусственный забой (м)       : 
OTHER_31           .         Диаметр колонны (мм)          : 
OTHER_32           .         Толщина колонны (мм)          : 
OTHER_33           .         Башмак колонны (м)            : 
OTHER_34           .         Диаметр НКТ (мм)              : 
OTHER_35           .         Толщина НКТ (мм)              : 
OTHER_36           .         Воронка НКТ (м)               : 
OTHER_37           .         Дата цементожа                : 
OTHER_38           .         Тип, количество(т) и плотность цемента: 
OTHER_39           .         Интервалы перфорации (м)      : 
OTHER_4            .         Категория                     : 
OTHER_40           .         Направление, диаметр (мм)     : 
OTHER_41           .         Направление, глубина (м)      : 
OTHER_42           .         Кондуктор, диаметр (мм)       : 
OTHER_43           .         Кондуктор, глубина (м)        : 
OTHER_44           .         Техническая колонна, диаметр (мм): 
OTHER_45           .         Техническая колонна, глубина (м): 
OTHER_46           .         Эксплуатационная колонна, диаметр (мм): 
OTHER_47           .         Эксплуатационная колонна, глубина (м): 
OTHER_48           .         Программа Кедр-02 версия 3.4  : 
OTHER_49           .         Операционная система Windows NT 5.1 build 2600 Service Pack 2: 
OTHER_5            .         Назначение исследований       : 
OTHER_50           .         Программное обеспечение станции MONITOR-386EX 25/12/99 15_08_10   BGF V54 20/09/05 15_32_17   3.3__BGF_9030071: 
OTHER_51           .         Kedr.exe версия 3.4.2.74      : 
OTHER_52           .         KedrData.dll версия 3.4.2.29  : 
OTHER_53           .         Мнемоники версия 3.18 S       : 
OTHER_54           .         Драйвер версия 2.1.1.4        : 
OTHER_55           .         LasInf.dll 4.3.0.35           : 
OTHER_56           .         Прибор_ КСА-Т4                : 
OTHER_57           .         Номер прибора_ 160            : 
OTHER_58           .         Режим_ КСА-Т4                 : 
OTHER_59           .         Форма_ С.А.Б.                 : 
OTHER_6            .         Альтитуда стола ротора        : 
OTHER_60           .         Тарировки_                    : 
OTHER_61           .         <_techsia_sc_> Дата тарировки температуры 25.05.2010: 
OTHER_62           .         Ручной ввод коэффициентов     : 
OTHER_63           .         TM.DEGC = 0.00402*RTM.E.ACP + -0.994: 
OTHER_64           .         <_techsia_sc_> Дата тарировки давления 25.05.2010: 
OTHER_65           .         Ручной ввод коэффициентов     : 
OTHER_66           .         MN.ATM = (2.27521e-006*TM.DEGC + 0.02078)*(RMN.E.ACP + 6.2*TM.DEGC + -1688): 
OTHER_67           .         <_techsia_sc_> Дата тарировки ГК 25.05.2010: 
OTHER_68           .         Ручной ввод коэффициентов     : 
OTHER_69           .         GR.UR/H = RGR.IMP/MIN / 45.5144: 
OTHER_7            .         Вид исследований 3  6         : 
OTHER_70           .         GK.FLT = 0.1*GR.UR/H[-1] + (1-0.1)*GR.UR/H[0]: 
OTHER_8            .         Начало бурения интервала каротажа: 
OTHER_9            .         Окончание бурения интервала каротажа: 
PROJECT_UPGRADE_TIME .         2021-03-18T21_24_50           : 
TLFamily_CCLC      .                                       : 
TLFamily_DEPT      .         Measured Depth                : 
TLFamily_GK        .         Gamma Ray                     : 
TLFamily_GR        .         Gamma Ray                     : 
TLFamily_METKA     .                                       : 
TLFamily_MN        .                                       : 
TLFamily_RCOR      .                                       : 
TLFamily_RGR       .                                       : 
TLFamily_RMN       .                                       : 
TLFamily_RTEN      .                                       : 
TLFamily_RTM       .                                       : 
TLFamily_SPEE      .         Cable Speed                   : 
TLFamily_TIME      .         Time                          : 
TLFamily_TM        .         Temperature                   : 
group              .         prim                          : 
~Curve Information
#_______________________________________________________________________________
#
#LOGNAME           .UNIT     LOG_ID                        : DESCRIPTION
#_______________________________________________________________________________
DEPT               .M                                      : 1 Глубина, м -    0.0 см 
CCLC               .E.ACP                                  : 9 Локатор муфт,  -   20.0 см 
GK                 .FLT                                    : 14 Гамма-активность фильтрованная, мкр./ч -  110.0 см 
GR                 .UR/H                                   : 13 Гамма-активность, мкр./ч -  110.0 см 
METKA              .CU                                     : 3 Метки,  -    0.0 см 
MN                 .ATM                                    : 12 Давление, атм. -  160.0 см 
RCOR               .CM/KM                                  : 5 Коррекция по ролику, см/км -    0.0 см 
RGR                .IMP/MIN                                : 10 Гамма-активность, усл.ед. -  110.0 см 
RMN                .E.ACP                                  : 8 Давление, усл.ед. -  160.0 см 
RTEN               .T                                      : 6 Натяжение кабеля, т -    0.0 см 
RTM                .E.ACP                                  : 7 Температура, усл.ед. -  170.0 см 
SPEE               .M/H                                    : 2 Скорость, м/час -    0.0 см 
TIME               .S                                      : 4 Время, сек -    0.0 см 
TM                 .DEGC                                   : 11 Температура, °C -  170.0 см 
~Ascii
# ...
2733.999917 221        7.6        7.6        0          245.463    -1091      346        13101      0.25       13534      579        513.08     53.413    
2734.199917 73         7.6        7.6        0          245.469    -1091      346        13102      0.25       13508      579        514.33     53.309    
2734.399916 73         7.84       7.84       0          245.501    -1091      357        13104      0.25       13489      578        515.58     53.231    
2734.599916 105        7.84       7.84       0          245.507    -1091      357        13105      0.25       13476      578        516.87     53.179    
2734.799916 567        8.37       8.37       0          245.472    -1091      381        13106      0.25       13418      578        518.09     52.946    
2734.999916 157        8.37       8.37       0          245.415    -1091      381        13108      0.25       13294      578        519.34     52.446    
2735.199916 145        8.55       8.55       0          245.351    -1091      389        13109      0.25       13144      579        520.59     51.845    
2735.399915 412        8.55       8.55       0          245.349    -1091      389        13111      0.25       13043      579        521.91     51.439    
2735.599915 106        8.41       8.41       0          245.327    -1091      383        13112      0.24       12980      578        523.1      51.185    
2735.799915 92         8.41       8.41       0          245.336    -1091      383        13113      0.24       12934      580        524.35     51.002    
2735.999915 58         8.48       8.48       2          245.365    -1091      386        13115      0.24       12911      579        525.59     50.907    
2736.199915 135        8.48       8.48       0          245.375    -1093      386        13116      0.25       12888      578        527.02     50.816    
2736.399914 7272       8.63       8.63       0          245.4      -1093      393        13118      0.25       12875      577        528.26     50.762    
2736.599914 2079       8.63       8.63       0          245.411    -1093      393        13119      0.25       12849      578        529.5      50.659    
2736.799914 612        6.99       6.99       0          245.426    -1093      318        13121      0.25       12827      578        530.75     50.571    
2736.999914 187        6.99       6.99       0          245.44     -1093      318        13122      0.25       12801      579        532        50.468    
2737.199914 84         6.5        6.5        0          245.456    -1093      296        13123      0.25       12780      580        533.26     50.38     
2737.399913 69         6.5        6.5        0          245.492    -1093      296        13126      0.25       12763      578        534.5      50.314    
2737.599913 65         7.34       7.34       0          245.494    -1093      334        13126      0.25       12747      580        535.75     50.25     
2737.799913 68         7.34       7.34       0          245.53     -1093      334        13128      0.25       12733      579        537        50.194    
2737.999913 56         7.78       7.78       0          245.565    -1093      354        13130      0.25       12728      579        538.29     50.174    
2738.199913 73         7.78       7.78       0          245.585    -1093      354        13131      0.24       12717      579        539.56     50.128    
2738.399912 78         8.04       8.04       0          245.6      -1093      366        13132      0.24       12709      580        540.77     50.097    
2738.599912 59         8.04       8.04       0          245.637    -1093      366        13134      0.24       12707      579        542.01     50.087    
2738.799912 68         7.91       7.91       0          245.664    -1093      360        13135      0.24       12707      579        543.27     50.088    
2738.999912 72         7.91       7.91       0          245.71     -1093      360        13138      0.24       12700      580        544.56     50.062    
2739.199912 64         7.62       7.62       0          245.741    -1093      347        13139      0.24       12700      579        545.77     50.06     
2739.399911 52         7.62       7.62       0          245.765    -1093      347        13140      0.25       12702      580        547.02     50.068    
2739.599911 110        7.1        7.1        0          245.802    -1093      323        13142      0.24       12698      579        548.27     50.053    
2739.799911 133        7.1        7.1        0          245.821    -1093      323        13143      0.24       12697      580        549.52     50.05     
2739.999911 110        9.49       9.49       0          245.859    -1093      432        13145      0.24       12691      579        550.83     50.024    
2740.199911 63         9.49       9.49       0          245.889    -1093      432        13147      0.24       12689      579        552.06     50.016    
2740.39991 57         11.97      11.97      0          245.912    -1093      545        13148      0.24       12681      579        553.27     49.982    
2740.59991 74         11.97      11.97      0          245.939    -1093      545        13149      0.25       12676      578        554.52     49.963    
2740.79991 114        12.26      12.26      0          245.974    -1093      558        13151      0.25       12672      578        555.83     49.947    
2740.99991 92         12.26      12.26      0          246.01     -1093      558        13153      0.25       12671      579        557.05     49.942    
2741.19991 102        13.31      13.31      0          246.036    -1093      606        13154      0.25       12666      580        558.27     49.923    
2741.399909 61         13.31      13.31      0          246.073    -1093      606        13156      0.25       12663      580        559.53     49.912    
2741.599909 79         14.19      14.19      0          246.114    -1093      646        13158      0.25       12662      581        560.78     49.907    
2741.799909 88         14.19      14.19      0          246.119    -1093      646        13158      0.25       12662      580        562.04     49.907    
2741.999909 60         13.93      13.93      0          246.156    -1093      634        13160      0.25       12661      579        563.29     49.903    
2742.199909 51         13.93      13.93      0          246.179    -1093      634        13161      0.25       12664      579        564.53     49.916    
2742.399908 59         12.57      12.57      0          246.23     -1093      572        13163      0.25       12668      581        565.78     49.929    
2742.599908 55         12.57      12.57      0          246.266    -1093      572        13165      0.25       12671      580        567.05     49.943    
2742.799908 77         11.71      11.71      0          246.306    -1093      533        13167      0.25       12673      580        568.28     49.951    
2742.999908 58         11.71      11.71      0          246.335    -1093      533        13168      0.25       12675      580        569.53     49.957    
2743.199908 49         11.12      11.12      0          246.373    -1093      506        13170      0.25       12675      579        570.78     49.959    
2743.399907 101        11.12      11.12      0          246.414    -1093      506        13172      0.25       12676      578        572.04     49.964    
2743.599907 79         10.55      10.55      0          246.444    -1093      480        13173      0.25       12680      578        573.35     49.978    
2743.799907 70         10.55      10.55      0          246.474    -1093      480        13175      0.25       12684      578        574.55     49.995    
2743.999907 134        10.37      10.37      0          246.526    -1093      472        13177      0.25       12689      579        575.8      50.016    
2744.199907 94         10.37      10.37      0          246.553    -1093      472        13178      0.25       12694      579        577.05     50.036    
