~Version
 VERS              .         2.0                           : CWLS LOG ASCII STANDARD - VERSION 2.0
 WRAP              .         NO                            : ONE LINE PER DEPTH STEP
 DLM               .         SPACE                         : DELIMITING CHARACTER(SPACE TAB OR COMMA)
~Well Information
#_______________________________________________________________________________
#
#PARAMETER_NAME    .UNIT     VALUE                         : DESCRIPTION
#_______________________________________________________________________________
STRT               .M        47.8                          : First reference value
STOP               .M        2693.8                        : Last reference value
STEP               .M        0.2                           : Step increment
NULL               .         -9999                         : Missing value
COMP               .                                       : Company
WELL               .         616                           : Well name
FLD                .                                       : Field
LOC                .                                       : Location
CNTY               .                                       : County
STAT               .                                       : State
CTRY               .                                       : Country
SRVC               .                                       : Service Company
DATE               .                                       : Date
API                .                                       : API number
PROJECT_UPGRADE_TIME .         2021-03-18T21_24_50           : 
group              .         Good                          : 
~Parameter Information Block
#_______________________________________________________________________________
#
#PARAMETER_NAME    .UNIT     VALUE                         : DESCRIPTION
#_______________________________________________________________________________
SET                .         D1172_D                       : 
OTHER              .         Программное обеспечение станции MONITOR-386EX 25/12/99 15_08_10   BGF V52 22/08/01 16_56_30   3.2_BGF_N_3070031: 
OTHER_10           .         Тарировки_                    : 
OTHER_11           .         TM.GRD = 0.00403*TM$.UE + -1.19: 
OTHER_12           .         MN.ATM = (7.1e-006*TM.GRD + 0.02017)*(MN$.UE + -3.03*TM.GRD + -1833): 
OTHER_13           .         Id error                      : 
OTHER_2            .         Kedr.exe версия 3.4.2.51      : 
OTHER_3            .         KedrData.dll версия 3.4.2.24  : 
OTHER_4            .         Драйвер версия 2.1.1.8        : 
OTHER_5            .         Мнемоники версия 3.3 S        : 
OTHER_6            .         Прибор_ КСА-М1                : 
OTHER_7            .         Номер прибора_ 265            : 
OTHER_8            .         Режим_ КСА-М1                 : 
OTHER_9            .         Форма_ ТЕРМОМЕТР              : 
PROJECT_UPGRADE_TIME .         2021-03-18T21_24_49           : 
TLFamily_DEPT      .         Measured Depth                : 
TLFamily_GK        .         Gamma Ray                     : 
TLFamily_GK$       .                                       : 
TLFamily_LM        .         Casing Collar locator         : 
TLFamily_METKA     .                                       : 
TLFamily_MN        .                                       : 
TLFamily_MN$       .                                       : 
TLFamily_RCOR      .                                       : 
TLFamily_SPID      .         Spontaneous Potential         : 
TLFamily_STD       .                                       : 
TLFamily_TENS      .         Cable Tension                 : 
TLFamily_TIME      .         Time                          : 
TLFamily_TM        .         Temperature                   : 
TLFamily_TM$       .         Temperature                   : 
TLFamily_VGD       .         Gas Volume                    : 
group              .         prim                          : 
~Curve Information
#_______________________________________________________________________________
#
#LOGNAME           .UNIT     LOG_ID                        : DESCRIPTION
#_______________________________________________________________________________
DEPT               .M                                      : 1 Глубина, м -    0.0 см 
GK                 .MKR/H                                  : 15 Гамма-активность, мкр./ч -  110.0 см 
GK$                .UE                                     : 12 Гамма-активность, усл.ед. -  110.0 см 
LM                 .                                       : 10 Локатор муфт,  -   20.0 см 
METKA              .                                       : 3 Метки,  -    0.0 см 
MN                 .ATM                                    : 14 Давление, атм. -  160.0 см 
MN$                .UE                                     : 8 Давление, усл.ед. -  160.0 см 
RCOR               .CM/KM                                  : 5 Коррекция по ролику, см/км -    0.0 см 
SPID               .M/H                                    : 2 Скорость, м/час -    0.0 см 
STD                .                                       : 11 Приток,  -  170.0 см 
TENS               .T                                      : 6 Натяжение кабеля, т -    0.0 см 
TIME               .S                                      : 4 Время, сек -    0.0 см 
TM                 .GRD                                    : 13 Температура, °C -  180.0 см 
TM$                .UE                                     : 7 Температура, усл.ед. -  180.0 см 
VGD                .                                       : 9 Влагомер,  -  170.0 см 
~Ascii
# ...
1282.6     7.91       338        1          0          119.295    7788       -1400      -1880      13139      0          31905.82   41.563     10609      6561      
1282.8     7.91       338        1          0          119.315    7789       -1400      -1876      13142      0          31905.45   41.573     10611      6560      
1283       7.9        338        1          0          119.335    7790       -1400      -1876      13146      0          31905.08   41.578     10612      6561      
1283.2     7.9        338        1          0          119.352    7791       -1400      -1877      13151      0          31904.69   41.585     10614      6560      
1283.4     7.9        338        1          0          119.372    7792       -1400      -1875      13153      0          31904.3    41.592     10616      6560      
1283.6     7.9        337        1          0          119.392    7793       -1400      -1874      13153      0          31903.93   41.6       10618      6561      
1283.8     7.9        336        1          0          119.411    7794       -1400      -1876      13155      0          31903.54   41.608     10620      6560      
1284       7.93       336        14         0          119.414    7794       -1400      -1874      13158      0          31903.16   41.616     10622      6561      
1284.2     7.96       336        1          0          119.445    7796       -1400      -1872      13162      0          31902.79   41.623     10624      6560      
1284.4     8.01       336        1          0          119.455    7796       -1400      -1874      13162      0          31902.41   41.628     10625      6560      
1284.6     8.08       336        1          0          119.468    7797       -1400      -1875      13165      0          31902.03   41.635     10626      6560      
1284.8     8.19       337        1          0          119.488    7798       -1400      -1874      13170      0          31901.64   41.642     10628      6560      
1285       8.35       356        24         0          119.508    7799       -1400      -1874      13172      0          31901.26   41.65      10630      6560      
1285.2     8.37       356        17         0          119.527    7800       -1400      -1884      13173      0          31900.87   41.658     10632      6561      
1285.4     8.39       356        1          0          119.547    7801       -1400      -1889      13177      0          31900.48   41.663     10634      6560      
1285.6     8.42       356        1          0          119.556    7801       -1400      -1888      13181      0          31900.1    41.669     10635      6560      
1285.8     8.46       356        1          0          119.566    7801       -1400      -1891      13180      0          31899.71   41.677     10637      6560      
1286       8.53       356        1          0          119.585    7802       -1400      -1893      13184      0          31899.34   41.683     10638      6560      
1286.2     8.63       368        25         0          119.597    7803       -1400      -1890      13189      0          31898.96   41.689     10640      6560      
1286.4     8.64       370        24         0          119.604    7803       -1400      -1887      13190      0          31898.58   41.696     10642      6561      
1286.6     8.64       370        29         0          119.624    7804       -1400      -1890      13193      0          31898.21   41.704     10644      6560      
1286.8     8.63       370        49         0          119.644    7805       -1400      -1893      13198      0          31897.82   41.712     10646      6560      
1287       8.62       370        64         0          119.664    7806       -1400      -1890      13200      0          31897.44   41.719     10647      6560      
1287.2     8.6        370        81         0          119.684    7807       -1400      -1887      13202      0          31897.07   41.724     10649      6560      
1287.4     8.57       370        56         0          119.704    7808       -1400      -1884      13207      0          31896.69   41.732     10651      6561      
1287.6     8.53       367        1          0          119.718    7809       -1400      -1880      13210      0          31896.31   41.739     10652      6561      
1287.8     8.5        365        1          0          119.726    7809       -1400      -1881      13211      0          31895.94   41.744     10653      6561      
1288       8.48       365        1          0          119.759    7811       -1400      -1883      13215      0          31895.57   41.751     10655      6561      
1288.2     8.46       365        1          0          119.761    7811       -1400      -1881      13219      0          31895.17   41.759     10657      6560      
1288.4     8.42       365        1          0          119.781    7812       -1400      -1876      13221      0          31894.8    41.766     10659      6561      
1288.6     8.36       365        14         0          119.801    7813       -1400      -1877      13225      0          31894.42   41.77      10660      6560      
1288.8     8.27       360        1          0          119.82     7814       -1400      -1878      13231      0          31894.05   41.774     10661      6560      
1289       8.2        351        1          0          119.839    7815       -1400      -1876      13233      0          31893.66   41.782     10663      6560      
1289.2     8.2        351        1          0          119.859    7816       -1400      -1875      13234      0          31893.29   41.79      10665      6560      
1289.4     8.2        351        1          0          119.878    7817       -1400      -1877      13237      0          31892.93   41.797     10667      6560      
1289.6     8.19       351        1          0          119.881    7817       -1400      -1875      13240      0          31892.54   41.805     10669      6559      
1289.8     8.18       351        14         2          119.897    7818       -1400      -1878      13240      0          31892.14   41.813     10671      6558      
1290       8.16       351        34         0          119.917    7819       -1400      -1888      13243      0          31891.73   41.817     10672      6561      
1290.2     8.14       350        32         0          119.936    7820       -1400      -1899      13247      0          31891.34   41.827     10674      6561      
1290.4     8.11       346        45         0          119.955    7821       -1400      -1900      13249      0          31890.96   41.836     10676      6561      
1290.6     8.11       346        66         0          119.975    7822       -1400      -1894      13251      0          31890.59   41.841     10678      6561      
1290.8     8.12       346        66         0          119.994    7823       -1400      -1892      13254      0          31890.22   41.848     10679      6561      
1291       8.14       346        101        0          120.013    7824       -1400      -1889      13255      0          31889.83   41.855     10681      6561      
1291.2     8.16       346        164        0          120.033    7825       -1400      -1888      13256      0          31889.46   41.863     10683      6561      
1291.4     8.2        346        254        0          120.053    7826       -1400      -1890      13260      0          31889.08   41.869     10685      6561      
1291.6     8.25       351        395        0          120.075    7827       -1400      -1892      13263      0          31888.7    41.875     10686      6561      
1291.8     8.27       351        618        0          120.095    7828       -1400      -1889      13263      0          31888.33   41.883     10688      6561      
1292       8.3        351        964        0          120.114    7829       -1400      -1887      13267      0          31887.94   41.889     10690      6561      
1292.2     8.34       351        1504       0          120.134    7829       -1400      -1890      13271      0          31887.57   41.895     10691      6561      
