~Version
 VERS              .         2.0                           : CWLS LOG ASCII STANDARD - VERSION 2.0
 WRAP              .         NO                            : ONE LINE PER DEPTH STEP
 DLM               .         SPACE                         : DELIMITING CHARACTER(SPACE TAB OR COMMA)
~Well Information
#_______________________________________________________________________________
#
#PARAMETER_NAME    .UNIT     VALUE                         : DESCRIPTION
#_______________________________________________________________________________
STRT               .M        2659.8                        : First reference value
STOP               .M        2768.999945                   : Last reference value
STEP               .M        0.1999999                     : Step increment
NULL               .         -9999                         : Missing value
COMP               .                                       : Company
WELL               .         616                           : Well name
FLD                .                                       : Field
LOC                .                                       : Location
CNTY               .                                       : County
STAT               .                                       : State
CTRY               .                                       : Country
SRVC               .                                       : Service Company
DATE               .                                       : Date
API                .                                       : API number
PROJECT_UPGRADE_TIME .         2021-03-18T21_24_50           : 
group              .         Good                          : 
~Parameter Information Block
#_______________________________________________________________________________
#
#PARAMETER_NAME    .UNIT     VALUE                         : DESCRIPTION
#_______________________________________________________________________________
SET                .         D1169_D                       : 
OTHER              .         Программное обеспечение станции MONITOR-386EX 25/12/99 15_08_10   BGF V52 22/08/01 16_56_30   3.2_BGF_N_3070031: 
OTHER_10           .         Тарировки_                    : 
OTHER_11           .         TM.GRD = 0.00403*TM$.UE + -1.19: 
OTHER_12           .         MN.ATM = (7.1e-006*TM.GRD + 0.02017)*(MN$.UE + -3.03*TM.GRD + -1833): 
OTHER_13           .         Id error                      : 
OTHER_2            .         Kedr.exe версия 3.4.2.51      : 
OTHER_3            .         KedrData.dll версия 3.4.2.24  : 
OTHER_4            .         Драйвер версия 2.1.1.8        : 
OTHER_5            .         Мнемоники версия 3.3 S        : 
OTHER_6            .         Прибор_ КСА-М1                : 
OTHER_7            .         Номер прибора_ 265            : 
OTHER_8            .         Режим_ КСА-М1                 : 
OTHER_9            .         Форма_ ТЕРМОМЕТР              : 
PROJECT_UPGRADE_TIME .         2021-03-18T21_24_49           : 
TLFamily_DEPT      .         Measured Depth                : 
TLFamily_GK        .         Gamma Ray                     : 
TLFamily_GK$       .                                       : 
TLFamily_LM        .         Casing Collar locator         : 
TLFamily_METKA     .                                       : 
TLFamily_MN        .                                       : 
TLFamily_MN$       .                                       : 
TLFamily_RCOR      .                                       : 
TLFamily_SPID      .         Spontaneous Potential         : 
TLFamily_STD       .                                       : 
TLFamily_TENS      .         Cable Tension                 : 
TLFamily_TIME      .         Time                          : 
TLFamily_TM        .         Temperature                   : 
TLFamily_TM$       .         Temperature                   : 
TLFamily_VGD       .         Gas Volume                    : 
group              .         prim                          : 
~Curve Information
#_______________________________________________________________________________
#
#LOGNAME           .UNIT     LOG_ID                        : DESCRIPTION
#_______________________________________________________________________________
DEPT               .M                                      : 1 Глубина, м -    0.0 см 
GK                 .MKR/H                                  : 15 Гамма-активность, мкр./ч -  110.0 см 
GK$                .UE                                     : 12 Гамма-активность, усл.ед. -  110.0 см 
LM                 .                                       : 10 Локатор муфт,  -   20.0 см 
METKA              .                                       : 3 Метки,  -    0.0 см 
MN                 .ATM                                    : 14 Давление, атм. -  160.0 см 
MN$                .UE                                     : 8 Давление, усл.ед. -  160.0 см 
RCOR               .CM/KM                                  : 5 Коррекция по ролику, см/км -    0.0 см 
SPID               .M/H                                    : 2 Скорость, м/час -    0.0 см 
STD                .                                       : 11 Приток,  -  170.0 см 
TENS               .T                                      : 6 Натяжение кабеля, т -    0.0 см 
TIME               .S                                      : 4 Время, сек -    0.0 см 
TM                 .GRD                                    : 13 Температура, °C -  180.0 см 
TM$                .UE                                     : 7 Температура, усл.ед. -  180.0 см 
VGD                .                                       : 9 Влагомер,  -  170.0 см 
~Ascii
# ...
2747.999956 6.85       293        3005       0          263.556    14771      -1400      588        32374      0          26097.27   89.801     22578      6561      
2748.199956 6.86       294        932        0          263.568    14772      -1400      590        32374      0          26098.46   89.806     22580      6560      
2748.399956 6.87       294        75         0          263.589    14773      -1400      577        32374      0          26099.76   89.811     22581      6561      
2748.599956 6.77       281        1          0          263.607    14774      -1400      579        32374      0          26100.94   89.811     22581      6561      
2748.799956 6.6        279        1          0          263.631    14775      -1400      587        32374      0          26102.18   89.815     22582      6561      
2748.999955 7.27       345        1          0          263.652    14776      -1400      585        32373      0          26103.47   89.822     22584      6560      
2749.199955 7.83       345        1          0          263.672    14777      -1400      584        32374      0          26104.67   89.826     22585      6561      
2749.399955 8.33       380        1          0          263.673    14777      -1400      587        32375      0          26105.85   89.829     22585      6560      
2749.599955 8.72       380        1          0          263.694    14778      -1400      587        32374      0          26107.1    89.837     22587      6560      
2749.799955 8.57       347        1          0          263.715    14779      -1400      581        32374      0          26108.35   89.844     22589      6561      
2749.999955 8.16       341        1          2          263.75     14781      -1400      583        32375      0          26109.59   89.847     22590      6561      
2750.199955 7.83       323        1          0          263.756    14781      -1400      583        32375      0          26110.84   89.851     22591      6560      
2750.399955 7.64       323        1          0          263.783    14782      -1400      581        32374      0          26112.13   89.857     22592      6561      
2750.599955 7.81       349        1          0          263.798    14783      -1400      586        32374      0          26113.33   89.86      22593      6561      
2750.799955 8.06       349        1          0          263.819    14784      -1400      589        32374      0          26114.53   89.868     22595      6561      
2750.999954 8.01       334        1          0          263.84     14785      -1400      594        32374      0          26115.75   89.872     22596      6561      
2751.199954 7.84       332        1          0          263.852    14786      -1400      581        32374      0          26117      89.875     22597      6561      
2751.399954 7.81       335        1          0          263.882    14787      -1400      582        32375      0          26118.24   89.876     22597      6561      
2751.599954 7.86       337        1          0          263.903    14788      -1400      582        32374      0          26119.49   89.882     22598      6561      
2751.799954 8.11       362        1          0          263.924    14789      -1400      581        32374      0          26120.73   89.888     22600      6561      
2751.999954 8.35       362        1          0          263.945    14790      -1400      578        32375      0          26121.94   89.892     22601      6561      
2752.199954 8.46       365        1          0          263.963    14791      -1400      580        32373      0          26123.16   89.9       22603      6561      
2752.399954 8.51       365        1          0          263.987    14792      -1400      581        32374      0          26124.35   89.9       22603      6561      
2752.599954 8.57       370        1          0          264.008    14793      -1400      583        32374      0          26125.65   89.908     22605      6560      
2752.799954 8.67       373        1          0          264.035    14794      -1400      582        32374      0          26126.9    89.912     22606      6561      
2752.999953 8.67       367        1          0          264.05     14795      -1400      587        32374      0          26128.08   89.92      22608      6561      
2753.199953 8.16       340        1          0          264.07     14796      -1400      589        32374      0          26129.32   89.924     22609      6561      
2753.399953 8.18       360        1          0          264.091    14797      -1400      583        32374      0          26130.57   89.924     22609      6561      
2753.599953 8.39       363        1          0          264.092    14797      -1400      583        32374      0          26131.76   89.932     22611      6561      
2753.799953 8.45       362        1          0          264.121    14798      -1400      586        32374      0          26132.94   89.937     22612      6562      
2753.999953 8.45       361        1          0          264.133    14799      -1400      585        32374      0          26134.25   89.938     22612      6561      
2754.199953 8.44       361        1          0          264.154    14800      -1400      588        32374      0          26135.49   89.945     22614      6561      
2754.399953 7.78       321        1          0          264.175    14801      -1400      587        32373      0          26136.67   89.952     22616      6561      
2754.599953 7.59       321        1          0          264.19     14802      -1400      585        32374      0          26137.92   89.952     22616      6561      
2754.799953 7.6        325        1          0          264.208    14803      -1400      584        32374      0          26139.16   89.959     22618      6561      
2754.999952 7.62       328        1          0          264.226    14803      -1400      588        32374      0          26140.35   89.965     22619      6563      
2755.199952 7.74       333        1          0          264.238    14804      -1400      586        32373      0          26141.55   89.969     22620      6562      
2755.399952 7.77       333        1          0          264.259    14805      -1400      591        32374      0          26142.83   89.973     22621      6562      
2755.599952 7.65       325        1          0          264.277    14806      -1400      589        32374      0          26144.08   89.98      22623      6562      
2755.799952 7.62       325        1          0          264.295    14807      -1400      595        32374      0          26145.27   89.981     22623      6561      
2755.999952 7.5        318        1          0          264.301    14807      -1400      596        32374      0          26146.45   89.985     22624      6561      
2756.199952 7.46       318        1          0          264.328    14808      -1400      586        32374      0          26147.76   89.991     22626      6562      
2756.399952 7.52       324        1          0          264.343    14809      -1400      588        32374      0          26148.96   89.993     22626      6562      
2756.599952 7.56       324        1          0          264.364    14810      -1400      590        32373      0          26150.16   89.997     22627      6561      
2756.799952 7.48       318        1          0          264.385    14811      -1400      589        32374      0          26151.43   90.001     22628      6562      
2756.999951 7.45       318        1          0          264.394    14811      -1400      598        32373      0          26152.61   90.007     22630      6562      
2757.199951 7.02       289        1          0          264.415    14812      -1400      593        32373      0          26153.86   90.011     22631      6562      
2757.399951 6.84       289        1          0          264.448    14814      -1400      594        32373      0          26155.04   90.013     22631      6562      
2757.599951 6.31       253        1          0          264.466    14815      -1400      586        32374      0          26156.35   90.021     22633      6562      
