~Version
 VERS              .         2.0                           : CWLS LOG ASCII STANDARD - VERSION 2.0
 WRAP              .         NO                            : ONE LINE PER DEPTH STEP
 DLM               .         SPACE                         : DELIMITING CHARACTER(SPACE TAB OR COMMA)
~Well Information
#_______________________________________________________________________________
#
#PARAMETER_NAME    .UNIT     VALUE                         : DESCRIPTION
#_______________________________________________________________________________
STRT               .M        749.69                        : First reference value
STOP               .M        1410.72                       : Last reference value
STEP               .M        0                             : Step increment
NULL               .         -9999                         : Missing value
COMP               .                                       : Company
WELL               .         616                           : Well name
FLD                .                                       : Field
LOC                .                                       : Location
CNTY               .                                       : County
STAT               .                                       : State
CTRY               .                                       : Country
SRVC               .                                       : Service Company
DATE               .                                       : Date
API                .                                       : API number
PROJECT_UPGRADE_TIME .         2021-03-18T21_24_50           : 
group              .         Good                          : 
~Parameter Information Block
#_______________________________________________________________________________
#
#PARAMETER_NAME    .UNIT     VALUE                         : DESCRIPTION
#_______________________________________________________________________________
SET                .         D0928                         : 
NPR                .         210404                        : ЗАВ НОМЕР ПРИБОРА
NPRT               .         Каштанов                      : НАЧ ПАРТИИ
PROJECT_UPGRADE_TIME .         2021-03-18T21_24_49           : 
TLFamily_AZIMUTH   .         True Dip Azimuth              : 
TLFamily_DEPTH     .         Measured Depth                : 
TLFamily_DRILL     .                                       : 
TLFamily_METKA     .                                       : 
TLFamily_ZENIT     .                                       : 
group              .         prim                          : 
~Curve Information
#_______________________________________________________________________________
#
#LOGNAME           .UNIT     LOG_ID                        : DESCRIPTION
#_______________________________________________________________________________
DEPTH              .M                                      : 1 ГЛУБИНА 
AZIMUTH            .ГРАД                                   : 4 АЗИМУТ 
DRILL              .ГРАД                                   : 2 ПОВОРОТ 
METKA              .                                       : 5 МАГН МЕТКА 
ZENIT              .ГРАД                                   : 3 ЗЕНИТ 
~Ascii
# ...
978.68     324.55     140.06     0          31.35     
978.87     324.68     140.3      0          31.35     
979.06     324.35     140.56     0          31.35     
979.25     324.99     140.86     0          31.29     
979.44     325.09     141.21     0          31.29     
979.63     324.47     141.56     0          31.25     
979.83     326.03     141.9      0          31.24     
980.02     327        142.21     0          31.22     
980.21     328.9      142.54     0          31.21     
980.4      331.66     142.91     0          31.23     
980.59     332.04     143.29     0          31.23     
980.78     334.57     143.65     0          31.2      
980.97     336.6      143.95     0          31.21     
981.16     337.7      144.23     0          31.24     
981.35     339.74     144.57     0          31.3      
981.54     341.65     144.98     0          31.29     
981.72     343.74     145.44     0          31.33     
981.91     344.91     145.98     0          31.3      
982.1      345.73     146.54     0          31.34     
982.29     346.73     147.01     0          31.33     
982.48     347.31     147.52     0          31.32     
982.67     347.32     148.04     0          31.34     
982.86     347.79     148.46     0          31.36     
983.05     349.01     148.78     0          31.38     
983.24     349.09     149.03     0          31.42     
983.43     349.55     149.14     0          31.41     
983.62     349.86     149.16     0          31.43     
983.81     349.93     149.14     0          31.43     
984        350.59     149.1      0          31.45     
984.19     349.88     149.03     0          31.46     
984.38     348.62     148.94     0          31.46     
984.57     348.53     148.87     0          31.46     
984.75     350.39     148.81     0          31.46     
984.94     350.3      148.72     0          31.45     
985.13     350.54     148.62     0          31.44     
985.32     351.16     148.56     0          31.49     
985.51     351.02     148.57     0          31.51     
985.7      351.37     148.61     0          31.53     
985.89     351.57     148.66     0          31.55     
986.08     351.71     148.69     0          31.55     
986.26     350.26     148.75     0          31.58     
986.45     349.71     148.82     0          31.64     
986.64     349.14     148.84     0          31.67     
986.83     349.47     148.8      0          31.68     
987.02     349.38     148.71     0          31.64     
987.21     349.18     148.57     0          31.67     
987.39     349.23     148.41     0          31.66     
987.58     348.02     148.27     0          31.66     
987.77     346.48     148.12     0          31.63     
987.96     345.08     147.97     0          31.62     
988.14     345.55     147.82     0          31.64     
988.33     344.2      147.71     0          31.63     
988.52     342.06     147.57     0          31.63     
988.7      340.72     147.46     0          31.61     
988.89     340.8      147.43     0          31.59     
989.08     340.36     147.47     0          31.61     
989.26     339.31     147.58     0          31.59     
989.45     339.39     147.72     0          31.61     
989.63     338.76     147.89     0          31.59     
989.82     339.03     148.06     0          31.62     
990        338.43     148.19     0          31.61     
990.19     337.79     148.34     0          31.62     
990.37     335.15     148.52     0          31.59     
990.56     333.98     148.71     0          31.66     
990.75     333.17     148.87     0          31.67     
990.93     331.97     148.99     0          31.65     
991.12     331.59     149.03     0          31.64     
991.3      330.7      149.04     0          31.61     
991.49     329.91     149.02     0          31.59     
991.67     329.72     148.99     0          31.58     
991.86     330.85     148.94     0          31.57     
992.05     330.9      148.92     0          31.54     
992.23     331.43     149.17     0          31.49     
992.42     330.69     149.72     0          31.49     
992.6      329.95     150.43     0          31.47     
992.79     329.67     151.24     0          31.48     
992.98     328.62     152.11     0          31.47     
993.16     328.37     152.97     0          31.49     
993.35     329.63     153.87     0          31.49     
993.54     330.77     154.78     0          31.5      
993.72     329.85     155.7      0          31.52     
993.91     330.8      156.64     0          31.5      
994.1      332.14     157.72     0          31.51     
994.29     332.74     158.92     0          31.52     
994.48     331.61     160.09     0          31.53     
994.66     331.38     161.2      0          31.53     
994.85     331.53     162.29     0          31.54     
995.04     331.05     163.34     0          31.55     
995.23     330.35     164.34     0          31.55     
995.42     330.6      165.31     0          31.56     
995.61     330.48     166.28     0          31.55     
995.8      329.97     167.23     0          31.55     
995.99     329.13     168.11     0          31.57     
996.18     329.41     168.99     0          31.56     
996.37     328.28     169.87     0          31.57     
996.56     326.67     170.74     0          31.55     
996.75     324.86     171.63     0          31.55     
996.93     322.75     172.6      0          31.55     
997.12     320.14     173.58     0          31.65     
997.31     316.8      174.53     0          31.67     
997.5      317.4      175.44     0          31.66     
997.69     318.69     176.33     0          31.67     
997.88     319.68     177.02     0          31.69     
998.07     320.99     177.43     0          31.73     
998.26     322.51     177.68     0          31.75     
998.45     323.63     177.99     0          31.77     
998.64     324.69     178.68     0          31.67     
998.83     326.22     179.6      0          31.69     
999.01     326.68     180.54     0          31.72     
999.19     327.3      181.48     0          31.74     
999.37     329.01     182.45     0          31.76     
999.54     329.68     183.39     0          31.79     
999.7      330.44     184.26     0          31.8      
999.85     331.4      185.03     0          31.82     
1000       332.96     185.76     0          31.84     
1000.15    334        186.5      0          31.85     
1000.28    335.83     187.25     0          31.88     
1000.41    336.17     188        0          31.88     
1000.54    337.82     188.78     0          31.91     
1000.65    338.59     189.6      0          31.91     
1000.76    340.48     190.46     0          31.94     
1000.87    341.81     191.35     0          31.95     
1000.97    344.19     192.26     0          31.97     
1001.06    344.58     193.14     0          31.99     
1001.15    346.61     194.03     0          32.13     
1001.23    349.08     194.94     0          32.29     
1001.3     351.29     196.07     0          32.27     
1001.37    354.02     198.33     0          32.18     
1001.43    356.24     201.06     0          32.09     
1001.48    357.65     202.58     0          32.2      
1001.52    356.3      202.17     0          32.26     
1001.54    356.23     200.98     0          32.23     
1001.55    356.18     199.44     0          32.24     
1001.56    355.73     197.85     0          32.23     
1001.56    355.76     196.21     0          32.25     
1001.6     359.44     140.43     0          32.24     
1001.64    359.72     137.62     0          32.22     
1001.69    359.71     134.76     0          32.21     
1001.75    0.18       131.92     0          32.06     
1001.81    0.56       129.35     0          31.89     
1001.88    1.25       127.28     0          31.93     
1001.96    1.73       126.01     0          32.01     
1002.05    2.79       126.43     0          32.03     
1002.14    3.49       128.72     0          31.87     
1002.25    5.19       131.1      0          31.86     
1002.37    5.75       132.95     0          31.89     
