~Version
 VERS              .         2.0                           : CWLS LOG ASCII STANDARD - VERSION 2.0
 WRAP              .         NO                            : ONE LINE PER DEPTH STEP
 DLM               .         SPACE                         : DELIMITING CHARACTER(SPACE TAB OR COMMA)
~Well Information
#_______________________________________________________________________________
#
#PARAMETER_NAME    .UNIT     VALUE                         : DESCRIPTION
#_______________________________________________________________________________
STRT               .M        1740.47                       : First reference value
STOP               .M        2787.78                       : Last reference value
STEP               .M        0                             : Step increment
NULL               .         -9999                         : Missing value
COMP               .                                       : Company
WELL               .         616                           : Well name
FLD                .                                       : Field
LOC                .                                       : Location
CNTY               .                                       : County
STAT               .                                       : State
CTRY               .                                       : Country
SRVC               .                                       : Service Company
DATE               .                                       : Date
API                .                                       : API number
PROJECT_UPGRADE_TIME .         2021-03-18T21_24_50           : 
group              .         Good                          : 
~Parameter Information Block
#_______________________________________________________________________________
#
#PARAMETER_NAME    .UNIT     VALUE                         : DESCRIPTION
#_______________________________________________________________________________
SET                .         D2664                         : 
NPR                .         980607                        : ЗАВ НОМЕР ПРИБОРА
NPRT               .         Мещеряков                     : НАЧ ПАРТИИ
PROJECT_UPGRADE_TIME .         2021-03-18T21_24_50           : 
TLFamily_AZIMUTH   .         True Dip Azimuth              : 
TLFamily_DEPTH     .         Measured Depth                : 
TLFamily_DRILL     .                                       : 
TLFamily_METKA     .                                       : 
TLFamily_ZENIT     .                                       : 
group              .         prim                          : 
~Curve Information
#_______________________________________________________________________________
#
#LOGNAME           .UNIT     LOG_ID                        : DESCRIPTION
#_______________________________________________________________________________
DEPTH              .M                                      : 1 ГЛУБИНА 
AZIMUTH            .ГРАД                                   : 4 АЗИМУТ 
DRILL              .ГРАД                                   : 2 ПОВОРОТ 
METKA              .                                       : 5 МАГН МЕТКА 
ZENIT              .ГРАД                                   : 3 ЗЕНИТ 
~Ascii
# ...
2118.79    254.64     165.86     0          14.13     
2118.97    254.64     165.97     0          14.14     
2119.36    254.61     166.92     0          14.14     
2119.75    254.63     167.9      0          14.14     
2120.14    254.61     168.9      0          14.14     
2120.53    254.66     169.81     0          14.14     
2120.91    254.68     170.65     0          14.15     
2121.3     254.66     171.49     0          14.15     
2121.69    254.62     172.34     0          14.16     
2122.08    254.63     173.24     0          14.16     
2122.47    254.62     174.19     0          14.17     
2122.85    254.62     175.2      0          14.18     
2123.24    254.63     176.21     0          14.18     
2123.63    254.61     177.17     0          14.19     
2124.02    254.6      178.14     0          14.19     
2124.41    254.6      179.12     0          14.2      
2124.79    254.61     180.07     0          14.21     
2125.18    254.66     180.96     0          14.22     
2125.57    254.65     181.74     0          14.23     
2125.96    254.68     182.41     0          14.24     
2126.35    254.65     183.02     0          14.25     
2126.74    254.62     183.67     0          14.25     
2127.12    254.59     184.36     0          14.25     
2127.51    254.54     185.1      0          14.25     
2127.9     254.55     185.82     0          14.27     
2128.29    254.54     186.52     0          14.28     
2128.68    254.49     187.19     0          14.28     
2129.06    254.49     187.85     0          14.29     
2129.45    254.48     188.51     0          14.3      
2129.84    254.47     189.14     0          14.31     
2130.23    254.4      189.78     0          14.32     
2130.62    254.37     190.46     0          14.32     
2130.8     254.34     190.37     0          14.34     
2130.99    254.27     190.32     0          14.34     
2131.38    254.23     190.57     0          14.34     
2131.77    254.15     190.96     0          14.34     
2132.15    254.13     191.41     0          14.34     
2132.54    253.87     191.79     0          14.28     
2132.93    253.9      192.07     0          14.29     
2133.32    253.87     192.23     0          14.29     
2133.71    253.81     192.34     0          14.29     
2134.1     253.83     192.37     0          14.29     
2134.49    253.81     192.33     0          14.3      
2134.88    253.78     192.24     0          14.3      
2135.27    253.75     192.12     0          14.3      
2135.66    253.72     192.01     0          14.31     
2136.04    253.69     191.87     0          14.31     
2136.43    253.64     191.74     0          14.31     
2136.82    253.67     191.6      0          14.32     
2137.21    253.63     191.44     0          14.31     
2137.6     253.62     191.22     0          14.32     
2137.98    253.63     190.95     0          14.33     
2138.37    253.66     190.64     0          14.33     
2138.76    253.67     190.29     0          14.34     
2139.15    253.61     189.95     0          14.34     
2139.54    253.59     189.64     0          14.35     
2139.93    253.62     189.32     0          14.36     
2140.31    253.6      188.98     0          14.36     
2140.7     253.6      188.58     0          14.36     
2141.09    253.6      188.11     0          14.37     
2141.48    253.58     187.6      0          14.37     
2141.86    253.58     187.05     0          14.37     
2142.25    253.54     186.5      0          14.36     
2142.64    253.55     185.95     0          14.36     
2142.82    253.54     185.13     0          14.37     
2143.01    253.53     184.3      0          14.38     
2143.19    253.53     183.48     0          14.39     
2143.58    253.77     182.43     0          14.43     
2143.97    253.78     181.65     0          14.41     
2144.36    253.88     181.37     0          14.42     
2144.74    253.92     181.61     0          14.41     
2145.13    253.94     182.38     0          14.4      
2145.52    253.95     183.85     0          14.4      
2145.91    253.97     186.11     0          14.39     
2146.3     253.95     189.11     0          14.38     
2146.68    253.97     192.85     0          14.38     
2147.07    254.01     197.46     0          14.37     
2147.46    254.02     202.96     0          14.36     
2147.85    254.03     209.23     0          14.35     
2148.24    254.07     216.18     0          14.34     
2148.62    254.09     223.44     0          14.32     
2149.01    254.13     230.49     0          14.31     
2149.4     254.12     236.91     0          14.29     
2149.79    254.15     242.6      0          14.28     
2150.18    254.2      247.52     0          14.26     
2150.57    254.21     251.69     0          14.24     
2150.96    254.26     255.3      0          14.23     
2151.34    254.3      258.43     0          14.21     
2151.73    254.32     261.18     0          14.2      
2152.12    254.34     263.59     0          14.18     
2152.51    254.38     265.72     0          14.17     
2152.9     254.42     267.61     0          14.16     
2153.28    254.47     269.3      0          14.15     
2153.67    254.48     270.83     0          14.13     
2154.06    254.53     272.13     0          14.11     
2154.45    254.56     273.25     0          14.1      
2154.84    254.59     274.18     0          14.08     
2155.02    254.57     270.27     0          14.08     
2155.21    254.55     266.52     0          14.08     
2155.6     254.51     264.27     0          14.05     
2155.99    254.54     261.89     0          14.03     
2156.37    254.52     259.48     0          14        
2156.76    254.58     257.1      0          13.98     
2157.15    254.62     254.79     0          13.97     
2157.54    254.71     252.5      0          13.95     
2157.93    254.76     250.11     0          13.93     
2158.32    254.79     247.6      0          13.92     
2158.7     254.82     245.02     0          13.91     
2159.09    254.84     242.39     0          13.9      
2159.48    254.85     239.64     0          13.89     
2159.87    254.87     236.8      0          13.89     
2160.26    254.87     233.88     0          13.89     
2160.65    254.9      230.88     0          13.89     
2161.03    254.92     227.77     0          13.9      
2161.42    254.85     224.58     0          13.9      
2161.81    254.8      221.32     0          13.9      
2162.2     254.78     218.11     0          13.89     
2162.59    254.76     215.34     0          13.87     
2162.98    254.84     213.23     0          13.85     
2163.37    254.89     211.86     0          13.84     
2163.75    255.05     211.48     0          13.84     
2164.14    255.14     212.47     0          13.85     
2164.53    255.17     214.57     0          13.86     
2164.92    255.21     217.13     0          13.87     
2165.31    255.19     219.71     0          13.87     
2165.7     255.19     221.89     0          13.86     
2166.09    255.22     223.36     0          13.85     
2166.48    255.29     223.84     0          13.84     
2166.86    255.36     223.28     0          13.83     
2167.05    255.4      218.86     0          13.83     
2167.23    255.47     214.09     0          13.83     
2167.42    255.55     208.8      0          13.84     
2167.6     255.58     202.83     0          13.85     
2167.79    255.55     196.22     0          13.86     
2168.18    255.59     189.7      0          13.81     
2168.57    255.72     184.71     0          13.77     
2168.96    255.87     183.04     0          13.76     
2169.35    255.93     187.97     0          13.74     
2169.73    255.89     201.04     0          13.7      
2170.12    255.92     216.24     0          13.64     
2170.51    256.05     226.64     0          13.6      
2170.9     256.19     231.42     0          13.55     
2171.29    256.35     232.39     0          13.52     
2171.68    256.39     232.52     0          13.49     
2172.07    256.41     238.62     0          13.43     
2172.46    256.52     256.31     0          13.37     
