~Version
 VERS              .         2.0                           : CWLS LOG ASCII STANDARD - VERSION 2.0
 WRAP              .         NO                            : ONE LINE PER DEPTH STEP
 DLM               .         SPACE                         : DELIMITING CHARACTER(SPACE TAB OR COMMA)
~Well Information
#_______________________________________________________________________________
#
#PARAMETER_NAME    .UNIT     VALUE                         : DESCRIPTION
#_______________________________________________________________________________
STRT               .M        2298.8                        : First reference value
STOP               .M        2799.8                        : Last reference value
STEP               .M        0.2                           : Step increment
NULL               .         -9999                         : Missing value
COMP               .                                       : Company
WELL               .         616                           : Well name
FLD                .                                       : Field
LOC                .                                       : Location
CNTY               .                                       : County
STAT               .                                       : State
CTRY               .                                       : Country
SRVC               .                                       : Service Company
DATE               .                                       : Date
API                .                                       : API number
PROJECT_UPGRADE_TIME .         2021-03-18T21_24_50           : 
group              .         Good                          : 
~Parameter Information Block
#_______________________________________________________________________________
#
#PARAMETER_NAME    .UNIT     VALUE                         : DESCRIPTION
#_______________________________________________________________________________
SET                .         D2659_D                       : 
OTHER              .         Программное обеспечение станции MONITOR-386EX 25/12/99 15_08_10   BGF V50 26/12/00 07_26_01   3.1_SNGF___BGF_N_092085: 
OTHER_10           .         Тарировки_                    : 
OTHER_11           .         <_techsia_sc_> Постоянная времени фильтра ПС  0.5 сек, kf=0.139292: 
OTHER_2            .         Kedr.exe версия 3.3.2.32      : 
OTHER_3            .         KedrData.dll версия 3.3.2.17  : 
OTHER_4            .         Драйвер версия 2.1.0.7        : 
OTHER_5            .         Мнемоники версия 3.3 S        : 
OTHER_6            .         Прибор_ К1a-723м              : 
OTHER_7            .         Номер прибора_ 348/72         : 
OTHER_8            .         Режим_ K1A-723M               : 
OTHER_9            .         Форма_ БКЗ                    : 
PROJECT_UPGRADE_TIME .         2021-03-18T21_24_49           : 
TLFamily_BK        .         Lateral Log Resistivity       : 
TLFamily_DEPT      .         Measured Depth                : 
TLFamily_GZ1       .         Extra Shallow Resistivity     : 
TLFamily_GZ2       .         Shallow Resistivity           : 
TLFamily_GZ3       .         Medium Resistivity            : 
TLFamily_GZ4       .         Deep Resistivity              : 
TLFamily_GZ5       .         Extra Deep Resistivity        : 
TLFamily_GZ6       .         Medium Resistivity Inverted   : 
TLFamily_IBK       .                                       : 
TLFamily_IK        .         Conductivity                  : 
TLFamily_IPR       .                                       : 
TLFamily_METKA     .                                       : 
TLFamily_PS        .         Spontaneous Potential         : 
TLFamily_PZ        .         Potential Resistivity         : 
TLFamily_RCOR      .                                       : 
TLFamily_RES       .         Mud Resistivity               : 
TLFamily_SPID      .         Spontaneous Potential         : 
TLFamily_TENS      .         Cable Tension                 : 
TLFamily_TIME      .         Time                          : 
TLFamily_UBK       .         Uranium Concentration         : 
group              .         prim                          : 
~Curve Information
#_______________________________________________________________________________
#
#LOGNAME           .UNIT     LOG_ID                        : DESCRIPTION
#_______________________________________________________________________________
DEPT               .M                                      : 1 Глубина, м -    0.0 см 
BK                 .OHMM                                   : 20 БК, Ом*м - 1768.0 см 
GZ1                .OHMM                                   : 12 A0.4M0.1N, Ом*м - 1295.0 см 
GZ2                .OHMM                                   : 11 A1.0M0.1N, Ом*м - 1355.0 см 
GZ3                .OHMM                                   : 9 A2.0M0.5N, Ом*м - 1475.0 см 
GZ4                .OHMM                                   : 8 A4.0M0.5N, Ом*м - 1025.0 см 
GZ5                .OHMM                                   : 7 A8.0M1.0N, Ом*м - 1450.0 см 
GZ6                .OHMM                                   : 10 N0.5M2.0A, Ом*м - 1025.0 см 
IBK                .A                                      : 18 Ток БК, А - 1768.0 см 
IK                 .MSM/M                                  : 14 ИК, мСм/м - 1961.0 см 
IPR                .MA                                     : 17 Ток прибора, мA -    0.0 см 
METKA              .                                       : 3 Метки,  -    0.0 см 
PS                 .mV                                     : 16 ПС, мВ - 1210.0 см 
PZ                 .OHMM                                   : 13 N11M0.5A, Ом*м - 1225.0 см 
RCOR               .CM/KM                                  : 5 Коррекция по ролику, см/км -    0.0 см 
RES                .OHMM                                   : 15 Резистивиметр, Ом*м -  600.0 см 
SPID               .M/H                                    : 2 Скорость, м/час -    0.0 см 
TENS               .T                                      : 6 Натяжение кабеля, т -    0.0 см 
TIME               .S                                      : 4 Время, сек -    0.0 см 
UBK                .V                                      : 19 Напр. БК, В - 1768.0 см 
~Ascii
# ...
2313.6     -9999      0          0.1        -9999      0.5        0.1        0.2        -9999      -9999      432        0          465.45     0.1        -373       2.754      -1650      0          29398.19   -9999     
2313.8     -9999      0          0.1        -9999      0.6        -0.1       0.2        -9999      -9999      432        0          464.59     0.1        -373       2.754      -1627      0          29397.66   -9999     
2314       -9999      0          -0         0          0.5        0          0.1        -9999      -9999      429.6      0          464.37     0.1        -373       2.758      -1637      0          29397.22   -9999     
2314.2     -9999      0.1        0          0          0.6        -0         0.2        -9999      -9999      430.4      0          465.47     0.1        -373       2.753      -1618      0          29396.84   -9999     
2314.4     -9999      0          -0         -0         0.5        -0         0.2        -9999      -9999      430        0          467.06     0.1        -373       2.754      -1632      0          29396.37   -9999     
2314.6     -9999      0          0          -0         0.7        -0.1       0.1        -9999      -9999      428.512    0          467.89     0.1        -373       2.756      -1629      0          29395.92   -9999     
2314.8     -9999      0          0.2        -0         0.6        0          0.1        -9999      -9999      430.667    0          470.16     0.1        -373       2.751      -1626      0          29395.48   -9999     
2315       -9999      0          0.1        -0         0.7        0.1        0.1        -9999      -9999      431        0          470.05     0.1        -373       2.752      -1639      0          29395.05   -9999     
2315.2     -9999      0          0.2        -0.1       0.5        0.2        0.2        -9999      -9999      429.333    0          469.94     0.1        -373       2.757      -1621      0          29394.62   -9999     
2315.4     -9999      0.1        -0         -0         0.5        0.1        0.2        -9999      -9999      430        0          465.96     0.1        -373       2.754      -1632      0          29394.21   -9999     
2315.6     -9999      0          -0         -0         0.5        0.2        0.1        -9999      -9999      430.01     0          464.4      0.1        -373       2.754      -1633      0          29393.73   -9999     
2315.8     -9999      0.1        0.1        0          0.6        0.1        0.1        -9999      -9999      431.2      0          463.78     0.1        -373       2.755      -1630      0          29393.3    -9999     
2316       -9999      0          0.1        0.1        0.6        0          0.2        -9999      -9999      430        0          463.51     0.1        -373       2.757      -1651      0          29392.87   -9999     
2316.2     -9999      0          0.1        0.1        0.6        0          0.3        -9999      -9999      428        0          464.59     0.1        -373       2.754      -1643      0          29392.5    -9999     
2316.4     -9999      0          0.1        -0         0.6        -0         0.3        -9999      -9999      432        0          466.32     0.1        -373       2.754      -1629      0          29391.98   -9999     
2316.6     -9999      0          -0         -0         0.6        -0         0.2        -9999      -9999      432        0          467.67     0.1        -373       2.755      -1623      0          29391.56   -9999     
2316.8     1.03       0          0.1        -0.1       0.6        0.2        0.2        0.012      -9999      432        0          466.66     0.1        -373       2.753      -1638      0          29391.11   0.023     
2317       0.32       0.1        0.1        0          0.6        0.1        0.2        0.011      -9999      430        0          466.09     0.1        -373       2.752      -1618      0          29390.7    0.008     
2317.2     0.15       0          0.1        0          0.5        0          0.2        0.026      -9999      428        0          465.4      0.1        -373       2.756      -1633      0          29390.25   0.016     
2317.4     0.19       0          0.1        0          0.6        0.1        0.1        0.031      -9999      430        0          466.4      0.1        -373       2.759      -1630      0          29389.8    0.025     
2317.6     0.07       0          0          0          0.7        0.1        0.3        0.029      -9999      430        0          466.36     0.1        -373       2.754      -1620      0          29389.4    0.008     
2317.8     1.54       0          0.1        -0.1       0.7        0.3        0.2        0.009      -9999      430        0          465.51     0.1        -373       2.754      -1638      0          29388.94   0.029     
2318       3.69       0.1        0.1        0          0.6        0.4        0.2        0.004      -9999      432        0          464.41     0.1        -373       2.753      -1675      0          29388.47   0.014     
2318.2     2.62       0          0          0          0.6        0.3        0.2        0.001      -9999      430.5      0          462.03     0.1        -373       2.755      -1634      0          29388.11   0.007     
2318.4     2.15       0          0          0.1        0.5        0.6        0.2        0.001      -9999      431.333    0          458.28     0.1        -373       2.755      -1612      0          29387.61   0.006     
2318.6     1.46       0.1        0.2        0          0.7        1.3        0.3        0.002      -9999      428.976    0          451.39     0.1        -373       2.757      -1622      0          29387.19   0.014     
2318.8     0.65       0.1        0.1        -0         0.7        0.1        0.2        0.003      1.2        430        0          439.83     0.1        -373       2.751      -1642      0          29386.81   0.009     
2319       0.27       0          0.1        -0         0.5        -0.6       1.4        0.024      0.4        432        0          416.27     0.2        -373       2.753      -1629      0          29386.3    0.028     
2319.2     0.09       0          0.1        -0         0.4        -0.6       3.8        0.015      0.6        432        0          410.02     0.3        -373       2.752      -1642      0          29385.87   0.028     
2319.4     0.3        0.1        0.1        -0         0.5        0.3        3.4        0.023      0.5        432        0          481.78     0.3        -373       2.755      -1657      0          29385.43   0.029     
2319.6     0.38       0          0.1        -0         0.5        0.5        0.4        0.022      0.9        432        0          519.21     0.3        -373       2.75       -1655      0          29385.04   0.034     
2319.8     0.44       0          0          -0         0.5        0.2        0.2        0.026      0.8        430.503    1          526.01     0.3        -373       2.753      -1651      0          29384.54   0.047     
2320       1.71       0          0          -0         0.6        -0.3       0.1        0.002      1          430        0          528.34     0.3        -373       2.753      -1643      0          29384.14   0.017     
2320.2     2.5        0          0.1        -0         0.6        -0.1       0.2        0.002      0.7        431.333    0          532.43     0.3        -374       2.752      -1629      0          29383.78   0.017     
2320.4     0.79       0          0          0          0.6        0.2        0.1        0.016      1.2        432        0          533.85     0.3        -374       2.75       -1614      0          29383.27   0.024     
2320.6     0.07       0          0.1        0.1        0.6        0.3        0.1        0.12       1          430.016    0          531.92     0.3        -374       2.751      -1627      0          29382.84   0.033     
2320.8     0.45       0          0.1        0          0.6        0.3        0.2        0.023      0.8        430        0          525.11     0.3        -374       2.752      -1651      0          29382.41   0.043     
