~Version
 VERS              .         2.0                           : CWLS LOG ASCII STANDARD - VERSION 2.0
 WRAP              .         NO                            : ONE LINE PER DEPTH STEP
 DLM               .         SPACE                         : DELIMITING CHARACTER(SPACE TAB OR COMMA)
~Well Information
#_______________________________________________________________________________
#
#PARAMETER_NAME    .UNIT     VALUE                         : DESCRIPTION
#_______________________________________________________________________________
STRT               .M        2650.8                        : First reference value
STOP               .M        2752.199899                   : Last reference value
STEP               .M        0.1999998                     : Step increment
NULL               .         -9999                         : Missing value
COMP               .                                       : Company
WELL               .         616                           : Well name
FLD                .                                       : Field
LOC                .                                       : Location
CNTY               .                                       : County
STAT               .                                       : State
CTRY               .                                       : Country
SRVC               .                                       : Service Company
DATE               .                                       : Date
API                .                                       : API number
PROJECT_UPGRADE_TIME .         2021-03-18T21_24_50           : 
group              .         Good                          : 
~Parameter Information Block
#_______________________________________________________________________________
#
#PARAMETER_NAME    .UNIT     VALUE                         : DESCRIPTION
#_______________________________________________________________________________
SET                .         D4415_D                       : 
OTHER              .         Запись производится в присутствии: 
OTHER_10           .         Максимальная температура      : 
OTHER_11           .         Тип промывочной жидкости      : 
OTHER_12           .         Сопротивление ПЖ (Ом*м) при 20°C: 
OTHER_13           .         Плотность ПЖ(г/см3)           : 
OTHER_14           .         Вязкость ПЖ(с)                : 
OTHER_15           .         Водоотдача ПЖ(см3/30мин)      : 
OTHER_16           .         Уровень ПЖ                    : 
OTHER_17           .         Нефть ПЖ (%)                  : 
OTHER_18           .         Барит ПЖ (%)                  : 
OTHER_19           .         Гематит ПЖ (%)                : 
OTHER_2            .         Заказчик ННСН  ЦДНГ-1         : 
OTHER_20           .         КМЦ ПЖ (%)                    : 
OTHER_21           .         Разгазирование ПЖ (да,нет)    : 
OTHER_22           .         Подъемник                     : 
OTHER_23           .         Лаборатория                   : 
OTHER_24           .         Тип кабеля                    : 
OTHER_25           .         Длина кабеля (м)              : 
OTHER_26           .         Цена последней метки          : 
OTHER_27           .         Цена контрольной метки        : 
OTHER_28           .         Диаметр долота (мм)           : 
OTHER_29           .         Глубина бурения (м)           : 
OTHER_3            .         Площадь                       : 
OTHER_30           .         Искусственный забой (м)       : 
OTHER_31           .         Диаметр колонны (мм)          : 
OTHER_32           .         Толщина колонны (мм)          : 
OTHER_33           .         Башмак колонны (м)            : 
OTHER_34           .         Диаметр НКТ (мм)              : 
OTHER_35           .         Толщина НКТ (мм)              : 
OTHER_36           .         Воронка НКТ (м)               : 
OTHER_37           .         Дата цементожа                : 
OTHER_38           .         Тип, количество(т) и плотность цемента: 
OTHER_39           .         Интервалы перфорации (м)      : 
OTHER_4            .         Категория                     : 
OTHER_40           .         Направление, диаметр (мм)     : 
OTHER_41           .         Направление, глубина (м)      : 
OTHER_42           .         Кондуктор, диаметр (мм)       : 
OTHER_43           .         Кондуктор, глубина (м)        : 
OTHER_44           .         Техническая колонна, диаметр (мм): 
OTHER_45           .         Техническая колонна, глубина (м): 
OTHER_46           .         Эксплуатационная колонна, диаметр (мм): 
OTHER_47           .         Эксплуатационная колонна, глубина (м): 
OTHER_48           .         Программа Кедр-02 версия 3.4  : 
OTHER_49           .         Операционная система Windows NT 5.1 build 2600 Service Pack 2: 
OTHER_5            .         Назначение исследований       : 
OTHER_50           .         Программное обеспечение станции MONITOR-386EX 25/12/99 15_08_10   BGF V54 20/09/05 15_32_17   3.3__BGF_9030071: 
OTHER_51           .         Kedr.exe версия 3.4.2.74      : 
OTHER_52           .         KedrData.dll версия 3.4.2.29  : 
OTHER_53           .         Мнемоники версия 3.18 S       : 
OTHER_54           .         Драйвер версия 2.1.1.4        : 
OTHER_55           .         LasInf.dll 4.3.0.35           : 
OTHER_56           .         Прибор_ КСА-Т4                : 
OTHER_57           .         Номер прибора_ 160            : 
OTHER_58           .         Режим_ КСА-Т4                 : 
OTHER_59           .         Форма_ С.А.Б.                 : 
OTHER_6            .         Альтитуда стола ротора        : 
OTHER_60           .         Тарировки_                    : 
OTHER_61           .         <_techsia_sc_> Дата тарировки температуры 25.05.2010: 
OTHER_62           .         Ручной ввод коэффициентов     : 
OTHER_63           .         TM.DEGC = 0.00402*RTM.E.ACP + -0.994: 
OTHER_64           .         <_techsia_sc_> Дата тарировки давления 25.05.2010: 
OTHER_65           .         Ручной ввод коэффициентов     : 
OTHER_66           .         MN.ATM = (2.27521e-006*TM.DEGC + 0.02078)*(RMN.E.ACP + 6.2*TM.DEGC + -1688): 
OTHER_67           .         <_techsia_sc_> Дата тарировки ГК 25.05.2010: 
OTHER_68           .         Ручной ввод коэффициентов     : 
OTHER_69           .         GR.UR/H = RGR.IMP/MIN / 45.5144: 
OTHER_7            .         Вид исследований 3  6         : 
OTHER_70           .         GK.FLT = 0.1*GR.UR/H[-1] + (1-0.1)*GR.UR/H[0]: 
OTHER_8            .         Начало бурения интервала каротажа: 
OTHER_9            .         Окончание бурения интервала каротажа: 
PROJECT_UPGRADE_TIME .         2021-03-18T21_24_50           : 
TLFamily_CCLC      .                                       : 
TLFamily_DEPT      .         Measured Depth                : 
TLFamily_GK        .         Gamma Ray                     : 
TLFamily_GR        .         Gamma Ray                     : 
TLFamily_METKA     .                                       : 
TLFamily_MN        .                                       : 
TLFamily_RCOR      .                                       : 
TLFamily_RGR       .                                       : 
TLFamily_RMN       .                                       : 
TLFamily_RTEN      .                                       : 
TLFamily_RTM       .                                       : 
TLFamily_SPEE      .         Cable Speed                   : 
TLFamily_TIME      .         Time                          : 
TLFamily_TM        .         Temperature                   : 
group              .         prim                          : 
~Curve Information
#_______________________________________________________________________________
#
#LOGNAME           .UNIT     LOG_ID                        : DESCRIPTION
#_______________________________________________________________________________
DEPT               .M                                      : 1 Глубина, м -    0.0 см 
CCLC               .E.ACP                                  : 9 Локатор муфт,  -   20.0 см 
GK                 .FLT                                    : 14 Гамма-активность фильтрованная, мкр./ч -  110.0 см 
GR                 .UR/H                                   : 13 Гамма-активность, мкр./ч -  110.0 см 
METKA              .CU                                     : 3 Метки,  -    0.0 см 
MN                 .ATM                                    : 12 Давление, атм. -  160.0 см 
RCOR               .CM/KM                                  : 5 Коррекция по ролику, см/км -    0.0 см 
RGR                .IMP/MIN                                : 10 Гамма-активность, усл.ед. -  110.0 см 
RMN                .E.ACP                                  : 8 Давление, усл.ед. -  160.0 см 
RTEN               .T                                      : 6 Натяжение кабеля, т -    0.0 см 
RTM                .E.ACP                                  : 7 Температура, усл.ед. -  170.0 см 
SPEE               .M/H                                    : 2 Скорость, м/час -    0.0 см 
TIME               .S                                      : 4 Время, сек -    0.0 см 
TM                 .DEGC                                   : 11 Температура, °C -  170.0 см 
~Ascii
# ...
2723.599927 108        11.34      11.34      0          244.981    -1091      516        13037      0.25       14880      579        448        58.825    
2723.799927 110        11.34      11.34      0          245.012    -1091      516        13039      0.25       14867      580        449.2      58.773    
2723.999927 82         10.5       10.5       0          245.035    -1091      478        13040      0.25       14872      579        450.47     58.789    
2724.199927 68         10.5       10.5       0          245.063    -1091      478        13041      0.25       14878      579        451.72     58.818    
2724.399926 361        8.35       8.35       0          245.083    -1091      380        13042      0.25       14881      577        452.99     58.828    
2724.599926 316        8.35       8.35       0          245.102    -1091      380        13043      0.25       14879      578        454.29     58.818    
2724.799926 415        7.27       7.27       0          245.121    -1091      331        13044      0.25       14874      578        455.5      58.799    
2724.999926 349        7.27       7.27       0          245.138    -1091      331        13045      0.25       14863      578        456.77     58.755    
2725.199926 2915       7.23       7.23       0          245.165    -1091      329        13047      0.25       14850      579        457.97     58.703    
2725.399925 1284       7.23       7.23       0          245.179    -1091      329        13048      0.25       14838      579        459.29     58.657    
2725.599925 617        6.94       6.94       0          245.213    -1091      316        13050      0.25       14825      578        460.5      58.603    
2725.799925 565        6.94       6.94       0          245.22     -1091      316        13051      0.25       14815      578        461.75     58.562    
2725.999925 327        7.1        7.1        0          245.244    -1091      323        13052      0.25       14806      579        463        58.527    
2726.199925 423        7.1        7.1        0          245.258    -1091      323        13053      0.25       14798      579        464.2      58.493    
2726.399924 124        7.76       7.76       0          245.273    -1091      353        13054      0.25       14788      579        465.53     58.454    
2726.599924 184        7.76       7.76       0          245.286    -1091      353        13055      0.25       14776      580        466.78     58.404    
2726.799924 93         7.89       7.89       0          245.304    -1091      359        13056      0.25       14765      580        468.03     58.36     
2726.999924 65         7.89       7.89       0          245.329    -1091      359        13058      0.25       14755      579        469.25     58.322    
2727.199924 67         7.43       7.43       0          245.352    -1091      338        13059      0.25       14746      579        470.56     58.285    
2727.399923 206        7.43       7.43       0          245.371    -1091      338        13060      0.25       14739      578        471.79     58.256    
2727.599923 306        7.16       7.16       0          245.404    -1091      326        13062      0.25       14729      577        473.02     58.218    
2727.799923 188        7.16       7.16       0          245.414    -1091      326        13063      0.25       14717      577        474.28     58.169    
2727.999923 196        7.45       7.45       0          245.428    -1091      339        13064      0.25       14698      578        475.52     58.094    
2728.199923 223        7.45       7.45       0          245.463    -1091      339        13066      0.25       14700      577        476.8      58.099    
2728.399922 162        8.57       8.57       0          245.491    -1091      390        13067      0.25       14704      577        478.06     58.117    
2728.599922 231        8.57       8.57       0          245.493    -1091      390        13067      0.25       14703      577        479.29     58.113    
2728.799922 90         10.02      10.02      0          245.532    -1091      456        13069      0.25       14698      577        480.52     58.093    
2728.999922 194        10.02      10.02      0          245.548    -1091      456        13070      0.25       14691      579        481.84     58.064    
2729.199922 141        10.57      10.57      0          245.562    -1091      481        13071      0.25       14683      579        483.07     58.032    
2729.399921 139        10.57      10.57      0          245.572    -1091      481        13072      0.25       14670      580        484.3      57.978    
2729.599921 142        10.44      10.44      0          245.583    -1091      475        13073      0.25       14652      579        485.55     57.907    
2729.799921 190        10.44      10.44      0          245.613    -1091      475        13075      0.25       14635      580        486.81     57.84     
2729.999921 174        9.45       9.45       0          245.608    -1091      430        13076      0.25       14606      580        488.06     57.723    
2730.199921 161        9.45       9.45       0          245.591    -1091      430        13077      0.25       14562      580        489.31     57.545    
2730.39992 170        7.51       7.51       0          245.595    -1091      342        13078      0.25       14516      579        490.56     57.358    
2730.59992 100        7.51       7.51       0          245.61     -1091      342        13080      0.25       14476      578        491.81     57.201    
2730.79992 128        6.61       6.61       0          245.608    -1091      301        13081      0.25       14434      580        493.06     57.031    
2730.99992 58         6.61       6.61       0          245.623    -1091      301        13083      0.25       14398      581        494.31     56.885    
2731.19992 94         6.2        6.2        0          245.62     -1091      282        13084      0.25       14359      580        495.56     56.727    
2731.399919 245        6.2        6.2        0          245.62     -1091      282        13085      0.25       14319      581        496.75     56.568    
2731.599919 134        6.06       6.06       0          245.626    -1091      276        13086      0.25       14292      580        498        56.46     
2731.799919 103        6.06       6.06       0          245.65     -1091      276        13087      0.25       14283      579        499.33     56.424    
2731.999919 68         6.94       6.94       0          245.682    -1091      316        13088      0.25       14291      579        500.57     56.456    
2732.199919 70         6.94       6.94       0          245.705    -1091      316        13089      0.25       14309      579        501.83     56.528    
2732.399918 57         7.76       7.76       0          245.694    -1091      353        13090      0.25       14288      580        503.04     56.445    
2732.599918 78         7.76       7.76       0          245.636    -1091      353        13092      0.25       14187      579        504.27     56.038    
2732.799918 88         7.71       7.71       0          245.574    -1091      351        13093      0.25       14035      579        505.58     55.427    
2732.999918 71         7.71       7.71       0          245.542    -1091      351        13095      0.25       13901      580        506.83     54.888    
2733.199918 59         7.45       7.45       0          245.494    -1091      339        13096      0.25       13788      579        508.08     54.434    
2733.399917 74         7.45       7.45       0          245.459    -1091      339        13097      0.25       13692      577        509.33     54.047    
2733.599917 80         7.84       7.84       0          245.448    -1091      357        13098      0.25       13620      578        510.59     53.758    
2733.799917 498        7.84       7.84       0          245.449    -1091      357        13100      0.25       13569      578        511.83     53.553    
