~Version
 VERS              .         2.0                           : CWLS LOG ASCII STANDARD - VERSION 2.0
 WRAP              .         NO                            : ONE LINE PER DEPTH STEP
 DLM               .         SPACE                         : DELIMITING CHARACTER(SPACE TAB OR COMMA)
~Well Information
#_______________________________________________________________________________
#
#PARAMETER_NAME    .UNIT     VALUE                         : DESCRIPTION
#_______________________________________________________________________________
STRT               .M        2650.4                        : First reference value
STOP               .M        2757.800161                   : Last reference value
STEP               .M        0.2000003                     : Step increment
NULL               .         -9999                         : Missing value
COMP               .                                       : Company
WELL               .         616                           : Well name
FLD                .                                       : Field
LOC                .                                       : Location
CNTY               .                                       : County
STAT               .                                       : State
CTRY               .                                       : Country
SRVC               .                                       : Service Company
DATE               .                                       : Date
API                .                                       : API number
PROJECT_UPGRADE_TIME .         2021-03-18T21_24_50           : 
group              .         Good                          : 
~Parameter Information Block
#_______________________________________________________________________________
#
#PARAMETER_NAME    .UNIT     VALUE                         : DESCRIPTION
#_______________________________________________________________________________
SET                .         D4412_D                       : 
OTHER              .         Запись производится в присутствии: 
OTHER_10           .         Максимальная температура      : 
OTHER_11           .         Тип промывочной жидкости      : 
OTHER_12           .         Сопротивление ПЖ (Ом*м) при 20°C: 
OTHER_13           .         Плотность ПЖ(г/см3)           : 
OTHER_14           .         Вязкость ПЖ(с)                : 
OTHER_15           .         Водоотдача ПЖ(см3/30мин)      : 
OTHER_16           .         Уровень ПЖ                    : 
OTHER_17           .         Нефть ПЖ (%)                  : 
OTHER_18           .         Барит ПЖ (%)                  : 
OTHER_19           .         Гематит ПЖ (%)                : 
OTHER_2            .         Заказчик ННСН  ЦДНГ-1         : 
OTHER_20           .         КМЦ ПЖ (%)                    : 
OTHER_21           .         Разгазирование ПЖ (да,нет)    : 
OTHER_22           .         Подъемник                     : 
OTHER_23           .         Лаборатория                   : 
OTHER_24           .         Тип кабеля                    : 
OTHER_25           .         Длина кабеля (м)              : 
OTHER_26           .         Цена последней метки          : 
OTHER_27           .         Цена контрольной метки        : 
OTHER_28           .         Диаметр долота (мм)           : 
OTHER_29           .         Глубина бурения (м)           : 
OTHER_3            .         Площадь                       : 
OTHER_30           .         Искусственный забой (м)       : 
OTHER_31           .         Диаметр колонны (мм)          : 
OTHER_32           .         Толщина колонны (мм)          : 
OTHER_33           .         Башмак колонны (м)            : 
OTHER_34           .         Диаметр НКТ (мм)              : 
OTHER_35           .         Толщина НКТ (мм)              : 
OTHER_36           .         Воронка НКТ (м)               : 
OTHER_37           .         Дата цементожа                : 
OTHER_38           .         Тип, количество(т) и плотность цемента: 
OTHER_39           .         Интервалы перфорации (м)      : 
OTHER_4            .         Категория                     : 
OTHER_40           .         Направление, диаметр (мм)     : 
OTHER_41           .         Направление, глубина (м)      : 
OTHER_42           .         Кондуктор, диаметр (мм)       : 
OTHER_43           .         Кондуктор, глубина (м)        : 
OTHER_44           .         Техническая колонна, диаметр (мм): 
OTHER_45           .         Техническая колонна, глубина (м): 
OTHER_46           .         Эксплуатационная колонна, диаметр (мм): 
OTHER_47           .         Эксплуатационная колонна, глубина (м): 
OTHER_48           .         Программа Кедр-02 версия 3.4  : 
OTHER_49           .         Операционная система Windows NT 5.1 build 2600 Service Pack 2: 
OTHER_5            .         Назначение исследований       : 
OTHER_50           .         Программное обеспечение станции MONITOR-386EX 25/12/99 15_08_10   BGF V54 20/09/05 15_32_17   3.3__BGF_9030071: 
OTHER_51           .         Kedr.exe версия 3.4.2.74      : 
OTHER_52           .         KedrData.dll версия 3.4.2.29  : 
OTHER_53           .         Мнемоники версия 3.18 S       : 
OTHER_54           .         Драйвер версия 2.1.1.4        : 
OTHER_55           .         LasInf.dll 4.3.0.35           : 
OTHER_56           .         Прибор_ КСА-Т4                : 
OTHER_57           .         Номер прибора_ 160            : 
OTHER_58           .         Режим_ КСА-Т4                 : 
OTHER_59           .         Форма_ С.А.Б.                 : 
OTHER_6            .         Альтитуда стола ротора        : 
OTHER_60           .         Тарировки_                    : 
OTHER_61           .         <_techsia_sc_> Дата тарировки температуры 25.05.2010: 
OTHER_62           .         Ручной ввод коэффициентов     : 
OTHER_63           .         TM.DEGC = 0.00402*RTM.E.ACP + -0.994: 
OTHER_64           .         <_techsia_sc_> Дата тарировки давления 25.05.2010: 
OTHER_65           .         Ручной ввод коэффициентов     : 
OTHER_66           .         MN.ATM = (2.27521e-006*TM.DEGC + 0.02078)*(RMN.E.ACP + 6.2*TM.DEGC + -1688): 
OTHER_67           .         <_techsia_sc_> Дата тарировки ГК 25.05.2010: 
OTHER_68           .         Ручной ввод коэффициентов     : 
OTHER_69           .         GR.UR/H = RGR.IMP/MIN / 45.5144: 
OTHER_7            .         Вид исследований 3  6         : 
OTHER_70           .         GK.FLT = 0.1*GR.UR/H[-1] + (1-0.1)*GR.UR/H[0]: 
OTHER_8            .         Начало бурения интервала каротажа: 
OTHER_9            .         Окончание бурения интервала каротажа: 
PROJECT_UPGRADE_TIME .         2021-03-18T21_24_50           : 
TLFamily_CCLC      .                                       : 
TLFamily_DEPT      .         Measured Depth                : 
TLFamily_GK        .         Gamma Ray                     : 
TLFamily_GR        .         Gamma Ray                     : 
TLFamily_METKA     .                                       : 
TLFamily_MN        .                                       : 
TLFamily_RCOR      .                                       : 
TLFamily_RGR       .                                       : 
TLFamily_RMN       .                                       : 
TLFamily_RTEN      .                                       : 
TLFamily_RTM       .                                       : 
TLFamily_SPEE      .         Cable Speed                   : 
TLFamily_TIME      .         Time                          : 
TLFamily_TM        .         Temperature                   : 
group              .         prim                          : 
~Curve Information
#_______________________________________________________________________________
#
#LOGNAME           .UNIT     LOG_ID                        : DESCRIPTION
#_______________________________________________________________________________
DEPT               .M                                      : 1 Глубина, м -    0.0 см 
CCLC               .E.ACP                                  : 9 Локатор муфт,  -   20.0 см 
GK                 .FLT                                    : 14 Гамма-активность фильтрованная, мкр./ч -  110.0 см 
GR                 .UR/H                                   : 13 Гамма-активность, мкр./ч -  110.0 см 
METKA              .CU                                     : 3 Метки,  -    0.0 см 
MN                 .ATM                                    : 12 Давление, атм. -  160.0 см 
RCOR               .CM/KM                                  : 5 Коррекция по ролику, см/км -    0.0 см 
RGR                .IMP/MIN                                : 10 Гамма-активность, усл.ед. -  110.0 см 
RMN                .E.ACP                                  : 8 Давление, усл.ед. -  160.0 см 
RTEN               .T                                      : 6 Натяжение кабеля, т -    0.0 см 
RTM                .E.ACP                                  : 7 Температура, усл.ед. -  170.0 см 
SPEE               .M/H                                    : 2 Скорость, м/час -    0.0 см 
TIME               .S                                      : 4 Время, сек -    0.0 см 
TM                 .DEGC                                   : 11 Температура, °C -  170.0 см 
~Ascii
# ...
2702.400078 110        9.97       9.97       0          372.202    -1084      454        19071      0.2        16397      587        323.33     64.922    
2702.600078 71         10.57      10.57      0          372.219    -1084      481        19072      0.2        16396      587        324.59     64.918    
2702.800079 111        10.57      10.57      0          372.205    -1084      481        19071      0.2        16395      587        325.83     64.913    
2703.000079 3969       10.08      10.08      0          372.312    -1084      459        19076      0.2        16394      588        327.07     64.91     
2703.200079 1135       10.08      10.08      0          372.277    -1084      459        19074      0.2        16393      589        328.26     64.906    
2703.40008 328        9.34       9.34       0          372.305    -1084      425        19076      0.2        16393      590        329.47     64.906    
2703.60008 163        9.34       9.34       0          372.242    -1084      425        19073      0.2        16392      589        330.74     64.902    
2703.80008 114        9.56       9.56       0          372.311    -1084      435        19076      0.2        16392      589        331.97     64.901    
2704.00008 81         9.56       9.56       0          372.31     -1084      435        19076      0.2        16391      587        333.25     64.898    
2704.200081 90         10.04      10.04      0          372.325    -1084      457        19077      0.2        16390      587        334.45     64.894    
2704.400081 98         10.04      10.04      0          372.288    -1084      457        19075      0.2        16389      587        335.67     64.89     
2704.600081 102        10         10         0          372.288    -1084      455        19075      0.2        16388      586        336.88     64.886    
2704.800082 70         10         10         0          372.286    -1084      455        19075      0.2        16387      587        338.17     64.882    
2705.000082 159        9.87       9.87       0          372.265    -1084      449        19074      0.2        16386      587        339.38     64.878    
2705.200082 141        9.87       9.87       0          372.264    -1084      449        19074      0.2        16385      587        340.59     64.874    
2705.400083 168        10.28      10.28      0          372.482    -1084      468        19084      0.2        16382      585        341.87     64.862    
2705.600083 206        10.28      10.28      0          372.38     -1084      468        19080      0.2        16381      585        343.12     64.857    
2705.800083 160        10.61      10.61      0          372.282    -1084      483        19075      0.2        16380      586        344.36     64.854    
2706.000083 120        10.61      10.61      2          372.274    -1084      483        19075      0.2        16379      585        345.58     64.85     
2706.200084 166        10.41      10.41      0          372.336    -1087      474        19078      0.2        16378      583        346.98     64.846    
2706.400084 88         10.41      10.41      0          372.341    -1087      474        19078      0.2        16375      585        348.25     64.833    
2706.600084 66         10.04      10.04      0          372.337    -1087      457        19078      0.2        16373      586        349.47     64.827    
2706.800085 101        9.97       9.97       0          372.339    -1087      454        19078      0.2        16372      586        350.68     64.821    
2707.000085 59         10         10         0          372.464    -1087      455        19084      0.2        16371      587        351.96     64.817    
2707.200085 87         10         10         0          372.4      -1087      455        19081      0.2        16369      585        353.17     64.809    
2707.400085 92         10.15      10.15      0          372.473    -1087      462        19084      0.2        16369      580        354.52     64.809    
2707.600086 82         10.15      10.15      0          372.399    -1087      462        19081      0.2        16368      579        355.73     64.804    
2707.800086 98         10.44      10.44      0          372.448    -1087      475        19083      0.2        16367      577        357        64.801    
2708.000086 88         10.44      10.44      0          372.461    -1087      475        19084      0.2        16366      576        358.22     64.797    
2708.200087 101        10.68      10.68      0          372.662    -1087      486        19094      0.2        16366      576        359.5      64.797    
2708.400087 113        10.68      10.68      0          372.626    -1087      486        19092      0.2        16364      574        360.84     64.789    
2708.600087 124        11.34      11.34      0          372.618    -1087      516        19092      0.2        16362      573        362.05     64.781    
2708.800088 66         11.34      11.34      0          372.621    -1087      516        19092      0.2        16361      573        363.33     64.777    
2709.000088 80         11.12      11.12      0          372.693    -1087      506        19095      0.2        16359      573        364.58     64.771    
2709.200088 60         11.12      11.12      0          372.695    -1087      506        19096      0.2        16357      572        365.89     64.762    
2709.400089 66         10.79      10.79      0          372.703    -1087      491        19096      0.2        16354      573        367.11     64.749    
2709.600089 75         10.79      10.79      0          372.953    -1087      491        19108      0.2        16352      572        368.41     64.741    
2709.800089 81         11.16      11.16      0          372.833    -1087      508        19102      0.2        16350      572        369.65     64.734    
2710.000089 126        11.16      11.16      0          372.807    -1087      508        19101      0.2        16347      572        370.86     64.72     
2710.20009 105        10.94      10.94      0          372.718    -1087      498        19097      0.2        16345      573        372.21     64.713    
2710.40009 92         10.94      10.94      0          372.835    -1087      498        19103      0.2        16343      572        373.48     64.705    
2710.60009 85         11.29      11.29      0          372.811    -1087      514        19102      0.2        16341      574        374.7      64.697    
2710.800091 60         11.29      11.29      0          372.818    -1087      514        19102      0.2        16339      573        375.97     64.688    
2711.000091 78         11.25      11.25      0          372.98     -1087      512        19110      0.2        16336      573        377.23     64.677    
2711.200091 73         11.25      11.25      0          372.936    -1087      512        19108      0.2        16334      574        378.53     64.669    
2711.400092 39         10.66      10.66      0          372.898    -1087      485        19106      0.2        16333      575        379.75     64.664    
2711.600092 77         10.66      10.66      0          372.876    -1087      485        19105      0.2        16331      575        381.02     64.657    
2711.800092 85         9.21       9.21       0          372.979    -1087      419        19110      0.2        16329      573        382.28     64.649    
2712.000092 45         9.21       9.21       0          372.957    -1087      419        19109      0.2        16328      573        383.58     64.644    
2712.200093 54         10.17      10.17      0          372.955    -1087      463        19109      0.2        16326      573        384.81     64.635    
2712.400093 115        10.17      10.17      0          372.959    -1087      463        19109      0.2        16321      574        386.07     64.615    
2712.600093 76         13.4       13.4       0          372.993    -1087      610        19111      0.2        16318      573        387.29     64.604    
