~Version
 VERS              .         2.0                           : CWLS LOG ASCII STANDARD - VERSION 2.0
 WRAP              .         NO                            : ONE LINE PER DEPTH STEP
 DLM               .         SPACE                         : DELIMITING CHARACTER(SPACE TAB OR COMMA)
~Well Information
#_______________________________________________________________________________
#
#PARAMETER_NAME    .UNIT     VALUE                         : DESCRIPTION
#_______________________________________________________________________________
STRT               .M        3.8                           : First reference value
STOP               .M        216                           : Last reference value
STEP               .M        0.2                           : Step increment
NULL               .         -9999                         : Missing value
COMP               .                                       : Company
WELL               .         616                           : Well name
FLD                .                                       : Field
LOC                .                                       : Location
CNTY               .                                       : County
STAT               .                                       : State
CTRY               .                                       : Country
SRVC               .                                       : Service Company
DATE               .                                       : Date
API                .                                       : API number
PROJECT_UPGRADE_TIME .         2021-03-18T21_24_50           : 
group              .         Good                          : 
~Parameter Information Block
#_______________________________________________________________________________
#
#PARAMETER_NAME    .UNIT     VALUE                         : DESCRIPTION
#_______________________________________________________________________________
SET                .         D1350_D                       : 
OTHER              .         Программное обеспечение станции MONITOR-386EX 25/12/99 15_08_10   BGF V52 22/08/01 16_56_30   3.1_SNGF__BGF_								111238: 
OTHER_10           .         Тарировки_                    : 
OTHER_11           .         <_techsia_sc_> Постоянная времени фильтра  0.5 сек, kf=0.181269: 
OTHER_12           .         TM.GRD = 0.00428968*TM$.UE + -0.3284: 
OTHER_13           .         GK.MKR/H = GK$.UE / 40.16     : 
OTHER_14           .         NKT. = NKT$.UE / 1            : 
OTHER_2            .         Kedr.exe версия 3.3.2.43      : 
OTHER_3            .         KedrData.dll версия 3.3.2.22  : 
OTHER_4            .         Драйвер версия 2.1.1.3        : 
OTHER_5            .         Мнемоники версия 3.3 S        : 
OTHER_6            .         Прибор_ РК4-38                : 
OTHER_7            .         Номер прибора_ 35с            : 
OTHER_8            .         Режим_ РК4-38                 : 
OTHER_9            .         Форма_ 3                      : 
PROJECT_UPGRADE_TIME .         2021-03-18T21_24_49           : 
TLFamily_DEPT      .         Measured Depth                : 
TLFamily_GK        .         Gamma Ray                     : 
TLFamily_GK$       .                                       : 
TLFamily_LM        .         Casing Collar locator         : 
TLFamily_METKA     .                                       : 
TLFamily_NKT       .         Neutron Far                   : 
TLFamily_NKT$      .         Neutron Far                   : 
TLFamily_RCOR      .                                       : 
TLFamily_SPID      .         Spontaneous Potential         : 
TLFamily_TENS      .         Cable Tension                 : 
TLFamily_TIME      .         Time                          : 
TLFamily_TM        .         Temperature                   : 
TLFamily_TM$       .         Temperature                   : 
group              .         prim                          : 
~Curve Information
#_______________________________________________________________________________
#
#LOGNAME           .UNIT     LOG_ID                        : DESCRIPTION
#_______________________________________________________________________________
DEPT               .M                                      : 1 Глубина, м -    0.0 см 
GK                 .MKR/H                                  : 12 Гамма-активность, мкр./ч -   23.0 см 
GK$                .UE                                     : 10 Гамма-активность, усл.ед. -   23.0 см 
LM                 .                                       : 8 Локатор муфт,  -  180.0 см 
METKA              .                                       : 3 Метки,  -    0.0 см 
NKT                .                                       : 13 НКТ, прив. -  160.0 см 
NKT$               .UE                                     : 9 НКТ, усл.ед. -  160.0 см 
RCOR               .CM/KM                                  : 5 Коррекция по ролику, см/км -    0.0 см 
SPID               .M/H                                    : 2 Скорость, м/час -    0.0 см 
TENS               .T                                      : 6 Натяжение кабеля, т -    0.0 см 
TIME               .S                                      : 4 Время, сек -    0.0 см 
TM                 .GRD                                    : 11 Температура, °C -  193.0 см 
TM$                .UE                                     : 7 Температура, усл.ед. -  193.0 см 
~Ascii
# ...
127        3.9        154        143        0          0          0          7013       -325       0          2757.53    6.99       1706      
127.2      4.02       158        228        0          0          0          7013       -322       0          2755.41    6.981      1704      
127.4      4.15       167        251        0          0          0          7013       -319       0          2753.19    6.968      1701      
127.6      4.14       165        216        0          0          0          7013       -321       0          2750.98    6.915      1689      
127.8      4.25       167        164        0          0          0          7013       -323       0          2748.76    6.913      1688      
128        4.52       178        188        0          0          0          7013       -320       0          2746.56    6.91       1688      
128.2      4.51       183        153        0          0          0          7013       -332       0          2744.35    6.93       1692      
128.4      4.34       183        205        0          0          0          7013       -311       0          2742.13    6.93       1692      
128.6      4.15       170        762        0          0          0          7013       -322       0          2739.91    6.923      1690      
128.8      4          166        424        0          0          0          7013       -319       0          2737.7     6.908      1687      
129        3.77       157        168        0          0          0          7013       -314       0          2735.48    6.844      1672      
129.2      3.56       144        157        0          0          0          7013       -323       0          2733.27    6.805      1663      
129.4      3.49       139        167        0          0          0          7013       -326       0          2731.06    6.765      1654      
129.6      3.59       147        173        0          0          0          7013       -318       0          2728.77    6.681      1634      
129.8      3.34       135        171        0          0          0          7013       -320       0          2726.62    6.705      1640      
130        3.29       135        154        2          0          0          7013       -348       0          2724.31    6.677      1633      
130.2      3.14       133        191        0          0          0          7013       -336       0          2722.44    6.642      1625      
130.4      2.96       123        188        0          0          0          7013       -328       0          2721.29    6.655      1628      
130.6      2.88       116        173        0          0          0          7013       -330       0          2719.03    6.638      1624      
130.8      3.13       112        171        0          0          0          7013       -315       0          2716.87    6.621      1620      
131        3.39       126        159        0          0          0          7013       -327       0          2714.65    6.632      1623      
131.2      3.52       143        210        0          0          0          7013       -322       0          2712.38    6.629      1622      
131.4      3.59       137        208        0          0          0          7013       -325       0          2710.23    6.578      1610      
131.6      3.91       149        232        0          0          0          7013       -316       0          2708.01    6.561      1606      
131.8      4.24       176        153        0          0          0          7013       -328       0          2705.75    6.552      1604      
132        3.92       151        140        0          0          0          7013       -321       0          2703.49    6.496      1591      
132.2      4.41       173        195        0          0          0          7013       -314       0          2701.36    6.484      1588      
132.4      4.73       189        200        0          0          0          7013       -322       0          2699.1     6.469      1585      
132.6      4.39       195        204        0          0          0          7013       -312       0          2696.81    6.488      1589      
132.8      3.96       174        211        0          0          0          7013       -319       0          2694.69    6.488      1589      
133        3.63       152        203        0          0          0          7013       -319       0          2692.47    6.454      1581      
133.2      3.69       134        198        0          0          0          7013       -320       0          2690.16    6.455      1581      
133.4      4.13       165        209        0          0          0          7013       -325       0          2688.05    6.424      1574      
133.6      4.09       175        341        0          0          0          7013       -332       0          2685.79    6.417      1572      
133.8      3.5        136        191        0          0          0          7013       -316       0          2683.52    6.418      1573      
134        3.83       152        1045       0          0          0          7013       -316       0          2681.34    6.384      1565      
134.2      4.01       167        6463       0          0          0          7013       -326       0          2679.15    6.353      1558      
134.4      3.49       167        162        0          0          0          7013       -331       0          2676.88    6.332      1553      
134.6      3.34       128        191        0          0          0          7013       -321       0          2674.67    6.282      1541      
134.8      3.65       132        211        0          0          0          7013       -322       0          2672.5     6.25       1533      
135        3.88       157        241        0          0          0          7013       -320       0          2670.24    6.213      1525      
135.2      3.79       157        191        0          0          0          7013       -320       0          2667.98    6.188      1519      
135.4      3.54       146        190        1          0          0          7013       -321       0          2665.86    6.158      1512      
135.6      3.36       134        173        0          0          0          7013       -322       0          2663.59    6.128      1505      
135.8      3.44       134        170        0          0          0          7013       -320       0          2661.28    6.102      1499      
136        3.82       143        171        0          0          0          7013       -318       0          2659.22    6.078      1493      
136.2      4.1        152        157        0          0          0          7013       -321       0          2656.96    6.059      1489      
136.4      4.42       165        159        0          0          0          7013       -323       0          2654.64    6.042      1485      
136.6      4.47       186        257        0          0          0          7013       -319       0          2652.43    6.029      1482      
136.8      4.05       181        235        0          0          0          7013       -326       0          2650.11    6.002      1476      
137        3.57       142        179        0          0          0          7013       -322       0          2647.9     5.982      1471      
137.2      3.69       141        204        0          0          0          7013       -320       0          2645.71    5.956      1465      
137.4      4          163        121        0          0          0          7013       -326       0          2643.47    5.945      1462      
137.6      3.85       156        256        0          0          0          7013       -322       0          2641.26    5.909      1454      
137.8      3.72       149        306        0          0          0          7013       -321       0          2638.99    5.909      1454      
138        3.75       149        78         0          0          0          7013       -327       0          2636.83    5.876      1446      
