~Version
 VERS              .         2.0                           : CWLS LOG ASCII STANDARD - VERSION 2.0
 WRAP              .         NO                            : ONE LINE PER DEPTH STEP
 DLM               .         SPACE                         : DELIMITING CHARACTER(SPACE TAB OR COMMA)
~Well Information
#_______________________________________________________________________________
#
#PARAMETER_NAME    .UNIT     VALUE                         : DESCRIPTION
#_______________________________________________________________________________
STRT               .M        549.2                         : First reference value
STOP               .M        805.2                         : Last reference value
STEP               .M        0.2                           : Step increment
NULL               .         -9999                         : Missing value
COMP               .                                       : Company
WELL               .         616                           : Well name
FLD                .                                       : Field
LOC                .                                       : Location
CNTY               .                                       : County
STAT               .                                       : State
CTRY               .                                       : Country
SRVC               .                                       : Service Company
DATE               .                                       : Date
API                .                                       : API number
PROJECT_UPGRADE_TIME .         2021-03-18T21_24_50           : 
group              .         Good                          : 
~Parameter Information Block
#_______________________________________________________________________________
#
#PARAMETER_NAME    .UNIT     VALUE                         : DESCRIPTION
#_______________________________________________________________________________
SET                .         616_4                         : 
CONF               .         00                            : 
END                .         0                             : 
ERR                .         0                             : 
GS00               .M        0803.23                       : 
GS01               .M        0546.74                       : 
MM00               .M        0120.00                       : 
NOKG               .         0                             : 
NPR                .         980402                        : 
PART               .         Палагутин                     : 
PROJECT_UPGRADE_TIME .         2021-03-18T21_24_49           : 
PRZK               .         Шакиров                       : 
TLFamily_AZIMUTH   .         True Dip Azimuth              : 
TLFamily_DEPTH     .         Measured Depth                : 
TLFamily_METKA     .                                       : 
TLFamily_ROLL      .                                       : 
TLFamily_SPEED     .         Spontaneous Potential         : 
TLFamily_ZENIT     .                                       : 
VPRG               .         310                           : 
WAY                .         UP                            : 
group              .         prim                          : 
~Curve Information
#_______________________________________________________________________________
#
#LOGNAME           .UNIT     LOG_ID                        : DESCRIPTION
#_______________________________________________________________________________
DEPTH              .M                                      :  
AZIMUTH            .DEG                                    :  
METKA              .                                       :  
ROLL               .DEG                                    :  
SPEED              .M/H                                    :  
ZENIT              .DEG                                    :  
~Ascii
# ...
720        259.59     0          233.89     648        30.88     
720.2      258.1      0          233.39     648        30.94     
720.4      256.43     0          233.18     612        30.61     
720.6      257.05     0          233.22     684        30.59     
720.8      255.81     0          233.18     648        30.48     
721        255.13     0          233.28     648        30.43     
721.2      257.87     0          233.59     648        31        
721.4      257.01     0          234.22     648        30.72     
721.6      255.29     0          234.26     648        30.39     
721.8      254.59     0          233.83     576        30.38     
722        255.62     0          233.98     648        30.54     
722.2      255.52     1          234.36     648        30.42     
722.4      255.88     0          234.53     612        30.49     
722.6      255.77     0          235.13     648        30.54     
722.8      261.73     0          236.18     612        31.9      
723        255.1      0          235.19     648        30.81     
723.2      255.78     0          234.34     648        30.76     
723.4      255.73     0          234.91     648        30.63     
723.6      256        0          235.64     648        30.68     
723.8      256.56     0          235.9      576        30.85     
724        255.94     0          235.95     648        30.75     
724.2      255.56     0          235.85     648        30.63     
724.4      256.51     0          235.7      648        30.89     
724.6      256.61     0          235.56     648        30.91     
724.8      256.55     0          235.17     612        30.94     
725        257.09     0          234.79     648        31.06     
725.2      255.82     0          234.49     576        30.76     
725.4      256.31     2          234.58     108        30.86     
725.6      255.99     0          234.31     612        30.84     
725.8      255.35     0          234.42     612        30.66     
726        256.53     0          234.7      612        30.94     
726.2      255.63     0          234.88     648        30.76     
726.4      255.96     0          234.9      684        30.82     
726.6      256.76     0          234.94     648        31.02     
726.8      255.78     0          234.68     648        30.82     
727        255.96     0          234.37     576        30.88     
727.2      256.59     0          234.58     648        30.98     
727.4      256.73     0          234.67     684        31        
727.6      255.71     0          234.46     648        30.79     
727.8      256.24     0          234.26     612        30.92     
728        256.37     0          234.21     648        30.93     
728.2      255.49     0          234.29     648        30.71     
728.4      256.19     0          234.31     612        30.89     
728.6      257.07     0          234.17     648        31.04     
728.8      255.74     0          234.12     648        30.73     
729        256.59     0          234.49     612        30.97     
729.2      256.72     0          234.82     648        30.9      
729.4      255.64     0          235.12     612        30.6      
729.6      256.73     0          235.28     648        30.83     
729.8      257.22     0          235.19     612        30.8      
730        258.11     0          235.29     648        30.62     
730.2      261.78     0          236.03     684        31        
730.4      268.52     0          236.42     612        31.05     
730.6      294.77     0          236.59     648        30.76     
730.8      246.61     0          236.82     648        30.95     
731        154.94     0          236.65     648        31.31     
731.2      200.78     0          236.12     648        30.98     
731.4      305.98     0          235.43     648        31.18     
731.6      284.26     0          234.9      648        31.41     
731.8      262.83     0          234.74     648        31.03     
732        257.98     1          234.78     684        30.99     
732.2      256.93     0          234.7      612        30.94     
732.4      256.34     0          233.99     648        30.75     
732.6      255.98     0          233.44     648        30.7      
732.8      256.8      0          234.13     612        30.83     
733        255.7      0          234.8      648        30.7      
733.2      255.84     0          234.61     648        30.76     
733.4      256.48     0          234.05     648        30.87     
733.6      255.87     0          234.16     612        30.79     
733.8      254.93     0          234.93     576        30.58     
734        256.01     0          235.77     648        30.71     
734.2      255.09     0          236.47     648        30.46     
734.4      255.04     0          236.29     684        30.46     
734.6      256.61     0          235.92     648        30.71     
734.8      254.18     0          236.26     648        30.35     
735        255.31     0          236.02     648        30.6      
735.2      255.62     0          234.79     648        30.97     
735.4      255.99     0          234.14     684        30.79     
735.6      255.35     0          233.88     612        30.74     
735.8      255.6      0          233.71     612        30.83     
736        254.66     0          233.69     612        30.65     
736.2      253.67     0          233.93     648        30.36     
736.4      256.48     0          234.52     684        31        
736.6      256.16     0          234.75     648        30.88     
736.8      254.21     0          234.5      648        30.55     
737        256        0          234.67     612        30.94     
737.2      255.93     0          234.84     648        30.84     
737.4      254.96     0          234.5      648        30.69     
737.6      255.31     0          233.92     648        30.83     
737.8      255.45     0          233.57     612        30.83     
738        255.14     0          233.7      648        30.74     
738.2      255.22     0          233.41     612        30.77     
738.4      255.4      0          232.96     648        30.76     
738.6      255.13     0          233.19     612        30.68     
738.8      255.78     0          233.4      648        30.83     
739        255.72     0          233.6      648        30.77     
739.2      255.03     0          233.89     648        30.57     
739.4      256.25     0          234.13     612        30.88     
739.6      256.28     0          234.31     612        30.88     
739.8      254.92     0          234.54     648        30.63     
740        255.96     0          234.55     684        30.87     
740.2      255.77     0          234.56     648        30.83     
740.4      255.32     0          234.54     648        30.72     
740.6      255.71     0          234.51     612        30.84     
740.8      256.01     0          234.58     612        30.9      
741        255.47     0          234.41     648        30.7      
741.2      255.94     0          234.37     684        30.83     
741.4      256.32     0          234.53     612        30.9      
741.6      255.57     0          234.41     648        30.75     
741.8      255.53     0          234.14     648        30.67     
742        257.1      0          233.98     648        30.95     
742.2      256.18     1          233.84     684        30.73     
742.4      258.64     0          233.93     612        31        
742.6      263.21     0          234.1      648        31.16     
742.8      273.11     0          234.21     612        30.89     
743        307.73     0          234.19     648        31.04     
743.2      186.63     0          234.2      648        31.21     
743.4      141.87     0          234.2      648        31.02     
743.6      79.34      0          234.04     576        30.95     
743.8      320.47     0          233.66     612        31.14     
744        264.94     0          233.2      648        31        
744.2      258.6      0          233.66     648        30.99     
