~Version
 VERS              .         2.0                           : CWLS LOG ASCII STANDARD - VERSION 2.0
 WRAP              .         NO                            : ONE LINE PER DEPTH STEP
 DLM               .         SPACE                         : DELIMITING CHARACTER(SPACE TAB OR COMMA)
~Well Information
#_______________________________________________________________________________
#
#PARAMETER_NAME    .UNIT     VALUE                         : DESCRIPTION
#_______________________________________________________________________________
STRT               .M        1740.47                       : First reference value
STOP               .M        2787.78                       : Last reference value
STEP               .M        0                             : Step increment
NULL               .         -9999                         : Missing value
COMP               .                                       : Company
WELL               .         616                           : Well name
FLD                .                                       : Field
LOC                .                                       : Location
CNTY               .                                       : County
STAT               .                                       : State
CTRY               .                                       : Country
SRVC               .                                       : Service Company
DATE               .                                       : Date
API                .                                       : API number
PROJECT_UPGRADE_TIME .         2021-03-18T21_24_50           : 
group              .         Good                          : 
~Parameter Information Block
#_______________________________________________________________________________
#
#PARAMETER_NAME    .UNIT     VALUE                         : DESCRIPTION
#_______________________________________________________________________________
SET                .         D2664                         : 
NPR                .         980607                        : ЗАВ НОМЕР ПРИБОРА
NPRT               .         Мещеряков                     : НАЧ ПАРТИИ
PROJECT_UPGRADE_TIME .         2021-03-18T21_24_50           : 
TLFamily_AZIMUTH   .         True Dip Azimuth              : 
TLFamily_DEPTH     .         Measured Depth                : 
TLFamily_DRILL     .                                       : 
TLFamily_METKA     .                                       : 
TLFamily_ZENIT     .                                       : 
group              .         prim                          : 
~Curve Information
#_______________________________________________________________________________
#
#LOGNAME           .UNIT     LOG_ID                        : DESCRIPTION
#_______________________________________________________________________________
DEPTH              .M                                      : 1 ГЛУБИНА 
AZIMUTH            .ГРАД                                   : 4 АЗИМУТ 
DRILL              .ГРАД                                   : 2 ПОВОРОТ 
METKA              .                                       : 5 МАГН МЕТКА 
ZENIT              .ГРАД                                   : 3 ЗЕНИТ 
~Ascii
# ...
2529.59    53.71      227.16     0          0.65      
2529.79    53.8       228.69     0          0.65      
2529.98    53.89      230.23     0          0.65      
2530.18    53.96      231.75     0          0.64      
2530.37    54.15      233.12     0          0.64      
2530.57    54.19      234.6      0          0.64      
2530.76    54.41      235.85     0          0.64      
2530.96    54.57      237.12     0          0.64      
2531.15    54.7       238.36     0          0.64      
2531.35    54.77      239.67     0          0.64      
2531.54    54.57      241.25     0          0.64      
2531.74    54.62      242.62     0          0.64      
2531.93    54.61      244.01     0          0.64      
2532.13    54.55      245.41     0          0.64      
2532.32    54.41      246.88     0          0.65      
2532.51    54.34      248.31     0          0.65      
2532.71    54.24      249.78     0          0.65      
2532.9     54.32      251.12     0          0.66      
2533.1     54.4       252.49     0          0.66      
2533.29    54.47      253.92     0          0.67      
2533.49    54.65      255.29     0          0.67      
2533.68    54.85      256.67     0          0.68      
2533.88    55.04      258.1      0          0.68      
2534.07    55.25      259.54     0          0.68      
2534.27    55.48      260.99     0          0.69      
2534.46    55.6       262.63     0          0.69      
2534.66    55.66      264.38     0          0.69      
2534.85    55.75      266.14     0          0.69      
2535.05    55.87      267.9      0          0.69      
2535.24    55.97      269.69     0          0.69      
2535.44    56.14      271.42     0          0.69      
2535.63    56.27      273.18     0          0.69      
2535.83    56.42      274.92     0          0.69      
2536.02    56.62      276.63     0          0.69      
2536.22    56.84      278.35     0          0.7       
2536.42    57.17      280.02     0          0.69      
2536.61    57.48      281.75     0          0.69      
2536.81    57.75      283.56     0          0.69      
2537       58.17      285.28     0          0.69      
2537.2     58.59      287.02     0          0.69      
2537.39    59.27      288.53     0          0.69      
2537.59    59.7       290.31     0          0.68      
2537.78    60.23      292.03     0          0.68      
2537.98    60.75      293.79     0          0.67      
2538.18    61.31      295.52     0          0.67      
2538.37    61.99      297.14     0          0.67      
2538.57    62.56      298.88     0          0.67      
2538.76    63.14      300.61     0          0.67      
2538.96    63.6       302.44     0          0.68      
2539.15    64.14      304.21     0          0.68      
2539.35    64.66      306.01     0          0.68      
2539.55    65.23      307.75     0          0.68      
2539.74    65.85      309.41     0          0.68      
2539.94    66.44      311.08     0          0.68      
2540.13    67.04      312.68     0          0.68      
2540.33    67.62      314.24     0          0.68      
2540.52    68.23      315.72     0          0.68      
2540.71    68.96      317.04     0          0.68      
2540.91    69.59      318.39     0          0.68      
2541.1     70.01      319.94     0          0.68      
2541.3     70.51      321.39     0          0.67      
2541.49    70.99      322.83     0          0.67      
2541.69    71.54      324.15     0          0.67      
2541.88    71.93      325.56     0          0.68      
2542.08    72.26      326.97     0          0.68      
2542.27    72.52      328.36     0          0.68      
2542.47    72.69      329.78     0          0.68      
2542.66    73         331.01     0          0.69      
2542.86    73.22      332.29     0          0.69      
2543.05    73.41      333.54     0          0.7       
2543.25    73.52      334.83     0          0.7       
2543.44    73.56      336.19     0          0.71      
2543.64    73.72      337.37     0          0.71      
2543.83    73.83      338.57     0          0.72      
2544.02    74.06      339.61     0          0.72      
2544.22    74.13      340.75     0          0.72      
2544.41    74.15      341.9      0          0.72      
2544.61    74.21      342.98     0          0.72      
2544.8     74.22      344.07     0          0.71      
2545       74.27      345.12     0          0.71      
2545.19    74.27      346.25     0          0.71      
2545.39    74.25      347.43     0          0.7       
2545.58    74.09      348.76     0          0.7       
2545.78    74.04      349.97     0          0.7       
2545.97    73.9       351.27     0          0.7       
2546.17    73.87      352.48     0          0.7       
2546.36    73.53      353.99     0          0.71      
2546.56    73.23      355.5      0          0.71      
2546.75    72.87      357.12     0          0.72      
2546.95    72.69      358.59     0          0.72      
2547.15    72.51      0.09       0          0.73      
2547.34    72.41      1.51       0          0.73      
2547.54    72.21      3.05       0          0.74      
2547.73    72.16      4.48       0          0.74      
2547.93    72.14      5.91       0          0.74      
2548.12    72.2       7.26       0          0.75      
2548.32    72.27      8.59       0          0.75      
2548.51    72.21      10.05      0          0.75      
2548.71    72.05      11.63      0          0.75      
2548.9     71.95      13.17      0          0.75      
2549.1     71.8       14.75      0          0.76      
2549.3     71.74      16.27      0          0.76      
2549.49    71.46      18         0          0.76      
2549.69    71.28      19.65      0          0.76      
2549.88    70.88      21.54      0          0.76      
2550.08    70.46      23.49      0          0.76      
2550.27    70.13      25.41      0          0.76      
2550.47    69.79      27.35      0          0.76      
2550.66    69.6       29.16      0          0.76      
2550.86    69.34      31         0          0.76      
2551.05    69.19      32.68      0          0.76      
2551.25    69.04      34.33      0          0.76      
2551.44    68.86      36         0          0.76      
2551.64    68.71      37.66      0          0.76      
2551.83    68.6       39.31      0          0.76      
2552.03    68.42      41.07      0          0.76      
2552.23    68.44      42.66      0          0.76      
2552.42    68.38      44.32      0          0.76      
2552.62    68.32      45.92      0          0.75      
2552.81    68.18      47.54      0          0.75      
2553.01    67.93      49.22      0          0.75      
2553.2     67.47      51.12      0          0.74      
2553.4     66.97      53.07      0          0.74      
2553.59    66.38      55.1       0          0.73      
2553.79    65.82      57.11      0          0.73      
2553.98    65.29      59.08      0          0.72      
2554.18    64.77      61.07      0          0.72      
2554.38    64.33      63         0          0.71      
2554.57    63.96      64.86      0          0.71      
2554.77    63.6       66.72      0          0.7       
2554.96    63.31      68.46      0          0.7       
2555.16    62.97      70.24      0          0.69      
2555.35    62.74      71.9       0          0.69      
2555.55    62.43      73.64      0          0.69      
2555.74    62.28      75.21      0          0.69      
2555.94    62.22      76.64      0          0.69      
2556.13    62.15      78.04      0          0.69      
2556.33    62         79.47      0          0.7       
2556.52    61.78      80.97      0          0.7       
2556.72    61.52      82.47      0          0.7       
2556.91    61.24      83.94      0          0.71      
2557.11    61.06      85.28      0          0.71      
2557.31    60.83      86.64      0          0.71      
2557.5     60.58      87.95      0          0.71      
2557.7     60.45      89.09      0          0.72      
2557.89    60.34      90.13      0          0.72      
