~Version
 VERS              .         2.0                           : CWLS LOG ASCII STANDARD - VERSION 2.0
 WRAP              .         NO                            : ONE LINE PER DEPTH STEP
 DLM               .         SPACE                         : DELIMITING CHARACTER(SPACE TAB OR COMMA)
~Well Information
#_______________________________________________________________________________
#
#PARAMETER_NAME    .UNIT     VALUE                         : DESCRIPTION
#_______________________________________________________________________________
STRT               .M        2650.6                        : First reference value
STOP               .M        2759.999891                   : Last reference value
STEP               .M        0.1999998                     : Step increment
NULL               .         -9999                         : Missing value
COMP               .                                       : Company
WELL               .         616                           : Well name
FLD                .                                       : Field
LOC                .                                       : Location
CNTY               .                                       : County
STAT               .                                       : State
CTRY               .                                       : Country
SRVC               .                                       : Service Company
DATE               .                                       : Date
API                .                                       : API number
PROJECT_UPGRADE_TIME .         2021-03-18T21_24_50           : 
group              .         Good                          : 
~Parameter Information Block
#_______________________________________________________________________________
#
#PARAMETER_NAME    .UNIT     VALUE                         : DESCRIPTION
#_______________________________________________________________________________
SET                .         D4417_D                       : 
OTHER              .         Запись производится в присутствии: 
OTHER_10           .         Максимальная температура      : 
OTHER_11           .         Тип промывочной жидкости      : 
OTHER_12           .         Сопротивление ПЖ (Ом*м) при 20°C: 
OTHER_13           .         Плотность ПЖ(г/см3)           : 
OTHER_14           .         Вязкость ПЖ(с)                : 
OTHER_15           .         Водоотдача ПЖ(см3/30мин)      : 
OTHER_16           .         Уровень ПЖ                    : 
OTHER_17           .         Нефть ПЖ (%)                  : 
OTHER_18           .         Барит ПЖ (%)                  : 
OTHER_19           .         Гематит ПЖ (%)                : 
OTHER_2            .         Заказчик ННСН  ЦДНГ-1         : 
OTHER_20           .         КМЦ ПЖ (%)                    : 
OTHER_21           .         Разгазирование ПЖ (да,нет)    : 
OTHER_22           .         Подъемник                     : 
OTHER_23           .         Лаборатория                   : 
OTHER_24           .         Тип кабеля                    : 
OTHER_25           .         Длина кабеля (м)              : 
OTHER_26           .         Цена последней метки          : 
OTHER_27           .         Цена контрольной метки        : 
OTHER_28           .         Диаметр долота (мм)           : 
OTHER_29           .         Глубина бурения (м)           : 
OTHER_3            .         Площадь                       : 
OTHER_30           .         Искусственный забой (м)       : 
OTHER_31           .         Диаметр колонны (мм)          : 
OTHER_32           .         Толщина колонны (мм)          : 
OTHER_33           .         Башмак колонны (м)            : 
OTHER_34           .         Диаметр НКТ (мм)              : 
OTHER_35           .         Толщина НКТ (мм)              : 
OTHER_36           .         Воронка НКТ (м)               : 
OTHER_37           .         Дата цементожа                : 
OTHER_38           .         Тип, количество(т) и плотность цемента: 
OTHER_39           .         Интервалы перфорации (м)      : 
OTHER_4            .         Категория                     : 
OTHER_40           .         Направление, диаметр (мм)     : 
OTHER_41           .         Направление, глубина (м)      : 
OTHER_42           .         Кондуктор, диаметр (мм)       : 
OTHER_43           .         Кондуктор, глубина (м)        : 
OTHER_44           .         Техническая колонна, диаметр (мм): 
OTHER_45           .         Техническая колонна, глубина (м): 
OTHER_46           .         Эксплуатационная колонна, диаметр (мм): 
OTHER_47           .         Эксплуатационная колонна, глубина (м): 
OTHER_48           .         Программа Кедр-02 версия 3.4  : 
OTHER_49           .         Операционная система Windows NT 5.1 build 2600 Service Pack 2: 
OTHER_5            .         Назначение исследований       : 
OTHER_50           .         Программное обеспечение станции MONITOR-386EX 25/12/99 15_08_10   BGF V54 20/09/05 15_32_17   3.3__BGF_9030071: 
OTHER_51           .         Kedr.exe версия 3.4.2.74      : 
OTHER_52           .         KedrData.dll версия 3.4.2.29  : 
OTHER_53           .         Мнемоники версия 3.18 S       : 
OTHER_54           .         Драйвер версия 2.1.1.4        : 
OTHER_55           .         LasInf.dll 4.3.0.35           : 
OTHER_56           .         Прибор_ КСА-Т4                : 
OTHER_57           .         Номер прибора_ 160            : 
OTHER_58           .         Режим_ КСА-Т4                 : 
OTHER_59           .         Форма_ С.А.Б.                 : 
OTHER_6            .         Альтитуда стола ротора        : 
OTHER_60           .         Тарировки_                    : 
OTHER_61           .         <_techsia_sc_> Дата тарировки температуры 25.05.2010: 
OTHER_62           .         Ручной ввод коэффициентов     : 
OTHER_63           .         TM.DEGC = 0.00402*RTM.E.ACP + -0.994: 
OTHER_64           .         <_techsia_sc_> Дата тарировки давления 25.05.2010: 
OTHER_65           .         Ручной ввод коэффициентов     : 
OTHER_66           .         MN.ATM = (2.27521e-006*TM.DEGC + 0.02078)*(RMN.E.ACP + 6.2*TM.DEGC + -1688): 
OTHER_67           .         <_techsia_sc_> Дата тарировки ГК 25.05.2010: 
OTHER_68           .         Ручной ввод коэффициентов     : 
OTHER_69           .         GR.UR/H = RGR.IMP/MIN / 45.5144: 
OTHER_7            .         Вид исследований 3  6         : 
OTHER_70           .         GK.FLT = 0.1*GR.UR/H[-1] + (1-0.1)*GR.UR/H[0]: 
OTHER_8            .         Начало бурения интервала каротажа: 
OTHER_9            .         Окончание бурения интервала каротажа: 
PROJECT_UPGRADE_TIME .         2021-03-18T21_24_50           : 
TLFamily_CCLC      .                                       : 
TLFamily_DEPT      .         Measured Depth                : 
TLFamily_GK        .         Gamma Ray                     : 
TLFamily_GR        .         Gamma Ray                     : 
TLFamily_METKA     .                                       : 
TLFamily_MN        .                                       : 
TLFamily_RCOR      .                                       : 
TLFamily_RGR       .                                       : 
TLFamily_RMN       .                                       : 
TLFamily_RTEN      .                                       : 
TLFamily_RTM       .                                       : 
TLFamily_SPEE      .         Cable Speed                   : 
TLFamily_TIME      .         Time                          : 
TLFamily_TM        .         Temperature                   : 
group              .         prim                          : 
~Curve Information
#_______________________________________________________________________________
#
#LOGNAME           .UNIT     LOG_ID                        : DESCRIPTION
#_______________________________________________________________________________
DEPT               .M                                      : 1 Глубина, м -    0.0 см 
CCLC               .E.ACP                                  : 9 Локатор муфт,  -   20.0 см 
GK                 .FLT                                    : 14 Гамма-активность фильтрованная, мкр./ч -  110.0 см 
GR                 .UR/H                                   : 13 Гамма-активность, мкр./ч -  110.0 см 
METKA              .CU                                     : 3 Метки,  -    0.0 см 
MN                 .ATM                                    : 12 Давление, атм. -  160.0 см 
RCOR               .CM/KM                                  : 5 Коррекция по ролику, см/км -    0.0 см 
RGR                .IMP/MIN                                : 10 Гамма-активность, усл.ед. -  110.0 см 
RMN                .E.ACP                                  : 8 Давление, усл.ед. -  160.0 см 
RTEN               .T                                      : 6 Натяжение кабеля, т -    0.0 см 
RTM                .E.ACP                                  : 7 Температура, усл.ед. -  170.0 см 
SPEE               .M/H                                    : 2 Скорость, м/час -    0.0 см 
TIME               .S                                      : 4 Время, сек -    0.0 см 
TM                 .DEGC                                   : 11 Температура, °C -  170.0 см 
~Ascii
# ...
2671.399979 196        6.59       6.59       0          240.627    -1093      300        12781      0.25       16481      499        136.94     65.262    
2671.599979 84         6.59       6.59       0          240.646    -1093      300        12782      0.25       16479      499        138.39     65.251    
2671.799979 58         6.99       6.99       0          240.666    -1093      318        12783      0.25       16476      499        139.83     65.24     
2671.999979 67         7.15       7.15       0          240.665    -1093      326        12783      0.25       16475      498        141.3      65.235    
2672.199978 94         7.4        7.4        0          240.683    -1093      337        12784      0.25       16471      498        142.74     65.22     
2672.399978 203        7.43       7.43       0          240.682    -1093      338        12784      0.25       16469      498        144.21     65.211    
2672.599978 182        7.43       7.43       0          240.723    -1093      338        12786      0.25       16467      497        145.65     65.202    
2672.799978 43         7.23       7.23       0          240.73     -1093      329        12786      0.25       16466      497        147.17     65.198    
2672.999978 153        7.23       7.23       0          240.762    -1093      329        12788      0.25       16463      497        148.59     65.187    
2673.199977 186        7.16       7.16       0          240.782    -1093      326        12789      0.25       16461      498        150.04     65.179    
2673.399977 182        6.85       6.85       0          240.781    -1093      312        12789      0.25       16459      496        151.48     65.172    
2673.599977 249        6.85       6.85       0          240.801    -1093      312        12790      0.25       16458      499        152.92     65.167    
2673.799977 149        6.22       6.22       0          240.82     -1093      283        12791      0.25       16456      499        154.42     65.161    
2673.999977 106        6.22       6.22       0          240.826    -1093      283        12791      0.25       16452      499        155.86     65.141    
2674.199976 175        5.69       5.69       0          240.859    -1093      259        12793      0.25       16449      499        157.3      65.131    
2674.399976 132        5.31       5.31       0          240.879    -1093      242        12794      0.25       16448      499        158.74     65.127    
2674.599976 205        5.12       5.12       0          240.878    -1093      233        12794      0.25       16447      500        160.22     65.123    
2674.799976 460        4.99       4.99       0          240.898    -1093      227        12795      0.25       16446      498        161.68     65.119    
2674.999976 333        4.99       4.99       0          240.917    -1093      227        12796      0.25       16444      499        163.09     65.111    
2675.199975 180        5.14       5.14       0          240.936    -1093      234        12797      0.25       16441      499        164.53     65.097    
2675.399975 303        5.14       5.14       0          240.943    -1093      234        12797      0.25       16438      499        165.98     65.085    
2675.599975 341        5.27       5.27       0          240.975    -1093      240        12799      0.25       16435      499        167.44     65.074    
2675.799975 347        5.37       5.37       0          240.973    -1093      244        12799      0.25       16433      499        168.89     65.067    
2675.999975 151        5.43       5.43       0          240.993    -1093      247        12800      0.25       16430      498        170.33     65.055    
2676.199974 161        5.1        5.1        0          241.012    -1093      232        12801      0.25       16428      498        171.78     65.048    
2676.399974 113        5.1        5.1        0          241.031    -1093      232        12802      0.25       16425      498        173.25     65.035    
2676.599974 261        5.3        5.3        0          241.051    -1093      241        12803      0.25       16423      498        174.69     65.025    
2676.799974 441        5.3        5.3        0          241.07     -1093      241        12804      0.25       16420      498        176.14     65.014    
2676.999974 5111       5.84       5.84       0          241.089    -1093      266        12805      0.25       16418      499        177.57     65.006    
2677.199973 1426       5.87       5.87       0          241.086    -1093      267        12805      0.25       16413      499        179.01     64.986    
2677.399973 465        5.87       5.87       0          241.106    -1093      267        12806      0.24       16411      500        180.53     64.978    
2677.599973 317        5.73       5.73       0          241.126    -1093      261        12807      0.25       16409      500        181.95     64.97     
2677.799973 318        5.73       5.73       0          241.147    -1093      261        12808      0.25       16409      499        183.39     64.97     
2677.999973 433        5.56       5.56       0          241.167    -1093      253        12809      0.25       16408      501        184.83     64.966    
2678.199972 342        5.47       5.47       0          241.187    -1093      249        12810      0.25       16406      501        186.33     64.957    
2678.399972 269        5.38       5.38       0          241.207    -1093      245        12811      0.25       16404      501        187.77     64.95     
2678.599972 560        5.23       5.23       0          241.227    -1093      238        12812      0.25       16403      500        189.21     64.946    
2678.799972 597        5.23       5.23       0          241.235    -1093      238        12812      0.25       16402      499        190.65     64.944    
2678.999972 529        5.56       5.56       0          241.248    -1093      253        12813      0.25       16403      500        192.09     64.946    
2679.199971 611        5.56       5.56       0          241.269    -1093      253        12814      0.25       16403      500        193.53     64.946    
2679.399971 402        5.43       5.43       0          241.29     -1093      247        12815      0.25       16402      500        194.96     64.942    
2679.599971 380        4.77       4.77       0          241.31     -1093      217        12816      0.25       16402      501        196.4      64.942    
2679.799971 284        4.77       4.77       0          241.331    -1093      217        12817      0.25       16401      501        197.83     64.938    
2679.999971 217        4.99       4.99       0          241.351    -1093      227        12818      0.25       16400      501        199.26     64.935    
2680.19997 244        4.99       4.99       0          241.37     -1093      227        12819      0.25       16398      501        200.78     64.926    
2680.39997 261        5.78       5.78       0          241.374    -1093      263        12819      0.25       16396      501        202.22     64.918    
2680.59997 208        5.84       5.84       0          241.411    -1093      266        12821      0.25       16396      501        203.65     64.918    
2680.79997 258        5.89       5.89       0          241.414    -1093      268        12821      0.25       16395      501        205.06     64.914    
2680.99997 187        5.8        5.8        0          241.443    -1093      264        12823      0.25       16394      502        206.58     64.91     
2681.199969 143        5.8        5.8        0          241.472    -1093      264        12824      0.25       16393      502        208.03     64.906    
2681.399969 112        6          6          0          241.475    -1093      273        12824      0.25       16392      503        209.39     64.9      
2681.599969 127        6          6          0          241.491    -1093      273        12825      0.25       16390      502        210.84     64.895    
