~Version
 VERS              .         2.0                           : CWLS LOG ASCII STANDARD - VERSION 2.0
 WRAP              .         NO                            : ONE LINE PER DEPTH STEP
 DLM               .         SPACE                         : DELIMITING CHARACTER(SPACE TAB OR COMMA)
~Well Information
#_______________________________________________________________________________
#
#PARAMETER_NAME    .UNIT     VALUE                         : DESCRIPTION
#_______________________________________________________________________________
STRT               .M        2659.8                        : First reference value
STOP               .M        2768.999945                   : Last reference value
STEP               .M        0.1999999                     : Step increment
NULL               .         -9999                         : Missing value
COMP               .                                       : Company
WELL               .         616                           : Well name
FLD                .                                       : Field
LOC                .                                       : Location
CNTY               .                                       : County
STAT               .                                       : State
CTRY               .                                       : Country
SRVC               .                                       : Service Company
DATE               .                                       : Date
API                .                                       : API number
PROJECT_UPGRADE_TIME .         2021-03-18T21_24_50           : 
group              .         Good                          : 
~Parameter Information Block
#_______________________________________________________________________________
#
#PARAMETER_NAME    .UNIT     VALUE                         : DESCRIPTION
#_______________________________________________________________________________
SET                .         D1169_D                       : 
OTHER              .         Программное обеспечение станции MONITOR-386EX 25/12/99 15_08_10   BGF V52 22/08/01 16_56_30   3.2_BGF_N_3070031: 
OTHER_10           .         Тарировки_                    : 
OTHER_11           .         TM.GRD = 0.00403*TM$.UE + -1.19: 
OTHER_12           .         MN.ATM = (7.1e-006*TM.GRD + 0.02017)*(MN$.UE + -3.03*TM.GRD + -1833): 
OTHER_13           .         Id error                      : 
OTHER_2            .         Kedr.exe версия 3.4.2.51      : 
OTHER_3            .         KedrData.dll версия 3.4.2.24  : 
OTHER_4            .         Драйвер версия 2.1.1.8        : 
OTHER_5            .         Мнемоники версия 3.3 S        : 
OTHER_6            .         Прибор_ КСА-М1                : 
OTHER_7            .         Номер прибора_ 265            : 
OTHER_8            .         Режим_ КСА-М1                 : 
OTHER_9            .         Форма_ ТЕРМОМЕТР              : 
PROJECT_UPGRADE_TIME .         2021-03-18T21_24_49           : 
TLFamily_DEPT      .         Measured Depth                : 
TLFamily_GK        .         Gamma Ray                     : 
TLFamily_GK$       .                                       : 
TLFamily_LM        .         Casing Collar locator         : 
TLFamily_METKA     .                                       : 
TLFamily_MN        .                                       : 
TLFamily_MN$       .                                       : 
TLFamily_RCOR      .                                       : 
TLFamily_SPID      .         Spontaneous Potential         : 
TLFamily_STD       .                                       : 
TLFamily_TENS      .         Cable Tension                 : 
TLFamily_TIME      .         Time                          : 
TLFamily_TM        .         Temperature                   : 
TLFamily_TM$       .         Temperature                   : 
TLFamily_VGD       .         Gas Volume                    : 
group              .         prim                          : 
~Curve Information
#_______________________________________________________________________________
#
#LOGNAME           .UNIT     LOG_ID                        : DESCRIPTION
#_______________________________________________________________________________
DEPT               .M                                      : 1 Глубина, м -    0.0 см 
GK                 .MKR/H                                  : 15 Гамма-активность, мкр./ч -  110.0 см 
GK$                .UE                                     : 12 Гамма-активность, усл.ед. -  110.0 см 
LM                 .                                       : 10 Локатор муфт,  -   20.0 см 
METKA              .                                       : 3 Метки,  -    0.0 см 
MN                 .ATM                                    : 14 Давление, атм. -  160.0 см 
MN$                .UE                                     : 8 Давление, усл.ед. -  160.0 см 
RCOR               .CM/KM                                  : 5 Коррекция по ролику, см/км -    0.0 см 
SPID               .M/H                                    : 2 Скорость, м/час -    0.0 см 
STD                .                                       : 11 Приток,  -  170.0 см 
TENS               .T                                      : 6 Натяжение кабеля, т -    0.0 см 
TIME               .S                                      : 4 Время, сек -    0.0 см 
TM                 .GRD                                    : 13 Температура, °C -  180.0 см 
TM$                .UE                                     : 7 Температура, усл.ед. -  180.0 см 
VGD                .                                       : 9 Влагомер,  -  170.0 см 
~Ascii
# ...
2689.199985 6.92       279        1          0          257.982    14511      -1400      589        30506      0          25733.49   83.63      21047      6573      
2689.399985 6.65       279        1          0          257.982    14511      -1400      582        30509      0          25734.74   83.637     21049      6573      
2689.599985 6.67       292        1          0          258.003    14512      -1400      584        30511      0          25735.95   83.646     21051      6573      
2689.799985 6.83       295        1          0          258.036    14514      -1400      588        30516      0          25737.14   83.65      21052      6574      
2689.999985 7          308        1          2          258.045    14514      -1400      578        30515      0          25738.44   83.658     21054      6574      
2690.199985 7.14       308        1          0          258.071    14515      -1400      574        30520      0          25739.72   83.666     21056      6574      
2690.399985 7.32       323        1          0          258.087    14516      -1400      575        30522      0          25741.02   83.671     21057      6573      
2690.599985 7.48       323        1          0          258.108    14517      -1400      577        30524      0          25742.25   83.678     21059      6574      
2690.799985 7.76       352        1          0          258.122    14518      -1400      572        30530      0          25743.54   83.685     21061      6573      
2690.999984 8.28       363        1          0          258.161    14520      -1400      579        30531      0          25744.71   83.697     21064      6574      
2691.199984 8.43       363        1          0          258.171    14520      -1400      579        30535      0          25745.94   83.704     21066      6574      
2691.399984 8.47       363        1          0          258.191    14521      -1400      568        30538      0          25747.29   83.71      21067      6574      
2691.599984 8.5        365        1          0          258.209    14522      -1400      569        30541      0          25748.52   83.715     21068      6574      
2691.799984 8.54       366        1          0          258.216    14522      -1400      575        30545      0          25749.75   83.722     21070      6573      
2691.999984 8.54       364        1          0          258.236    14523      -1400      579        30546      0          25751      83.73      21072      6573      
2692.199984 8.52       364        1          0          258.254    14524      -1400      573        30549      0          25752.27   83.734     21073      6575      
2692.399984 8.44       354        1          0          258.275    14525      -1400      575        30552      0          25753.5    83.738     21074      6574      
2692.599984 8.32       354        1477       0          258.311    14527      -1400      576        30555      0          25754.67   83.742     21075      6573      
2692.799984 8.23       346        460        0          258.329    14528      -1400      576        30560      0          25755.96   83.746     21076      6574      
2692.999983 8.14       346        1          0          258.338    14528      -1400      576        30561      0          25757.2    83.753     21078      6573      
2693.199983 8.27       367        1          0          258.359    14529      -1400      577        30564      0          25758.43   83.758     21079      6573      
2693.399983 8.54       370        1          0          258.359    14529      -1400      574        30570      0          25759.69   83.766     21081      6573      
2693.599983 8.74       386        1          0          258.401    14531      -1400      573        30572      0          25760.91   83.77      21082      6572      
2693.799983 9.18       401        1          0          258.401    14531      -1400      575        30579      0          25762.12   83.774     21083      6574      
2693.999983 9.26       394        1          0          258.425    14532      -1400      581        30582      0          25763.35   83.78      21084      6573      
2694.199983 9.23       394        1          0          258.442    14533      -1400      574        30585      0          25764.64   83.783     21085      6573      
2694.399983 9.12       381        1          0          258.463    14534      -1400      576        30585      0          25765.87   83.79      21087      6574      
2694.599983 8.97       381        1          0          258.484    14535      -1400      582        30585      0          25767.06   83.798     21089      6573      
2694.799983 9.03       393        1          0          258.505    14536      -1400      581        30586      0          25768.3    83.803     21090      6573      
2694.999982 9.21       397        1          0          258.516    14537      -1400      581        30587      0          25769.56   83.811     21092      6573      
2695.199982 9.27       398        1          0          258.547    14538      -1400      581        30586      0          25770.79   83.815     21093      6574      
2695.399982 9.3        398        1          0          258.547    14538      -1400      586        30590      0          25772.02   83.82      21094      6573      
2695.599982 9.26       393        1          0          258.506    14536      -1400      584        30590      0          25773.3    83.823     21095      6572      
2695.799982 9          380        1          0          258.589    14540      -1400      583        30592      0          25774.49   83.831     21097      6573      
2695.999982 9.11       403        1          0          258.628    14542      -1400      588        30593      0          25775.76   83.839     21099      6573      
2696.199982 9.33       403        1          0          258.644    14543      -1400      586        30595      0          25776.94   83.846     21101      6573      
2696.399982 9.64       434        1          0          258.662    14544      -1400      584        30599      0          25778.23   83.851     21102      6573      
2696.599982 10.19      446        1          0          258.693    14545      -1400      583        30599      0          25779.46   83.855     21103      6573      
2696.799982 10.33      442        1          0          258.694    14545      -1400      582        30602      0          25780.69   83.861     21104      6573      
2696.999981 10.27      438        1          0          258.735    14547      -1400      580        30605      0          25781.97   83.868     21106      6573      
2697.199981 10.21      432        1          0          258.736    14547      -1400      580        30608      0          25783.21   83.876     21108      6573      
2697.399981 9.55       397        1          0          258.757    14548      -1400      591        30610      0          25784.45   83.887     21111      6572      
2697.599981 9.37       397        1          0          258.777    14549      -1400      589        30612      0          25785.62   83.895     21113      6572      
2697.799981 9.31       397        1          0          258.798    14550      -1400      584        30614      0          25786.91   83.899     21114      6573      
2697.999981 9.46       418        1          0          258.831    14552      -1400      588        30620      0          25788.18   83.907     21116      6572      
2698.199981 9.81       426        1          0          258.841    14552      -1400      588        30623      0          25789.37   83.92      21119      6573      
2698.399981 10.01      437        1          0          258.862    14553      -1400      586        30631      0          25790.66   83.928     21121      6573      
2698.599981 10.34      448        1          0          258.883    14554      -1400      584        30634      0          25791.84   83.937     21123      6573      
2698.799981 10.36      439        1          0          258.885    14554      -1400      584        30639      0          25793.11   83.949     21126      6573      
