~Version
 VERS              .         2.0                           : CWLS LOG ASCII STANDARD - VERSION 2.0
 WRAP              .         NO                            : ONE LINE PER DEPTH STEP
 DLM               .         SPACE                         : DELIMITING CHARACTER(SPACE TAB OR COMMA)
~Well Information
#_______________________________________________________________________________
#
#PARAMETER_NAME    .UNIT     VALUE                         : DESCRIPTION
#_______________________________________________________________________________
STRT               .M        2649.6                        : First reference value
STOP               .M        2750.799949                   : Last reference value
STEP               .M        0.1999999                     : Step increment
NULL               .         -9999                         : Missing value
COMP               .                                       : Company
WELL               .         616                           : Well name
FLD                .                                       : Field
LOC                .                                       : Location
CNTY               .                                       : County
STAT               .                                       : State
CTRY               .                                       : Country
SRVC               .                                       : Service Company
DATE               .                                       : Date
API                .                                       : API number
PROJECT_UPGRADE_TIME .         2021-03-18T21_24_50           : 
group              .         Good                          : 
~Parameter Information Block
#_______________________________________________________________________________
#
#PARAMETER_NAME    .UNIT     VALUE                         : DESCRIPTION
#_______________________________________________________________________________
SET                .         D4415_D_2                     : 
COMM               .                                       : 
OTHER              .         Запись производится в присутствии: 
OTHER_10           .         Максимальная температура      : 
OTHER_11           .         Тип промывочной жидкости      : 
OTHER_12           .         Сопротивление ПЖ (Ом*м) при 20°C: 
OTHER_13           .         Плотность ПЖ(г/см3)           : 
OTHER_14           .         Вязкость ПЖ(с)                : 
OTHER_15           .         Водоотдача ПЖ(см3/30мин)      : 
OTHER_16           .         Уровень ПЖ                    : 
OTHER_17           .         Нефть ПЖ (%)                  : 
OTHER_18           .         Барит ПЖ (%)                  : 
OTHER_19           .         Гематит ПЖ (%)                : 
OTHER_2            .         Заказчик ННСН  ЦДНГ-1         : 
OTHER_20           .         КМЦ ПЖ (%)                    : 
OTHER_21           .         Разгазирование ПЖ (да,нет)    : 
OTHER_22           .         Подъемник                     : 
OTHER_23           .         Лаборатория                   : 
OTHER_24           .         Тип кабеля                    : 
OTHER_25           .         Длина кабеля (м)              : 
OTHER_26           .         Цена последней метки          : 
OTHER_27           .         Цена контрольной метки        : 
OTHER_28           .         Диаметр долота (мм)           : 
OTHER_29           .         Глубина бурения (м)           : 
OTHER_3            .         Площадь                       : 
OTHER_30           .         Искусственный забой (м)       : 
OTHER_31           .         Диаметр колонны (мм)          : 
OTHER_32           .         Толщина колонны (мм)          : 
OTHER_33           .         Башмак колонны (м)            : 
OTHER_34           .         Диаметр НКТ (мм)              : 
OTHER_35           .         Толщина НКТ (мм)              : 
OTHER_36           .         Воронка НКТ (м)               : 
OTHER_37           .         Дата цементожа                : 
OTHER_38           .         Тип, количество(т) и плотность цемента: 
OTHER_39           .         Интервалы перфорации (м)      : 
OTHER_4            .         Категория                     : 
OTHER_40           .         Направление, диаметр (мм)     : 
OTHER_41           .         Направление, глубина (м)      : 
OTHER_42           .         Кондуктор, диаметр (мм)       : 
OTHER_43           .         Кондуктор, глубина (м)        : 
OTHER_44           .         Техническая колонна, диаметр (мм): 
OTHER_45           .         Техническая колонна, глубина (м): 
OTHER_46           .         Эксплуатационная колонна, диаметр (мм): 
OTHER_47           .         Эксплуатационная колонна, глубина (м): 
OTHER_48           .         Программа Кедр-02 версия 3.4  : 
OTHER_49           .         Операционная система Windows NT 5.1 build 2600 Service Pack 2: 
OTHER_5            .         Назначение исследований       : 
OTHER_50           .         Программное обеспечение станции MONITOR-386EX 25/12/99 15_08_10   BGF V54 20/09/05 15_32_17   3.3__BGF_9030071: 
OTHER_51           .         Kedr.exe версия 3.4.2.74      : 
OTHER_52           .         KedrData.dll версия 3.4.2.29  : 
OTHER_53           .         Мнемоники версия 3.18 S       : 
OTHER_54           .         Драйвер версия 2.1.1.4        : 
OTHER_55           .         LasInf.dll 4.3.0.35           : 
OTHER_56           .         Прибор_ КСА-Т4                : 
OTHER_57           .         Номер прибора_ 160            : 
OTHER_58           .         Режим_ КСА-Т4                 : 
OTHER_59           .         Форма_ С.А.Б.                 : 
OTHER_6            .         Альтитуда стола ротора        : 
OTHER_60           .         Тарировки_                    : 
OTHER_61           .         <_techsia_sc_> Дата тарировки температуры 25.05.2010: 
OTHER_62           .         Ручной ввод коэффициентов     : 
OTHER_63           .         TM.DEGC = 0.00402*RTM.E.ACP + -0.994: 
OTHER_64           .         <_techsia_sc_> Дата тарировки давления 25.05.2010: 
OTHER_65           .         Ручной ввод коэффициентов     : 
OTHER_66           .         MN.ATM = (2.27521e-006*TM.DEGC + 0.02078)*(RMN.E.ACP + 6.2*TM.DEGC + -1688): 
OTHER_67           .         <_techsia_sc_> Дата тарировки ГК 25.05.2010: 
OTHER_68           .         Ручной ввод коэффициентов     : 
OTHER_69           .         GR.UR/H = RGR.IMP/MIN / 45.5144: 
OTHER_7            .         Вид исследований 3  6         : 
OTHER_70           .         GK.FLT = 0.1*GR.UR/H[-1] + (1-0.1)*GR.UR/H[0]: 
OTHER_8            .         Начало бурения интервала каротажа: 
OTHER_9            .         Окончание бурения интервала каротажа: 
PROJECT_UPGRADE_TIME .         2021-03-18T21_24_50           : 
PRTY               .         ПП-601-1                      : N партии
SRVC               .         Барковский                    : Начальник партии
TLFamily_DEPT      .         Measured Depth                : 
TLFamily_LM        .         Casing Collar locator         : 
TLFamily_MN        .                                       : 
TLFamily_TM        .         Temperature                   : 
group              .         second                        : 
~Curve Information
#_______________________________________________________________________________
#
#LOGNAME           .UNIT     LOG_ID                        : DESCRIPTION
#_______________________________________________________________________________
DEPT               .M                                      : Depth curve 
LM                 .е.ацп                                  : Локатор муфт,е.ацп 
MN                 .атм                                    : 12 Давление, атм. -  160.0 см 
TM                 .град.C                                 : Термограмма по стволу скважины,град.C 
~Ascii
# ...
2685.399982 3290.393   242        64.705    
2685.599982 2053.284   242.004    64.699    
2685.799982 595.805    242.045    64.691    
2685.999982 197.98     242.054    64.685    
2686.199982 156.988    242.079    64.681    
2686.399982 132.985    242.085    64.68     
2686.599982 103.007    242.105    64.673    
2686.799981 116.978    242.125    64.669    
2686.999981 72.01      242.148    64.661    
2687.199981 92.011     242.165    64.657    
2687.399981 113.998    242.185    64.649    
2687.599981 110.006    242.205    64.641    
2687.799981 122.984    242.225    64.637    
2687.999981 89.999     242.232    64.632    
2688.199981 88.005     242.266    64.628    
2688.399981 98.004     242.286    64.624    
2688.599981 106.027    242.285    64.619    
2688.79998 159.977    242.308    64.614    
2688.99998 113.02     242.333    64.605    
2689.19998 154.055    242.344    64.596    
2689.39998 264.969    242.364    64.588    
2689.59998 201.994    242.387    64.58     
2689.79998 189.953    242.41     64.573    
2689.99998 95.002     242.422    64.564    
2690.19998 99.997     242.442    64.548    
2690.39998 94.005     242.46     64.541    
2690.599979 104.022    242.479    64.525    
2690.799979 147.978    242.486    64.513    
2690.999979 103.557    242.503    64.5      
2691.199979 1236.814   242.533    64.49     
2691.399979 858.691    242.554    64.474    
2691.599979 229.923    242.559    64.456    
2691.799979 72.981     242.593    64.448    
2691.999979 33.998     242.606    64.439    
2692.199979 29         242.609    64.422    
2692.399979 28.005     242.628    64.406    
2692.599978 38.006     242.647    64.392    
2692.799978 50.006     242.666    64.379    
2692.999978 61.99      242.684    64.366    
2693.199978 42.001     242.703    64.351    
2693.399978 44.999     242.722    64.332    
2693.599978 42.996     242.741    64.324    
2693.799978 35.001     242.76     64.314    
2693.999978 38.004     242.76     64.296    
2694.199978 46.992     242.781    64.28     
2694.399978 30         242.803    64.263    
2694.599978 29         242.813    64.251    
2694.799977 29.007     242.849    64.238    
2694.999977 43.006     242.851    64.225    
2695.199977 55.988     242.87     64.209    
2695.399977 31.001     242.887    64.194    
2695.599977 34.001     242.9      64.177    
2695.799977 36.028     242.923    64.155    
2695.999977 91.996     242.961    64.133    
2696.199977 83         242.959    64.115    
2696.399977 83.989     242.991    64.098    
2696.599976 61.048     243.003    64.076    
2696.799976 157.99     243.012    64.054    
2696.999976 137.96     243.029    64.031    
2697.199976 57.011     243.047    64.009    
2697.399976 79.012     243.065    63.995    
2697.599976 102.981    243.084    63.978    
2697.799976 65.015     243.103    63.965    
2697.999976 95.994     243.1      63.948    
2698.199976 82.996     243.117    63.928    
2698.399976 73.987     243.134    63.902    
2698.599975 47.994     243.15     63.873    
2698.799975 34.995     243.166    63.838    
2698.999975 24         243.183    63.808    
2699.199975 25.01      243.203    63.767    
2699.399975 45.038     243.213    63.737    
2699.599975 121.972    243.231    63.719    
2699.799975 65         243.249    63.7      
2699.999975 66.017     243.265    63.672    
2700.199975 100.004    243.281    63.641    
2700.399975 108.997    243.29     63.607    
2700.599974 102.99     243.314    63.578    
2700.799974 83.009     243.33     63.555    
2700.999974 100.999    243.345    63.52     
2701.199974 98.022     243.363    63.484    
2701.399974 141.998    243.38     63.468    
2701.599974 137.001    243.397    63.44     
2701.799974 141.057    243.393    63.418    
2701.999974 4317.325   243.41     63.389    
2702.199974 2945.96    243.427    63.362    
2702.399974 834.738    243.442    63.334    
2702.599974 301.939    243.459    63.288    
2702.799973 177.967    243.476    63.25     
2702.999973 110.001    243.486    63.207    
2703.199973 112.991    243.505    63.176    
2703.399973 93.989     243.538    63.144    
2703.599973 72.004     243.536    63.109    
2703.799973 80.024     243.554    63.073    
2703.999973 128.012    243.565    63.046    
2704.199973 151.993    243.58     63.01     
2704.399973 137.062    243.616    62.978    
2704.599972 262.948    243.616    62.966    
2704.799972 156.976    243.631    62.937    
2704.999972 108.011    243.664    62.904    
2705.199972 131        243.683    62.864    
2705.399972 131.971    243.697    62.823    
2705.599972 74.007     243.699    62.789    
2705.799972 88.996     243.706    62.755    
2705.999972 80.993     243.718    62.694    
2706.199972 66.006     243.732    62.647    
2706.399972 79.002     243.755    62.613    
2706.599971 82.995     243.775    62.574    
2706.799971 72.024     243.797    62.531    
2706.999971 120.992    243.81     62.482    
2707.199971 103.997    243.811    62.437    
2707.399971 98.004     243.829    62.396    
2707.599971 105.999    243.852    62.356    
2707.799971 102.992    243.851    62.329    
2707.999971 86.009     243.867    62.299    
2708.199971 104.986    243.899    62.27     
2708.399971 76.02      243.895    62.222    
2708.59997 116.999    243.92     62.178    
2708.79997 114.99     243.943    62.142    
2708.99997 94.993     243.942    62.112    
2709.19997 80.005     243.964    62.079    
2709.39997 91.01      243.986    62.036    
2709.59997 110.982    244.008    61.997    
2709.79997 74.999     244.008    61.961    
2709.99997 73.008     244.038    61.923    
2710.19997 88.98      244.053    61.887    
2710.39997 48.005     244.076    61.853    
2710.59997 58.013     244.085    61.822    
2710.799969 85.003     244.1      61.788    
2710.999969 91.984     244.131    61.748    
2711.199969 59.03      244.129    61.704    
2711.399969 120.012    244.144    61.668    
2711.599969 143.96     244.158    61.628    
2711.799969 62.009     244.174    61.589    
2711.999969 81.006     244.189    61.549    
2712.199969 93.021     244.208    61.518    
2712.399969 134.987    244.242    61.487    
2712.599968 108.976    244.251    61.461    
2712.799968 61.039     244.272    61.413    
2712.999968 141.519    244.288    61.378    
2713.199968 3220.117   244.294    61.344    
2713.399968 1428.493   244.315    61.31     
2713.599968 400.882    244.315    61.27     
2713.799968 160.966    244.339    61.226    
2713.999968 92.004     244.36     61.175    
2714.199968 99.982     244.376    61.139    
2714.399968 62.999     244.413    61.109    
2714.599967 59.998     244.422    61.079    
2714.799967 56.013     244.439    61.039    
2714.999967 82.998     244.457    60.997    
2715.199967 78.994     244.461    60.95     
2715.399967 67.02      244.482    60.895    
2715.599967 107.975    244.482    60.842    
2715.799967 58         244.508    60.792    
2715.999967 57         244.534    60.725    
2716.199967 58.002     244.549    60.651    
2716.399967 61.992     244.549    60.606    
2716.599966 45.001     244.561    60.555    
2716.799966 48.004     244.581    60.489    
2716.999966 55.995     244.573    60.41     
2717.199966 46.017     244.589    60.339    
2717.399966 80.004     244.588    60.255    
2717.599966 88.988     244.618    60.171    
2717.799966 64.01      244.628    60.094    
2717.999966 84.997     244.64     60.026    
2718.199966 79         244.667    59.966    
2718.399966 78.041     244.659    59.891    
2718.599966 161.973    244.683    59.825    
2718.799965 107.979    244.708    59.783    
2718.999965 66.022     244.704    59.744    
2719.199965 110.002    244.735    59.698    
2719.399965 114.981    244.744    59.64     
2719.599965 77         244.758    59.563    
2719.799965 78.005     244.776    59.506    
2719.999965 89.006     244.794    59.451    
2720.199965 100.982    244.795    59.407    
2720.399965 63.997     244.816    59.367    
2720.599964 57.006     244.836    59.33     
2720.799964 70.029     244.855    59.267    
2720.999964 127.983    244.87     59.208    
