~Version
 VERS              .         2.0                           : CWLS LOG ASCII STANDARD - VERSION 2.0
 WRAP              .         NO                            : ONE LINE PER DEPTH STEP
 DLM               .         SPACE                         : DELIMITING CHARACTER(SPACE TAB OR COMMA)
~Well Information
#_______________________________________________________________________________
#
#PARAMETER_NAME    .UNIT     VALUE                         : DESCRIPTION
#_______________________________________________________________________________
STRT               .M        2657.4                        : First reference value
STOP               .M        2769.200056                   : Last reference value
STEP               .M        0.2000001                     : Step increment
NULL               .         -9999                         : Missing value
COMP               .                                       : Company
WELL               .         616                           : Well name
FLD                .                                       : Field
LOC                .                                       : Location
CNTY               .                                       : County
STAT               .                                       : State
CTRY               .                                       : Country
SRVC               .                                       : Service Company
DATE               .                                       : Date
API                .                                       : API number
PROJECT_UPGRADE_TIME .         2021-03-18T21_24_50           : 
group              .         Good                          : 
~Parameter Information Block
#_______________________________________________________________________________
#
#PARAMETER_NAME    .UNIT     VALUE                         : DESCRIPTION
#_______________________________________________________________________________
SET                .         D8106_D_2                     : 
COMM               .                                       : 
OTHER              .         Программное обеспечение станции MONITOR-386EX 25/12/99 15_08_10   BGF V52 22/08/01 16_56_30   4_SNGF_BGF_N_011645: 
OTHER_10           .         Тарировки_                    : 
OTHER_11           .         TM.GRD = 0.00412*TM$.UE + -2.13: 
OTHER_12           .         MN.ATM = (5.87652e-006*TM.GRD + 0.01993)*(MN$.UE + -2.72*TM.GRD + -1925): 
OTHER_13           .         GK.MKR/H = GK$.UE / 57.4657   : 
OTHER_2            .         Kedr.exe версия 3.4.2.51      : 
OTHER_3            .         KedrData.dll версия 3.4.2.24  : 
OTHER_4            .         Драйвер версия 2.1.0.2        : 
OTHER_5            .         Мнемоники версия 3.3 S        : 
OTHER_6            .         Прибор_ АКП4-90               : 
OTHER_7            .         Номер прибора_ 53             : 
OTHER_8            .         Режим_ АКП4_90                : 
OTHER_9            .         Форма_ ПК-53ое                : 
PROJECT_UPGRADE_TIME .         2021-03-18T21_24_50           : 
PRTY               .         ПРП-614                       : N партии
SRVC               .         Глухов М.В.                   : Начальник партии
TLFamily_DEPT      .         Measured Depth                : 
TLFamily_GK        .         Russian Gamma Ray             : 
TLFamily_LM        .         Casing Collar locator         : 
TLFamily_TM        .         Temperature                   : 
group              .         second                        : 
~Curve Information
#_______________________________________________________________________________
#
#LOGNAME           .UNIT     LOG_ID                        : DESCRIPTION
#_______________________________________________________________________________
DEPT               .M                                      : Depth curve 
GK                 .мкР/ч                                  : Естественная гамма-активность,мкР/ч 
LM                 .е.ацп                                  : Локатор муфт,е.ацп 
TM                 .град.C                                 : Термограмма по стволу скважины,град.C 
~Ascii
# ...
2729.000036 5.6        3089.815   44.084    
2729.200036 5.05       606.201    44.066    
2729.400036 4.74       594.005    44.051    
2729.600036 4.33       270.156    44.038    
2729.800036 4.26       384.944    44.035    
2730.000036 3.69       566.912    44.039    
2730.200036 3.8        1014.784   44.051    
2730.400037 3.93       481.258    44.063    
2730.600037 4.36       1876.326   44.091    
2730.800037 4.4        710.563    44.147    
2731.000037 4.82       776.968    44.18     
2731.200037 4.86       946.918    44.213    
2731.400037 4.91       677.13     44.263    
2731.600037 4.59       682.997    44.322    
2731.800037 4.56       512.083    44.352    
2732.000037 4.28       976.776    44.395    
2732.200037 4.26       569.197    44.415    
2732.400038 4.66       616.977    44.452    
2732.600038 5.25       549.033    44.482    
2732.800038 5.34       740.907    44.509    
2733.000038 5.2        509.112    44.533    
2733.200038 5.19       635.939    44.562    
2733.400038 4.85       454.088    44.583    
2733.600038 4.62       866.801    44.611    
2733.800038 4.58       956.957    44.643    
2734.000038 4.66       555.194    44.676    
2734.200038 4.66       155.193    44.705    
2734.400038 4.91       1084.551   44.733    
2734.600039 5.3        545.261    44.767    
2734.800039 5.44       552.996    44.798    
2735.000039 5.62       736.911    44.827    
2735.200039 5.64       16469.41   44.86     
2735.400039 5.12       13482.45   44.88     
2735.600039 4.78       10923.24   44.896    
2735.800039 4.63       2025.294   44.927    
2736.000039 4.59       927.528    44.959    
2736.200039 4.58       396.256    45.005    
2736.40004 4.75       324.035    45.041    
2736.60004 4.77       368.978    45.071    
2736.80004 4.8        239.063    45.092    
2737.00004 5.12       453.896    45.153    
2737.20004 5.22       230.108    45.192    
2737.40004 5.15       582.83     45.244    
2737.60004 5.15       340.117    45.297    
2737.80004 5.13       538.904    45.365    
2738.00004 5.3        197.165    45.409    
2738.20004 5.39       574.818    45.477    
2738.400041 5.06       321.122    45.53     
2738.600041 5.15       1161.594   45.705    
2738.800041 5.25       889.132    45.81     
2739.000041 6.759      946.972    45.874    
2739.200041 6.91       333.296    45.912    
2739.400041 8.129      666.839    45.938    
2739.600041 8.24       262.195    45.959    
2739.800041 8.64       454.907    45.979    
2740.000041 9.4        719.872    46.003    
2740.200041 9.5        776.973    46.021    
2740.400042 9.42       462.152    46.059    
2740.600042 9.41       708.881    46.088    
2740.800042 9.4        688.01     46.151    
2741.000042 10.03      865.914    46.202    
2741.200042 10.18      420.215    46.272    
2741.400042 9.69       483.969    46.284    
2741.600042 9.22       531.977    46.331    
2741.800042 8.34       311.107    46.361    
2742.000042 7.62       411.951    46.429    
2742.200042 7.37       476.969    46.494    
2742.400042 7.22       773.857    46.595    
2742.600043 7.18       438.162    46.656    
2742.800043 7.02       552.945    46.699    
2743.000043 7.01       336.105    46.741    
2743.200043 7.01       579.882    46.849    
2743.400043 7.36       403.085    46.922    
2743.600043 7.38       516.945    47.019    
2743.800043 6.77       348.081    47.1      
2744.000043 6.58       680.84     47.261    
2744.200043 6.42       381.145    47.496    
2744.400044 6.76       358.011    47.707    
2744.600044 6.79       345.006    47.828    
2744.800044 6.69       604.875    47.904    
2745.000044 6.59       612.996    48.01     
2745.200044 6.56       771.923    48.099    
2745.400044 6.67       299.228    48.199    
2745.600044 6.68       229.034    48.276    
2745.800044 6.38       301.965    48.378    
2746.000044 6.45       141.078    48.457    
2746.200044 6.47       496.829    48.536    
2746.400045 7.04       12143.39   48.592    
2746.600045 7.12       19249.58   48.681    
2746.800045 6.55       3808.442   48.766    
2747.000045 6.83       698.495    48.858    
2747.200045 6.98       808.946    48.923    
2747.400045 7.97       1015.9     49.003    
2747.600045 8.12       305.342    49.079    
2747.800045 8.02       185.058    49.159    
2748.000045 7.77       102.04     49.288    
2748.200045 7.54       214.946    49.428    
2748.400046 6.59       134.039    49.555    
2748.600046 6.54       71.03      49.642    
2748.800046 6.63       182.946    49.731    
2749.000046 7.08       252.966    49.827    
2749.200046 7.34       161.044    49.951    
2749.400046 7.89       106.026    50.091    
2749.600046 7.92       79.013     50.223    
2749.800046 7.99       85.997     50.338    
2750.000046 8.16       229.931    50.454    
2750.200046 8.2        645.8      50.573    
2750.400046 7.95       450.094    50.683    
2750.600047 7.93       275.084    50.801    
2750.800047 7.27       285.995    50.949    
2751.000047 7.02       412.939    51.105    
2751.200047 6.98       499.958    51.254    
2751.400047 6.47       831.84     51.401    
2751.600047 6.49       555.133    51.534    
2751.800047 6.52       313.116    51.698    
2752.000047 6.54       403.956    51.908    
2752.200047 6.54       211.093    52.081    
2752.400048 6.38       145.032    52.304    
2752.600048 6.58       218.964    52.439    
2752.800048 6.7        268.976    52.621    
2753.000048 6.68       384.944    52.769    
2753.200048 6.68       433.976    52.885    
2753.400048 7.1        507.964    53.037    
2753.600048 7.24       635.938    53.197    
2753.800048 7.31       366.13     53.387    
2754.000048 7.25       254.054    53.552    
2754.200048 7.24       221.016    53.659    
2754.400049 7.38       310.957    53.77     
2754.600049 6.87       151.077    53.914    
2754.800049 6.58       30.058     54.079    
2755.000049 6.49       357.842    54.261    
2755.200049 6.53       482.94     54.434    
2755.400049 6.9        652.918    54.582    
2755.600049 6.66       337.152    54.754    
2755.800049 6.55       341.998    54.905    
2756.000049 6.34       431.957    55.043    
2756.200049 6.41       303.062    55.247    
2756.40005 6.61       179.06     55.516    
2756.60005 6.43       229.975    55.74     
2756.80005 6.37       267.982    55.98     
2757.00005 5.98       342.964    56.16     
2757.20005 5.81       273.034    56.311    
2757.40005 5.35       250.011    56.413    
2757.60005 5.09       22820.14   56.54     
2757.80005 5.06       14892.82   56.714    
2758.00005 5.45       2506.956   56.965    
2758.20005 5.7        513.956    57.207    
2758.40005 5.79       172.164    57.418    
2758.600051 6.16       296.94     57.543    
2758.800051 6.22       214.04     57.699    
2759.000051 6.3        260.977    57.907    
2759.200051 6.32       259.001    58.026    
2759.400051 6.33       283.988    58.196    
2759.600051 6.47       171.054    58.366    
2759.800051 6.43       128.021    58.57     
2760.000051 6.05       67.029     58.74     
2760.200051 5.87       74.996     58.863    
2760.400052 5.8        196.941    58.977    
2760.600052 5.64       452.877    59.098    
2760.800052 5.61       261.092    59.227    
2761.000052 5.38       252.004    59.341    
2761.200052 5.35       252        59.481    
2761.400052 5.34       181.034    59.548    
2761.600052 5.88       126.026    59.62     
2761.800052 5.94       220.954    59.7      
2762.000052 6.19       273.975    59.789    
2762.200052 6.01       278.998    59.864    
2762.400053 5.99       327.976    59.935    
2762.600053 5.74       236.044    60.017    
2762.800053 5.37       282.977    60.119    
2763.000053 5.21       229.026    60.196    
2763.200053 5.46       246.991    60.245    
2763.400053 5.5        325.962    60.312    
2763.600053 5.86       284.02     60.363    
2763.800053 5.96       353.966    60.392    
2764.000053 6.02       438.959    60.42     
2764.200053 5.99       521.96     60.445    
2764.400054 5.99       409.054    60.49     
2764.600054 6.26       402.003    60.543    
