~Version
 VERS              .         2.0                           : CWLS LOG ASCII STANDARD - VERSION 2.0
 WRAP              .         NO                            : ONE LINE PER DEPTH STEP
 DLM               .         SPACE                         : DELIMITING CHARACTER(SPACE TAB OR COMMA)
~Well Information
#_______________________________________________________________________________
#
#PARAMETER_NAME    .UNIT     VALUE                         : DESCRIPTION
#_______________________________________________________________________________
STRT               .M        1549.2                        : First reference value
STOP               .M        2296.2                        : Last reference value
STEP               .M        0.2                           : Step increment
NULL               .         -9999                         : Missing value
COMP               .                                       : Company
WELL               .         616                           : Well name
FLD                .                                       : Field
LOC                .                                       : Location
CNTY               .                                       : County
STAT               .                                       : State
CTRY               .                                       : Country
SRVC               .                                       : Service Company
DATE               .                                       : Date
API                .                                       : API number
PROJECT_UPGRADE_TIME .         2021-03-18T21_24_50           : 
group              .         Good                          : 
~Parameter Information Block
#_______________________________________________________________________________
#
#PARAMETER_NAME    .UNIT     VALUE                         : DESCRIPTION
#_______________________________________________________________________________
SET                .         616_10                        : 
CONF               .         00                            : 
END                .         0                             : 
ERR                .         2                             : 
GS00               .M        2294.21                       : 
GS01               .M        1546.72                       : 
MM00               .M        2240.00                       : 
NOKG               .         0                             : 
NPR                .         980119                        : 
PART               .         Палагутин                     : 
PROJECT_UPGRADE_TIME .         2021-03-18T21_24_49           : 
PRZK               .         Якименко                      : 
TLFamily_AZIMUTH   .         True Dip Azimuth              : 
TLFamily_DEPTH     .         Measured Depth                : 
TLFamily_METKA     .                                       : 
TLFamily_ROLL      .                                       : 
TLFamily_SPEED     .         Spontaneous Potential         : 
TLFamily_ZENIT     .                                       : 
VPRG               .         310                           : 
WAY                .         UP                            : 
group              .         prim                          : 
~Curve Information
#_______________________________________________________________________________
#
#LOGNAME           .UNIT     LOG_ID                        : DESCRIPTION
#_______________________________________________________________________________
DEPTH              .M                                      :  
AZIMUTH            .DEG                                    :  
METKA              .                                       :  
ROLL               .DEG                                    :  
SPEED              .M/H                                    :  
ZENIT              .DEG                                    :  
~Ascii
# ...
1744.4     264.66     0          59.78      576        20.92     
1744.6     270.63     0          82.93      648        21.26     
1744.8     294.6      0          97.36      576        21.34     
1745       221.94     0          112.26     576        21.54     
1745.2     195.56     0          123.01     648        21.82     
1745.4     283.04     0          135.12     612        21.59     
1745.6     324.87     0          145.77     612        21.52     
1745.8     273.15     0          153.26     576        21.52     
1746       265.9      0          167.4      612        21.65     
1746.2     262.62     0          194.55     612        21.11     
1746.4     255.7      0          222.67     648        20.15     
1746.6     262.11     0          263.95     108        20.72     
1746.8     267.66     0          15.16      144        21.37     
1747       59.73      2          91.28      36         22.34     
1747.2     261.61     0          35.58      504        21.03     
1747.4     261.4      0          34.4       648        20.95     
1747.6     260.9      0          34         612        20.87     
1747.8     260.48     0          36.05      612        20.81     
1748       261.76     0          39.55      648        20.81     
1748.2     261.63     0          41.28      612        20.84     
1748.4     262.05     0          42.3       648        20.91     
1748.6     258.95     0          50.96      612        20.66     
1748.8     259.87     0          72.31      612        20.66     
1749       258.14     0          94.27      612        20.82     
1749.2     259.64     0          109.37     648        21.32     
1749.4     259.65     0          122.12     612        21.29     
1749.6     260.39     0          131.54     648        21.25     
1749.8     260.5      0          138.15     576        21.14     
1750       260.73     0          142.33     576        21.21     
1750.2     259.73     0          145.62     612        21        
1750.4     260.03     0          148.48     648        20.93     
1750.6     260.76     0          149.96     612        21.01     
1750.8     261.65     0          150.98     576        21.12     
1751       261.73     0          151.45     612        21.05     
1751.2     261.41     0          150.45     612        20.96     
1751.4     260.86     0          149.57     648        20.99     
1751.6     260.97     0          149.06     612        20.88     
1751.8     260.61     0          148.8      612        20.93     
1752       260.3      0          149.71     612        20.96     
1752.2     261.19     1          150.59     576        20.86     
1752.4     260.54     0          150.34     648        20.71     
1752.6     261.38     0          148.8      612        20.81     
1752.8     261.86     0          146.76     576        20.87     
1753       261.19     0          145.79     612        20.86     
1753.2     261.66     0          146.49     648        20.95     
1753.4     261.6      0          147.7      612        20.98     
1753.6     261.41     0          149.7      576        21.05     
1753.8     260.43     0          152.42     612        20.81     
1754       260.75     0          155.02     648        20.78     
1754.2     261.05     0          158.44     612        20.97     
1754.4     260.45     0          163.86     612        20.88     
1754.6     261.2      0          171.08     612        20.88     
1754.8     261.84     0          175.84     612        20.79     
1755       261.65     0          178.93     648        20.8      
1755.2     261.92     0          182.83     612        20.77     
1755.4     262.09     0          188.54     648        20.8      
1755.6     262.97     0          196.2      576        20.81     
1755.8     261.61     0          204.39     612        20.54     
1756       263.8      0          210.95     648        20.84     
1756.2     263.34     0          215.78     612        20.69     
1756.4     264.57     0          219.24     648        20.74     
1756.6     267.68     0          222.02     612        20.79     
1756.8     279.09     0          224.29     540        20.77     
1757       322.09     0          225.49     648        20.73     
1757.2     205.32     0          226.98     648        20.87     
1757.4     99.01      0          228.71     612        20.83     
1757.6     0.54       0          231        576        20.88     
1757.8     295.39     0          235.5      576        20.8      
1758       269.1      0          246.58     612        20.89     
1758.2     265.31     0          260.69     648        20.92     
1758.4     260.87     0          276.89     612        21.21     
1758.6     259.74     0          300.63     648        21.25     
1758.8     260.96     0          325.08     504        20.83     
1759       260.89     0          344.07     612        20.53     
1759.2     259.18     0          358.6      648        20.17     
1759.4     260.77     0          13.07      648        20.37     
1759.6     263.1      0          23.01      576        20.37     
1759.8     261.9      0          28.2       612        20.37     
1760       261.67     0          32.69      612        20.3      
1760.2     262.07     0          37.06      612        20.23     
1760.4     261.46     0          38.99      684        20.1      
1760.6     261.21     0          39.41      576        20.1      
1760.8     261.09     0          39.51      648        20.15     
1761       260.93     0          39.81      612        20.04     
1761.2     260.88     0          39.73      612        20.25     
1761.4     261.12     0          38.85      648        20.32     
1761.6     261.43     0          38.69      612        20.33     
1761.8     261.28     0          38.71      612        20.32     
1762       253.5      1          45.5       612        19.64     
1762.2     261.9      0          65.26      540        20.16     
1762.4     260.73     0          82.22      648        20.36     
1762.6     260.55     0          93.42      648        20.41     
1762.8     261.25     0          105.13     576        20.66     
1763       260.28     0          116.65     648        20.64     
1763.2     260.3      0          125.88     648        20.54     
1763.4     261.4      0          131.78     684        20.46     
1763.6     262.02     0          135.13     612        20.48     
1763.8     262.47     0          136.91     684        20.4      
1764       262.23     0          137.87     684        20.27     
1764.2     262.02     0          138.45     684        20.28     
1764.4     262.03     0          139.24     648        20.31     
1764.6     260.66     0          140.67     684        20.19     
1764.8     261.09     0          142.18     612        20.3      
1765       261.05     0          143.2      720        20.31     
1765.2     261.56     0          144.69     684        20.48     
1765.4     261.36     0          146.17     720        20.35     
1765.6     261.53     0          148.11     648        20.33     
1765.8     262.47     0          148.75     684        20.39     
1766       262.55     0          148.58     720        20.33     
1766.2     261.54     0          148.13     684        20.17     
1766.4     261.75     0          147.6      684        20.19     
1766.6     262.3      0          147.25     576        20.33     
1766.8     262.06     0          147.3      720        20.31     
1767       261.9      0          147.59     720        20.29     
1767.2     261.75     0          148        684        20.28     
1767.4     262.14     0          148.64     684        20.34     
1767.6     262.58     0          149.45     612        20.37     
1767.8     262.58     0          150.42     648        20.47     
1768       263.09     0          150.93     684        20.41     
1768.2     262.09     0          151.3      684        20.25     
1768.4     262.96     0          151.95     684        20.17     
1768.6     265.42     0          152.63     612        20.43     
