~Version
 VERS              .         2.0                           : CWLS LOG ASCII STANDARD - VERSION 2.0
 WRAP              .         NO                            : ONE LINE PER DEPTH STEP
 DLM               .         SPACE                         : DELIMITING CHARACTER(SPACE TAB OR COMMA)
~Well Information
#_______________________________________________________________________________
#
#PARAMETER_NAME    .UNIT     VALUE                         : DESCRIPTION
#_______________________________________________________________________________
STRT               .M        47.8                          : First reference value
STOP               .M        2693.8                        : Last reference value
STEP               .M        0.2                           : Step increment
NULL               .         -9999                         : Missing value
COMP               .                                       : Company
WELL               .         616                           : Well name
FLD                .                                       : Field
LOC                .                                       : Location
CNTY               .                                       : County
STAT               .                                       : State
CTRY               .                                       : Country
SRVC               .                                       : Service Company
DATE               .                                       : Date
API                .                                       : API number
PROJECT_UPGRADE_TIME .         2021-03-18T21_24_50           : 
group              .         Good                          : 
~Parameter Information Block
#_______________________________________________________________________________
#
#PARAMETER_NAME    .UNIT     VALUE                         : DESCRIPTION
#_______________________________________________________________________________
SET                .         D1172_D                       : 
OTHER              .         Программное обеспечение станции MONITOR-386EX 25/12/99 15_08_10   BGF V52 22/08/01 16_56_30   3.2_BGF_N_3070031: 
OTHER_10           .         Тарировки_                    : 
OTHER_11           .         TM.GRD = 0.00403*TM$.UE + -1.19: 
OTHER_12           .         MN.ATM = (7.1e-006*TM.GRD + 0.02017)*(MN$.UE + -3.03*TM.GRD + -1833): 
OTHER_13           .         Id error                      : 
OTHER_2            .         Kedr.exe версия 3.4.2.51      : 
OTHER_3            .         KedrData.dll версия 3.4.2.24  : 
OTHER_4            .         Драйвер версия 2.1.1.8        : 
OTHER_5            .         Мнемоники версия 3.3 S        : 
OTHER_6            .         Прибор_ КСА-М1                : 
OTHER_7            .         Номер прибора_ 265            : 
OTHER_8            .         Режим_ КСА-М1                 : 
OTHER_9            .         Форма_ ТЕРМОМЕТР              : 
PROJECT_UPGRADE_TIME .         2021-03-18T21_24_49           : 
TLFamily_DEPT      .         Measured Depth                : 
TLFamily_GK        .         Gamma Ray                     : 
TLFamily_GK$       .                                       : 
TLFamily_LM        .         Casing Collar locator         : 
TLFamily_METKA     .                                       : 
TLFamily_MN        .                                       : 
TLFamily_MN$       .                                       : 
TLFamily_RCOR      .                                       : 
TLFamily_SPID      .         Spontaneous Potential         : 
TLFamily_STD       .                                       : 
TLFamily_TENS      .         Cable Tension                 : 
TLFamily_TIME      .         Time                          : 
TLFamily_TM        .         Temperature                   : 
TLFamily_TM$       .         Temperature                   : 
TLFamily_VGD       .         Gas Volume                    : 
group              .         prim                          : 
~Curve Information
#_______________________________________________________________________________
#
#LOGNAME           .UNIT     LOG_ID                        : DESCRIPTION
#_______________________________________________________________________________
DEPT               .M                                      : 1 Глубина, м -    0.0 см 
GK                 .MKR/H                                  : 15 Гамма-активность, мкр./ч -  110.0 см 
GK$                .UE                                     : 12 Гамма-активность, усл.ед. -  110.0 см 
LM                 .                                       : 10 Локатор муфт,  -   20.0 см 
METKA              .                                       : 3 Метки,  -    0.0 см 
MN                 .ATM                                    : 14 Давление, атм. -  160.0 см 
MN$                .UE                                     : 8 Давление, усл.ед. -  160.0 см 
RCOR               .CM/KM                                  : 5 Коррекция по ролику, см/км -    0.0 см 
SPID               .M/H                                    : 2 Скорость, м/час -    0.0 см 
STD                .                                       : 11 Приток,  -  170.0 см 
TENS               .T                                      : 6 Натяжение кабеля, т -    0.0 см 
TIME               .S                                      : 4 Время, сек -    0.0 см 
TM                 .GRD                                    : 13 Температура, °C -  180.0 см 
TM$                .UE                                     : 7 Температура, усл.ед. -  180.0 см 
VGD                .                                       : 9 Влагомер,  -  170.0 см 
~Ascii
# ...
1802       8.7        375        1          0          166.51     10099      -1400      -1874      19733      0          30938.23   57.486     14560      6555      
1802.2     8.67       375        1          0          166.528    10100      -1400      -1876      19735      0          30937.85   57.493     14562      6554      
1802.4     8.63       375        1          0          166.547    10101      -1400      -1877      19738      0          30937.47   57.497     14563      6553      
1802.6     8.56       375        1          0          166.566    10102      -1400      -1879      19738      0          30937.09   57.504     14564      6554      
1802.8     8.45       364        1          0          166.585    10102      -1400      -1881      19743      0          30936.69   57.509     14566      6553      
1803       8.42       361        1          0          166.605    10103      -1400      -1883      19745      0          30936.31   57.514     14567      6554      
1803.2     8.41       361        1          0          166.624    10104      -1400      -1885      19748      0          30935.93   57.521     14568      6554      
1803.4     8.39       361        1          0          166.649    10106      -1400      -1888      19750      0          30935.55   57.526     14570      6554      
1803.6     8.37       361        1          0          166.679    10107      -1400      -1891      19751      0          30935.15   57.533     14572      6553      
1803.8     8.33       361        1          0          166.683    10107      -1400      -1891      19755      0          30934.76   57.54      14573      6553      
1804       8.28       357        1          0          166.72     10109      -1400      -1891      19758      0          30934.39   57.544     14574      6554      
1804.2     8.24       350        1          0          166.739    10110      -1400      -1891      19759      0          30934.01   57.547     14575      6554      
1804.4     8.27       350        1          0          166.759    10111      -1400      -1888      19762      0          30933.62   57.555     14577      6553      
1804.6     8.31       350        1          0          166.778    10112      -1400      -1885      19765      0          30933.26   57.563     14579      6554      
1804.8     8.37       350        1          0          166.797    10113      -1400      -1882      19767      0          30932.9    57.567     14580      6553      
1805       8.45       350        1          0          166.816    10114      -1400      -1885      19771      0          30932.5    57.573     14581      6553      
1805.2     8.57       350        1          0          166.836    10115      -1400      -1881      19772      0          30932.11   57.578     14583      6553      
1805.4     8.77       374        1          0          166.855    10116      -1400      -1877      19774      0          30931.72   57.584     14584      6553      
1805.6     8.77       377        1          0          166.874    10116      -1400      -1878      19779      0          30931.36   57.59      14586      6553      
1805.8     8.75       377        1          0          166.893    10117      -1400      -1875      19779      0          30930.99   57.595     14587      6554      
1806       8.72       377        1          0          166.919    10119      -1400      -1880      19784      0          30930.6    57.601     14588      6553      
1806.2     8.68       377        1          0          166.951    10120      -1400      -1889      19785      0          30930.22   57.606     14590      6553      
1806.4     8.61       377        1          0          166.969    10121      -1400      -1892      19786      0          30929.82   57.613     14591      6553      
1806.6     8.51       371        1          0          166.988    10122      -1400      -1889      19790      0          30929.44   57.617     14592      6553      
1806.8     8.42       362        1          0          167.008    10123      -1400      -1888      19791      0          30929.07   57.624     14594      6553      
1807       8.4        362        1          0          167.027    10124      -1400      -1891      19793      0          30928.68   57.628     14595      6553      
1807.2     8.37       362        1          0          167.045    10125      -1400      -1893      19796      0          30928.31   57.636     14597      6553      
1807.4     8.32       362        1          0          167.064    10126      -1400      -1891      19797      0          30927.92   57.643     14599      6553      
1807.6     8.24       362        1          0          167.083    10127      -1400      -1894      19799      0          30927.55   57.647     14600      6553      
1807.8     8.14       362        1          0          167.09     10127      -1400      -1897      19802      0          30927.18   57.651     14601      6552      
1808       7.99       362        1          0          167.113    10128      -1400      -1895      19802      0          30926.77   57.654     14602      6553      
1808.2     7.76       336        1          0          167.141    10129      -1400      -1893      19807      0          30926.41   57.66      14603      6552      
1808.4     7.71       328        1          0          167.16     10130      -1400      -1895      19809      0          30926.03   57.666     14604      6552      
1808.6     7.73       328        48         1          167.179    10131      -1400      -1898      19810      0          30925.65   57.671     14606      6552      
1808.8     7.75       328        119        0          167.198    10132      -1400      -1898      19813      0          30925.28   57.677     14607      6552      
1809       7.8        328        233        0          167.217    10133      -1400      -1899      19814      0          30924.9    57.681     14608      6552      
1809.2     7.85       328        233        0          167.235    10134      -1400      -1901      19817      0          30924.51   57.685     14609      6551      
1809.4     7.94       332        403        0          167.254    10135      -1400      -1899      19821      0          30924.13   57.689     14610      6552      
1809.6     8.02       342        672        0          167.274    10136      -1400      -1901      19822      0          30923.76   57.696     14612      6552      
1809.8     8.03       342        1093       0          167.292    10137      -1400      -1908      19825      0          30923.38   57.7       14613      6553      
1810       8.05       342        1755       2          167.311    10138      -1400      -1900      19829      0          30922.99   57.704     14614      6553      
1810.2     8.07       342        2772       0          167.33     10139      -1400      -1891      19831      0          30922.53   57.711     14616      6552      
1810.4     8.1        342        917        0          167.348    10140      -1400      -1884      19836      0          30922.17   57.715     14617      6552      
1810.6     8.15       342        1          0          167.367    10140      -1400      -1893      19839      0          30921.79   57.721     14618      6552      
1810.8     8.23       351        1          0          167.387    10141      -1400      -1890      19841      0          30921.4    57.728     14620      6552      
1811       8.23       355        1          0          167.406    10142      -1400      -1893      19846      0          30921.03   57.736     14622      6553      
1811.2     8.19       355        1          0          167.43     10144      -1400      -1897      19845      0          30920.64   57.744     14624      6553      
1811.4     8.14       355        1          0          167.46     10145      -1400      -1896      19849      0          30920.26   57.751     14626      6553      
1811.6     8.06       355        1          0          167.462    10145      -1400      -1893      19854      0          30919.88   57.758     14627      6553      
