~Version
 VERS              .         2.0                           : CWLS LOG ASCII STANDARD - VERSION 2.0
 WRAP              .         NO                            : ONE LINE PER DEPTH STEP
 DLM               .         SPACE                         : DELIMITING CHARACTER(SPACE TAB OR COMMA)
~Well Information
#_______________________________________________________________________________
#
#PARAMETER_NAME    .UNIT     VALUE                         : DESCRIPTION
#_______________________________________________________________________________
STRT               .M        2659.8                        : First reference value
STOP               .M        2768.999945                   : Last reference value
STEP               .M        0.1999999                     : Step increment
NULL               .         -9999                         : Missing value
COMP               .                                       : Company
WELL               .         616                           : Well name
FLD                .                                       : Field
LOC                .                                       : Location
CNTY               .                                       : County
STAT               .                                       : State
CTRY               .                                       : Country
SRVC               .                                       : Service Company
DATE               .                                       : Date
API                .                                       : API number
PROJECT_UPGRADE_TIME .         2021-03-18T21_24_50           : 
group              .         Good                          : 
~Parameter Information Block
#_______________________________________________________________________________
#
#PARAMETER_NAME    .UNIT     VALUE                         : DESCRIPTION
#_______________________________________________________________________________
SET                .         D1169_D                       : 
OTHER              .         Программное обеспечение станции MONITOR-386EX 25/12/99 15_08_10   BGF V52 22/08/01 16_56_30   3.2_BGF_N_3070031: 
OTHER_10           .         Тарировки_                    : 
OTHER_11           .         TM.GRD = 0.00403*TM$.UE + -1.19: 
OTHER_12           .         MN.ATM = (7.1e-006*TM.GRD + 0.02017)*(MN$.UE + -3.03*TM.GRD + -1833): 
OTHER_13           .         Id error                      : 
OTHER_2            .         Kedr.exe версия 3.4.2.51      : 
OTHER_3            .         KedrData.dll версия 3.4.2.24  : 
OTHER_4            .         Драйвер версия 2.1.1.8        : 
OTHER_5            .         Мнемоники версия 3.3 S        : 
OTHER_6            .         Прибор_ КСА-М1                : 
OTHER_7            .         Номер прибора_ 265            : 
OTHER_8            .         Режим_ КСА-М1                 : 
OTHER_9            .         Форма_ ТЕРМОМЕТР              : 
PROJECT_UPGRADE_TIME .         2021-03-18T21_24_49           : 
TLFamily_DEPT      .         Measured Depth                : 
TLFamily_GK        .         Gamma Ray                     : 
TLFamily_GK$       .                                       : 
TLFamily_LM        .         Casing Collar locator         : 
TLFamily_METKA     .                                       : 
TLFamily_MN        .                                       : 
TLFamily_MN$       .                                       : 
TLFamily_RCOR      .                                       : 
TLFamily_SPID      .         Spontaneous Potential         : 
TLFamily_STD       .                                       : 
TLFamily_TENS      .         Cable Tension                 : 
TLFamily_TIME      .         Time                          : 
TLFamily_TM        .         Temperature                   : 
TLFamily_TM$       .         Temperature                   : 
TLFamily_VGD       .         Gas Volume                    : 
group              .         prim                          : 
~Curve Information
#_______________________________________________________________________________
#
#LOGNAME           .UNIT     LOG_ID                        : DESCRIPTION
#_______________________________________________________________________________
DEPT               .M                                      : 1 Глубина, м -    0.0 см 
GK                 .MKR/H                                  : 15 Гамма-активность, мкр./ч -  110.0 см 
GK$                .UE                                     : 12 Гамма-активность, усл.ед. -  110.0 см 
LM                 .                                       : 10 Локатор муфт,  -   20.0 см 
METKA              .                                       : 3 Метки,  -    0.0 см 
MN                 .ATM                                    : 14 Давление, атм. -  160.0 см 
MN$                .UE                                     : 8 Давление, усл.ед. -  160.0 см 
RCOR               .CM/KM                                  : 5 Коррекция по ролику, см/км -    0.0 см 
SPID               .M/H                                    : 2 Скорость, м/час -    0.0 см 
STD                .                                       : 11 Приток,  -  170.0 см 
TENS               .T                                      : 6 Натяжение кабеля, т -    0.0 см 
TIME               .S                                      : 4 Время, сек -    0.0 см 
TM                 .GRD                                    : 13 Температура, °C -  180.0 см 
TM$                .UE                                     : 7 Температура, усл.ед. -  180.0 см 
VGD                .                                       : 9 Влагомер,  -  170.0 см 
~Ascii
# ...
2698.99998 9.9        415        1          0          258.925    14556      -1400      593        30644      0          25794.3    83.96      21129      6572      
2699.19998 9.77       415        1          0          258.925    14556      -1400      577        30650      0          25795.58   83.972     21132      6573      
2699.39998 8.9        364        1          0          258.946    14557      -1400      577        30656      0          25796.81   83.986     21135      6573      
2699.59998 8.62       364        1          0          258.981    14559      -1400      578        30664      0          25798.04   83.999     21139      6573      
2699.79998 8.52       362        1          0          258.997    14559      -1400      573        30668      0          25799.33   84.015     21143      6572      
2699.99998 8.47       361        1          2          259.019    14560      -1400      581        30675      0          25800.59   84.026     21145      6572      
2700.19998 8.44       360        1          0          259.034    14561      -1400      594        30679      0          25801.81   84.044     21150      6573      
2700.39998 8.51       371        1          0          259.052    14562      -1400      590        30686      0          25803.08   84.058     21153      6572      
2700.59998 9.06       397        1          0          259.071    14563      -1400      587        30693      0          25804.31   84.077     21158      6572      
2700.79998 9.21       397        1          0          259.073    14563      -1400      585        30698      0          25805.54   84.089     21161      6572      
2700.999979 8.48       350        1          0          259.11     14565      -1400      584        30705      0          25806.77   84.104     21165      6572      
2701.199979 8.27       350        1          0          259.128    14566      -1400      582        30711      0          25808.05   84.123     21169      6573      
2701.399979 6.97       273        1          0          259.137    14566      -1400      575        30715      0          25809.29   84.14      21174      6572      
2701.599979 6.55       273        1          0          259.158    14567      -1400      576        30728      0          25810.49   84.152     21177      6572      
2701.799979 6.53       279        1          0          259.179    14568      -1400      582        30732      0          25811.71   84.163     21180      6572      
2701.999979 6.58       285        1          0          259.201    14569      -1400      575        30739      0          25813.02   84.184     21185      6573      
2702.199979 6.79       294        1          0          259.222    14570      -1400      587        30745      0          25814.21   84.204     21190      6572      
2702.399979 6.89       299        1          0          259.243    14571      -1400      586        30754      0          25815.44   84.224     21194      6572      
2702.599979 7.14       310        1          0          259.261    14572      -1400      584        30762      0          25816.73   84.242     21199      6572      
2702.799979 7.22       310        1          0          259.286    14573      -1400      583        30769      0          25817.92   84.262     21204      6571      
2702.999978 7.03       297        1          0          259.292    14573      -1400      586        30777      0          25819.19   84.277     21208      6571      
2703.199978 6.97       297        1          0          259.318    14575      -1400      591        30787      0          25820.36   84.296     21212      6572      
2703.399978 6.79       286        1          0          259.329    14575      -1400      576        30792      0          25821.66   84.31      21216      6571      
2703.599978 6.72       286        1          0          259.371    14577      -1400      579        30800      0          25822.9    84.336     21222      6572      
2703.799978 6.76       290        1821       0          259.374    14577      -1400      588        30807      0          25824.13   84.358     21228      6572      
2703.999978 6.81       294        277        0          259.392    14578      -1400      586        30816      0          25825.36   84.376     21232      6572      
2704.199978 7          303        1          0          259.414    14579      -1400      584        30825      0          25826.65   84.395     21237      6572      
2704.399978 7.07       304        1          0          259.435    14580      -1400      583        30833      0          25827.83   84.411     21241      6571      
2704.599978 7.26       314        1          0          259.471    14582      -1400      591        30842      0          25829.05   84.433     21247      6572      
2704.799978 7.32       314        1          0          259.478    14582      -1400      584        30854      0          25830.34   84.457     21252      6572      
2704.999977 7.08       297        1          0          259.499    14583      -1400      585        30861      0          25831.57   84.475     21257      6572      
2705.199977 6.99       297        1          0          259.505    14583      -1400      576        30871      0          25832.8    84.499     21263      6572      
2705.399977 6.64       275        1          0          259.542    14585      -1400      580        30879      0          25834.09   84.518     21268      6572      
2705.599977 6.5        275        1          0          259.563    14586      -1400      580        30886      0          25835.26   84.537     21272      6573      
2705.799977 6.52       280        1          0          259.584    14587      -1400      580        30895      0          25836.48   84.556     21277      6572      
2705.999977 6.54       280        1          0          259.605    14588      -1400      581        30902      0          25837.71   84.58      21283      6569      
2706.199977 6.45       274        1          0          259.618    14589      -1400      573        30910      0          25839      84.596     21287      6571      
2706.399977 6.42       274        1          0          259.627    14589      -1400      575        30920      0          25840.23   84.62      21293      6571      
2706.599977 7.12       320        1          0          259.649    14590      -1400      582        30930      0          25841.44   84.643     21299      6572      
2706.799977 7.37       320        1          0          259.67     14591      -1400      580        30936      0          25842.66   84.661     21303      6572      
2706.999976 7.74       340        1          0          259.691    14592      -1400      576        30947      0          25843.92   84.678     21307      6571      
2707.199976 7.89       340        1          0          259.712    14593      -1400      582        30954      0          25845.15   84.696     21312      6572      
2707.399976 7.67       321        1          0          259.713    14593      -1400      581        30962      0          25846.38   84.718     21317      6572      
2707.599976 7.56       321        1          0          259.749    14595      -1400      568        30973      0          25847.68   84.744     21324      6572      
2707.799976 7.45       315        1          0          259.756    14595      -1400      576        30981      0          25848.91   84.766     21329      6572      
2707.999976 7.39       315        1          0          259.777    14596      -1400      577        30988      0          25850.14   84.785     21334      6571      
2708.199976 7.29       307        1          0          259.798    14597      -1400      578        30997      0          25851.4    84.804     21339      6571      
2708.399976 7.21       307        1          0          259.819    14598      -1400      578        31004      0          25852.66   84.82      21342      6572      
2708.599976 7.36       319        1          0          259.823    14598      -1400      580        31017      0          25853.83   84.84      21347      6571      
