~Version
 VERS              .         2.0                           : CWLS LOG ASCII STANDARD - VERSION 2.0
 WRAP              .         NO                            : ONE LINE PER DEPTH STEP
 DLM               .         SPACE                         : DELIMITING CHARACTER(SPACE TAB OR COMMA)
~Well Information
#_______________________________________________________________________________
#
#PARAMETER_NAME    .UNIT     VALUE                         : DESCRIPTION
#_______________________________________________________________________________
STRT               .M        10.2                          : First reference value
STOP               .M        2774.8                        : Last reference value
STEP               .M        0.2                           : Step increment
NULL               .         -9999                         : Missing value
COMP               .                                       : Company
WELL               .         616                           : Well name
FLD                .                                       : Field
LOC                .                                       : Location
CNTY               .                                       : County
STAT               .                                       : State
CTRY               .                                       : Country
SRVC               .                                       : Service Company
DATE               .                                       : Date
API                .                                       : API number
PROJECT_UPGRADE_TIME .         2021-03-18T21_24_50           : 
group              .         Good                          : 
~Parameter Information Block
#_______________________________________________________________________________
#
#PARAMETER_NAME    .UNIT     VALUE                         : DESCRIPTION
#_______________________________________________________________________________
SET                .         D1813_D_2                     : 
NPR                .                                       : 
OTHER              .         Программное обеспечение станции MONITOR-386EX 25/12/99 15_08_10   BGF V52 22/08/01 16_56_30   3.1_SNGF___BGF_N_092049: 
OTHER_10           .         Тарировки_                    : 
OTHER_11           .         TM.GRD = 0.00403*TM$.UE + -1.07: 
OTHER_12           .         MN.ATM = (9.34907e-006*TM.GRD + 0.02171)*(MN$.UE + -7.93*TM.GRD + -1787): 
OTHER_13           .         GK.MKR/H = LM. / 42.4676      : 
OTHER_14           .         GK.FLT = 0.1*GK.MKR/H[-1] + (1-0.1)*GK.MKR/H[0]: 
OTHER_2            .         Kedr.exe версия 3.4.2.51      : 
OTHER_3            .         KedrData.dll версия 3.4.2.24  : 
OTHER_4            .         Драйвер версия 2.1.1.3        : 
OTHER_5            .         Мнемоники версия 3.3 S        : 
OTHER_6            .         Прибор_ КСА-Т4                : 
OTHER_7            .         Номер прибора_ 03             : 
OTHER_8            .         Режим_ КСА-Т4                 : 
OTHER_9            .         Форма_ КВА.                   : 
PR                 .                                       : 
PROJECT_UPGRADE_TIME .         2021-03-18T21_24_49           : 
PRTY               .         ПП-603-1                      : N партии
SRV                .                                       : 
SRVC               .         Карпов                        : Начальник партии
TLFamily_DEPT      .         Measured Depth                : 
TLFamily_LM        .         Casing Collar locator         : 
TLFamily_MN        .                                       : 
TLFamily_TM        .         Temperature                   : 
group              .         second                        : 
~Curve Information
#_______________________________________________________________________________
#
#LOGNAME           .UNIT     LOG_ID                        : DESCRIPTION
#_______________________________________________________________________________
DEPT               .M                                      : Depth curve 
LM                 .е.ацп                                  : Локатор муфт,е.ацп 
MN                 .атм                                    : Манометрия, атм 
TM                 .град.C                                 : Термограмма по стволу скважины,град.C 
~Ascii
# ...
2376.2     200        215.805    57.377    
2376.4     200.004    215.824    57.377    
2376.6     221.001    215.851    57.377    
2376.8     227.996    215.88     57.377    
2377       206.998    215.882    57.369    
2377.2     193.001    215.92     57.371    
2377.4     198        215.924    57.378    
2377.6     198.001    215.938    57.38     
2377.8     201.002    215.957    57.377    
2378       213.999    215.975    57.381    
2378.2     206.006    215.995    57.381    
2378.4     239.007    216.012    57.384    
2378.6     281.004    216.031    57.385    
2378.8     306        216.05     57.385    
2379       306.001    216.069    57.385    
2379.2     314.015    216.087    57.385    
2379.4     402.007    216.106    57.385    
2379.6     444.03     216.124    57.388    
2379.8     615.052    216.144    57.389    
2380       909        216.163    57.389    
2380.2     909.09     216.182    57.389    
2380.4     1423.143   216.211    57.389    
2380.6     2239.234   216.241    57.389    
2380.8     3568.508   216.261    57.392    
2381       767.926    216.279    57.393    
2381.2     346.989    216.297    57.393    
2381.4     286        216.317    57.393    
2381.6     285.998    216.335    57.393    
2381.8     274.996    216.363    57.393    
2382       251.001    216.39     57.393    
2382.2     254        216.392    57.393    
2382.4     254.996    216.411    57.395    
2382.6     233        216.447    57.397    
2382.8     233.006    216.469    57.397    
2383       266.001    216.488    57.397    
2383.2     268.998    216.507    57.397    
2383.4     259.003    216.526    57.4      
2383.6     273.998    216.546    57.401    
2383.8     262.999    216.563    57.401    
2384       259        216.583    57.401    
2384.2     259.004    216.601    57.402    
2384.4     279.995    216.62     57.405    
2384.6     250        216.64     57.402    
2384.8     250.998    216.655    57.404    
2385       237.003    216.656    57.405    
2385.2     255.999    216.673    57.405    
2385.4     253        216.692    57.405    
2385.6     252.998    216.711    57.405    
2385.8     239.999    216.73     57.405    
2386       236.002    216.748    57.408    
2386.2     249.001    216.767    57.409    
2386.4     257.001    216.785    57.409    
2386.6     262        216.806    57.409    
2386.8     262.001    216.838    57.409    
2387       268.995    216.865    57.409    
2387.2     241.001    216.884    57.409    
2387.4     246.001    216.902    57.412    
2387.6     249.002    216.922    57.413    
2387.8     260        216.941    57.412    
2388       260.006    216.974    57.41     
2388.2     291.995    217        57.414    
2388.4     260.999    217.018    57.417    
2388.6     255.001    217.037    57.417    
2388.8     258.998    217.055    57.417    
2389       248.004    217.055    57.417    
2389.2     269        217.089    57.417    
2389.4     269.003    217.099    57.417    
2389.6     285.012    217.109    57.417    
2389.8     351.011    217.128    57.417    
2390       411.027    217.15     57.417    
2390.2     562.046    217.189    57.417    
2390.4     825        217.207    57.419    
2390.6     825.081    217.225    57.421    
2390.8     1284.129   217.243    57.421    
2391       2013.204   217.262    57.421    
2391.2     3169.325   217.281    57.421    
2391.4     5008.159   217.301    57.424    
2391.6     241.01     217.319    57.424    
2391.8     295        217.339    57.421    
2392       294.998    217.357    57.422    
2392.2     281.999    217.376    57.425    
2392.4     277        217.395    57.425    
2392.6     276.998    217.417    57.425    
2392.8     266.996    217.453    57.425    
2393       242.997    217.455    57.425    
2393.2     228        217.469    57.426    
2393.4     228        217.488    57.428    
2393.6     226.998    217.507    57.415    
2393.8     215.003    217.525    57.426    
2394       231.001    217.543    57.429    
2394.2     234.001    217.563    57.429    
2394.4     237        217.581    57.429    
2394.6     237        217.601    57.429    
2394.8     236.004    217.62     57.429    
2395       256.999    217.632    57.429    
2395.2     248.998    217.636    57.429    
2395.4     236.999    217.653    57.429    
2395.6     228.998    217.672    57.431    
2395.8     215        217.707    57.434    
2396       215.003    217.732    57.434    
2396.2     233.001    217.75     57.434    
2396.4     236.999    217.774    57.434    
2396.6     228.999    217.81     57.434    
2396.8     226.001    217.81     57.434    
2397       232        217.843    57.434    
2397.2     231.996    217.868    57.434    
2397.4     209.001    217.886    57.434    
2397.6     217.005    217.905    57.434    
2397.8     244.996    217.928    57.434    
2398       222.995    217.962    57.434    
2398.2     195.996    217.984    57.435    
2398.4     174        218.003    57.438    
2398.6     173.999    218.02     57.438    
2398.8     171        218.039    57.438    
2399       172.003    218.059    57.438    
2399.2     189.005    218.078    57.435    
2399.4     214.999    218.097    57.435    
2399.6     207        218.115    57.438    
2399.8     206.999    218.135    57.438    
2400       203.004    218.153    57.438    
2400.2     223.005    218.165    57.438    
2400.4     251        218.172    57.44     
2400.6     251.01     218.208    57.439    
2400.8     309.007    218.21     57.439    
2401       346        218.225    57.442    
2401.2     346.011    218.243    57.442    
2401.4     409.023    218.262    57.442    
2401.6     541.044    218.287    57.442    
2401.8     788.079    218.321    57.442    
2402       1231.124   218.331    57.442    
2402.2     1929       218.34     57.442    
2402.4     1929.194   218.37     57.442    
2402.6     3025.233   218.398    57.442    
2402.8     4340.276   218.417    57.442    
2403       258.991    218.436    57.442    
2403.2     211.002    218.454    57.442    
2403.4     221        218.474    57.442    
2403.6     220.999    218.492    57.442    
2403.8     217.001    218.51     57.442    
2404       221.998    218.529    57.445    
2404.2     210.003    218.549    57.442    
2404.4     225.003    218.567    57.442    
2404.6     240.002    218.586    57.444    
2404.8     251        218.605    57.44     
2405       250.998    218.623    57.432    
2405.2     238.997    218.642    57.446    
2405.4     223.001    218.661    57.446    
2405.6     229        218.679    57.446    
2405.8     229.001    218.698    57.446    
2406       235        218.717    57.447    
2406.2     234.996    218.721    57.45     
2406.4     214.999    218.744    57.45     
2406.6     207.999    218.773    57.45     
2406.8     205.005    218.787    57.45     
2407       233.998    218.789    57.45     
2407.2     225.003    218.83     57.45     
2407.4     241        218.85     57.45     
2407.6     240.999    218.867    57.45     
2407.8     232.994    218.886    57.45     
2408       201.999    218.905    57.45     
2408.2     198.004    218.927    57.45     
2408.4     222.003    218.966    57.45     
2408.6     237        218.984    57.45     
2408.8     237.002    219.003    57.45     
2409       245.997    219.021    57.45     
2409.2     227.997    219.04     57.45     
2409.4     212        219.06     57.45     
2409.6     212.001    219.079    57.45     
2409.8     218.003    219.098    57.45     
2410       235.002    219.134    57.45     
2410.2     243.997    219.143    57.45     
2410.4     228        219.153    57.45     
2410.6     227.996    219.179    57.45     
2410.8     207.001    219.216    57.45     
2411       214.006    219.232    57.45     
2411.2     246.006    219.24     57.45     
2411.4     277        219.277    57.452    
2411.6     278.004    219.277    57.454    
2411.8     299        219.311    57.453    
2412       298.994    219.335    57.45     
2412.2     264.012    219.353    57.454    
2412.4     334.021    219.372    57.45     
