~Version
 VERS              .         2.0                           : CWLS LOG ASCII STANDARD - VERSION 2.0
 WRAP              .         NO                            : ONE LINE PER DEPTH STEP
 DLM               .         SPACE                         : DELIMITING CHARACTER(SPACE TAB OR COMMA)
~Well Information
#_______________________________________________________________________________
#
#PARAMETER_NAME    .UNIT     VALUE                         : DESCRIPTION
#_______________________________________________________________________________
STRT               .M        2659.6                        : First reference value
STOP               .M        2768.6                        : Last reference value
STEP               .M        0.2                           : Step increment
NULL               .         -9999                         : Missing value
COMP               .                                       : Company
WELL               .         616                           : Well name
FLD                .                                       : Field
LOC                .                                       : Location
CNTY               .                                       : County
STAT               .                                       : State
CTRY               .                                       : Country
SRVC               .                                       : Service Company
DATE               .                                       : Date
API                .                                       : API number
PROJECT_UPGRADE_TIME .         2021-03-18T21_24_50           : 
group              .         Good                          : 
~Parameter Information Block
#_______________________________________________________________________________
#
#PARAMETER_NAME    .UNIT     VALUE                         : DESCRIPTION
#_______________________________________________________________________________
SET                .         D1166_D                       : 
OTHER              .         Программное обеспечение станции MONITOR-386EX 25/12/99 15_08_10   BGF V52 22/08/01 16_56_30   3.2_BGF_N_3070031: 
OTHER_10           .         Тарировки_                    : 
OTHER_11           .         TM.GRD = 0.00403*TM$.UE + -1.19: 
OTHER_12           .         MN.ATM = (7.1e-006*TM.GRD + 0.02017)*(MN$.UE + -3.03*TM.GRD + -1833): 
OTHER_13           .         Id error                      : 
OTHER_2            .         Kedr.exe версия 3.4.2.51      : 
OTHER_3            .         KedrData.dll версия 3.4.2.24  : 
OTHER_4            .         Драйвер версия 2.1.1.8        : 
OTHER_5            .         Мнемоники версия 3.3 S        : 
OTHER_6            .         Прибор_ КСА-М1                : 
OTHER_7            .         Номер прибора_ 265            : 
OTHER_8            .         Режим_ КСА-М1                 : 
OTHER_9            .         Форма_ ТЕРМОМЕТР              : 
PROJECT_UPGRADE_TIME .         2021-03-18T21_24_49           : 
TLFamily_DEPT      .         Measured Depth                : 
TLFamily_GK        .         Gamma Ray                     : 
TLFamily_GK$       .                                       : 
TLFamily_LM        .         Casing Collar locator         : 
TLFamily_METKA     .                                       : 
TLFamily_MN        .                                       : 
TLFamily_MN$       .                                       : 
TLFamily_RCOR      .                                       : 
TLFamily_SPID      .         Spontaneous Potential         : 
TLFamily_STD       .                                       : 
TLFamily_TENS      .         Cable Tension                 : 
TLFamily_TIME      .         Time                          : 
TLFamily_TM        .         Temperature                   : 
TLFamily_TM$       .         Temperature                   : 
TLFamily_VGD       .         Gas Volume                    : 
group              .         prim                          : 
~Curve Information
#_______________________________________________________________________________
#
#LOGNAME           .UNIT     LOG_ID                        : DESCRIPTION
#_______________________________________________________________________________
DEPT               .M                                      : 1 Глубина, м -    0.0 см 
GK                 .MKR/H                                  : 15 Гамма-активность, мкр./ч -  110.0 см 
GK$                .UE                                     : 12 Гамма-активность, усл.ед. -  110.0 см 
LM                 .                                       : 10 Локатор муфт,  -   20.0 см 
METKA              .                                       : 3 Метки,  -    0.0 см 
MN                 .ATM                                    : 14 Давление, атм. -  160.0 см 
MN$                .UE                                     : 8 Давление, усл.ед. -  160.0 см 
RCOR               .CM/KM                                  : 5 Коррекция по ролику, см/км -    0.0 см 
SPID               .M/H                                    : 2 Скорость, м/час -    0.0 см 
STD                .                                       : 11 Приток,  -  170.0 см 
TENS               .T                                      : 6 Натяжение кабеля, т -    0.0 см 
TIME               .S                                      : 4 Время, сек -    0.0 см 
TM                 .GRD                                    : 13 Температура, °C -  180.0 см 
TM$                .UE                                     : 7 Температура, усл.ед. -  180.0 см 
VGD                .                                       : 9 Влагомер,  -  170.0 см 
~Ascii
# ...
2689       7.21       295        1          0          356.226    19237      -1400      600        31377      0          22066.53   85.588     21533      6569      
2689.2     7          295        1          0          356.953    19272      -1400      587        31388      0          22067.79   85.591     21534      6570      
2689.4     6.81       279        1          0          358.545    19349      -1400      594        31394      0          22068.94   85.592     21534      6571      
2689.6     6.58       277        1          0          356.524    19251      -1400      591        31399      0          22070.09   85.597     21535      6570      
2689.8     6.58       285        1          0          357.212    19284      -1400      589        31393      0          22071.38   85.6       21536      6570      
2690       6.81       296        1          2          358.69     19355      -1400      584        31391      0          22072.62   85.606     21538      6569      
2690.2     7.07       319        1          0          356.61     19255      -1400      583        31392      0          22073.89   85.612     21539      6569      
2690.4     7.33       319        1          0          357.467    19297      -1400      583        31401      0          22075.14   85.616     21540      6570      
2690.6     7.47       325        1          0          358.267    19335      -1400      585        31405      0          22076.39   85.616     21540      6569      
2690.8     7.71       335        1          0          355.934    19223      -1400      588        31405      0          22077.58   85.624     21542      6570      
2691       7.8        335        1          0          357.31     19289      -1400      593        31402      0          22078.77   85.632     21544      6571      
2691.2     8          346        1          0          357.725    19309      -1400      597        31399      0          22080.09   85.632     21544      6570      
2691.4     8.07       346        1          0          356.923    19270      -1400      589        31399      0          22081.28   85.636     21545      6571      
2691.6     8.37       365        1          0          356.777    19263      -1400      593        31398      0          22082.53   85.644     21547      6570      
2691.8     8.42       357        1          0          356.975    19273      -1400      590        31402      0          22083.72   85.648     21548      6570      
2692       8.15       343        1          0          356.854    19267      -1400      584        31403      0          22085.03   85.65      21548      6570      
2692.2     8.06       343        1          0          356.548    19252      -1400      585        31406      0          22086.23   85.657     21550      6569      
2692.4     8.19       353        1733       0          356.842    19266      -1400      585        31403      0          22087.46   85.661     21551      6570      
2692.6     8.24       353        418        0          357.896    19317      -1400      593        31403      0          22088.67   85.665     21552      6571      
2692.8     8.55       374        1          0          357.247    19286      -1400      590        31402      0          22089.88   85.671     21554      6570      
2693       8.69       374        1          0          357.619    19304      -1400      593        31404      0          22091.04   85.678     21555      6571      
2693.2     8.75       375        1          0          358.113    19328      -1400      601        31408      0          22092.3    85.681     21556      6571      
2693.4     8.76       375        1          0          356.655    19257      -1400      589        31414      0          22093.55   85.685     21557      6570      
2693.6     9.16       401        1          0          357.133    19280      -1400      592        31412      0          22094.75   85.688     21558      6570      
2693.8     9.31       401        1          0          358.578    19350      -1400      598        31413      0          22095.94   85.692     21559      6571      
2694       8.84       363        1          0          357.267    19287      -1400      599        31419      0          22097.14   85.701     21561      6570      
2694.2     8.6        363        1          0          358.038    19324      -1400      590        31420      0          22098.44   85.702     21561      6570      
2694.4     8.1        337        1          0          359.305    19385      -1400      593        31424      0          22099.63   85.705     21562      6570      
2694.6     7.96       337        1          0          357.036    19276      -1400      590        31424      0          22100.82   85.712     21564      6569      
2694.8     8.5        379        1          0          358.012    19323      -1400      592        31425      0          22102.07   85.717     21565      6569      
2695       8.74       379        1          0          359.372    19388      -1400      589        31426      0          22103.26   85.722     21566      6571      
2695.2     8.79       376        1          0          357.097    19278      -1400      588        31434      0          22104.51   85.729     21568      6569      
2695.4     8.79       376        1          0          358.127    19328      -1400      583        31433      0          22105.77   85.733     21569      6569      
2695.6     8.83       380        1          0          359.001    19370      -1400      586        31433      0          22106.91   85.733     21569      6570      
2695.8     8.87       380        1          0          356.715    19260      -1400      586        31433      0          22108.13   85.738     21570      6570      
2696       8.98       388        1          0          357.898    19317      -1400      585        31439      0          22109.33   85.741     21571      6570      
2696.2     9.05       388        1          0          358.405    19341      -1400      587        31442      0          22110.6    85.745     21572      6570      
2696.4     8.72       354        1          0          356.939    19271      -1400      591        31445      0          22111.8    85.752     21574      6571      
2696.6     8.41       354        1          0          357.852    19315      -1400      591        31444      0          22113      85.76      21576      6570      
2696.8     8.3        351        1          0          358.225    19333      -1400      591        31442      0          22114.22   85.761     21576      6571      
2697       8.24       351        1          0          357.525    19299      -1400      588        31447      0          22115.47   85.765     21577      6570      
2697.2     8.52       377        1          0          358.063    19325      -1400      591        31451      0          22116.68   85.769     21578      6569      
2697.4     8.72       377        1          0          358.355    19339      -1400      589        31460      0          22117.86   85.773     21579      6569      
2697.6     8.82       381        1          0          359.073    19373      -1400      585        31462      0          22119.14   85.779     21580      6571      
2697.8     8.88       381        1          0          357.673    19306      -1400      595        31467      0          22120.35   85.786     21582      6570      
2698       8.87       377        1          0          358.368    19339      -1400      597        31463      0          22121.55   85.789     21583      6571      
2698.2     8.8        375        1          0          359.414    19390      -1400      593        31464      0          22122.81   85.794     21584      6571      
2698.4     8.89       387        1          0          357.784    19311      -1400      589        31461      0          22124.02   85.8       21586      6570      
2698.6     9          387        1          0          358.635    19352      -1400      593        31466      0          22125.22   85.804     21587      6570      
