~Version
 VERS              .         2.0                           : CWLS LOG ASCII STANDARD - VERSION 2.0
 WRAP              .         NO                            : ONE LINE PER DEPTH STEP
 DLM               .         SPACE                         : DELIMITING CHARACTER(SPACE TAB OR COMMA)
~Well Information
#_______________________________________________________________________________
#
#PARAMETER_NAME    .UNIT     VALUE                         : DESCRIPTION
#_______________________________________________________________________________
STRT               .M        10.2                          : First reference value
STOP               .M        2757.4                        : Last reference value
STEP               .M        0.2                           : Step increment
NULL               .         -9999                         : Missing value
COMP               .                                       : Company
WELL               .         616                           : Well name
FLD                .                                       : Field
LOC                .                                       : Location
CNTY               .                                       : County
STAT               .                                       : State
CTRY               .                                       : Country
SRVC               .                                       : Service Company
DATE               .                                       : Date
API                .                                       : API number
PROJECT_UPGRADE_TIME .         2021-03-18T21_24_50           : 
group              .         Good                          : 
~Parameter Information Block
#_______________________________________________________________________________
#
#PARAMETER_NAME    .UNIT     VALUE                         : DESCRIPTION
#_______________________________________________________________________________
SET                .         D7016_D                       : 
OTHER              .         Kedr.exe версия 2.1.2.32      : 
OTHER_10           .         TM.GRD = 0.00404*TM$.UE + 0.07: 
OTHER_11           .         MN.ATM = (6.33279e-006*TM.GRD + 0.02401)*(MN$.UE + 2.72*TM.GRD + -2018): 
OTHER_12           .         GK.MKR/H = GK$.UE / 43.5489 + 0: 
OTHER_13           .         RES.SM = 0.00476*CRES.UE - 1.51709: 
OTHER_14           .         PL.GSM3 = 0 + 0 * (PL.UE / 1) +  0 * (PL.UE / 1)^2: 
OTHER_15           .         Постоянная времени ГГП = 6 сек: 
OTHER_16           .         Постоянная времени ГК = 6 сек : 
OTHER_2            .         KedrData.dll версия 3.2.2.14  : 
OTHER_3            .         LasInf.dll версия 3.2.0.13    : 
OTHER_4            .         Драйвер версия 1.2.0.5        : 
OTHER_5            .         Прибор_ КСА-M1                : 
OTHER_6            .         Номер прибора_ 155+р204       : 
OTHER_7            .         Режим_ КСА-М1 + ГГП + Резистивиметр: 
OTHER_8            .         Форма_ 223\2                  : 
OTHER_9            .         Тарировки_                    : 
PROJECT_UPGRADE_TIME .         2021-03-18T21_24_50           : 
TLFamily_CRES      .                                       : 
TLFamily_DEPT      .         Measured Depth                : 
TLFamily_GK        .         Gamma Ray                     : 
TLFamily_GK$       .                                       : 
TLFamily_LM        .         Casing Collar locator         : 
TLFamily_METKA     .                                       : 
TLFamily_MN        .                                       : 
TLFamily_MN$       .                                       : 
TLFamily_PL        .                                       : 
TLFamily_PL_2      .                                       : 
TLFamily_RCOR      .                                       : 
TLFamily_RES       .         Mud Resistivity               : 
TLFamily_SPID      .         Spontaneous Potential         : 
TLFamily_STD       .                                       : 
TLFamily_TIME      .         Time                          : 
TLFamily_TM        .         Temperature                   : 
TLFamily_TM$       .         Temperature                   : 
TLFamily_VGD       .         Gas Volume                    : 
group              .         prim                          : 
~Curve Information
#_______________________________________________________________________________
#
#LOGNAME           .UNIT     LOG_ID                        : DESCRIPTION
#_______________________________________________________________________________
DEPT               .M                                      : 1 Глубина, м -    0.0 см 
CRES               .UE                                     : 9 Проводимость, усл.ед. -  270.0 см 
GK                 .MKR/H                                  : 16 Гамма-активность, мкр./ч -  106.0 см 
GK$                .UE                                     : 13 Гамма-активность, усл.ед. -  106.0 см 
LM                 .                                       : 11 Локатор муфт,  -   16.0 см 
METKA              .                                       : 3 Метки,  -    0.0 см 
MN                 .ATM                                    : 15 Давление, атм. -  160.0 см 
MN$                .UE                                     : 7 Давление, усл.ед. -  160.0 см 
PL                 .UE                                     : 10 Плотность, усл.ед. -  270.0 см 
PL_2               .GSM3                                   : 18 Плотность, г./см3 -  270.0 см 
RCOR               .CM/KM                                  : 5 Коррекция по ролику, см/км -    0.0 см 
RES                .SM                                     : 17 Проводимость,  -  270.0 см 
SPID               .M/H                                    : 2 Скорость, м/час -    0.0 см 
STD                .                                       : 12 Приток,  -  170.0 см 
TIME               .S                                      : 4 Время, сек -    0.0 см 
TM                 .GRD                                    : 14 Температура, °C -  180.0 см 
TM$                .UE                                     : 6 Температура, усл.ед. -  180.0 см 
VGD                .                                       : 8 Влагомер,  -  170.0 см 
~Ascii
# ...
559.6      1037       5.02       217        194        0          52.661     4122       14         0          0          3.4168     1668       5307       2819.22    27.128     6697       6547      
559.8      1037       5.01       217        229        0          52.688     4123       14         0          0          3.419      1711       5308       2819.66    27.137     6700       6549      
560        1037       4.97       209        211        0          52.693     4123       14         0          0          3.419      1660       5309       2820.25    27.142     6701       6542      
560.2      1037       4.86       193        288        1          52.713     4124       14         0          0          3.419      1660       5310       2820.72    27.147     6702       6537      
560.4      1037       4.77       193        287        0          52.726     4125       14         0          0          3.419      1660       5311       2821.15    27.151     6703       6539      
560.6      1037       4.69       193        261        0          52.755     4126       14         0          0          3.419      1637       5311       2821.58    27.16      6706       6550      
560.8      1037       4.64       193        226        0          52.763     4126       14         0          0          3.419      1632       5312       2822.02    27.169     6708       6547      
561        1038       4.59       193        210        0          52.786     4127       14         0          0          3.4219     1707       5312       2822.45    27.174     6709       6545      
561.2      1038       4.53       188        306        0          52.791     4127       14         0          0          3.4238     1730       5314       2822.89    27.178     6710       6546      
561.4      1038       4.48       187        273        0          52.82      4128       14         0          0          3.4238     1660       5316       2823.32    27.183     6711       6547      
561.6      1038       4.44       187        292        0          52.859     4130       14         0          0          3.4233     1650       5317       2823.76    27.192     6713       6547      
561.8      1037       4.41       187        350        0          52.865     4130       14         0          0          3.419      1618       5319       2824.19    27.198     6715       6548      
562        1037       4.38       187        379        0          52.887     4131       14         0          0          3.419      1660       5319       2824.63    27.204     6716       6549      
562.2      1038       4.37       189        343        0          52.897     4131       14         0          0          3.4216     1660       5320       2825.05    27.212     6718       6553      
562.4      1038       4.38       191        400        0          52.925     4133       14         0          0          3.4238     1709       5321       2825.49    27.216     6719       6549      
562.6      1037       4.38       191        372        0          52.937     4133       14         0          0          3.4198     1672       5322       2825.92    27.221     6721       6552      
562.8      1039       4.38       191        351        0          52.957     4134       14         0          0          3.4263     1660       5323       2826.37    27.226     6722       6541      
563        1039       4.38       191        247        0          52.962     4134       14         0          0          3.4286     1660       5324       2826.79    27.23      6723       6551      
563.2      1039       4.38       191        264        0          52.986     4135       14         0          0          3.4286     1660       5326       2827.22    27.239     6725       6548      
563.4      1038       4.38       191        249        0          52.994     4135       14         0          0          3.4241     1660       5327       2827.65    27.243     6726       6541      
563.6      1039       4.38       190        242        0          53.022     4136       14         0          0          3.428      1625       5328       2828.09    27.247     6727       6551      
563.8      1038       4.37       190        257        0          53.05      4138       14         0          0          3.4238     1600       5328       2828.54    27.257     6729       6553      
564        1038       4.37       190        244        0          53.061     4138       14         0          0          3.4258     1656       5330       2828.98    27.261     6731       6553      
564.2      1039       4.37       190        233        0          53.082     4139       14         0          0          3.4286     1660       5331       2829.41    27.266     6732       6552      
564.4      1039       4.36       189        242        0          53.11      4140       14         0          0          3.4286     1660       5331       2829.84    27.274     6734       6555      
564.6      1039       4.32       180        245        0          53.115     4140       14         0          0          3.4286     1660       5332       2830.28    27.276     6734       6554      
564.8      1039       4.28       180        215        0          53.142     4141       14         0          0          3.4286     1660       5334       2830.71    27.284     6736       6552      
565        1039       4.25       180        199        0          53.16      4142       14         0          0          3.4286     1660       5336       2831.16    27.289     6737       6550      
565.2      1039       4.22       180        229        0          53.174     4143       14         0          0          3.4286     1607       5337       2831.61    27.293     6738       6550      
565.4      1039       4.2        180        222        0          53.184     4143       14         0          0          3.4286     1600       5337       2832.03    27.298     6740       6549      
565.6      1040       4.18       179        232        0          53.207     4144       14         0          0          3.4315     1660       5337       2832.46    27.3       6740       6540      
565.8      1039       4.12       168        203        0          53.233     4145       14         0          0          3.4299     1660       5339       2832.9     27.303     6741       6541      
566        1039       4.06       168        238        0          53.239     4145       15         0          0          3.4286     1660       5340       2833.33    27.305     6741       6547      
566.2      1039       4.02       168        234        0          53.258     4146       14         0          0          3.4286     1660       5341       2833.77    27.313     6743       6548      
566.4      1039       3.98       168        258        0          53.271     4147       14         0          0          3.4286     1660       5341       2834.21    27.316     6744       6548      
566.6      1039       3.96       168        253        0          53.3       4148       14         0          0          3.4286     1660       5343       2834.63    27.32      6745       6552      
566.8      1040       3.93       168        7354       0          53.307     4148       14         0          0          3.4336     1730       5344       2835.06    27.327     6747       6548      
567        1040       3.94       173        2938       0          53.332     4149       14         0          0          3.4317     1707       5345       2835.5     27.328     6747       6547      
567.2      1039       3.95       173        1875       0          53.336     4149       14         0          0          3.4286     1620       5346       2835.94    27.332     6748       6544      
567.4      1040       3.95       173        1200       0          53.365     4150       14         0          0          3.433      1660       5347       2836.38    27.333     6748       6541      
567.6      1039       3.96       173        807        0          53.381     4151       14         0          0          3.4291     1660       5348       2836.81    27.339     6750       6544      
