~Version
 VERS              .         2.0                           : CWLS LOG ASCII STANDARD - VERSION 2.0
 WRAP              .         NO                            : ONE LINE PER DEPTH STEP
 DLM               .         SPACE                         : DELIMITING CHARACTER(SPACE TAB OR COMMA)
~Well Information
#_______________________________________________________________________________
#
#PARAMETER_NAME    .UNIT     VALUE                         : DESCRIPTION
#_______________________________________________________________________________
STRT               .M        2669.8                        : First reference value
STOP               .M        2775.8                        : Last reference value
STEP               .M        0.2                           : Step increment
NULL               .         -9999                         : Missing value
COMP               .                                       : Company
WELL               .         616                           : Well name
FLD                .                                       : Field
LOC                .                                       : Location
CNTY               .                                       : County
STAT               .                                       : State
CTRY               .                                       : Country
SRVC               .                                       : Service Company
DATE               .                                       : Date
API                .                                       : API number
PROJECT_UPGRADE_TIME .         2021-03-18T21_24_50           : 
group              .         Good                          : 
~Parameter Information Block
#_______________________________________________________________________________
#
#PARAMETER_NAME    .UNIT     VALUE                         : DESCRIPTION
#_______________________________________________________________________________
SET                .         D1812_D                       : 
OTHER              .         Программное обеспечение станции MONITOR-386EX 25/12/99 15_08_10   BGF V52 22/08/01 16_56_30   3.1_SNGF___BGF_N_092049: 
OTHER_10           .         Тарировки_                    : 
OTHER_11           .         TM.GRD = 0.00403*TM$.UE + -1.07: 
OTHER_12           .         MN.ATM = (9.34907e-006*TM.GRD + 0.02171)*(MN$.UE + -7.93*TM.GRD + -1787): 
OTHER_13           .         GK.MKR/H = LM. / 42.4676      : 
OTHER_14           .         GK.FLT = 0.1*GK.MKR/H[-1] + (1-0.1)*GK.MKR/H[0]: 
OTHER_2            .         Kedr.exe версия 3.4.2.51      : 
OTHER_3            .         KedrData.dll версия 3.4.2.24  : 
OTHER_4            .         Драйвер версия 2.1.1.3        : 
OTHER_5            .         Мнемоники версия 3.3 S        : 
OTHER_6            .         Прибор_ КСА-Т4                : 
OTHER_7            .         Номер прибора_ 03             : 
OTHER_8            .         Режим_ КСА-Т4                 : 
OTHER_9            .         Форма_ КВА.                   : 
PROJECT_UPGRADE_TIME .         2021-03-18T21_24_49           : 
TLFamily_DEPT      .         Measured Depth                : 
TLFamily_GK        .         Gamma Ray                     : 
TLFamily_GK$       .                                       : 
TLFamily_GK_2      .         Gamma Ray                     : 
TLFamily_LM        .         Casing Collar locator         : 
TLFamily_METKA     .                                       : 
TLFamily_MN        .                                       : 
TLFamily_MN$       .                                       : 
TLFamily_RCOR      .                                       : 
TLFamily_SPID      .         Spontaneous Potential         : 
TLFamily_TENS      .         Cable Tension                 : 
TLFamily_TIME      .         Time                          : 
TLFamily_TM        .         Temperature                   : 
TLFamily_TM$       .         Temperature                   : 
group              .         prim                          : 
~Curve Information
#_______________________________________________________________________________
#
#LOGNAME           .UNIT     LOG_ID                        : DESCRIPTION
#_______________________________________________________________________________
DEPT               .M                                      : 1 Глубина, м -    0.0 см 
GK                 .MKR/H                                  : 13 Гамма-активность, мкр./ч -  110.0 см 
GK$                .UE                                     : 10 Гамма-активность, усл.ед. -  110.0 см 
GK_2               .FLT                                    : 14 Гамма-активность фильтрованная, мкр./ч -  110.0 см 
LM                 .                                       : 9 Локатор муфт,  -   20.0 см 
METKA              .                                       : 3 Метки,  -    0.0 см 
MN                 .ATM                                    : 12 Давление, атм. -  160.0 см 
MN$                .UE                                     : 8 Давление, усл.ед. -  160.0 см 
RCOR               .CM/KM                                  : 5 Коррекция по ролику, см/км -    0.0 см 
SPID               .M/H                                    : 2 Скорость, м/час -    0.0 см 
TENS               .T                                      : 6 Натяжение кабеля, т -    0.0 см 
TIME               .S                                      : 4 Время, сек -    0.0 см 
TM                 .GRD                                    : 11 Температура, °C -  170.0 см 
TM$                .UE                                     : 7 Температура, усл.ед. -  170.0 см 
~Ascii
# ...
2680.2     7.06       300        7.06       197        0          246.236    13291      -606       519        0.05       7134.73    51.395     13019     
2680.4     7.32       311        7.23       223        0          246.259    13292      -606       532        0.05       7136.05    51.384     13016     
2680.6     7.7        327        7.69       215        0          246.281    13293      -606       528        0.05       7137.36    51.379     13015     
2680.8     7.75       329        7.73       221        0          246.297    13294      -606       538        0.05       7138.72    51.364     13011     
2681       7.79       331        7.79       193        0          246.305    13294      -606       532        0.05       7140       51.355     13009     
2681.2     7.56       321        7.63       237        0          246.328    13295      -606       537        0.05       7141.38    51.344     13006     
2681.4     7.56       321        7.56       191        0          246.351    13296      -606       537        0.05       7142.69    51.33      13002     
2681.6     8.31       353        8.09       1581       0          246.363    13297      -606       544        0.05       7144       51.32      13000     
2681.8     8.31       353        8.31       2179       0          246.375    13297      -606       535        0.05       7145.41    51.316     12999     
2682       7.77       330        7.93       597        0          246.398    13298      -606       539        0.05       7146.75    51.309     12997     
2682.2     7.77       330        7.78       235        0          246.42     13299      -606       540        0.05       7148.08    51.294     12994     
2682.4     8.59       365        8.51       219        0          246.435    13300      -606       540        0.05       7149.33    51.285     12991     
2682.6     8.59       365        8.59       217        0          246.444    13300      -606       536        0.05       7150.7     51.274     12989     
2682.8     10.29      437        10.12      159        0          246.467    13301      -606       534        0.05       7152.02    51.268     12987     
2683       10.29      437        10.29      208        0          246.49     13302      -606       539        0.05       7153.33    51.258     12985     
2683.2     9.47       402        9.53       176        0          246.513    13303      -606       542        0.05       7154.7     51.243     12981     
2683.4     9.43       400        9.44       179        0          246.514    13303      -606       538        0.05       7156.05    51.231     12978     
2683.6     9.23       392        9.24       198        0          246.537    13304      -606       529        0.05       7157.39    51.227     12977     
2683.8     9.14       388        9.17       178        0          246.56     13305      -606       529        0.05       7158.77    51.213     12973     
2684       8.76       372        8.77       220        0          246.56     13305      -606       529        0.05       7160.05    51.202     12971     
2684.2     8.63       367        8.68       206        0          246.584    13306      -606       542        0.05       7161.41    51.187     12967     
2684.4     8.38       356        8.39       198        0          246.606    13307      -606       536        0.05       7162.76    51.182     12966     
2684.6     9.32       396        9.12       210        0          246.629    13308      -606       543        0.05       7164.03    51.172     12963     
2684.8     9.32       396        9.32       242        0          246.652    13309      -606       538        0.05       7165.41    51.163     12961     
2685       9.18       390        9.21       193        0          246.653    13309      -606       536        0.05       7166.73    51.151     12958     
2685.2     9.18       390        9.18       233        0          246.676    13310      -606       522        0.05       7168.09    51.139     12955     
2685.4     8.78       373        8.87       229        0          246.699    13311      -606       536        0.05       7169.41    51.134     12954     
2685.6     8.78       373        8.79       173        0          246.708    13311      -606       534        0.05       7170.72    51.12      12950     
2685.8     8.76       372        8.76       170        0          246.745    13313      -606       534        0.05       7172.09    51.106     12947     
2686       8.76       372        8.76       216        0          246.746    13313      -606       526        0.05       7173.41    51.098     12945     
2686.2     9.58       407        9.55       154        0          246.769    13314      -606       537        0.05       7174.73    51.085     12942     
2686.4     9.58       407        9.58       134        0          246.784    13315      -606       531        0.05       7176.03    51.074     12939     
2686.6     10.17      432        10.15      214        0          246.814    13316      -606       543        0.05       7177.36    51.069     12938     
2686.8     9.94       422        10.02      190        0          246.815    13316      -606       532        0.05       7178.8     51.053     12934     
2687       9.82       417        9.83       163        0          246.838    13317      -606       532        0.05       7180.11    51.04      12930     
2687.2     9.58       407        9.67       181        0          246.861    13318      -606       534        0.05       7181.42    51.033     12929     
2687.4     9.54       405        9.54       204        0          246.884    13319      -606       543        0.05       7182.8     51.019     12925     
2687.6     9.5        403        9.51       183        0          246.885    13319      -606       536        0.05       7184.11    51.01      12923     
2687.8     9.49       403        9.49       177        0          246.908    13320      -606       543        0.05       7185.42    51.002     12921     
2688       10.05      427        9.98       199        0          246.931    13321      -606       537        0.05       7186.77    50.993     12919     
2688.2     10.05      427        10.05      197        0          246.954    13322      -606       543        0.05       7188.05    50.982     12916     
2688.4     10.86      461        10.76      151        0          246.984    13323      -606       532        0.05       7189.49    50.971     12913     
2688.6     10.86      461        10.85      185        0          246.999    13324      -606       530        0.05       7190.83    50.965     12912     
2688.8     10.08      428        10.16      215        0          247.008    13324      -606       530        0.07       7192.13    50.951     12908     
2689       10.08      428        10.08      181        0          247.023    13325      -606       536        0.05       7193.5     50.941     12906     
2689.2     9.8        416        9.81       177        0          247.024    13325      -606       534        0.05       7194.81    50.934     12904     
2689.4     9.8        416        9.8        171        0          247.069    13327      -606       533        0.05       7196.13    50.921     12901     
2689.6     10.76      457        10.73      125        0          247.092    13328      -606       539        0.05       7197.5     50.91      12898     
2689.8     10.66      453        10.7       183        0          247.115    13329      -606       542        0.05       7198.79    50.895     12895     
2690       10.17      432        10.19      205        2          247.137    13330      -606       539        0.05       7200.19    50.889     12893     
2690.2     9.91       421        10         194        0          247.16     13331      -611       528        0.05       7201.88    50.881     12891     
2690.4     9.91       421        9.92       183        0          247.161    13331      -611       529        0.05       7203.14    50.872     12889     
