~Version
 VERS              .         2.0                           : CWLS LOG ASCII STANDARD - VERSION 2.0
 WRAP              .         NO                            : ONE LINE PER DEPTH STEP
 DLM               .         SPACE                         : DELIMITING CHARACTER(SPACE TAB OR COMMA)
~Well Information
#_______________________________________________________________________________
#
#PARAMETER_NAME    .UNIT     VALUE                         : DESCRIPTION
#_______________________________________________________________________________
STRT               .M        2648.8                        : First reference value
STOP               .M        2755.39984                    : Last reference value
STEP               .M        0.1999997                     : Step increment
NULL               .         -9999                         : Missing value
COMP               .                                       : Company
WELL               .         616                           : Well name
FLD                .                                       : Field
LOC                .                                       : Location
CNTY               .                                       : County
STAT               .                                       : State
CTRY               .                                       : Country
SRVC               .                                       : Service Company
DATE               .                                       : Date
API                .                                       : API number
PROJECT_UPGRADE_TIME .         2021-03-18T21_24_50           : 
group              .         Good                          : 
~Parameter Information Block
#_______________________________________________________________________________
#
#PARAMETER_NAME    .UNIT     VALUE                         : DESCRIPTION
#_______________________________________________________________________________
SET                .         D7023_D                       : 
OTHER              .         Kedr.exe версия 2.1.2.32      : 
OTHER_10           .         TM.GRD = 0.00404*TM$.UE + 0.07: 
OTHER_11           .         MN.ATM = (6.33279e-006*TM.GRD + 0.02401)*(MN$.UE + 2.72*TM.GRD + -2018): 
OTHER_12           .         GK.MKR/H = GK$.UE / 43.5489 + 0: 
OTHER_13           .         RES.SM = 0.00476*CRES.UE - 1.51709: 
OTHER_14           .         PL.GSM3 = 0 + 0 * (PL.UE / 1) +  0 * (PL.UE / 1)^2: 
OTHER_15           .         Постоянная времени ГГП = 6 сек: 
OTHER_16           .         Постоянная времени ГК = 6 сек : 
OTHER_2            .         KedrData.dll версия 3.2.2.14  : 
OTHER_3            .         LasInf.dll версия 3.2.0.13    : 
OTHER_4            .         Драйвер версия 1.2.0.5        : 
OTHER_5            .         Прибор_ КСА-M1                : 
OTHER_6            .         Номер прибора_ 155+р204       : 
OTHER_7            .         Режим_ КСА-М1 + ГГП + Резистивиметр: 
OTHER_8            .         Форма_ 223\2                  : 
OTHER_9            .         Тарировки_                    : 
PROJECT_UPGRADE_TIME .         2021-03-18T21_24_50           : 
TLFamily_CRES      .                                       : 
TLFamily_DEPT      .         Measured Depth                : 
TLFamily_GK        .         Gamma Ray                     : 
TLFamily_GK$       .                                       : 
TLFamily_LM        .         Casing Collar locator         : 
TLFamily_METKA     .                                       : 
TLFamily_MN        .                                       : 
TLFamily_MN$       .                                       : 
TLFamily_PL        .                                       : 
TLFamily_PL_2      .                                       : 
TLFamily_RCOR      .                                       : 
TLFamily_RES       .         Mud Resistivity               : 
TLFamily_SPID      .         Spontaneous Potential         : 
TLFamily_STD       .                                       : 
TLFamily_TIME      .         Time                          : 
TLFamily_TM        .         Temperature                   : 
TLFamily_TM$       .         Temperature                   : 
TLFamily_VGD       .         Gas Volume                    : 
group              .         prim                          : 
~Curve Information
#_______________________________________________________________________________
#
#LOGNAME           .UNIT     LOG_ID                        : DESCRIPTION
#_______________________________________________________________________________
DEPT               .M                                      : 1 Глубина, м -    0.0 см 
CRES               .UE                                     : 9 Проводимость, усл.ед. -  222.0 см 
GK                 .MKR/H                                  : 16 Гамма-активность, мкр./ч -  106.0 см 
GK$                .UE                                     : 13 Гамма-активность, усл.ед. -  106.0 см 
LM                 .                                       : 11 Локатор муфт,  -   16.0 см 
METKA              .                                       : 3 Метки,  -    0.0 см 
MN                 .ATM                                    : 15 Давление, атм. -  160.0 см 
MN$                .UE                                     : 7 Давление, усл.ед. -  160.0 см 
PL                 .UE                                     : 10 Плотность, усл.ед. -  270.0 см 
PL_2               .GSM3                                   : 18 Плотность, г./см3 -  270.0 см 
RCOR               .CM/KM                                  : 5 Коррекция по ролику, см/км -    0.0 см 
RES                .SM                                     : 17 Проводимость,  -  222.0 см 
SPID               .M/H                                    : 2 Скорость, м/час -    0.0 см 
STD                .                                       : 12 Приток,  -  170.0 см 
TIME               .S                                      : 4 Время, сек -    0.0 см 
TM                 .GRD                                    : 14 Температура, °C -  180.0 см 
TM$                .UE                                     : 6 Температура, усл.ед. -  180.0 см 
VGD                .                                       : 8 Влагомер,  -  170.0 см 
~Ascii
# ...
2681.599951 1216       10.73      477        1058       0          360.895    16691      14         0          0          4.2695     580        10599      14914.9    54.032     13357      6684      
2681.799951 1217       10.56      450        253        0          361.227    16705      14         0          0          4.2765     580        10596      14916.21   54.016     13353      6688      
2681.99995 1215       10.38      434        77         0          360.663    16682      15         0          0          4.2655     550        10593      14917.51   54.008     13351      6678      
2682.19995 1218       9.82       402        35         0          361.397    16712      14         0          0          4.2806     522        10589      14918.82   54.004     13350      6691      
2682.39995 1217       9.53       402        33         0          361.696    16724      13         0          0          4.2758     580        10588      14920.08   54         13349      6696      
2682.599949 1220       9.77       438        33         0          361.023    16696      14         0          0          4.2901     580        10589      14921.4    54         13349      6699      
2682.799949 1221       9.97       452        32         0          360.497    16675      14         0          0          4.2949     580        10588      14922.67   53.992     13347      6695      
2682.999949 1220       10.5       480        33         0          360.357    16669      13         0          0          4.2885     580        10586      14924      53.984     13345      6697      
2683.199948 1222       10.75      480        38         0          359.205    16622      14         0          0          4.2996     510        10584      14925.27   53.973     13342      6700      
2683.399948 1219       10.88      480        35         0          358.752    16603      14         0          0          4.2853     580        10582      14926.59   53.964     13340      6698      
2683.599948 1220       10.8       452        33         0          359.104    16618      14         0          0          4.2881     580        10578      14927.9    53.947     13336      6699      
2683.799948 1218       10.6       452        28         0          358.261    16583      14         0          0          4.279      568        10575      14929.19   53.943     13335      6697      
2683.999947 1218       10.51      456        35         0          358.186    16580      14         0          0          4.2806     510        10577      14930.51   53.939     13334      6690      
2684.199947 1217       10.5       457        30         0          359.23     16623      14         0          0          4.2751     510        10577      14931.75   53.935     13333      6689      
2684.399947 1218       10.65      485        42         0          359.845    16648      14         0          0          4.2806     545        10575      14933.04   53.927     13331      6690      
2684.599946 1218       10.89      485        36         0          361.308    16709      13         0          0          4.2822     569        10575      14934.38   53.923     13330      6696      
2684.799946 1219       10.91      471        40         0          359.739    16644      14         0          0          4.2853     510        10575      14935.65   53.923     13330      6698      
2684.999946 1216       10.86      471        26         0          360.331    16669      14         0          0          4.2727     580        10572      14936.94   53.911     13327      6691      
2685.199945 1218       10.94      482        26         0          360.973    16695      14         0          0          4.2782     550        10570      14938.26   53.908     13326      6684      
2685.399945 1219       11         482        28         0          362.136    16743      14         0          0          4.2853     522        10570      14939.57   53.901     13324      6692      
2685.599945 1218       11.24      511        51         0          362.143    16743      14         0          0          4.2806     580        10568      14940.84   53.895     13323      6699      
2685.799945 1219       11.48      511        44         0          361.636    16722      14         0          0          4.2853     580        10565      14942.08   53.882     13320      6693      
2685.999944 1218       12.02      558        34         0          361.843    16731      14         0          0          4.2782     540        10564      14943.39   53.874     13318      6678      
2686.199944 1218       12.41      558        23         0          361.289    16708      14         0          0          4.2814     533        10564      14944.69   53.865     13315      6682      
2686.399944 1217       12.98      594        25         0          361.725    16726      14         0          0          4.2758     580        10566      14946.02   53.863     13315      6680      
2686.599943 1217       13.3       594        48         0          360.973    16695      13         0          0          4.2758     580        10569      14947.27   53.863     13315      6681      
2686.799943 1217       13.77      631        41         0          360.579    16679      14         0          0          4.2782     580        10567      14948.58   53.85      13312      6683      
2686.999943 1217       14.13      631        100        0          359.97     16654      13         0          0          4.2774     580        10566      14949.87   53.846     13311      6684      
2687.199942 1217       13.85      584        105        0          359.672    16642      14         0          0          4.2758     510        10565      14951.14   53.839     13309      6684      
2687.399942 1218       13.64      584        133        0          359.429    16632      15         0          0          4.2819     510        10561      14952.46   53.826     13306      6684      
2687.599942 1218       11.74      423        94         0          360.379    16671      14         0          0          4.2806     580        10560      14953.75   53.826     13306      6682      
2687.799942 1217       10.55      382        75         0          359.383    16630      14         0          0          4.2743     580        10559      14955.06   53.82      13305      6681      
2687.999941 1216       9.25       342        76         0          358.361    16588      14         0          0          4.2695     580        10555      14956.43   53.807     13301      6688      
2688.199941 1214       8.57       342        80         0          359.699    16643      14         0          0          4.2609     510        10552      14957.71   53.802     13300      6686      
2688.399941 1217       8.06       328        85         0          360.291    16668      13         0          0          4.2742     533        10548      14959.05   53.794     13298      6687      
2688.59994 1215       7.87       345        74         0          361.546    16719      13         0          0          4.2682     580        10544      14960.32   53.792     13297      6675      
2688.79994 1218       8.14       367        63         0          361.634    16723      13         0          0          4.2822     580        10543      14961.63   53.784     13296      6675      
2688.99994 1218       8.26       361        83         0          362.513    16759      13         0          0          4.2826     533        10540      14962.9    53.778     13294      6682      
2689.199939 1217       8.28       361        51         0          362.104    16742      14         0          0          4.2758     580        10539      14964.23   53.773     13293      6685      
2689.399939 1215       8.16       343        53         0          362.243    16748      14         0          0          4.2663     520        10539      14965.51   53.766     13291      6686      
2689.599939 1212       8.02       343        36         0          362.583    16762      13         0          0          4.2536     580        10541      14966.82   53.759     13289      6678      
