~Version
 VERS              .         2.0                           : CWLS LOG ASCII STANDARD - VERSION 2.0
 WRAP              .         NO                            : ONE LINE PER DEPTH STEP
 DLM               .         SPACE                         : DELIMITING CHARACTER(SPACE TAB OR COMMA)
~Well Information
#_______________________________________________________________________________
#
#PARAMETER_NAME    .UNIT     VALUE                         : DESCRIPTION
#_______________________________________________________________________________
STRT               .M        3.8                           : First reference value
STOP               .M        216                           : Last reference value
STEP               .M        0.2                           : Step increment
NULL               .         -9999                         : Missing value
COMP               .                                       : Company
WELL               .         616                           : Well name
FLD                .                                       : Field
LOC                .                                       : Location
CNTY               .                                       : County
STAT               .                                       : State
CTRY               .                                       : Country
SRVC               .                                       : Service Company
DATE               .                                       : Date
API                .                                       : API number
PROJECT_UPGRADE_TIME .         2021-03-18T21_24_50           : 
group              .         Good                          : 
~Parameter Information Block
#_______________________________________________________________________________
#
#PARAMETER_NAME    .UNIT     VALUE                         : DESCRIPTION
#_______________________________________________________________________________
SET                .         D1350_D                       : 
OTHER              .         Программное обеспечение станции MONITOR-386EX 25/12/99 15_08_10   BGF V52 22/08/01 16_56_30   3.1_SNGF__BGF_								111238: 
OTHER_10           .         Тарировки_                    : 
OTHER_11           .         <_techsia_sc_> Постоянная времени фильтра  0.5 сек, kf=0.181269: 
OTHER_12           .         TM.GRD = 0.00428968*TM$.UE + -0.3284: 
OTHER_13           .         GK.MKR/H = GK$.UE / 40.16     : 
OTHER_14           .         NKT. = NKT$.UE / 1            : 
OTHER_2            .         Kedr.exe версия 3.3.2.43      : 
OTHER_3            .         KedrData.dll версия 3.3.2.22  : 
OTHER_4            .         Драйвер версия 2.1.1.3        : 
OTHER_5            .         Мнемоники версия 3.3 S        : 
OTHER_6            .         Прибор_ РК4-38                : 
OTHER_7            .         Номер прибора_ 35с            : 
OTHER_8            .         Режим_ РК4-38                 : 
OTHER_9            .         Форма_ 3                      : 
PROJECT_UPGRADE_TIME .         2021-03-18T21_24_49           : 
TLFamily_DEPT      .         Measured Depth                : 
TLFamily_GK        .         Gamma Ray                     : 
TLFamily_GK$       .                                       : 
TLFamily_LM        .         Casing Collar locator         : 
TLFamily_METKA     .                                       : 
TLFamily_NKT       .         Neutron Far                   : 
TLFamily_NKT$      .         Neutron Far                   : 
TLFamily_RCOR      .                                       : 
TLFamily_SPID      .         Spontaneous Potential         : 
TLFamily_TENS      .         Cable Tension                 : 
TLFamily_TIME      .         Time                          : 
TLFamily_TM        .         Temperature                   : 
TLFamily_TM$       .         Temperature                   : 
group              .         prim                          : 
~Curve Information
#_______________________________________________________________________________
#
#LOGNAME           .UNIT     LOG_ID                        : DESCRIPTION
#_______________________________________________________________________________
DEPT               .M                                      : 1 Глубина, м -    0.0 см 
GK                 .MKR/H                                  : 12 Гамма-активность, мкр./ч -   23.0 см 
GK$                .UE                                     : 10 Гамма-активность, усл.ед. -   23.0 см 
LM                 .                                       : 8 Локатор муфт,  -  180.0 см 
METKA              .                                       : 3 Метки,  -    0.0 см 
NKT                .                                       : 13 НКТ, прив. -  160.0 см 
NKT$               .UE                                     : 9 НКТ, усл.ед. -  160.0 см 
RCOR               .CM/KM                                  : 5 Коррекция по ролику, см/км -    0.0 см 
SPID               .M/H                                    : 2 Скорость, м/час -    0.0 см 
TENS               .T                                      : 6 Натяжение кабеля, т -    0.0 см 
TIME               .S                                      : 4 Время, сек -    0.0 см 
TM                 .GRD                                    : 11 Температура, °C -  193.0 см 
TM$                .UE                                     : 7 Температура, усл.ед. -  193.0 см 
~Ascii
# ...
194.2      3.91       176        113        0          0          0          7013       -300       0          2007.2     0.326      152       
194.4      3.24       155        71         0          0          0          7013       -314       0          2004.95    0.311      149       
194.6      2.93       118        93         0          0          0          7013       -318       0          2002.61    0.306      148       
194.8      2.91       117        82         0          0          0          7013       -309       0          2000.24    0.304      147       
195        2.86       118        65         0          0          0          7013       -307       0          1998.07    0.306      148       
195.2      2.74       111        64         0          0          0          7013       -315       0          1995.63    0.302      147       
195.4      2.71       108        83         0          0          0          7013       -321       0          1993.28    0.271      140       
195.6      2.79       109        92         0          0          0          7013       -304       0          1991.03    0.279      142       
195.8      3.01       120        80         0          0          0          7013       -303       0          1988.64    0.264      138       
196        3.08       127        99         0          0          0          7013       -304       0          1986.35    0.264      138       
196.2      2.81       113        82         0          0          0          7013       -311       0          1984       0.246      134       
196.4      2.79       111        76         0          0          0          7013       -314       0          1981.76    0.244      133       
196.6      2.95       110        83         0          0          0          7013       -307       0          1979.37    0.234      131       
196.8      3.08       119        67         0          0          0          7013       -302       0          1977.12    0.216      127       
197        3.1        125        71         0          0          0          7013       -303       0          1974.87    0.198      123       
197.2      3.14       123        77         0          0          0          7013       -315       0          1972.38    0.182      119       
197.4      3.22       128        70         0          0          0          7013       -304       0          1970.08    0.178      118       
197.6      3.13       133        82         0          0          0          7013       -310       0          1967.79    0.169      116       
197.8      2.92       116        67         0          0          0          7013       -310       0          1965.45    0.159      114       
198        2.96       118        73         0          0          0          7013       -298       0          1963.13    0.156      113       
198.2      3          121        97         0          0          0          7013       -304       0          1960.81    0.169      116       
198.4      2.99       118        74         0          0          0          7013       -304       0          1958.42    0.143      110       
198.6      3.14       124        60         0          0          0          7013       -307       0          1956.02    0.141      109       
198.8      3.24       133        73         0          0          0          7013       -303       0          1953.92    0.126      106       
199        3.01       124        142        0          0          0          7013       -312       0          1951.51    0.136      108       
199.2      2.7        108        65         0          0          0          7013       -315       0          1949.11    0.132      107       
199.4      2.76       108        79         0          0          0          7013       -312       0          1946.82    0.135      108       
199.6      3.03       108        69         0          0          0          7013       -320       0          1944.47    0.126      106       
199.8      3.29       123        76         0          0          0          7013       -311       0          1942.22    0.116      103       
200        3.39       137        74         2          0          0          7013       -306       0          1939.91    0.118      104       
200.2      3.06       141        200        0          0          0          7013       -311       0          1937.72    0.109      102       
200.4      2.62       110        633        0          0          0          7013       -307       0          1936.74    0.092      98        
200.6      2.55       110        5703       0          0          0          7013       -310       0          1934.37    0.092      98        
200.8      2.86       96         4448       0          0          0          7013       -313       0          1932.05    0.079      95        
201        3.01       126        141        0          0          0          7013       -304       0          1929.8     0.066      92        
201.2      2.85       119        150        0          0          0          7013       -298       0          1927.49    0.062      91        
201.4      2.84       110        122        0          0          0          7013       -297       0          1925.17    0.053      89        
201.6      3.01       117        142        0          0          0          7013       -303       0          1922.77    0.053      89        
201.8      3.18       124        123        0          0          0          7013       -310       0          1920.38    0.039      86        
202        3.25       135        127        0          0          0          7013       -316       0          1918.13    0.032      84        
202.2      2.99       126        132        0          0          0          7013       -310       0          1915.79    0.023      82        
202.4      2.68       111        144        0          0          0          7013       -294       0          1913.49    0.032      84        
202.6      2.5        100        251        0          0          0          7013       -307       0          1911.18    0.019      81        
202.8      2.56       98         299        0          0          0          7013       -312       0          1908.8     0.013      79        
203        2.95       118        250        0          0          0          7013       -315       0          1906.41    0.01       79        
203.2      2.97       121        266        0          0          0          7013       -306       0          1904.12    0.023      82        
203.4      2.83       121        287        0          0          0          7013       -309       0          1901.82    0.013      80        
203.6      2.88       111        359        0          0          0          7013       -304       0          1899.43    0.015      80        
203.8      2.78       119        402        0          0          0          7013       -301       0          1897.18    -0.009     74        
204        2.61       111        390        0          0          0          7013       -303       0          1894.79    -0.015     73        
204.2      2.49       102        305        0          0          0          7013       -303       0          1892.54    -0.02      72        
204.4      2.5        97         295        0          0          0          7013       -303       0          1890.15    -0.011     74        
204.6      2.75       99         299        0          0          0          7013       -300       0          1887.9     -0.009     75        
204.8      3.12       124        305        0          0          0          7013       -305       0          1885.46    -0.011     74        
205        3.16       128        329        0          0          0          7013       -317       0          1883.12    -0.02      72        
205.2      3.13       124        295        0          0          0          7013       -316       0          1880.77    -0.032     69        
