~Version
 VERS              .         2.0                           : CWLS LOG ASCII STANDARD - VERSION 2.0
 WRAP              .         NO                            : ONE LINE PER DEPTH STEP
 DLM               .         SPACE                         : DELIMITING CHARACTER(SPACE TAB OR COMMA)
~Well Information
#_______________________________________________________________________________
#
#PARAMETER_NAME    .UNIT     VALUE                         : DESCRIPTION
#_______________________________________________________________________________
STRT               .M        2648.8                        : First reference value
STOP               .M        2753.600052                   : Last reference value
STEP               .M        0.2000001                     : Step increment
NULL               .         -9999                         : Missing value
COMP               .                                       : Company
WELL               .         616                           : Well name
FLD                .                                       : Field
LOC                .                                       : Location
CNTY               .                                       : County
STAT               .                                       : State
CTRY               .                                       : Country
SRVC               .                                       : Service Company
DATE               .                                       : Date
API                .                                       : API number
PROJECT_UPGRADE_TIME .         2021-03-18T21_24_50           : 
group              .         Good                          : 
~Parameter Information Block
#_______________________________________________________________________________
#
#PARAMETER_NAME    .UNIT     VALUE                         : DESCRIPTION
#_______________________________________________________________________________
SET                .         D7027_D                       : 
OTHER              .         Kedr.exe версия 2.1.2.32      : 
OTHER_10           .         TM.GRD = 0.00404*TM$.UE + 0.07: 
OTHER_11           .         MN.ATM = (6.33279e-006*TM.GRD + 0.02401)*(MN$.UE + 2.72*TM.GRD + -2018): 
OTHER_12           .         GK.MKR/H = GK$.UE / 43.5489 + 0: 
OTHER_13           .         RES.SM = 0.00476*CRES.UE - 1.51709: 
OTHER_14           .         PL.GSM3 = 0 + 0 * (PL.UE / 1) +  0 * (PL.UE / 1)^2: 
OTHER_15           .         Постоянная времени ГГП = 6 сек: 
OTHER_16           .         Постоянная времени ГК = 6 сек : 
OTHER_2            .         KedrData.dll версия 3.2.2.14  : 
OTHER_3            .         LasInf.dll версия 3.2.0.13    : 
OTHER_4            .         Драйвер версия 1.2.0.5        : 
OTHER_5            .         Прибор_ КСА-M1                : 
OTHER_6            .         Номер прибора_ 155+р204       : 
OTHER_7            .         Режим_ КСА-М1 + ГГП + Резистивиметр: 
OTHER_8            .         Форма_ 223\2                  : 
OTHER_9            .         Тарировки_                    : 
PROJECT_UPGRADE_TIME .         2021-03-18T21_24_50           : 
TLFamily_CRES      .                                       : 
TLFamily_DEPT      .         Measured Depth                : 
TLFamily_GK        .         Gamma Ray                     : 
TLFamily_GK$       .                                       : 
TLFamily_LM        .         Casing Collar locator         : 
TLFamily_METKA     .                                       : 
TLFamily_MN        .                                       : 
TLFamily_MN$       .                                       : 
TLFamily_PL        .                                       : 
TLFamily_PL_2      .                                       : 
TLFamily_RCOR      .                                       : 
TLFamily_RES       .         Mud Resistivity               : 
TLFamily_SPID      .         Spontaneous Potential         : 
TLFamily_STD       .                                       : 
TLFamily_TIME      .         Time                          : 
TLFamily_TM        .         Temperature                   : 
TLFamily_TM$       .         Temperature                   : 
TLFamily_VGD       .         Gas Volume                    : 
group              .         prim                          : 
~Curve Information
#_______________________________________________________________________________
#
#LOGNAME           .UNIT     LOG_ID                        : DESCRIPTION
#_______________________________________________________________________________
DEPT               .M                                      : 1 Глубина, м -    0.0 см 
CRES               .UE                                     : 9 Проводимость, усл.ед. -  222.0 см 
GK                 .MKR/H                                  : 16 Гамма-активность, мкр./ч -  106.0 см 
GK$                .UE                                     : 13 Гамма-активность, усл.ед. -  106.0 см 
LM                 .                                       : 11 Локатор муфт,  -   16.0 см 
METKA              .                                       : 3 Метки,  -    0.0 см 
MN                 .ATM                                    : 15 Давление, атм. -  160.0 см 
MN$                .UE                                     : 7 Давление, усл.ед. -  160.0 см 
PL                 .UE                                     : 10 Плотность, усл.ед. -  270.0 см 
PL_2               .GSM3                                   : 18 Плотность, г./см3 -  270.0 см 
RCOR               .CM/KM                                  : 5 Коррекция по ролику, см/км -    0.0 см 
RES                .SM                                     : 17 Проводимость,  -  222.0 см 
SPID               .M/H                                    : 2 Скорость, м/час -    0.0 см 
STD                .                                       : 12 Приток,  -  170.0 см 
TIME               .S                                      : 4 Время, сек -    0.0 см 
TM                 .GRD                                    : 14 Температура, °C -  180.0 см 
TM$                .UE                                     : 6 Температура, усл.ед. -  180.0 см 
VGD                .                                       : 8 Влагомер,  -  170.0 см 
~Ascii
# ...
2747.200049 1331       8.34       340        119        0          253.774    12282      14         0          0          4.8204     580        10930      18641.46   55.739     13780      6594      
2747.400049 1334       7.96       330        131        0          253.819    12283      14         0          0          4.8321     510        10958      18642.77   55.883     13815      6585      
2747.600049 1336       7.77       331        101        0          253.85     12283      14         0          0          4.8439     580        10986      18644.09   56.036     13853      6565      
2747.80005 1340       7.69       331        72         0          253.892    12284      14         0          0          4.8589     580        11016      18645.42   56.211     13896      6572      
2748.00005 1340       7.62       327        4986       0          253.935    12285      14         0          0          4.862      580        11047      18646.76   56.405     13944      6566      
2748.20005 1339       7.56       327        3087       0          253.947    12285      13         0          0          4.8566     580        11076      18648.07   56.545     13979      6568      
2748.40005 1343       7.59       336        769        0          253.995    12286      14         0          0          4.8756     568        11099      18649.34   56.632     14001      6568      
2748.60005 1345       7.65       336        151        0          254.037    12287      14         0          0          4.8867     580        11128      18650.66   56.818     14047      6569      
2748.80005 1348       8.36       418        85         0          254.047    12287      14         0          0          4.8987     580        11154      18651.97   56.945     14078      6566      
2749.00005 1351       8.96       418        65         0          254.077    12288      14         0          0          4.9137     568        11172      18653.29   57.022     14097      6560      
2749.20005 1352       9.06       395        40         0          254.094    12288      14         0          0          4.9208     580        11188      18654.6    57.068     14108      6558      
2749.40005 1353       9.06       395        33         0          254.135    12289      14         0          0          4.9232     557        11207      18655.85   57.194     14140      6555      
2749.60005 1355       8.74       356        34         0          254.174    12290      14         0          0          4.9327     580        11231      18657.17   57.317     14170      6554      
2749.80005 1356       8.46       356        32         0          254.185    12290      14         0          0          4.9359     580        11252      18658.48   57.427     14197      6556      
2750.000051 1354       8.37       361        33         0          254.217    12291      14         0          0          4.9293     580        11270      18659.79   57.516     14219      6558      
2750.200051 1355       8.31       358        34         1          254.231    12291      14         0          0          4.9327     580        11288      18661.76   57.573     14233      6556      
2750.400051 1356       8.08       341        34         0          254.26     12292      14         0          0          4.9359     557        11307      18663.07   57.647     14252      6557      
2750.600051 1312       7.96       341        32         0          254.267    12292      14         0          0          4.7289     580        11320      18664.39   57.709     14267      6557      
2750.800051 952        7.69       322        32         0          254.291    12292      14         0          0          3.0143     568        11333      18665.63   57.767     14281      6568      
2751.000051 935        7.55       324        32         0          254.29     12292      14         0          0          2.9319     580        11347      18667.13   57.917     14319      6566      
2751.200051 906        7.55       329        -9999      -9999      254.297    12292      14         0          -9999      2.7931     -9999      11365      -9999      57.998     14339      6566      
2751.400051 888        7.76       350        -9999      -9999      254.269    12291      14         0          -9999      2.7082     -9999      11383      -9999      57.994     14338      6565      
2751.600051 879        7.9        350        -9999      -9999      254.265    12291      14         0          -9999      2.6669     -9999      11399      -9999      57.967     14331      6565      
2751.800052 879        8          354        -9999      -9999      254.243    12290      14         0          -9999      2.6669     -9999      11418      -9999      57.936     14323      6563      
2752.000052 878        8.06       354        -9999      -9999      254.23     12290      14         0          -9999      2.6622     -9999      11429      -9999      57.89      14312      6565      
2752.200052 878        -9999      -9999      -9999      -9999      254.225    12290      14         0          -9999      2.6622     -9999      11436      -9999      57.854     14303      6565      
2752.400052 878        -9999      -9999      -9999      -9999      254.216    12290      14         0          -9999      2.6622     -9999      11443      -9999      57.818     14294      6564      
2752.600052 878        -9999      -9999      -9999      -9999      254.19     12289      13         0          -9999      2.6637     -9999      11450      -9999      57.779     14284      6564      
2752.800052 877        -9999      -9999      -9999      -9999      -9999      -9999      14         0          -9999      2.6574     -9999      -9999      -9999      57.733     14273      -9999     
2753.000052 877        -9999      -9999      -9999      -9999      -9999      -9999      14         0          -9999      2.6574     -9999      -9999      -9999      -9999      -9999      -9999     
2753.200052 877        -9999      -9999      -9999      -9999      -9999      -9999      14         0          -9999      2.6574     -9999      -9999      -9999      -9999      -9999      -9999     
2753.400052 -9999      -9999      -9999      -9999      -9999      -9999      -9999      14         0          -9999      -9999      -9999      -9999      -9999      -9999      -9999      -9999     
2753.600052 -9999      -9999      -9999      -9999      -9999      -9999      -9999      14         0          -9999      -9999      -9999      -9999      -9999      -9999      -9999      -9999     
