~Version
 VERS              .         2.0                           : CWLS LOG ASCII STANDARD - VERSION 2.0
 WRAP              .         NO                            : ONE LINE PER DEPTH STEP
 DLM               .         SPACE                         : DELIMITING CHARACTER(SPACE TAB OR COMMA)
~Well Information
#_______________________________________________________________________________
#
#PARAMETER_NAME    .UNIT     VALUE                         : DESCRIPTION
#_______________________________________________________________________________
STRT               .M        2650.6                        : First reference value
STOP               .M        2759.999891                   : Last reference value
STEP               .M        0.1999998                     : Step increment
NULL               .         -9999                         : Missing value
COMP               .                                       : Company
WELL               .         616                           : Well name
FLD                .                                       : Field
LOC                .                                       : Location
CNTY               .                                       : County
STAT               .                                       : State
CTRY               .                                       : Country
SRVC               .                                       : Service Company
DATE               .                                       : Date
API                .                                       : API number
PROJECT_UPGRADE_TIME .         2021-03-18T21_24_50           : 
group              .         Good                          : 
~Parameter Information Block
#_______________________________________________________________________________
#
#PARAMETER_NAME    .UNIT     VALUE                         : DESCRIPTION
#_______________________________________________________________________________
SET                .         D4417_D                       : 
OTHER              .         Запись производится в присутствии: 
OTHER_10           .         Максимальная температура      : 
OTHER_11           .         Тип промывочной жидкости      : 
OTHER_12           .         Сопротивление ПЖ (Ом*м) при 20°C: 
OTHER_13           .         Плотность ПЖ(г/см3)           : 
OTHER_14           .         Вязкость ПЖ(с)                : 
OTHER_15           .         Водоотдача ПЖ(см3/30мин)      : 
OTHER_16           .         Уровень ПЖ                    : 
OTHER_17           .         Нефть ПЖ (%)                  : 
OTHER_18           .         Барит ПЖ (%)                  : 
OTHER_19           .         Гематит ПЖ (%)                : 
OTHER_2            .         Заказчик ННСН  ЦДНГ-1         : 
OTHER_20           .         КМЦ ПЖ (%)                    : 
OTHER_21           .         Разгазирование ПЖ (да,нет)    : 
OTHER_22           .         Подъемник                     : 
OTHER_23           .         Лаборатория                   : 
OTHER_24           .         Тип кабеля                    : 
OTHER_25           .         Длина кабеля (м)              : 
OTHER_26           .         Цена последней метки          : 
OTHER_27           .         Цена контрольной метки        : 
OTHER_28           .         Диаметр долота (мм)           : 
OTHER_29           .         Глубина бурения (м)           : 
OTHER_3            .         Площадь                       : 
OTHER_30           .         Искусственный забой (м)       : 
OTHER_31           .         Диаметр колонны (мм)          : 
OTHER_32           .         Толщина колонны (мм)          : 
OTHER_33           .         Башмак колонны (м)            : 
OTHER_34           .         Диаметр НКТ (мм)              : 
OTHER_35           .         Толщина НКТ (мм)              : 
OTHER_36           .         Воронка НКТ (м)               : 
OTHER_37           .         Дата цементожа                : 
OTHER_38           .         Тип, количество(т) и плотность цемента: 
OTHER_39           .         Интервалы перфорации (м)      : 
OTHER_4            .         Категория                     : 
OTHER_40           .         Направление, диаметр (мм)     : 
OTHER_41           .         Направление, глубина (м)      : 
OTHER_42           .         Кондуктор, диаметр (мм)       : 
OTHER_43           .         Кондуктор, глубина (м)        : 
OTHER_44           .         Техническая колонна, диаметр (мм): 
OTHER_45           .         Техническая колонна, глубина (м): 
OTHER_46           .         Эксплуатационная колонна, диаметр (мм): 
OTHER_47           .         Эксплуатационная колонна, глубина (м): 
OTHER_48           .         Программа Кедр-02 версия 3.4  : 
OTHER_49           .         Операционная система Windows NT 5.1 build 2600 Service Pack 2: 
OTHER_5            .         Назначение исследований       : 
OTHER_50           .         Программное обеспечение станции MONITOR-386EX 25/12/99 15_08_10   BGF V54 20/09/05 15_32_17   3.3__BGF_9030071: 
OTHER_51           .         Kedr.exe версия 3.4.2.74      : 
OTHER_52           .         KedrData.dll версия 3.4.2.29  : 
OTHER_53           .         Мнемоники версия 3.18 S       : 
OTHER_54           .         Драйвер версия 2.1.1.4        : 
OTHER_55           .         LasInf.dll 4.3.0.35           : 
OTHER_56           .         Прибор_ КСА-Т4                : 
OTHER_57           .         Номер прибора_ 160            : 
OTHER_58           .         Режим_ КСА-Т4                 : 
OTHER_59           .         Форма_ С.А.Б.                 : 
OTHER_6            .         Альтитуда стола ротора        : 
OTHER_60           .         Тарировки_                    : 
OTHER_61           .         <_techsia_sc_> Дата тарировки температуры 25.05.2010: 
OTHER_62           .         Ручной ввод коэффициентов     : 
OTHER_63           .         TM.DEGC = 0.00402*RTM.E.ACP + -0.994: 
OTHER_64           .         <_techsia_sc_> Дата тарировки давления 25.05.2010: 
OTHER_65           .         Ручной ввод коэффициентов     : 
OTHER_66           .         MN.ATM = (2.27521e-006*TM.DEGC + 0.02078)*(RMN.E.ACP + 6.2*TM.DEGC + -1688): 
OTHER_67           .         <_techsia_sc_> Дата тарировки ГК 25.05.2010: 
OTHER_68           .         Ручной ввод коэффициентов     : 
OTHER_69           .         GR.UR/H = RGR.IMP/MIN / 45.5144: 
OTHER_7            .         Вид исследований 3  6         : 
OTHER_70           .         GK.FLT = 0.1*GR.UR/H[-1] + (1-0.1)*GR.UR/H[0]: 
OTHER_8            .         Начало бурения интервала каротажа: 
OTHER_9            .         Окончание бурения интервала каротажа: 
PROJECT_UPGRADE_TIME .         2021-03-18T21_24_50           : 
TLFamily_CCLC      .                                       : 
TLFamily_DEPT      .         Measured Depth                : 
TLFamily_GK        .         Gamma Ray                     : 
TLFamily_GR        .         Gamma Ray                     : 
TLFamily_METKA     .                                       : 
TLFamily_MN        .                                       : 
TLFamily_RCOR      .                                       : 
TLFamily_RGR       .                                       : 
TLFamily_RMN       .                                       : 
TLFamily_RTEN      .                                       : 
TLFamily_RTM       .                                       : 
TLFamily_SPEE      .         Cable Speed                   : 
TLFamily_TIME      .         Time                          : 
TLFamily_TM        .         Temperature                   : 
group              .         prim                          : 
~Curve Information
#_______________________________________________________________________________
#
#LOGNAME           .UNIT     LOG_ID                        : DESCRIPTION
#_______________________________________________________________________________
DEPT               .M                                      : 1 Глубина, м -    0.0 см 
CCLC               .E.ACP                                  : 9 Локатор муфт,  -   20.0 см 
GK                 .FLT                                    : 14 Гамма-активность фильтрованная, мкр./ч -  110.0 см 
GR                 .UR/H                                   : 13 Гамма-активность, мкр./ч -  110.0 см 
METKA              .CU                                     : 3 Метки,  -    0.0 см 
MN                 .ATM                                    : 12 Давление, атм. -  160.0 см 
RCOR               .CM/KM                                  : 5 Коррекция по ролику, см/км -    0.0 см 
RGR                .IMP/MIN                                : 10 Гамма-активность, усл.ед. -  110.0 см 
RMN                .E.ACP                                  : 8 Давление, усл.ед. -  160.0 см 
RTEN               .T                                      : 6 Натяжение кабеля, т -    0.0 см 
RTM                .E.ACP                                  : 7 Температура, усл.ед. -  170.0 см 
SPEE               .M/H                                    : 2 Скорость, м/час -    0.0 см 
TIME               .S                                      : 4 Время, сек -    0.0 см 
TM                 .DEGC                                   : 11 Температура, °C -  170.0 см 
~Ascii
# ...
2712.999938 50         14.46      14.46      0          244.008    -1091      658        12983      0.25       15141      490        437.29     59.871    
2713.199937 68         14.44      14.44      0          244.02     -1091      657        12984      0.25       15125      489        438.76     59.808    
2713.399937 71         12.15      12.15      0          244.033    -1091      553        12985      0.25       15112      488        440.23     59.756    
2713.599937 162        11.53      11.53      0          244.049    -1091      525        12986      0.25       15103      488        441.78     59.72     
2713.799937 112        11.53      11.53      0          244.043    -1091      525        12986      0.25       15092      487        443.26     59.676    
2713.999937 64         13.2       13.2       0          244.096    -1091      601        12989      0.25       15085      487        444.69     59.649    
2714.199936 155        12.6       12.6       0          244.095    -1091      574        12989      0.25       15075      486        446.22     59.609    
2714.399936 2524       12.02      12.02      0          244.11     -1091      547        12990      0.25       15067      486        447.66     59.577    
2714.599936 750        8.33       8.33       0          244.125    -1091      379        12991      0.25       15058      486        449.24     59.538    
2714.799936 179        8.33       8.33       0          244.147    -1091      379        12993      0.25       15044      487        450.67     59.483    
2714.999936 159        6.31       6.31       0          244.17     -1091      287        12994      0.25       15032      488        452.12     59.436    
2715.199935 106        6.34       6.34       0          244.183    -1091      288        12995      0.25       15019      488        453.63     59.381    
2715.399935 102        6.46       6.46       0          244.205    -1091      294        12996      0.25       15006      488        455.12     59.329    
2715.599935 46         7.03       7.03       0          244.215    -1091      320        12997      0.25       14994      487        456.64     59.283    
2715.799935 71         7.03       7.03       0          244.246    -1091      320        12999      0.25       14985      489        458.08     59.246    
2715.999935 57         8.55       8.55       2          244.256    -1088      389        13000      0.25       14971      489        459.3      59.19     
2716.199934 124        8.55       8.55       0          244.272    -1087      389        13001      0.25       14954      489        460.73     59.123    
2716.399934 111        13.03      13.03      0          244.282    -1087      593        13002      0.25       14940      489        462.24     59.065    
2716.599934 97         14.21      14.21      0          244.312    -1087      647        13004      0.25       14931      488        463.76     59.031    
2716.799934 99         14.5       14.5       0          244.327    -1087      660        13005      0.25       14916      488        465.19     58.967    
2716.999934 72         11.16      11.16      0          244.338    -1087      508        13006      0.25       14900      488        466.67     58.903    
2717.199933 62         11.16      11.16      0          244.365    -1087      508        13008      0.25       14882      488        468.16     58.832    
2717.399933 72         9.32       9.32       0          244.363    -1087      424        13008      0.25       14870      487        469.7      58.784    
2717.599933 41         9.32       9.32       0          244.393    -1087      424        13010      0.25       14857      487        471.17     58.729    
2717.799933 36         9.93       9.93       0          244.409    -1087      452        13011      0.25       14848      487        472.59     58.693    
2717.999933 72         10.41      10.41      0          244.425    -1087      474        13012      0.25       14835      486        474.11     58.643    
2718.199932 132        10.41      10.41      0          244.443    -1087      474        13013      0.25       14828      487        475.63     58.616    
2718.399932 267        9.65       9.65       0          244.48     -1087      439        13015      0.25       14824      487        477.14     58.597    
2718.599932 102        9.71       9.71       0          244.491    -1087      442        13016      0.25       14811      488        478.57     58.545    
2718.799932 112        9.97       9.97       0          244.504    -1087      454        13017      0.25       14797      489        480.08     58.492    
2718.999932 125        10.46      10.46      0          244.512    -1087      476        13018      0.25       14780      489        481.52     58.422    
2719.199931 140        10.46      10.46      0          244.521    -1087      476        13019      0.25       14760      488        483.04     58.341    
2719.399931 81         9.71       9.71       0          244.554    -1087      442        13021      0.25       14743      488        484.54     58.274    
2719.599931 66         9.71       9.71       0          244.568    -1087      442        13022      0.25       14732      489        485.98     58.229    
2719.799931 166        10.11      10.11      0          244.581    -1087      460        13023      0.25       14720      489        487.42     58.18     
2719.999931 106        10.74      10.74      0          244.614    -1087      489        13025      0.25       14708      488        489.01     58.132    
2720.19993 62         11.16      11.16      0          244.627    -1087      508        13026      0.25       14693      488        490.44     58.072    
2720.39993 70         10.37      10.37      0          244.641    -1087      472        13027      0.25       14680      487        491.95     58.021    
2720.59993 76         10.37      10.37      0          244.669    -1087      472        13029      0.25       14672      487        493.45     57.987    
2720.79993 69         9.67       9.67       0          244.669    -1087      440        13029      0.25       14660      486        494.91     57.939    
2720.99993 76         9.71       9.71       0          244.703    -1087      442        13031      0.25       14648      486        496.41     57.889    
2721.199929 80         9.89       9.89       0          244.718    -1087      450        13032      0.25       14635      487        497.92     57.841    
2721.399929 91         9.65       9.65       0          244.733    -1087      439        13033      0.25       14628      487        499.36     57.81     
2721.599929 98         9.65       9.65       0          244.752    -1087      439        13034      0.25       14615      487        500.83     57.759    
2721.799929 62         9.18       9.18       0          244.778    -1087      418        13036      0.25       14599      488        502.36     57.693    
2721.999929 139        9.09       9.09       0          244.791    -1087      414        13037      0.25       14587      489        503.82     57.647    
2722.199928 100        8.72       8.72       0          244.824    -1087      397        13039      0.25       14573      489        505.34     57.591    
2722.399928 84         9.62       9.62       0          244.816    -1087      438        13039      0.25       14563      490        506.78     57.549    
2722.599928 61         9.62       9.62       0          244.85     -1087      438        13041      0.25       14548      489        508.2      57.487    
2722.799928 75         10.26      10.26      0          244.864    -1087      467        13042      0.25       14538      490        509.79     57.449    
2722.999928 95         10.81      10.81      0          244.876    -1087      492        13043      0.25       14526      489        511.23     57.399    
2723.199927 62         10.94      10.94      0          244.911    -1087      498        13045      0.25       14512      489        512.67     57.343    
