~Version
 VERS              .         2.0                           : CWLS LOG ASCII STANDARD - VERSION 2.0
 WRAP              .         NO                            : ONE LINE PER DEPTH STEP
 DLM               .         SPACE                         : DELIMITING CHARACTER(SPACE TAB OR COMMA)
~Well Information
#_______________________________________________________________________________
#
#PARAMETER_NAME    .UNIT     VALUE                         : DESCRIPTION
#_______________________________________________________________________________
STRT               .M        2670                          : First reference value
STOP               .M        2776                          : Last reference value
STEP               .M        0.2                           : Step increment
NULL               .         -9999                         : Missing value
COMP               .                                       : Company
WELL               .         616                           : Well name
FLD                .                                       : Field
LOC                .                                       : Location
CNTY               .                                       : County
STAT               .                                       : State
CTRY               .                                       : Country
SRVC               .                                       : Service Company
DATE               .                                       : Date
API                .                                       : API number
PROJECT_UPGRADE_TIME .         2021-03-18T21_24_50           : 
group              .         Good                          : 
~Parameter Information Block
#_______________________________________________________________________________
#
#PARAMETER_NAME    .UNIT     VALUE                         : DESCRIPTION
#_______________________________________________________________________________
SET                .         D1803_D                       : 
OTHER              .         Программное обеспечение станции MONITOR-386EX 25/12/99 15_08_10   BGF V52 22/08/01 16_56_30   3.1_SNGF___BGF_N_092049: 
OTHER_10           .         Тарировки_                    : 
OTHER_11           .         TM.GRD = 0.00403*TM$.UE + -1.07: 
OTHER_12           .         MN.ATM = (9.34907e-006*TM.GRD + 0.02171)*(MN$.UE + -7.93*TM.GRD + -1787): 
OTHER_13           .         GK.MKR/H = LM. / 42.4676      : 
OTHER_14           .         GK.FLT = 0.1*GK.MKR/H[-1] + (1-0.1)*GK.MKR/H[0]: 
OTHER_2            .         Kedr.exe версия 3.4.2.51      : 
OTHER_3            .         KedrData.dll версия 3.4.2.24  : 
OTHER_4            .         Драйвер версия 2.1.1.3        : 
OTHER_5            .         Мнемоники версия 3.3 S        : 
OTHER_6            .         Прибор_ КСА-Т4                : 
OTHER_7            .         Номер прибора_ 03             : 
OTHER_8            .         Режим_ КСА-Т4                 : 
OTHER_9            .         Форма_ КВА.                   : 
PROJECT_UPGRADE_TIME .         2021-03-18T21_24_49           : 
TLFamily_DEPT      .         Measured Depth                : 
TLFamily_GK        .         Gamma Ray                     : 
TLFamily_GK$       .                                       : 
TLFamily_GK_2      .         Gamma Ray                     : 
TLFamily_LM        .         Casing Collar locator         : 
TLFamily_METKA     .                                       : 
TLFamily_MN        .                                       : 
TLFamily_MN$       .                                       : 
TLFamily_RCOR      .                                       : 
TLFamily_SPID      .         Spontaneous Potential         : 
TLFamily_TENS      .         Cable Tension                 : 
TLFamily_TIME      .         Time                          : 
TLFamily_TM        .         Temperature                   : 
TLFamily_TM$       .         Temperature                   : 
group              .         prim                          : 
~Curve Information
#_______________________________________________________________________________
#
#LOGNAME           .UNIT     LOG_ID                        : DESCRIPTION
#_______________________________________________________________________________
DEPT               .M                                      : 1 Глубина, м -    0.0 см 
GK                 .MKR/H                                  : 13 Гамма-активность, мкр./ч -  110.0 см 
GK$                .UE                                     : 10 Гамма-активность, усл.ед. -  110.0 см 
GK_2               .FLT                                    : 14 Гамма-активность фильтрованная, мкр./ч -  110.0 см 
LM                 .                                       : 9 Локатор муфт,  -   20.0 см 
METKA              .                                       : 3 Метки,  -    0.0 см 
MN                 .ATM                                    : 12 Давление, атм. -  160.0 см 
MN$                .UE                                     : 8 Давление, усл.ед. -  160.0 см 
RCOR               .CM/KM                                  : 5 Коррекция по ролику, см/км -    0.0 см 
SPID               .M/H                                    : 2 Скорость, м/час -    0.0 см 
TENS               .T                                      : 6 Натяжение кабеля, т -    0.0 см 
TIME               .S                                      : 4 Время, сек -    0.0 см 
TM                 .GRD                                    : 11 Температура, °C -  170.0 см 
TM$                .UE                                     : 7 Температура, усл.ед. -  170.0 см 
~Ascii
# ...
2690.8     10.41      442        10.39      308        0          328.702    17004      -633       574        0.04       1656.64    49.309     12501     
2691       10.41      442        10.41      379        0          329.948    17060      -633       575        0.01       1657.89    49.317     12503     
2691.2     10.71      455        10.7       369        0          330.593    17089      -633       577        0.01       1659.16    49.327     12506     
2691.4     10.71      455        10.71      331        0          329.525    17041      -633       578        0.01       1660.42    49.337     12508     
2691.6     11.33      481        11.29      276        0          332.081    17156      -633       572        -0.01      1661.69    49.35      12511     
2691.8     11.26      478        11.28      274        0          331.828    17145      -633       574        -0.01      1662.96    49.363     12514     
2692       10.95      465        10.96      483        0          329.737    17051      -633       576        0          1664.16    49.371     12516     
2692.2     10.95      465        10.95      298        0          329.739    17051      -633       577        0.01       1665.43    49.378     12518     
2692.4     10.55      448        10.57      280        0          330.794    17098      -633       578        0.01       1666.7     49.39      12521     
2692.6     10.55      448        10.55      282        0          330.918    17104      -633       579        0.01       1667.94    49.395     12522     
2692.8     10.55      448        10.55      1888       0          330.287    17075      -633       579        0.01       1669.18    49.408     12526     
2693       10.55      448        10.55      761        0          331.232    17118      -633       579        0.01       1670.39    49.418     12528     
2693.2     9.63       409        9.67       313        0          333.442    17218      -633       567        0.02       1671.72    49.43      12531     
2693.4     9.63       409        9.63       269        0          332.234    17163      -633       571        0.01       1672.98    49.441     12534     
2693.6     9.73       413        9.72       322        0          331.175    17116      -633       573        0.01       1674.25    49.45      12536     
2693.8     9.73       413        9.73       302        0          331.129    17113      -633       575        0.03       1675.47    49.458     12538     
2694       10.38      441        10.36      379        0          329.672    17048      -633       577        0.03       1676.66    49.468     12541     
2694.2     10.38      441        10.38      338        0          330.97     17106      -633       584        0.02       1677.94    49.474     12542     
2694.4     10.93      464        10.9       305        0          330.681    17093      -633       581        0.01       1679.2     49.482     12544     
2694.6     11.08      470        11.02      320        0          332.658    17183      -633       578        0.01       1680.48    49.492     12546     
2694.8     11.37      483        11.36      309        0          334.143    17249      -633       569        0.01       1681.75    49.502     12549     
2695       11.37      483        11.37      291        0          333.355    17214      -633       572        0.01       1682.95    49.515     12552     
2695.2     11.23      477        11.24      326        0          333.555    17223      -633       575        0.03       1684.22    49.523     12554     
2695.4     11.23      477        11.23      347        0          336.545    17358      -633       576        0.01       1685.48    49.529     12555     
2695.6     11.07      470        11.08      340        0          332.496    17175      -633       577        0.01       1686.71    49.538     12558     
2695.8     11.07      470        11.07      300        0          332.705    17185      -633       578        0.01       1687.95    49.543     12559     
2696       10.88      462        10.89      330        0          332.203    17162      -633       579        0.01       1689.18    49.548     12560     
2696.2     10.88      462        10.88      307        0          334.544    17268      -633       573        0.01       1690.47    49.561     12564     
2696.4     11.68      496        11.63      341        0          335.031    17290      -633       568        0.01       1691.77    49.571     12566     
2696.6     11.73      498        11.71      321        0          335.04     17290      -633       571        0.01       1693.01    49.579     12568     
2696.8     11.96      508        11.95      310        0          333.869    17237      -633       574        0.02       1694.24    49.585     12570     
2697       11.96      508        11.96      329        0          334.236    17254      -633       576        0.03       1695.5     49.603     12574     
2697.2     12.83      545        12.78      318        0          334.424    17262      -633       588        0.01       1696.72    49.608     12575     
2697.4     12.88      547        12.86      315        0          333.842    17236      -633       580        0.01       1697.98    49.617     12577     
2697.6     12.97      551        12.97      314        0          334.338    17258      -633       580        0.01       1699.22    49.623     12579     
2697.8     12.97      551        12.97      301        0          333.95     17241      -633       573        0.01       1700.52    49.627     12580     
2698       13.05      554        13.04      327        0          336.189    17342      -633       575        0.01       1701.77    49.641     12583     
2698.2     13.05      554        13.05      333        0          335.149    17295      -633       580        0.03       1703       49.654     12587     
2698.4     13.82      587        13.76      346        0          338.761    17458      -633       586        0.03       1704.26    49.664     12589     
2698.6     13.82      587        13.82      325        0          335.713    17321      -633       589        0.03       1705.47    49.668     12590     
2698.8     11.07      470        11.18      323        0          338.864    17463      -633       581        0.01       1706.68    49.68      12593     
2699       11.07      470        11.07      306        0          337.292    17392      -633       581        0.03       1707.95    49.688     12595     
2699.2     8.52       362        8.69       286        0          337.242    17390      -633       580        0.03       1709.2     49.7       12598     
2699.4     8.5        361        8.52       290        0          338.864    17463      -633       572        0.03       1710.5     49.708     12600     
2699.6     8.41       357        8.41       297        0          337.746    17412      -633       570        0.03       1711.71    49.716     12602     
2699.8     8.41       357        8.41       315        0          337.696    17410      -633       573        0.03       1712.95    49.727     12605     
2700       8.83       375        8.8        365        2          337.699    17410      -633       575        0.03       1714.22    49.736     12607     
2700.2     8.74       371        8.77       365        0          339.884    17509      -639       565        -0.01      1715.81    49.742     12608     
2700.4     8.29       352        8.31       307        0          338.072    17427      -639       563        0.01       1717.05    49.752     12611     
2700.6     8.29       352        8.29       347        0          337.007    17379      -639       562        0.03       1718.28    49.76      12613     
2700.8     8.38       356        8.38       312        0          336.734    17367      -639       563        0.01       1719.55    49.769     12615     
2701       8.47       360        8.44       272        0          336.621    17362      -639       550        0.01       1720.84    49.779     12618     
