~Version
 VERS              .         2.0                           : CWLS LOG ASCII STANDARD - VERSION 2.0
 WRAP              .         NO                            : ONE LINE PER DEPTH STEP
 DLM               .         SPACE                         : DELIMITING CHARACTER(SPACE TAB OR COMMA)
~Well Information
#_______________________________________________________________________________
#
#PARAMETER_NAME    .UNIT     VALUE                         : DESCRIPTION
#_______________________________________________________________________________
STRT               .M        10.2                          : First reference value
STOP               .M        2774.8                        : Last reference value
STEP               .M        0.2                           : Step increment
NULL               .         -9999                         : Missing value
COMP               .                                       : Company
WELL               .         616                           : Well name
FLD                .                                       : Field
LOC                .                                       : Location
CNTY               .                                       : County
STAT               .                                       : State
CTRY               .                                       : Country
SRVC               .                                       : Service Company
DATE               .                                       : Date
API                .                                       : API number
PROJECT_UPGRADE_TIME .         2021-03-18T21_24_50           : 
group              .         Good                          : 
~Parameter Information Block
#_______________________________________________________________________________
#
#PARAMETER_NAME    .UNIT     VALUE                         : DESCRIPTION
#_______________________________________________________________________________
SET                .         D1813_D_2                     : 
NPR                .                                       : 
OTHER              .         Программное обеспечение станции MONITOR-386EX 25/12/99 15_08_10   BGF V52 22/08/01 16_56_30   3.1_SNGF___BGF_N_092049: 
OTHER_10           .         Тарировки_                    : 
OTHER_11           .         TM.GRD = 0.00403*TM$.UE + -1.07: 
OTHER_12           .         MN.ATM = (9.34907e-006*TM.GRD + 0.02171)*(MN$.UE + -7.93*TM.GRD + -1787): 
OTHER_13           .         GK.MKR/H = LM. / 42.4676      : 
OTHER_14           .         GK.FLT = 0.1*GK.MKR/H[-1] + (1-0.1)*GK.MKR/H[0]: 
OTHER_2            .         Kedr.exe версия 3.4.2.51      : 
OTHER_3            .         KedrData.dll версия 3.4.2.24  : 
OTHER_4            .         Драйвер версия 2.1.1.3        : 
OTHER_5            .         Мнемоники версия 3.3 S        : 
OTHER_6            .         Прибор_ КСА-Т4                : 
OTHER_7            .         Номер прибора_ 03             : 
OTHER_8            .         Режим_ КСА-Т4                 : 
OTHER_9            .         Форма_ КВА.                   : 
PR                 .                                       : 
PROJECT_UPGRADE_TIME .         2021-03-18T21_24_49           : 
PRTY               .         ПП-603-1                      : N партии
SRV                .                                       : 
SRVC               .         Карпов                        : Начальник партии
TLFamily_DEPT      .         Measured Depth                : 
TLFamily_LM        .         Casing Collar locator         : 
TLFamily_MN        .                                       : 
TLFamily_TM        .         Temperature                   : 
group              .         second                        : 
~Curve Information
#_______________________________________________________________________________
#
#LOGNAME           .UNIT     LOG_ID                        : DESCRIPTION
#_______________________________________________________________________________
DEPT               .M                                      : Depth curve 
LM                 .е.ацп                                  : Локатор муфт,е.ацп 
MN                 .атм                                    : Манометрия, атм 
TM                 .град.C                                 : Термограмма по стволу скважины,град.C 
~Ascii
# ...
556.2      457.999    52.909     25.945    
556.4      444.003    52.931     25.949    
556.6      512.003    52.933     25.953    
556.8      592.004    52.955     25.958    
557        687.027    52.975     25.964    
557.2      1362.028   52.996     25.969    
557.4      2071.044   53.02      25.974    
557.6      3169.07    53.038     25.978    
557.8      4927.103   53.042     25.982    
558        7504.719   53.064     25.986    
558.2      463.996    53.088     25.991    
558.4      374.002    53.101     25.995    
558.6      419.999    53.111     25.999    
558.8      391        53.134     26.004    
559        403.002    53.156     26.008    
559.2      457.997    53.177     26.016    
559.4      390.001    53.199     26.02     
559.6      405.999    53.207     26.021    
559.8      387.999    53.221     26.028    
560        369.998    53.243     26.033    
560.2      319.001    53.266     26.037    
560.4      339        53.288     26.041    
560.6      348.001    53.291     26.045    
560.8      362.002    53.31      26.049    
561        408        53.332     26.054    
561.2      418.001    53.351     26.059    
561.4      435        53.374     26.066    
561.6      425.999    53.375     26.07     
561.8      411.002    53.396     26.074    
562        456.003    53.419     26.078    
562.2      518.997    53.442     26.083    
562.4      433        53.463     26.089    
562.6      442        53.486     26.092    
562.8      438        53.503     26.095    
563        428        53.51      26.1      
563.2      427        53.532     26.104    
563.4      433.003    53.554     26.108    
563.6      504        53.576     26.112    
563.8      507.001    53.588     26.116    
564        542.002    53.61      26.121    
564.2      590        53.63      26.128    
564.4      579.002    53.642     26.129    
564.6      633.997    53.65      26.137    
564.8      567.001    53.68      26.145    
565        600.994    53.693     26.145    
565.2      462        53.709     26.15     
565.4      456        53.731     26.158    
565.6      461        53.753     26.162    
565.8      454.001    53.775     26.166    
566        479.001    53.799     26.171    
566.2      501.999    53.798     26.175    
566.4      472.999    53.822     26.179    
566.6      440.001    53.841     26.183    
566.8      459.003    53.844     26.187    
567        521.001    53.867     26.192    
567.2      547.998    53.886     26.196    
567.4      504.001    53.908     26.202    
567.6      520.001    53.931     26.208    
567.8      556.005    53.954     26.212    
568        672.008    53.967     26.22     
568.2      858.011    53.976     26.225    
568.4      1133.02    53.999     26.229    
568.6      1626.03    54.022     26.233    
568.8      2358.051   54.044     26.238    
569        3610.082   54.067     26.242    
569.2      5625.816   54.073     26.246    
569.4      1116.97    54.092     26.251    
569.6      373.002    54.113     26.255    
569.8      415.998    54.136     26.259    
570        366        54.136     26.265    
570.2      366.001    54.157     26.271    
570.4      391.002    54.179     26.276    
570.6      437.001    54.202     26.28     
570.8      453.002    54.221     26.284    
571        505.996    54.225     26.288    
571.2      417        54.246     26.292    
571.4      414.999    54.268     26.297    
571.6      386.001    54.284     26.301    
571.8      414.001    54.299     26.305    
572        442.001    54.327     26.309    
572.2      472.999    54.335     26.313    
572.4      452.998    54.347     26.318    
572.6      412.002    54.374     26.326    
572.8      454.997    54.389     26.331    
573        390.001    54.405     26.335    
573.2      409.002    54.428     26.339    
573.4      451.001    54.451     26.344    
573.6      466.002    54.473     26.349    
573.8      509.003    54.475     26.354    
574        572.002    54.497     26.359    
574.2      615.999    54.517     26.362    
574.4      601        54.522     26.367    
574.6      597.996    54.559     26.37     
574.8      495.999    54.566     26.374    
575        460.001    54.58      26.378    
575.2      473        54.6       26.382    
575.4      484.999    54.622     26.39     
575.6      453        54.636     26.391    
575.8      448.999    54.659     26.398    
576        416.004    54.682     26.4      
576.2      507.999    54.686     26.404    
576.4      493        54.708     26.408    
576.6      496.001    54.731     26.413    
576.8      528.999    54.753     26.417    
577        515.997    54.776     26.424    
577.2      455.002    54.792     26.427    
577.4      515        54.798     26.433    
577.6      523.998    54.822     26.438    
577.8      485.003    54.845     26.443    
578        565.002    54.855     26.447    
578.2      617.002    54.871     26.451    
578.4      670.997    54.892     26.453    
578.6      609.997    54.917     26.459    
578.8      528        54.939     26.462    
579        538.016    54.939     26.469    
579.2      932.018    54.962     26.473    
579.4      1364.03    54.985     26.477    
579.6      2087.047   55.003     26.482    
579.8      3211.074   55.009     26.486    
580        4988.109   55.03      26.49     
580.2      7604.703   55.052     26.494    
580.4      441.997    55.076     26.499    
580.6      358.001    55.098     26.507    
580.8      381.998    55.109     26.507    
581        335        55.12      26.515    
581.2      333.999    55.143     26.52     
581.4      307.001    55.165     26.525    
581.6      325.001    55.187     26.531    
581.8      356.002    55.193     26.532    
582        404        55.213     26.533    
582.2      400.001    55.234     26.533    
582.4      424.001    55.235     26.547    
582.6      452.001    55.258     26.552    
582.8      466.998    55.28      26.554    
583        425.998    55.303     26.558    
583.2      377        55.325     26.562    
583.4      376.002    55.341     26.57     
583.6      431.999    55.353     26.575    
583.8      407        55.385     26.576    
584        407        55.393     26.579    
584.2      399.001    55.416     26.587    
584.4      410.999    55.439     26.588    
584.6      393        55.448     26.592    
584.8      382.001    55.462     26.597    
585        407        55.486     26.602    
585.2      408.999    55.508     26.608    
585.4      396.998    55.532     26.61     
585.6      347.001    55.532     26.616    
585.8      367        55.555     26.622    
586        365        55.574     26.627    
586.2      372.999    55.578     26.634    
586.4      357        55.6       26.639    
586.6      357.999    55.622     26.643    
586.8      333.999    55.644     26.647    
587        317.001    55.659     26.652    
587.2      331.001    55.668     26.656    
587.4      362        55.691     26.66     
587.6      364.001    55.714     26.665    
587.8      383.001    55.736     26.673    
588        417.001    55.743     26.677    
588.2      439.998    55.76      26.682    
588.4      402.001    55.782     26.688    
588.6      425        55.805     26.693    
588.8      434.999    55.827     26.696    
589        408.999    55.848     26.703    
589.2      387.002    55.851     26.707    
589.4      435.003    55.874     26.712    
589.6      509.005    55.895     26.716    
589.8      638.009    55.912     26.72     
590        844.009    55.92      26.721    
590.2      1066.017   55.942     26.728    
590.4      1478.03    55.965     26.729    
590.6      2178.039   55.988     26.733    
590.8      3089.062   55.997     26.737    
591        4544.104   56.008     26.741    
591.2      6998.721   56.032     26.745    
591.4      414.998    56.054     26.75     
591.6      362        56.077     26.754    
591.8      357.999    56.099     26.758    
592        343        56.12      26.764    
592.2      353.999    56.143     26.771    
592.4      336.001    56.166     26.775    
