~Version
 VERS              .         2.0                           : CWLS LOG ASCII STANDARD - VERSION 2.0
 WRAP              .         NO                            : ONE LINE PER DEPTH STEP
 DLM               .         SPACE                         : DELIMITING CHARACTER(SPACE TAB OR COMMA)
~Well Information
#_______________________________________________________________________________
#
#PARAMETER_NAME    .UNIT     VALUE                         : DESCRIPTION
#_______________________________________________________________________________
STRT               .M        2669.8                        : First reference value
STOP               .M        2775.8                        : Last reference value
STEP               .M        0.2                           : Step increment
NULL               .         -9999                         : Missing value
COMP               .                                       : Company
WELL               .         616                           : Well name
FLD                .                                       : Field
LOC                .                                       : Location
CNTY               .                                       : County
STAT               .                                       : State
CTRY               .                                       : Country
SRVC               .                                       : Service Company
DATE               .                                       : Date
API                .                                       : API number
PROJECT_UPGRADE_TIME .         2021-03-18T21_24_50           : 
group              .         Good                          : 
~Parameter Information Block
#_______________________________________________________________________________
#
#PARAMETER_NAME    .UNIT     VALUE                         : DESCRIPTION
#_______________________________________________________________________________
SET                .         D1812_D                       : 
OTHER              .         Программное обеспечение станции MONITOR-386EX 25/12/99 15_08_10   BGF V52 22/08/01 16_56_30   3.1_SNGF___BGF_N_092049: 
OTHER_10           .         Тарировки_                    : 
OTHER_11           .         TM.GRD = 0.00403*TM$.UE + -1.07: 
OTHER_12           .         MN.ATM = (9.34907e-006*TM.GRD + 0.02171)*(MN$.UE + -7.93*TM.GRD + -1787): 
OTHER_13           .         GK.MKR/H = LM. / 42.4676      : 
OTHER_14           .         GK.FLT = 0.1*GK.MKR/H[-1] + (1-0.1)*GK.MKR/H[0]: 
OTHER_2            .         Kedr.exe версия 3.4.2.51      : 
OTHER_3            .         KedrData.dll версия 3.4.2.24  : 
OTHER_4            .         Драйвер версия 2.1.1.3        : 
OTHER_5            .         Мнемоники версия 3.3 S        : 
OTHER_6            .         Прибор_ КСА-Т4                : 
OTHER_7            .         Номер прибора_ 03             : 
OTHER_8            .         Режим_ КСА-Т4                 : 
OTHER_9            .         Форма_ КВА.                   : 
PROJECT_UPGRADE_TIME .         2021-03-18T21_24_49           : 
TLFamily_DEPT      .         Measured Depth                : 
TLFamily_GK        .         Gamma Ray                     : 
TLFamily_GK$       .                                       : 
TLFamily_GK_2      .         Gamma Ray                     : 
TLFamily_LM        .         Casing Collar locator         : 
TLFamily_METKA     .                                       : 
TLFamily_MN        .                                       : 
TLFamily_MN$       .                                       : 
TLFamily_RCOR      .                                       : 
TLFamily_SPID      .         Spontaneous Potential         : 
TLFamily_TENS      .         Cable Tension                 : 
TLFamily_TIME      .         Time                          : 
TLFamily_TM        .         Temperature                   : 
TLFamily_TM$       .         Temperature                   : 
group              .         prim                          : 
~Curve Information
#_______________________________________________________________________________
#
#LOGNAME           .UNIT     LOG_ID                        : DESCRIPTION
#_______________________________________________________________________________
DEPT               .M                                      : 1 Глубина, м -    0.0 см 
GK                 .MKR/H                                  : 13 Гамма-активность, мкр./ч -  110.0 см 
GK$                .UE                                     : 10 Гамма-активность, усл.ед. -  110.0 см 
GK_2               .FLT                                    : 14 Гамма-активность фильтрованная, мкр./ч -  110.0 см 
LM                 .                                       : 9 Локатор муфт,  -   20.0 см 
METKA              .                                       : 3 Метки,  -    0.0 см 
MN                 .ATM                                    : 12 Давление, атм. -  160.0 см 
MN$                .UE                                     : 8 Давление, усл.ед. -  160.0 см 
RCOR               .CM/KM                                  : 5 Коррекция по ролику, см/км -    0.0 см 
SPID               .M/H                                    : 2 Скорость, м/час -    0.0 см 
TENS               .T                                      : 6 Натяжение кабеля, т -    0.0 см 
TIME               .S                                      : 4 Время, сек -    0.0 см 
TM                 .GRD                                    : 11 Температура, °C -  170.0 см 
TM$                .UE                                     : 7 Температура, усл.ед. -  170.0 см 
~Ascii
# ...
2721.8     11.09      471        11.07      139        0          250.218    13465      -634       537        0.05       7414.72    49.676     12592     
2722       11.09      471        11.09      153        0          250.241    13466      -634       522        0.05       7416.06    49.668     12590     
2722.2     11.14      473        11.14      167        0          250.241    13466      -634       537        0.05       7417.44    49.664     12589     
2722.4     10.43      443        10.69      164        0          250.264    13467      -634       529        0.05       7418.72    49.659     12588     
2722.6     10.29      437        10.3       126        0          250.286    13468      -634       542        0.05       7420.06    49.656     12587     
2722.8     10.25      435        10.27      104        0          250.308    13469      -634       536        0.05       7421.39    49.648     12585     
2723       10.24      435        10.24      121        0          250.331    13470      -634       542        0.05       7422.7     49.644     12584     
2723.2     10.69      454        10.54      133        0          250.354    13471      -634       532        0.05       7424.05    49.639     12583     
2723.4     10.69      454        10.69      166        0          250.354    13471      -634       541        0.05       7425.45    49.635     12582     
2723.6     11.07      470        11.02      184        0          250.376    13472      -634       529        0.05       7426.77    49.63      12581     
2723.8     11.07      470        11.07      247        0          250.399    13473      -634       541        0.05       7428.14    49.623     12579     
2724       12.06      512        11.95      225        0          250.421    13474      -634       537        0.07       7429.39    49.621     12578     
2724.2     12.06      512        12.05      253        0          250.444    13475      -634       540        0.05       7430.77    49.616     12577     
2724.4     11.59      492        11.64      241        0          250.466    13476      -634       533        0.07       7432.08    49.615     12577     
2724.6     11.19      475        11.33      181        0          250.489    13477      -634       542        0.07       7433.4     49.614     12577     
2724.8     9.21       391        9.28       145        0          250.489    13477      -634       534        0.07       7434.72    49.607     12575     
2725       8.91       378        9.02       195        0          250.511    13478      -634       532        0.07       7436.14    49.603     12574     
2725.2     7.44       316        7.5        235        0          250.534    13479      -634       527        0.07       7437.47    49.599     12573     
2725.4     7.33       311        7.37       258        0          250.568    13481      -634       537        0.07       7438.84    49.592     12571     
2725.6     6.78       288        6.8        276        0          250.579    13481      -634       538        0.07       7440.09    49.583     12569     
2725.8     6.69       284        6.72       1079       0          250.602    13482      -634       546        0.07       7441.47    49.577     12567     
2726       6.69       284        6.69       475        0          250.623    13483      -634       538        0.07       7442.78    49.583     12569     
2726.2     7.35       312        7.2        266        0          250.623    13483      -634       544        0.07       7444.09    49.583     12569     
2726.4     7.35       312        7.34       212        0          250.668    13485      -634       538        0.07       7445.45    49.583     12569     
2726.6     7.96       338        7.83       190        0          250.686    13486      -634       536        0.07       7446.86    49.579     12568     
2726.8     7.96       338        7.96       252        0          250.698    13486      -634       528        0.07       7448.17    49.575     12567     
2727       7.82       332        7.83       211        0          250.712    13487      -634       541        0.07       7449.51    49.584     12569     
2727.2     7.82       332        7.82       161        0          250.734    13488      -634       537        0.07       7450.8     49.588     12570     
2727.4     7.68       326        7.69       169        0          250.755    13489      -634       536        0.07       7452.17    49.596     12572     
2727.6     7.68       326        7.68       239        0          250.754    13489      -634       535        0.07       7453.49    49.61      12576     
2727.8     7.28       309        7.29       125        0          250.799    13491      -634       539        0.07       7454.8     49.615     12577     
2728       6.99       297        7.1        113        0          250.812    13492      -634       531        0.05       7456.18    49.615     12577     
2728.2     6.81       289        6.81       195        0          250.821    13492      -634       528        0.05       7457.53    49.615     12577     
2728.4     7.06       300        6.97       131        0          250.843    13493      -634       525        0.05       7458.87    49.608     12575     
2728.6     7.18       305        7.18       177        0          250.865    13494      -634       536        0.05       7460.25    49.617     12577     
2728.8     7.82       332        7.71       138        0          250.882    13495      -634       538        0.07       7461.53    49.628     12580     
2729       7.82       332        7.81       307        0          250.896    13496      -634       538        0.07       7462.88    49.646     12585     
2729.2     9.82       417        9.55       210        0          250.929    13497      -634       540        0.07       7464.23    49.652     12586     
2729.4     9.82       417        9.81       218        0          250.951    13498      -634       545        0.07       7465.5     49.656     12587     
2729.6     11.44      486        11.25      171        0          250.973    13499      -634       539        0.05       7466.93    49.656     12587     
2729.8     11.44      486        11.44      227        0          250.995    13500      -634       531        0.07       7468.25    49.656     12587     
2730       10.81      459        10.84      203        2          251.002    13500      -634       531        0.07       7469.56    49.658     12588     
2730.2     10.81      459        10.81      195        0          251.015    13501      -640       523        0.04       7471.31    49.669     12590     
2730.4     9.82       417        9.86       188        0          251.023    13501      -640       531        0.05       7472.63    49.691     12596     
2730.6     9.82       417        9.82       165        0          251.035    13502      -640       536        0.05       7473.95    49.709     12600     
2730.8     8.01       340        8.07       200        0          251.07     13504      -640       542        0.05       7475.33    49.72      12603     
2731       6.66       283        7.11       212        0          251.101    13505      -640       536        0.05       7476.64    49.725     12604     
2731.2     6.66       283        6.67       187        0          251.119    13506      -640       530        0.05       7478.02    49.724     12604     
2731.4     6.62       281        6.62       86         0          251.146    13507      -640       527        0.05       7479.39    49.72      12603     
2731.6     6.62       281        6.62       85         0          251.147    13507      -640       537        0.05       7480.7     49.715     12602     
2731.8     6.73       286        6.72       70         0          251.169    13508      -640       537        0.05       7482.02    49.709     12600     
2732       6.73       286        6.73       1404       0          251.192    13509      -640       534        0.05       7483.38    49.704     12599     
