~Version
 VERS              .         2.0                           : CWLS LOG ASCII STANDARD - VERSION 2.0
 WRAP              .         NO                            : ONE LINE PER DEPTH STEP
 DLM               .         SPACE                         : DELIMITING CHARACTER(SPACE TAB OR COMMA)
~Well Information
#_______________________________________________________________________________
#
#PARAMETER_NAME    .UNIT     VALUE                         : DESCRIPTION
#_______________________________________________________________________________
STRT               .M        2733.1                        : First reference value
STOP               .M        2798.6                        : Last reference value
STEP               .M        0.1                           : Step increment
NULL               .         -9999                         : Missing value
COMP               .                                       : Company
WELL               .         616                           : Well name
FLD                .                                       : Field
LOC                .                                       : Location
CNTY               .                                       : County
STAT               .                                       : State
CTRY               .                                       : Country
SRVC               .                                       : Service Company
DATE               .                                       : Date
API                .                                       : API number
PROJECT_UPGRADE_TIME .         2021-03-18T21_24_50           : 
group              .         Good                          : 
~Parameter Information Block
#_______________________________________________________________________________
#
#PARAMETER_NAME    .UNIT     VALUE                         : DESCRIPTION
#_______________________________________________________________________________
SET                .         D2661_D                       : 
OTHER              .         Программное обеспечение станции MONITOR-386EX 25/12/99 15_08_10   BGF V50 26/12/00 07_26_01   3.1_SNGF___BGF_N_092085: 
OTHER_10           .         Тарировки_                    : 
OTHER_11           .         IK1.GRD = IK1$.UE - -5.96     : 
OTHER_12           .         IK5.GRD = IK5$.UE - -0.74     : 
OTHER_13           .         IK4.GRD = IK4$.UE - -0.9      : 
OTHER_14           .         IK3.GRD = IK3$.UE - -1.28     : 
OTHER_15           .         IK2.GRD = IK2$.UE - -3.55     : 
OTHER_2            .         Kedr.exe версия 3.3.2.32      : 
OTHER_3            .         KedrData.dll версия 3.3.2.17  : 
OTHER_4            .         Драйвер версия 2.1.0.4        : 
OTHER_5            .         Мнемоники версия 3.3 S        : 
OTHER_6            .         Прибор_ Викиз                 : 
OTHER_7            .         Номер прибора_ 0006012        : 
OTHER_8            .         Режим_ Викиз                  : 
OTHER_9            .         Форма_ ВИКИЗ                  : 
PROJECT_UPGRADE_TIME .         2021-03-18T21_24_49           : 
TLFamily_DEPT      .         Measured Depth                : 
TLFamily_IK1       .         Extra Shallow Resistivity     : 
TLFamily_IK1$      .         Extra Shallow Resistivity     : 
TLFamily_IK2       .         Shallow Resistivity           : 
TLFamily_IK2$      .         Shallow Resistivity           : 
TLFamily_IK3       .         Medium Resistivity            : 
TLFamily_IK3$      .         Medium Resistivity            : 
TLFamily_IK4       .         Deep Resistivity              : 
TLFamily_IK4$      .         Deep Resistivity              : 
TLFamily_IK5       .         Resistivity 20                : 
TLFamily_IK5$      .         Resistivity 20                : 
TLFamily_METKA     .                                       : 
TLFamily_PS        .         Spontaneous Potential         : 
TLFamily_RCOR      .                                       : 
TLFamily_SPID      .         Spontaneous Potential         : 
TLFamily_TENS      .         Cable Tension                 : 
TLFamily_TIME      .         Time                          : 
group              .         prim                          : 
~Curve Information
#_______________________________________________________________________________
#
#LOGNAME           .UNIT     LOG_ID                        : DESCRIPTION
#_______________________________________________________________________________
DEPT               .M                                      : 1 Глубина, м -    0.0 см 
IK1                .GRD                                    : 13 3Ф0.5, град. -  226.0 см 
IK1$               .UE                                     : 7 3Ф0.5, усл.ед. -  226.0 см 
IK2                .GRD                                    : 17 3Ф0.7, град. -  240.0 см 
IK2$               .UE                                     : 11 3Ф0.7, усл.ед. -  240.0 см 
IK3                .GRD                                    : 16 3Ф1.0, град. -  260.0 см 
IK3$               .UE                                     : 10 3Ф1.0, усл.ед. -  260.0 см 
IK4                .GRD                                    : 15 3Ф1.4, град. -  288.0 см 
IK4$               .UE                                     : 9 3Ф1.4, усл.ед. -  288.0 см 
IK5                .GRD                                    : 14 3Ф2.0, град. -  328.0 см 
IK5$               .UE                                     : 8 3Ф2.0, усл.ед. -  328.0 см 
METKA              .                                       : 3 Метки,  -    0.0 см 
PS                 .mV                                     : 12 ПС, мВ -  372.0 см 
RCOR               .CM/KM                                  : 5 Коррекция по ролику, см/км -    0.0 см 
SPID               .M/H                                    : 2 Скорость, м/час -    0.0 см 
TENS               .T                                      : 6 Натяжение кабеля, т -    0.0 см 
TIME               .S                                      : 4 Время, сек -    0.0 см 
~Ascii
# ...
2741.7     12.07      6.11       13.25      9.7        14.6       13.32      14.89      13.99      15.07      14.33      0          295.96     -302       -1803      0          34466.01  
2741.8     12.09      6.13       13.32      9.77       14.64      13.36      14.88      13.98      15.02      14.28      0          298.89     -302       -1806      0          34465.79  
2741.9     12.19      6.23       13.47      9.92       14.71      13.43      14.88      13.98      14.97      14.23      0          302.45     -302       -1810      0          34465.59  
2742       12.35      6.39       13.63      10.08      14.78      13.5       14.85      13.95      14.89      14.15      0          306.66     -302       -1815      0          34465.4   
2742.1     12.58      6.62       13.79      10.24      14.83      13.55      14.8       13.9       14.81      14.07      0          312.39     -302       -1822      0          34465.18  
2742.2     12.9       6.94       13.97      10.42      14.85      13.57      14.73      13.83      14.72      13.98      0          317.51     -302       -1830      0          34464.99  
2742.3     13.41      7.45       14.12      10.57      14.85      13.57      14.62      13.72      14.62      13.88      0          322.35     -302       -1830      0          34464.8   
2742.4     13.85      7.89       14.22      10.67      14.81      13.53      14.52      13.62      14.48      13.74      0          326.11     -302       -1822      0          34464.61  
2742.5     14.06      8.1        14.15      10.6       14.69      13.41      14.4       13.5       14.37      13.63      0          328.62     -302       -1812      0          34464.4   
2742.6     14.15      8.19       14.02      10.47      14.51      13.23      14.28      13.38      14.27      13.53      0          329.94     -302       -1801      0          34464.21  
2742.7     14.25      8.29       13.95      10.4       14.33      13.05      14.17      13.27      14.18      13.44      0          330.61     -302       -1787      0          34464.03  
2742.8     14.36      8.4        13.98      10.43      14.27      12.99      14.12      13.22      14.14      13.4       0          330.54     -302       -1767      0          34463.82  
2742.9     14.5       8.54       14.07      10.52      14.27      12.99      14.11      13.21      14.14      13.4       0          330.31     -302       -1773      0          34463.63  
2743       14.74      8.78       14.23      10.68      14.34      13.06      14.14      13.24      14.16      13.42      0          330.5      -302       -1783      0          34463.44  
2743.1     14.99      9.03       14.44      10.89      14.42      13.14      14.18      13.28      14.2       13.46      0          330.44     -302       -1796      0          34463.21  
2743.2     15.12      9.16       14.55      11         14.49      13.21      14.2       13.3       14.23      13.49      0          330.32     -302       -1798      0          34463.02  
2743.3     15.09      9.13       14.56      11.01      14.53      13.25      14.21      13.31      14.26      13.52      0          330.23     -302       -1800      0          34462.82  
2743.4     15.05      9.09       14.57      11.02      14.58      13.3       14.22      13.32      14.29      13.55      0          330.24     -302       -1802      0          34462.62  
2743.5     15.05      9.09       14.6       11.05      14.65      13.37      14.24      13.34      14.31      13.57      0          330.63     -302       -1805      0          34462.42  
2743.6     15.07      9.11       14.64      11.09      14.74      13.46      14.3       13.4       14.33      13.59      0          331.01     -302       -1809      0          34462.21  
2743.7     15.11      9.15       14.73      11.18      14.89      13.61      14.39      13.49      14.38      13.64      0          331.48     -302       -1814      0          34462.04  
2743.8     15.32      9.36       14.98      11.43      15.08      13.8       14.5       13.6       14.43      13.69      0          332.7      -302       -1821      0          34461.8   
2743.9     15.72      9.76       15.26      11.71      15.28      14         14.62      13.72      14.48      13.74      0          333.17     -302       -1828      0          34461.63  
2744       16         10.04      15.41      11.86      15.38      14.1       14.7       13.8       14.51      13.77      0          333.28     -302       -1827      0          34461.43  
2744.1     16         10.04      15.37      11.82      15.34      14.06      14.7       13.8       14.52      13.78      0          332.76     -302       -1818      0          34461.21  
2744.2     15.94      9.98       15.26      11.71      15.26      13.98      14.66      13.76      14.5       13.76      0          331.83     -302       -1808      0          34461.02  
2744.3     15.85      9.89       15.14      11.59      15.18      13.9       14.62      13.72      14.47      13.73      0          330.87     -302       -1809      0          34460.84  
2744.4     15.71      9.75       15.04      11.49      15.1       13.82      14.61      13.71      14.46      13.72      0          329.8      -302       -1813      0          34460.65  
2744.5     15.54      9.58       14.96      11.41      15.06      13.78      14.61      13.71      14.47      13.73      0          328.52     -302       -1819      0          34460.44  
2744.6     15.46      9.5        14.99      11.44      15.08      13.8       14.66      13.76      14.5       13.76      0          327.49     -302       -1811      0          34460.26  
2744.7     15.5       9.54       15.09      11.54      15.16      13.88      14.74      13.84      14.57      13.83      0          326.23     -302       -1800      0          34460.07  
2744.8     15.51      9.55       15.14      11.59      15.21      13.93      14.8       13.9       14.62      13.88      0          324.33     -302       -1792      0          34459.84  
2744.9     15.35      9.39       15.03      11.48      15.17      13.89      14.82      13.92      14.66      13.92      0          322.54     -302       -1792      0          34459.66  
2745       15.15      9.19       14.89      11.34      15.09      13.81      14.78      13.88      14.68      13.94      0          320.59     -302       -1793      0          34459.47  
2745.1     14.88      8.92       14.7       11.15      14.98      13.7       14.73      13.83      14.68      13.94      0          318.3      -302       -1794      0          34459.25  
2745.2     14.53      8.57       14.42      10.87      14.87      13.59      14.69      13.79      14.68      13.94      0          316.41     -302       -1795      0          34459.07  
2745.3     14.17      8.21       14.21      10.66      14.79      13.51      14.68      13.78      14.69      13.95      0          314.59     -302       -1796      0          34458.87  
2745.4     13.77      7.81       14.06      10.51      14.76      13.48      14.72      13.82      14.73      13.99      0          313.15     -302       -1798      0          34458.68  
2745.5     13.39      7.43       13.91      10.36      14.8       13.52      14.79      13.89      14.79      14.05      0          312.44     -302       -1800      0          34458.47  
2745.6     13.15      7.19       13.89      10.34      14.91      13.63      14.89      13.99      14.86      14.12      0          313.48     -302       -1802      0          34458.28  
2745.7     13.12      7.16       14.03      10.48      15.16      13.88      15.04      14.14      14.93      14.19      0          315.99     -302       -1805      0          34458.09  
2745.8     13.36      7.4        14.32      10.77      15.43      14.15      15.2       14.3       15.01      14.27      0          320.32     -302       -1809      0          34457.87  
2745.9     13.86      7.9        14.72      11.17      15.71      14.43      15.34      14.44      15.06      14.32      0          324.43     -302       -1813      0          34457.68  
