~Version
 VERS              .         2.0                           : CWLS LOG ASCII STANDARD - VERSION 2.0
 WRAP              .         NO                            : ONE LINE PER DEPTH STEP
 DLM               .         SPACE                         : DELIMITING CHARACTER(SPACE TAB OR COMMA)
~Well Information
#_______________________________________________________________________________
#
#PARAMETER_NAME    .UNIT     VALUE                         : DESCRIPTION
#_______________________________________________________________________________
STRT               .M        47.8                          : First reference value
STOP               .M        2693.8                        : Last reference value
STEP               .M        0.2                           : Step increment
NULL               .         -9999                         : Missing value
COMP               .                                       : Company
WELL               .         616                           : Well name
FLD                .                                       : Field
LOC                .                                       : Location
CNTY               .                                       : County
STAT               .                                       : State
CTRY               .                                       : Country
SRVC               .                                       : Service Company
DATE               .                                       : Date
API                .                                       : API number
PROJECT_UPGRADE_TIME .         2021-03-18T21_24_50           : 
group              .         Good                          : 
~Parameter Information Block
#_______________________________________________________________________________
#
#PARAMETER_NAME    .UNIT     VALUE                         : DESCRIPTION
#_______________________________________________________________________________
SET                .         D1172_D                       : 
OTHER              .         Программное обеспечение станции MONITOR-386EX 25/12/99 15_08_10   BGF V52 22/08/01 16_56_30   3.2_BGF_N_3070031: 
OTHER_10           .         Тарировки_                    : 
OTHER_11           .         TM.GRD = 0.00403*TM$.UE + -1.19: 
OTHER_12           .         MN.ATM = (7.1e-006*TM.GRD + 0.02017)*(MN$.UE + -3.03*TM.GRD + -1833): 
OTHER_13           .         Id error                      : 
OTHER_2            .         Kedr.exe версия 3.4.2.51      : 
OTHER_3            .         KedrData.dll версия 3.4.2.24  : 
OTHER_4            .         Драйвер версия 2.1.1.8        : 
OTHER_5            .         Мнемоники версия 3.3 S        : 
OTHER_6            .         Прибор_ КСА-М1                : 
OTHER_7            .         Номер прибора_ 265            : 
OTHER_8            .         Режим_ КСА-М1                 : 
OTHER_9            .         Форма_ ТЕРМОМЕТР              : 
PROJECT_UPGRADE_TIME .         2021-03-18T21_24_49           : 
TLFamily_DEPT      .         Measured Depth                : 
TLFamily_GK        .         Gamma Ray                     : 
TLFamily_GK$       .                                       : 
TLFamily_LM        .         Casing Collar locator         : 
TLFamily_METKA     .                                       : 
TLFamily_MN        .                                       : 
TLFamily_MN$       .                                       : 
TLFamily_RCOR      .                                       : 
TLFamily_SPID      .         Spontaneous Potential         : 
TLFamily_STD       .                                       : 
TLFamily_TENS      .         Cable Tension                 : 
TLFamily_TIME      .         Time                          : 
TLFamily_TM        .         Temperature                   : 
TLFamily_TM$       .         Temperature                   : 
TLFamily_VGD       .         Gas Volume                    : 
group              .         prim                          : 
~Curve Information
#_______________________________________________________________________________
#
#LOGNAME           .UNIT     LOG_ID                        : DESCRIPTION
#_______________________________________________________________________________
DEPT               .M                                      : 1 Глубина, м -    0.0 см 
GK                 .MKR/H                                  : 15 Гамма-активность, мкр./ч -  110.0 см 
GK$                .UE                                     : 12 Гамма-активность, усл.ед. -  110.0 см 
LM                 .                                       : 10 Локатор муфт,  -   20.0 см 
METKA              .                                       : 3 Метки,  -    0.0 см 
MN                 .ATM                                    : 14 Давление, атм. -  160.0 см 
MN$                .UE                                     : 8 Давление, усл.ед. -  160.0 см 
RCOR               .CM/KM                                  : 5 Коррекция по ролику, см/км -    0.0 см 
SPID               .M/H                                    : 2 Скорость, м/час -    0.0 см 
STD                .                                       : 11 Приток,  -  170.0 см 
TENS               .T                                      : 6 Натяжение кабеля, т -    0.0 см 
TIME               .S                                      : 4 Время, сек -    0.0 см 
TM                 .GRD                                    : 13 Температура, °C -  180.0 см 
TM$                .UE                                     : 7 Температура, усл.ед. -  180.0 см 
VGD                .                                       : 9 Влагомер,  -  170.0 см 
~Ascii
# ...
2684       9.07       415        1          0          256.842    14454      -1400      -1776      31244      0          29185.42   85.347     21473      6605      
2684.2     8.76       415        1          0          256.862    14455      -1400      -1778      31246      0          29185.04   85.355     21475      6605      
2684.4     8.33       396        1          0          256.881    14456      -1400      -1777      31250      0          29184.64   85.362     21477      6605      
2684.6     7.86       341        1          0          256.902    14457      -1400      -1768      31252      0          29184.22   85.366     21478      6605      
2684.8     7.8        341        1          0          256.921    14458      -1400      -1763      31254      0          29183.82   85.374     21480      6605      
2685       7.72       341        1          0          256.925    14458      -1400      -1765      31258      0          29183.41   85.381     21482      6605      
2685.2     7.61       341        1          0          256.939    14459      -1400      -1763      31262      0          29183.01   85.385     21483      6605      
2685.4     7.44       341        1          0          256.959    14460      -1400      -1766      31263      0          29182.63   85.394     21485      6604      
2685.6     7.17       341        1          0          256.99     14461      -1400      -1770      31268      0          29182.21   85.404     21487      6604      
2685.8     6.78       297        1          0          257.009    14462      -1400      -1768      31271      0          29181.78   85.409     21489      6604      
2686       6.7        284        1          0          257.023    14463      -1400      -1772      31271      0          29181.37   85.414     21490      6605      
2686.2     6.72       284        1          0          257.057    14464      -1400      -1776      31275      0          29180.96   85.422     21492      6605      
2686.4     6.76       284        1          0          257.071    14465      -1400      -1781      31278      0          29180.58   85.428     21493      6605      
2686.6     6.81       284        1          0          257.08     14465      -1400      -1782      31279      0          29180.16   85.434     21495      6605      
2686.8     6.9        289        1          0          257.116    14467      -1400      -1781      31282      0          29179.76   85.444     21497      6605      
2687       6.98       294        1          0          257.134    14468      -1400      -1784      31285      0          29179.35   85.447     21498      6605      
2687.2     7.03       294        1          0          257.134    14468      -1400      -1786      31286      0          29178.95   85.451     21499      6605      
2687.4     7.09       294        1          0          257.154    14469      -1400      -1785      31290      0          29178.54   85.463     21502      6605      
2687.6     7.19       294        1          0          257.155    14469      -1400      -1787      31294      0          29178.13   85.463     21502      6605      
2687.8     7.35       294        1          0          257.191    14471      -1400      -1791      31295      0          29177.72   85.47      21504      6605      
2688       7.57       298        1          0          257.197    14471      -1400      -1793      31298      0          29177.32   85.475     21505      6605      
2688.2     7.87       333        1          0          257.212    14472      -1400      -1799      31302      0          29176.92   85.481     21506      6605      
2688.4     7.91       333        1          0          257.232    14473      -1400      -1806      31304      0          29176.52   85.486     21508      6605      
2688.6     7.98       333        1          0          257.251    14474      -1400      -1814      31307      0          29176.11   85.492     21509      6605      
2688.8     8.07       333        1          0          257.271    14475      -1400      -1817      31312      0          29175.68   85.5       21511      6605      
2689       8.2        333        1          0          257.29     14475      -1400      -1820      31313      0          29175.26   85.509     21514      6605      
2689.2     8.4        333        1          0          257.31     14476      -1400      -1828      31317      0          29174.89   85.517     21515      6606      
2689.4     8.68       360        1          0          257.33     14477      -1400      -1839      31322      0          29174.47   85.523     21517      6605      
2689.6     8.82       375        1          0          257.35     14478      -1400      -1851      31323      0          29174.05   85.532     21519      6605      
2689.8     8.84       375        1          2          257.373    14479      -1400      -1859      31327      0          29173.62   85.542     21522      6606      
2690       8.87       375        1          0          257.407    14481      -1400      -1866      31333      0          29173.17   85.549     21523      6605      
2690.2     8.92       375        1          0          257.409    14481      -1400      -1874      31335      0          29172.78   85.557     21525      6605      
2690.4     8.99       375        90         0          257.45     14483      -1400      -1888      31338      0          29172.37   85.564     21527      6605      
2690.6     9.1        382        290        0          257.47     14484      -1400      -1910      31343      0          29171.94   85.572     21529      6605      
2690.8     9.2        395        628        0          257.506    14486      -1400      -1928      31346      0          29171.52   85.584     21532      6605      
2691       9.17       395        1183       0          257.512    14486      -1400      -1942      31349      0          29171.11   85.591     21534      6605      
2691.2     9.14       395        2107       0          257.529    14487      -1400      -1965      31353      0          29170.71   85.599     21536      6604      
2691.4     9.1        395        2107       0          257.55     14488      -1400      -1995      31356      0          29170.28   85.61      21538      6605      
2691.6     9.02       395        1757       0          257.554    14488      -1400      -2019      31359      0          29169.86   85.619     21541      6605      
2691.8     8.92       392        1          0          257.57     14489      -1400      -2048      31364      0          29169.46   85.63      21544      6605      
2692       8.78       376        1          0          257.575    14489      -1400      -2090      31368      0          29169.04   85.638     21545      6605      
2692.2     8.78       376        1          0          257.589    14490      -9999      -9999      31369      -9999      -9999      85.646     21547      6604      
2692.4     8.77       376        1          -9999      257.61     14491      -9999      -9999      31375      -9999      -9999      85.654     21549      6605      
2692.6     8.76       376        -9999      -9999      257.63     14492      -9999      -9999      31379      -9999      -9999      85.662     21551      6604      
2692.8     8.74       376        -9999      -9999      257.649    14493      -9999      -9999      31381      -9999      -9999      85.669     21553      6605      
2693       8.71       369        -9999      -9999      257.67     14494      -9999      -9999      31385      -9999      -9999      85.677     21555      6605      
2693.2     8.75       368        -9999      -9999      257.69     14494      -9999      -9999      31389      -9999      -9999      85.687     21557      6605      
2693.4     -9999      -9999      -9999      -9999      257.709    14495      -9999      -9999      31393      -9999      -9999      85.696     21560      6605      
2693.6     -9999      -9999      -9999      -9999      257.737    14497      -9999      -9999      31394      -9999      -9999      85.704     21562      6605      
