~Version
 VERS              .         2.0                           : CWLS LOG ASCII STANDARD - VERSION 2.0
 WRAP              .         NO                            : ONE LINE PER DEPTH STEP
 DLM               .         SPACE                         : DELIMITING CHARACTER(SPACE TAB OR COMMA)
~Well Information
#_______________________________________________________________________________
#
#PARAMETER_NAME    .UNIT     VALUE                         : DESCRIPTION
#_______________________________________________________________________________
STRT               .M        549.2                         : First reference value
STOP               .M        805.2                         : Last reference value
STEP               .M        0.2                           : Step increment
NULL               .         -9999                         : Missing value
COMP               .                                       : Company
WELL               .         616                           : Well name
FLD                .                                       : Field
LOC                .                                       : Location
CNTY               .                                       : County
STAT               .                                       : State
CTRY               .                                       : Country
SRVC               .                                       : Service Company
DATE               .                                       : Date
API                .                                       : API number
PROJECT_UPGRADE_TIME .         2021-03-18T21_24_50           : 
group              .         Good                          : 
~Parameter Information Block
#_______________________________________________________________________________
#
#PARAMETER_NAME    .UNIT     VALUE                         : DESCRIPTION
#_______________________________________________________________________________
SET                .         616_4                         : 
CONF               .         00                            : 
END                .         0                             : 
ERR                .         0                             : 
GS00               .M        0803.23                       : 
GS01               .M        0546.74                       : 
MM00               .M        0120.00                       : 
NOKG               .         0                             : 
NPR                .         980402                        : 
PART               .         Палагутин                     : 
PROJECT_UPGRADE_TIME .         2021-03-18T21_24_49           : 
PRZK               .         Шакиров                       : 
TLFamily_AZIMUTH   .         True Dip Azimuth              : 
TLFamily_DEPTH     .         Measured Depth                : 
TLFamily_METKA     .                                       : 
TLFamily_ROLL      .                                       : 
TLFamily_SPEED     .         Spontaneous Potential         : 
TLFamily_ZENIT     .                                       : 
VPRG               .         310                           : 
WAY                .         UP                            : 
group              .         prim                          : 
~Curve Information
#_______________________________________________________________________________
#
#LOGNAME           .UNIT     LOG_ID                        : DESCRIPTION
#_______________________________________________________________________________
DEPTH              .M                                      :  
AZIMUTH            .DEG                                    :  
METKA              .                                       :  
ROLL               .DEG                                    :  
SPEED              .M/H                                    :  
ZENIT              .DEG                                    :  
~Ascii
# ...
598        261.27     0          40.58      612        27.62     
598.2      258.65     0          39.02      684        27.32     
598.4      258.05     0          41.01      612        27.03     
598.6      259.1      0          43.23      684        27.15     
598.8      258.89     0          44.11      684        27.16     
599        258.23     0          44.28      612        27.08     
599.2      258.62     0          44.11      684        27.04     
599.4      259.07     0          42.28      648        27.16     
599.6      256.98     0          41.54      684        26.99     
599.8      258.12     0          43.7       648        26.88     
600        257.58     0          45.56      648        26.85     
600.2      257.91     0          46.4       684        26.89     
600.4      257.18     0          46.71      648        26.84     
600.6      256.77     0          47.14      612        26.78     
600.8      258.73     0          47.06      684        27.11     
601        258.01     0          46.39      612        27.14     
601.2      257.58     0          46.09      648        27.21     
601.4      257.96     0          46.47      684        27.22     
601.6      257.44     0          46.58      684        27.14     
601.8      257.54     0          46.45      612        27.15     
602        257.54     1          46.24      612        27.19     
602.2      257.19     0          45.76      648        27.16     
602.4      257.42     0          45.53      684        27.22     
602.6      257.18     0          45.52      648        27.19     
602.8      257.18     0          45.7       612        27.18     
603        257.25     0          45.68      648        27.21     
603.2      257.14     0          45.34      684        27.14     
603.4      256.74     0          44.75      648        27.14     
603.6      257.75     0          44.68      684        27.31     
603.8      257.13     0          44.96      612        27.17     
604        257.4      0          45.26      684        27.22     
604.2      257.66     0          45.07      648        27.28     
604.4      257.85     0          44.54      684        27.33     
604.6      257.77     0          44.02      648        27.3      
604.8      257.58     0          43.64      612        27.24     
605        257.7      0          43.69      612        27.29     
605.2      256.81     0          44.3       684        27.1      
605.4      257.5      0          44.99      648        27.28     
605.6      257.83     0          45.5       648        27.36     
605.8      257.29     0          45.67      648        27.27     
606        257.43     0          45.66      648        27.29     
606.2      258.12     0          45.52      648        27.41     
606.4      257.68     0          45.22      648        27.39     
606.6      258        0          44.88      684        27.47     
606.8      257.81     0          44.57      612        27.39     
607        258.39     0          44.4       648        27.47     
607.2      257.89     0          44.64      648        27.33     
607.4      257.99     0          44.82      684        27.36     
607.6      257.95     0          45.01      648        27.36     
607.8      257.84     0          45.05      612        27.29     
608        258.82     0          44.88      684        27.32     
608.2      259.94     0          44.91      612        27.27     
608.4      264.3      0          45.28      684        27.35     
608.6      279.71     0          45.65      684        27.52     
608.8      330.44     0          45.84      612        27.41     
609        157.18     0          45.97      684        27.5      
609.2      173.74     0          46.52      684        27.62     
609.4      351.78     0          47.51      648        27.49     
609.6      283.56     0          49.24      684        27.56     
609.8      264.24     0          53.23      576        27.47     
610        260.21     0          61.68      648        27.52     
610.2      257.66     0          68.55      648        27.25     
610.4      258.55     0          72.38      684        27.38     
610.6      256.82     1          76.62      612        27        
610.8      256.13     0          79.04      1260       26.85     
611        256.11     0          81.15      684        26.86     
611.2      257.12     0          84.17      648        27.24     
611.4      256.59     0          86.83      684        27.16     
611.6      256.98     0          88.58      648        27.11     
611.8      257.44     0          89.93      612        27.44     
612        257.22     0          91.25      648        27.22     
612.2      256.97     1          92.24      648        27.25     
612.4      256.28     0          93.05      684        27.14     
612.6      257.85     0          93.44      648        27.52     
612.8      257.04     0          94.62      576        27.28     
613        257.49     0          95.86      648        27.42     
613.2      257.47     0          96.05      684        27.61     
613.4      255.69     0          95.99      684        27.26     
613.6      255.6      0          96.5       684        27.26     
613.8      257.06     0          97.67      648        27.54     
614        255.87     0          98.67      612        27.23     
614.2      256.99     0          99.05      648        27.48     
614.4      257.5      0          99.05      684        27.67     
614.6      256.41     0          99.24      648        27.46     
614.8      257.11     0          99.72      612        27.56     
615        257.72     0          99.9       612        27.79     
615.2      258.12     0          100.38     648        27.9      
615.4      256.59     0          102.24     684        27.7      
615.6      257.09     0          106.23     648        27.87     
615.8      256.88     0          110.89     684        27.77     
616        255.14     0          114.68     648        27.47     
616.2      255.55     0          118.21     648        27.64     
616.4      256.25     0          121.43     648        27.75     
616.6      254.7      0          125.81     648        27.86     
616.8      255.16     0          134.08     612        27.89     
617        256.49     0          141.74     648        27.8      
617.2      256.77     0          145.78     648        27.66     
617.4      256.94     0          146.87     648        27.6      
617.6      256.93     0          146.91     648        27.6      
617.8      257.09     0          147.88     648        27.8      
618        256.99     0          151.88     648        28.09     
618.2      252.45     0          167.12     648        27.11     
618.4      254.66     0          188.63     648        27.44     
618.6      258.84     0          205.65     648        27.39     
618.8      257.39     0          214.28     612        27.45     
619        257.5      0          218.08     648        27.57     
619.2      256.9      0          220.87     648        27.48     
619.4      257.19     0          223.53     684        27.52     
619.6      257.09     0          226        612        27.52     
619.8      255.58     0          229.54     648        27.22     
620        259.37     0          244.11     612        27.46     
620.2      257.99     0          258.63     648        27.58     
620.4      257.28     0          266.5      684        27.4      
620.6      259.68     0          272.48     612        27.68     
620.8      263.94     0          278.84     612        27.95     
621        277        0          285.8      648        27.72     
621.2      325.43     0          292.85     648        27.95     
621.4      208.94     0          300.09     648        27.97     
621.6      164.47     0          307.49     612        27.82     
621.8      11.26      0          314.2      612        27.89     
622        292.52     0          320.45     612        27.9      
622.2      266.17     1          326.43     648        27.91     
