~Version
 VERS              .         2.0                           : CWLS LOG ASCII STANDARD - VERSION 2.0
 WRAP              .         NO                            : ONE LINE PER DEPTH STEP
 DLM               .         SPACE                         : DELIMITING CHARACTER(SPACE TAB OR COMMA)
~Well Information
#_______________________________________________________________________________
#
#PARAMETER_NAME    .UNIT     VALUE                         : DESCRIPTION
#_______________________________________________________________________________
STRT               .M        1149                          : First reference value
STOP               .M        2127.4                        : Last reference value
STEP               .M        0.2                           : Step increment
NULL               .         -9999                         : Missing value
COMP               .                                       : Company
WELL               .         616                           : Well name
FLD                .                                       : Field
LOC                .                                       : Location
CNTY               .                                       : County
STAT               .                                       : State
CTRY               .                                       : Country
SRVC               .                                       : Service Company
DATE               .                                       : Date
API                .                                       : API number
PROJECT_UPGRADE_TIME .         2021-03-18T21_24_50           : 
group              .         Good                          : 
~Parameter Information Block
#_______________________________________________________________________________
#
#PARAMETER_NAME    .UNIT     VALUE                         : DESCRIPTION
#_______________________________________________________________________________
SET                .         616_9                         : 
CONF               .         00                            : 
END                .         0                             : 
ERR                .         0                             : 
GS00               .M        2125.46                       : 
GS01               .M        1146.68                       : 
MM00               .M        2120.00                       : 
NOKG               .         0                             : 
NPR                .         990907                        : 
PART               .         Ивашин                        : 
PROJECT_UPGRADE_TIME .         2021-03-18T21_24_49           : 
PRZK               .         Шакиров                       : 
TLFamily_AZIMUTH   .         True Dip Azimuth              : 
TLFamily_DEPTH     .         Measured Depth                : 
TLFamily_METKA     .                                       : 
TLFamily_ROLL      .                                       : 
TLFamily_SPEED     .         Spontaneous Potential         : 
TLFamily_ZENIT     .                                       : 
VPRG               .         310                           : 
WAY                .         UP                            : 
group              .         prim                          : 
~Curve Information
#_______________________________________________________________________________
#
#LOGNAME           .UNIT     LOG_ID                        : DESCRIPTION
#_______________________________________________________________________________
DEPTH              .M                                      :  
AZIMUTH            .DEG                                    :  
METKA              .                                       :  
ROLL               .DEG                                    :  
SPEED              .M/H                                    :  
ZENIT              .DEG                                    :  
~Ascii
1149.0     224.97     0          127.53     684        33.15     
1149.2     242.95     0          177.89     648        31.2      
1149.4     257.04     0          216.36     684        31.56     
1149.6     255.31     0          238.02     684        31.83     
1149.8     253.97     0          251.99     684        31.79     
1150       255.64     0          266.33     648        32.39     
1150.2     253.99     0          281.41     684        32.31     
1150.4     255.29     0          297.02     684        33.03     
1150.6     258.42     0          311.7      648        32.56     
1150.8     256.82     0          317.04     684        32.23     
1151       255.08     0          316.44     648        32.38     
1151.2     255.64     0          316.36     684        32.56     
1151.4     255.88     0          317.01     684        32.43     
1151.6     253.49     0          318.06     684        32.31     
1151.8     254.41     0          319.16     648        32.22     
1152       255.08     1          320.18     684        32.41     
1152.2     255.01     0          320.76     252        32.43     
1152.4     255.82     0          320.54     684        32.49     
1152.6     255.02     0          320.21     684        32.44     
1152.8     255.76     0          320.19     648        32.59     
1153       255.16     0          319.9      684        32.49     
1153.2     255.16     0          319.67     648        32.51     
1153.4     255.04     0          319.96     684        32.48     
1153.6     255.67     0          320.17     684        32.58     
1153.8     256.08     0          319.83     648        32.65     
1154       255.77     0          319.54     684        32.57     
1154.2     255.49     0          319.61     684        32.5      
1154.4     255.29     0          319.8      684        32.5      
1154.6     255.38     0          320.13     648        32.55     
1154.8     255.63     0          320.7      684        32.67     
1155       255.63     0          320.93     684        32.62     
1155.2     254.87     0          320.92     684        32.43     
1155.4     256.06     0          320.44     648        32.6      
1155.6     255.81     0          319.87     684        32.66     
1155.8     255.38     0          319.81     648        32.57     
1156       256.22     0          320.04     684        32.71     
1156.2     255.76     0          320.17     684        32.64     
1156.4     256.01     0          320.36     648        32.67     
1156.6     255.7      0          320.65     684        32.48     
1156.8     255.62     0          320.76     684        32.47     
1157       256.36     0          320.67     648        32.61     
1157.2     256.39     0          320.33     684        32.55     
1157.4     257.03     0          320.01     684        32.64     
1157.6     256.44     0          319.94     648        32.36     
1157.8     259.37     0          319.96     684        32.63     
1158       263.36     0          320.61     648        32.72     
1158.2     281.18     0          321.34     684        32.54     
1158.4     340.99     0          321.43     684        32.83     
1158.6     81.14      0          321.34     648        32.75     
1158.8     124.85     0          321.1      684        32.82     
1159       347.75     0          320.49     648        32.83     
1159.2     296.89     0          319.96     684        32.84     
1159.4     266.84     0          319.79     684        32.89     
1159.6     260.31     0          319.42     684        32.91     
1159.8     259.16     0          318.39     648        33        
1160       254.79     0          317.84     684        32.76     
1160.2     255.48     0          318.04     684        32.51     
1160.4     255.99     0          318.47     648        32.61     
1160.6     256.92     0          318.15     684        32.65     
1160.8     254.87     0          318.15     648        32.27     
1161       256.36     0          318.42     684        32.6      
1161.2     255.95     0          317.5      684        32.53     
1161.4     255.69     0          315.18     648        32.51     
1161.6     254.77     0          314.36     684        32.53     
1161.8     254.83     0          314.91     684        32.48     
1162       254.44     0          315.28     684        32.33     
1162.2     255.74     1          315.76     648        32.53     
1162.4     255.5      0          316.6      684        32.44     
1162.6     252.66     0          317.96     648        31.84     
1162.8     257.46     0          319.52     684        32.73     
1163       255.31     0          320.22     648        32.68     
1163.2     255.02     0          320.41     684        32.61     
1163.4     255.13     0          320.35     648        32.59     
1163.6     255.44     0          320.33     684        32.7      
1163.8     255.44     0          320.65     684        32.72     
1164       254.63     0          321.37     684        32.57     
1164.2     255.47     0          321.18     648        32.67     
1164.4     254.43     0          321.32     684        32.64     
1164.6     255.61     0          321.39     648        32.57     
1164.8     255.72     0          320.56     684        32.71     
1165       254.78     0          320.48     648        32.6      
1165.2     255.71     0          320.69     684        32.73     
1165.4     255.95     0          320.82     648        32.79     
1165.6     255.67     0          320.81     684        32.71     
1165.8     255.46     0          320.99     684        32.72     
1166       255.49     0          321.27     648        32.66     
1166.2     255.74     0          321.4      684        32.73     
1166.4     255.23     0          321.72     684        32.8      
1166.6     255.33     0          321.87     648        32.66     
1166.8     255.98     0          321.51     684        32.77     
1167       255.05     0          320.97     684        32.6      
1167.2     255.75     0          320.79     684        32.83     
1167.4     255.34     0          320.43     648        32.72     
1167.6     255.62     0          320.18     684        32.73     
1167.8     255.93     0          320.3      684        32.81     
1168       255.84     0          320.79     648        32.8      
1168.2     256.72     0          320.37     684        32.82     
1168.4     255.7      0          319.5      684        32.69     
1168.6     255.18     0          319.53     648        32.76     
1168.8     256.41     0          319.93     684        32.89     
1169       256.16     0          320.05     684        32.81     
1169.2     256.69     0          320.03     684        32.95     
1169.4     254.91     0          320.42     648        32.69     
1169.6     257.21     0          321.02     684        32.98     
1169.8     257.8      0          321.35     648        32.93     
1170       259.17     0          321.17     648        32.93     
1170.2     260.99     0          321.16     684        32.98     
1170.4     270.5      0          321.5      684        32.97     
1170.6     299.75     0          321.76     648        32.98     
1170.8     262.06     0          321.84     684        33.14     
1171       126.59     0          321.98     648        32.99     
1171.2     99.78      0          321.84     684        33.18     
1171.4     340.08     0          321.74     684        33.16     
1171.6     289.34     0          321.61     648        33.26     
1171.8     266.12     0          321.26     684        33.17     
1172       259.45     0          321.36     684        33.13     
1172.2     257.63     1          321.34     684        33.07     
1172.4     256.49     0          320.77     684        32.93     
1172.6     256.81     0          320.7      648        32.96     
1172.8     255.76     0          320.59     684        32.79     
1173       255.96     0          320.78     648        32.89     
1173.2     256.47     0          320.5      684        32.77     
