~Version
 VERS              .         2.0                           : CWLS LOG ASCII STANDARD - VERSION 2.0
 WRAP              .         NO                            : ONE LINE PER DEPTH STEP
 DLM               .         SPACE                         : DELIMITING CHARACTER(SPACE TAB OR COMMA)
~Well Information
#_______________________________________________________________________________
#
#PARAMETER_NAME    .UNIT     VALUE                         : DESCRIPTION
#_______________________________________________________________________________
STRT               .M        2658.35                       : First reference value
STOP               .M        2764.149788                   : Last reference value
STEP               .M        0.1999996                     : Step increment
NULL               .         -9999                         : Missing value
COMP               .                                       : Company
WELL               .         616                           : Well name
FLD                .                                       : Field
LOC                .                                       : Location
CNTY               .                                       : County
STAT               .                                       : State
CTRY               .                                       : Country
SRVC               .                                       : Service Company
DATE               .                                       : Date
API                .                                       : API number
PROJECT_UPGRADE_TIME .         2021-03-18T21_24_50           : 
group              .         Good                          : 
~Parameter Information Block
#_______________________________________________________________________________
#
#PARAMETER_NAME    .UNIT     VALUE                         : DESCRIPTION
#_______________________________________________________________________________
SET                .         D7019_D_2                     : 
NPR                .         155                           : Номер прибора
OTHER              .         Kedr.exe версия 2.1.2.32      : 
OTHER_10           .         TM.GRD = 0.00404*TM$.UE + 0.07: 
OTHER_11           .         MN.ATM = (6.33279e-006*TM.GRD + 0.02401)*(MN$.UE + 2.72*TM.GRD + -2018): 
OTHER_12           .         GK.MKR/H = GK$.UE / 43.5489 + 0: 
OTHER_13           .         RES.SM = 0.00476*CRES.UE - 1.51709: 
OTHER_14           .         PL.GSM3 = 0 + 0 * (PL.UE / 1) +  0 * (PL.UE / 1)^2: 
OTHER_15           .         Постоянная времени ГГП = 6 сек: 
OTHER_16           .         Постоянная времени ГК = 6 сек : 
OTHER_2            .         KedrData.dll версия 3.2.2.14  : 
OTHER_3            .         LasInf.dll версия 3.2.0.13    : 
OTHER_4            .         Драйвер версия 1.2.0.5        : 
OTHER_5            .         Прибор_ КСА-M1                : 
OTHER_6            .         Номер прибора_ 155+р204       : 
OTHER_7            .         Режим_ КСА-М1 + ГГП + Резистивиметр: 
OTHER_8            .         Форма_ 223\2                  : 
OTHER_9            .         Тарировки_                    : 
PR                 .         КСА-Т7 М1                     : Тип прибора
PROJECT_UPGRADE_TIME .         2021-03-18T21_24_50           : 
PRTY               .         ПП-223_2                      : Номер партии
SRV                .         ЦКРС                          : Заказчик
SRVC               .         Лузин  А.Б.                   : Начальник партии
TLFamily_DEPT      .         Measured Depth                : 
TLFamily_LM        .         Casing Collar locator         : 
TLFamily_MN        .                                       : 
TLFamily_SPID      .         Spontaneous Potential         : 
TLFamily_TM        .         Temperature                   : 
group              .         second                        : 
~Curve Information
#_______________________________________________________________________________
#
#LOGNAME           .UNIT     LOG_ID                        : DESCRIPTION
#_______________________________________________________________________________
DEPT               .M                                      : Depth curve 
LM                 .е.ацп                                  : Локация муфт 
MN                 .атм                                    : Манометрия, атм 
SPID               .м/ч                                    : Скорость записи,м/час 
TM                 .град.С                                 : Термометрия,град.С 
~Ascii
# ...
2687.149942 87.998     245.91     579.966    47.74     
2687.349942 82.992     245.91     510.014    47.72     
2687.549942 66.056     245.94     538.021    47.7      
2687.749941 179.993    245.92     580        47.69     
2687.949941 165.979    245.96     579.988    47.68     
2688.14994 123.035    245.98     556.012    47.67     
2688.34994 193.961    246.02     579.995    47.66     
2688.54994 114.98     246.02     569.976    47.65     
2688.749939 74.999     246.05     522.011    47.63     
2688.949939 73.002     246.07     544.988    47.61     
2689.149938 77.068     246.09     521.029    47.6      
2689.349938 215.982    246.11     579.989    47.58     
2689.549938 179.957    246.13     556.977    47.56     
2689.749937 92.988     246.16     510.034    47.55     
2689.949937 68.993     246.18     580        47.55     
2690.149936 54.992     246.2      580.029    47.53     
2690.349936 39.009     246.2      639.971    47.5      
2690.549936 56.998     246.2      579.966    47.48     
2690.749935 52.009     246.22     510.006    47.47     
2690.949935 70.009     246.23     522.028    47.45     
2691.149934 88.533     246.29     580        47.45     
2691.349934 1174.763   246.29     579.989    47.43     
2691.549934 691.717    246.31     556.977    47.41     
2691.749933 115.965    246.33     510.028    47.38     
2691.949933 44.997     246.35     568.006    47.36     
2692.149932 38         246.37     579.994    47.34     
2692.349932 39.003     246.4      567.972    47.32     
2692.549932 44.998     246.42     510.034    47.31     
2692.749931 40         246.44     579.979    47.3      
2692.949931 39.004     246.45     538.021    47.27     
2693.14993 47.001     246.48     580        47.26     
2693.34993 49.99      246.48     579.983    47.25     
2693.54993 28.999     246.5      545.017    47.23     
2693.749929 27.001     246.53     580        47.22     
2693.949929 30.005     246.55     579.977    47.21     
2694.149928 40.997     246.57     534.023    47.2      
2694.349928 34         246.6      580        47.19     
2694.549928 34         246.61     579.989    47.18     
2694.749927 33.997     246.62     557.011    47.17     
2694.949927 28         246.65     580        47.16     
2695.149926 29.005     246.66     579.994    47.15     
2695.349926 39         246.69     567.983    47.14     
2695.549926 38.999     246.71     533.023    47.13     
2695.749925 36.994     246.74     580        47.12     
2695.949925 25.003     246.76     579.983    47.12     
2696.149924 31.005     246.78     544.989    47.1      
2696.349924 41.999     246.76     522.028    47.09     
2696.549924 38.99      246.79     579.98     47.08     
2696.749923 18.042     246.82     539.997    47.07     
2696.949923 103.02     246.84     533.023    47.04     
2697.149922 142.982    246.86     580        47.03     
2697.349922 106.978    246.89     579.985    47        
2697.549922 62.995     246.91     549.98     46.98     
2697.749921 51.996     246.92     510.023    46.96     
2697.949921 44.003     246.93     557.011    46.94     
2698.14992 51.001     246.98     579.994    46.94     
2698.34992 53.005     246.99     567.977    46.92     
2698.54992 64.005     246.99     522.028    46.92     
2698.749919 74.991     247.02     579.977    46.9      
2698.949919 56.003     247.03     533.023    46.89     
2699.149918 61.994     247.06     579.972    46.87     
2699.349918 48.991     247.06     524.016    46.85     
2699.549918 30.996     247.1      557.011    46.84     
2699.749917 23.548     247.12     580        46.82     
2699.949917 3171.833   247.15     579.966    46.81     
2700.149916 797.715    247.18     510.034    46.79     
2700.349916 218.926    247.2      580        46.77     
2700.549916 69.001     247.17     579.966    46.75     
2700.749915 70.995     247.19     510        46.72     
2700.949915 61.007     247.24     510.034    46.71     
2701.149914 74.998     247.25     580        46.69     
2701.349914 70.994     247.27     580        46.68     
2701.549914 59.009     247.29     580        46.68     
2701.749913 78.01      247.31     579.966    46.67     
2701.949913 101.297    247.35     510.005    46.66     
2702.149912 4771.587   247.37     521.029    46.65     
2702.349912 1898.656   247.4      580        46.64     
2702.549912 1199.596   247.4      580        46.63     
2702.749911 378.882    247.41     580        46.62     
2702.949911 137.963    247.44     579.966    46.61     
2703.14991 61.996     247.47     510.034    46.59     
2703.34991 53.065     247.47     579.994    46.58     
2703.54991 185.014    247.49     567.971    46.56     
2703.749909 214.28     247.49     510.034    46.55     
2703.949909 2816.21    247.54     579.971    46.54     
2704.149908 1210.509   247.55     521.029    46.53     
2704.349908 212.936    247.57     580        46.53     
2704.549908 81.993     247.55     580        46.51     
2704.749907 68.011     247.6      580        46.49     
2704.949907 90.047     247.62     579.966    46.49     
2705.149906 185.957    247.67     510.021    46.47     
2705.349906 98.387     247.67     552.014    46.47     
2705.549906 884.76     247.69     579.966    46.46     
2705.749905 396.863    247.73     510.017    46.45     
2705.949905 118.971    247.74     545.017    46.43     
2706.149904 60.987     247.76     579.966    46.42     
2706.349904 34         247.76     510.034    46.4      
2706.549904 35.37      247.8      579.989    46.38     
2706.749903 2819.154   247.8      556.977    46.37     
2706.949903 1100.56    247.83     510.012    46.37     
2707.149902 206.954    247.82     534.023    46.36     
2707.349902 112.995    247.85     580        46.34     
2707.549902 102.007    247.88     579.966    46.33     
2707.749901 116.997    247.9      510.034    46.32     
2707.949901 110.991    247.94     579.971    46.32     
2708.1499  92.017     247.96     520.995    46.31     
2708.3499  127.699    247.96     510.034    46.31     
2708.5499  3578.961   247.99     579.985    46.3      
2708.749899 1467.466   248        550.015    46.3      
2708.949899 381.864    248.04     579.971    46.29     
2709.149898 104.997    248.04     522.029    46.29     
2709.349898 97.999     248.06     579.989    46.28     
2709.549898 95.997     248.09     557.011    46.27     
2709.749897 88.999     248.1      580        46.27     
2709.949897 85.999     248.13     580        46.26     
2710.149896 83.998     248.15     579.99     46.25     
2710.349896 80.008     248.17     560.01     46.25     
2710.549896 96.999     248.2      580        46.24     
2710.749895 94         248.2      580        46.24     
2710.949895 94.999     248.22     580        46.23     
2711.149894 91.997     248.25     580        46.23     
2711.349894 86.005     248.32     580        46.22     
2711.549894 96.002     248.29     579.966    46.21     
2711.749893 102.194    248.32     510.034    46.2      
2711.949893 2526.365   248.34     580        46.19     
2712.149892 3265.853   248.33     580        46.19     
2712.349892 937.669    248.39     580        46.19     
2712.549892 264.934    248.39     580        46.19     
2712.749891 129.975    248.43     579.971    46.18     
2712.949891 80.023     248.43     521.994    46.17     
2713.14989 128.73     248.46     510.034    46.17     
2713.34989 5669.937   248.48     580        46.16     
2713.54989 3511.727   248.5      579.966    46.16     
2713.749889 926.665    248.52     510.034    46.15     
2713.949889 246.922    248.55     579.966    46.15     
2714.149888 88.984     248.55     510        46.15     
2714.349888 56.004     248.57     510.034    46.14     
2714.549888 64.007     248.6      579.994    46.14     
2714.749887 78.994     248.62     567.971    46.13     
2714.949887 65.998     248.64     510.034    46.13     
2715.149886 62         248.67     579.966    46.11     
2715.349886 60.997     248.67     510        46.11     
2715.549886 54.998     248.72     510        46.11     
2715.749885 50.996     248.72     510.034    46.11     
