~Version
 VERS              .         2.0                           : CWLS LOG ASCII STANDARD - VERSION 2.0
 WRAP              .         NO                            : ONE LINE PER DEPTH STEP
 DLM               .         SPACE                         : DELIMITING CHARACTER(SPACE TAB OR COMMA)
~Well Information
#_______________________________________________________________________________
#
#PARAMETER_NAME    .UNIT     VALUE                         : DESCRIPTION
#_______________________________________________________________________________
STRT               .M        2700.7                        : First reference value
STOP               .M        2753.100157                   : Last reference value
STEP               .M        0.1000003                     : Step increment
NULL               .         -9999                         : Missing value
COMP               .                                       : Company
WELL               .         616                           : Well name
FLD                .                                       : Field
LOC                .                                       : Location
CNTY               .                                       : County
STAT               .                                       : State
CTRY               .                                       : Country
SRVC               .                                       : Service Company
DATE               .                                       : Date
API                .                                       : API number
PROJECT_UPGRADE_TIME .         2021-03-18T21_24_50           : 
group              .         Good                          : 
~Parameter Information Block
#_______________________________________________________________________________
#
#PARAMETER_NAME    .UNIT     VALUE                         : DESCRIPTION
#_______________________________________________________________________________
SET                .         D7030_D_2                     : 
NPR                .         155                           : Номер прибора
OTHER              .         Kedr.exe версия 2.1.2.32      : 
OTHER_10           .         RGD. = 0.647457 * RGD. + 2.35279: 
OTHER_2            .         KedrData.dll версия 3.2.2.14  : 
OTHER_3            .         LasInf.dll версия 3.2.0.13    : 
OTHER_4            .         Драйвер версия 1.2.0.6        : 
OTHER_5            .         Прибор_ Расходомер            : 
OTHER_6            .         Номер прибора_ 963            : 
OTHER_7            .         Режим_ Расходомер             : 
OTHER_8            .         Форма_ Саня                   : 
OTHER_9            .         Тарировки_                    : 
PR                 .         КСА-Т7 М1                     : Тип прибора
PROJECT_UPGRADE_TIME .         2021-03-18T21_24_50           : 
PRTY               .         ПП-223_2                      : Номер партии
SRV                .         ЦКРС                          : Заказчик
SRVC               .         Лузин  А.Б.                   : Начальник партии
TLFamily_DEPT      .         Measured Depth                : 
TLFamily_RGD       .                                       : 
TLFamily_SPID      .         Spontaneous Potential         : 
group              .         second                        : 
~Curve Information
#_______________________________________________________________________________
#
#LOGNAME           .UNIT     LOG_ID                        : DESCRIPTION
#_______________________________________________________________________________
DEPT               .M                                      : Depth curve 
RGD                .м3/сут                                 : Механическая расходометрия, м3/сут 
SPID               .м/ч                                    : Скорость записи,м/час 
~Ascii
2700.6999512 -9999      -9999     
2700.8     -9999      -9999     
2700.900001 -9999      -9999     
2701.000001 -9999      -190      
2701.100001 -9999      -130.029  
2701.200001 -9999      -189.971  
2701.300002 -9999      -189      
2701.400002 -9999      -190      
2701.500002 57.598     -190      
2701.600003 57.49      -130.029  
2701.700003 58.589     -189.971  
2701.800003 57.99      -190      
2701.900004 52.383     -190      
2702.000004 58.827     -190      
2702.100004 59.14      -130.029  
2702.200004 53.393     -189.971  
2702.300005 57.418     -190      
2702.400005 54.421     -130.029  
2702.500005 51.681     -130      
2702.600006 65.813     -189.971  
2702.700006 58.993     -190      
2702.800006 61.769     -130.029  
2702.900007 59.651     -189.971  
2703.000007 55.522     -190      
2703.100007 56.44      -190      
2703.200007 61.847     -190      
2703.300008 54.713     -131.029  
2703.400008 64.065     -189.971  
2703.500008 54.565     -130.029  
2703.600009 55.12      -189.971  
2703.700009 71.552     -190      
2703.800009 55.968     -131.029  
2703.90001 57.299     -189.971  
2704.00001 74.971     -190      
2704.10001 66.244     -190      
2704.20001 71.367     -130.029  
2704.300011 78.477     -189.971  
2704.400011 61.818     -190      
2704.500011 69.846     -190      
2704.600012 65.472     -190      
2704.700012 60.812     -190      
2704.800012 62.399     -159.015  
2704.900013 62.43      -189.985  
2705.000013 64.759     -190      
2705.100013 63.221     -190      
2705.200013 63.63      -190      
2705.300014 65.159     -189      
2705.400014 64.69      -190      
2705.500014 61.362     -190      
2705.600015 64.728     -130.029  
2705.700015 55.115     -189.971  
2705.800015 56.539     -190      
2705.900016 64.296     -190      
2706.000016 54.115     -190      
2706.100016 55.679     -130.029  
2706.200016 72.842     -189.971  
2706.300017 62.325     -190      
2706.400017 69.716     -190      
2706.500017 62.394     -190      
2706.600018 55.263     -130.029  
2706.700018 74.131     -189.971  
2706.800018 59.157     -190      
2706.900019 51.494     -190      
2707.000019 65.343     -190      
2707.100019 55.525     -190      
2707.200019 63.606     -130.029  
2707.30002 60.701     -189.971  
2707.40002 52.814     -190      
2707.50002 61.276     -190      
2707.600021 58.951     -190      
2707.700021 60.639     -190      
2707.800021 71.015     -190      
2707.900022 54.508     -190      
2708.000022 54.98      -190      
2708.100022 69.603     -190      
2708.200022 57.116     -190      
2708.300023 57.02      -190      
2708.400023 60.878     -190      
2708.500023 53.474     -190      
2708.600024 61.966     -190      
2708.700024 60.811     -190      
2708.800024 59.561     -190      
2708.900025 65.797     -190      
2709.000025 55.995     -130.029  
2709.100025 58.459     -159.985  
2709.200025 66.066     -130.015  
2709.300026 57.344     -189.971  
2709.400026 59.429     -190      
2709.500026 63.528     -130.029  
2709.600027 49.157     -189.971  
2709.700027 64.203     -190      
2709.800027 60.922     -130.029  
2709.900028 57.022     -189.971  
2710.000028 65.706     -190      
2710.100028 61.582     -190      
2710.200028 57.532     -190      
2710.300029 67.125     -189      
2710.400029 59.314     -190      
2710.500029 60.19      -190      
2710.60003 63.269     -190      
2710.70003 59.222     -190      
2710.80003 63.748     -190      
2710.900031 62.361     -190      
2711.000031 59.601     -130.029  
2711.100031 61.319     -189.971  
2711.200032 61.9       -190      
2711.300032 63.279     -131.029  
2711.400032 62.37      -189.971  
2711.500032 64.029     -190      
2711.600033 65.699     -130.029  
2711.700033 55.855     -189.971  
2711.800033 65.785     -130.029  
2711.900034 56.974     -189.971  
2712.000034 60.268     -130.029  
2712.100034 65.308     -159.985  
2712.200034 61.502     -189.985  
2712.300035 57.752     -161.014  
2712.400035 66.826     -130.015  
2712.500035 62.272     -189.971  
2712.600036 66.548     -130.029  
2712.700036 67.36      -130      
2712.800036 53.147     -189.971  
2712.900037 65.694     -190      
2713.000037 61.472     -190      
2713.100037 64.558     -190      
2713.200037 72.866     -190      
2713.300038 68.992     -190      
2713.400038 63.143     -190      
2713.500038 74.454     -190      
2713.600039 69.552     -190      
2713.700039 68.84      -190      
2713.800039 68.2       -190      
2713.90004 61.373     -190      
2714.00004 68.077     -190      
2714.10004 62.913     -190      
2714.20004 61.221     -190      
2714.300041 72.994     -190      
2714.400041 59.766     -190      
2714.500041 64.128     -190      
2714.600042 65.09      -190      
2714.700042 59.343     -190      
2714.800042 61.299     -190      
2714.900043 67.987     -190      
2715.000043 54.497     -190      
2715.100043 76.479     -130.029  
2715.200043 65.715     -189.971  
2715.300044 65.2       -190      
2715.400044 69.588     -130.029  
2715.500044 65.702     -189.971  
2715.600045 62.951     -190      
2715.700045 65.609     -130.029  
2715.800045 61.502     -189.971  
2715.900046 65.608     -190      
2716.000046 68.639     -190      
2716.100046 66.901     -190      
2716.200046 66.28      -190      
2716.300047 67.699     -190      
2716.400047 63.312     -190      
2716.500047 70.796     -190      
2716.600048 67.692     -190      
2716.700048 66.77      -190      
2716.800048 73.197     -190      
2716.900049 63.685     -190      
2717.000049 62.8       -130.029  
2717.100049 67.058     -189.971  
2717.200049 58.694     -190      
2717.30005 69.655     -190      
2717.40005 68.501     -190      
2717.50005 63.193     -190      
2717.600051 68.977     -160.015  
2717.700051 65.002     -189.985  
2717.800051 62.601     -190      
2717.900052 74.074     -190      
2718.000052 60.437     -160.015  
2718.100052 65.667     -130.015  
2718.200052 71.837     -189.971  
2718.300053 56.877     -190      
2718.400053 70.543     -190      
2718.500053 67.022     -130.029  
2718.600054 66.24      -189.971  
2718.700054 70.128     -190      
2718.800054 65.102     -190      
2718.900055 62.851     -190      
2719.000055 66.348     -130.029  
2719.100055 70.868     -189.971  
2719.200055 62.944     -190      
2719.300056 67.448     -130.029  
2719.400056 56.016     -189.971  
2719.500056 61.707     -190      
2719.600057 63.539     -190      
2719.700057 58.692     -190      
2719.800057 68.085     -131.029  
2719.900058 67.49      -189.971  
2720.000058 54.526     -190      
2720.100058 72.381     -190      
2720.200058 57.827     -190      
2720.300059 62.648     -190      
2720.400059 65.019     -190      
2720.500059 61.752     -130.029  
2720.60006 64.249     -189.971  
2720.70006 64.95      -190      
2720.80006 57.873     -190      
2720.900061 68.465     -190      
2721.000061 61.713     -190      
2721.100061 60.191     -130.029  
2721.200061 65.437     -189.971  
2721.300062 69.808     -189      
2721.400062 58.685     -190      
2721.500062 68.665     -190      
2721.600063 62.743     -190      
2721.700063 65.809     -190      
2721.800063 60.952     -131.029  
2721.900064 66.667     -189.971  
2722.000064 68.249     -130.029  
2722.100064 63.962     -189.971  
2722.200064 67.968     -130.029  
2722.300065 61.543     -189.971  
2722.400065 55.833     -130.029  
2722.500065 66.805     -130      
2722.600066 61.583     -189.971  
2722.700066 67.387     -130.029  
2722.800066 59.604     -189.971  
2722.900067 55.362     -190      
2723.000067 60.468     -190      
2723.100067 57.092     -190      
2723.200067 53.112     -190      
2723.300068 62.825     -131.029  
2723.400068 63.5       -189.971  
2723.500068 57.213     -130.029  
2723.600069 68.954     -189.971  
2723.700069 54.457     -190      
2723.800069 52.761     -190      
2723.90007 57.308     -190      
2724.00007 51.603     -130.029  
2724.10007 51.9       -189.971  
2724.200071 56.818     -130.029  
