~Version
 VERS              .         2.0                           : CWLS LOG ASCII STANDARD - VERSION 2.0
 WRAP              .         NO                            : ONE LINE PER DEPTH STEP
 DLM               .         SPACE                         : DELIMITING CHARACTER(SPACE TAB OR COMMA)
~Well Information
#_______________________________________________________________________________
#
#PARAMETER_NAME    .UNIT     VALUE                         : DESCRIPTION
#_______________________________________________________________________________
STRT               .M        2650.4                        : First reference value
STOP               .M        2757.800161                   : Last reference value
STEP               .M        0.2000003                     : Step increment
NULL               .         -9999                         : Missing value
COMP               .                                       : Company
WELL               .         616                           : Well name
FLD                .                                       : Field
LOC                .                                       : Location
CNTY               .                                       : County
STAT               .                                       : State
CTRY               .                                       : Country
SRVC               .                                       : Service Company
DATE               .                                       : Date
API                .                                       : API number
PROJECT_UPGRADE_TIME .         2021-03-18T21_24_50           : 
group              .         Good                          : 
~Parameter Information Block
#_______________________________________________________________________________
#
#PARAMETER_NAME    .UNIT     VALUE                         : DESCRIPTION
#_______________________________________________________________________________
SET                .         D4412_D                       : 
OTHER              .         Запись производится в присутствии: 
OTHER_10           .         Максимальная температура      : 
OTHER_11           .         Тип промывочной жидкости      : 
OTHER_12           .         Сопротивление ПЖ (Ом*м) при 20°C: 
OTHER_13           .         Плотность ПЖ(г/см3)           : 
OTHER_14           .         Вязкость ПЖ(с)                : 
OTHER_15           .         Водоотдача ПЖ(см3/30мин)      : 
OTHER_16           .         Уровень ПЖ                    : 
OTHER_17           .         Нефть ПЖ (%)                  : 
OTHER_18           .         Барит ПЖ (%)                  : 
OTHER_19           .         Гематит ПЖ (%)                : 
OTHER_2            .         Заказчик ННСН  ЦДНГ-1         : 
OTHER_20           .         КМЦ ПЖ (%)                    : 
OTHER_21           .         Разгазирование ПЖ (да,нет)    : 
OTHER_22           .         Подъемник                     : 
OTHER_23           .         Лаборатория                   : 
OTHER_24           .         Тип кабеля                    : 
OTHER_25           .         Длина кабеля (м)              : 
OTHER_26           .         Цена последней метки          : 
OTHER_27           .         Цена контрольной метки        : 
OTHER_28           .         Диаметр долота (мм)           : 
OTHER_29           .         Глубина бурения (м)           : 
OTHER_3            .         Площадь                       : 
OTHER_30           .         Искусственный забой (м)       : 
OTHER_31           .         Диаметр колонны (мм)          : 
OTHER_32           .         Толщина колонны (мм)          : 
OTHER_33           .         Башмак колонны (м)            : 
OTHER_34           .         Диаметр НКТ (мм)              : 
OTHER_35           .         Толщина НКТ (мм)              : 
OTHER_36           .         Воронка НКТ (м)               : 
OTHER_37           .         Дата цементожа                : 
OTHER_38           .         Тип, количество(т) и плотность цемента: 
OTHER_39           .         Интервалы перфорации (м)      : 
OTHER_4            .         Категория                     : 
OTHER_40           .         Направление, диаметр (мм)     : 
OTHER_41           .         Направление, глубина (м)      : 
OTHER_42           .         Кондуктор, диаметр (мм)       : 
OTHER_43           .         Кондуктор, глубина (м)        : 
OTHER_44           .         Техническая колонна, диаметр (мм): 
OTHER_45           .         Техническая колонна, глубина (м): 
OTHER_46           .         Эксплуатационная колонна, диаметр (мм): 
OTHER_47           .         Эксплуатационная колонна, глубина (м): 
OTHER_48           .         Программа Кедр-02 версия 3.4  : 
OTHER_49           .         Операционная система Windows NT 5.1 build 2600 Service Pack 2: 
OTHER_5            .         Назначение исследований       : 
OTHER_50           .         Программное обеспечение станции MONITOR-386EX 25/12/99 15_08_10   BGF V54 20/09/05 15_32_17   3.3__BGF_9030071: 
OTHER_51           .         Kedr.exe версия 3.4.2.74      : 
OTHER_52           .         KedrData.dll версия 3.4.2.29  : 
OTHER_53           .         Мнемоники версия 3.18 S       : 
OTHER_54           .         Драйвер версия 2.1.1.4        : 
OTHER_55           .         LasInf.dll 4.3.0.35           : 
OTHER_56           .         Прибор_ КСА-Т4                : 
OTHER_57           .         Номер прибора_ 160            : 
OTHER_58           .         Режим_ КСА-Т4                 : 
OTHER_59           .         Форма_ С.А.Б.                 : 
OTHER_6            .         Альтитуда стола ротора        : 
OTHER_60           .         Тарировки_                    : 
OTHER_61           .         <_techsia_sc_> Дата тарировки температуры 25.05.2010: 
OTHER_62           .         Ручной ввод коэффициентов     : 
OTHER_63           .         TM.DEGC = 0.00402*RTM.E.ACP + -0.994: 
OTHER_64           .         <_techsia_sc_> Дата тарировки давления 25.05.2010: 
OTHER_65           .         Ручной ввод коэффициентов     : 
OTHER_66           .         MN.ATM = (2.27521e-006*TM.DEGC + 0.02078)*(RMN.E.ACP + 6.2*TM.DEGC + -1688): 
OTHER_67           .         <_techsia_sc_> Дата тарировки ГК 25.05.2010: 
OTHER_68           .         Ручной ввод коэффициентов     : 
OTHER_69           .         GR.UR/H = RGR.IMP/MIN / 45.5144: 
OTHER_7            .         Вид исследований 3  6         : 
OTHER_70           .         GK.FLT = 0.1*GR.UR/H[-1] + (1-0.1)*GR.UR/H[0]: 
OTHER_8            .         Начало бурения интервала каротажа: 
OTHER_9            .         Окончание бурения интервала каротажа: 
PROJECT_UPGRADE_TIME .         2021-03-18T21_24_50           : 
TLFamily_CCLC      .                                       : 
TLFamily_DEPT      .         Measured Depth                : 
TLFamily_GK        .         Gamma Ray                     : 
TLFamily_GR        .         Gamma Ray                     : 
TLFamily_METKA     .                                       : 
TLFamily_MN        .                                       : 
TLFamily_RCOR      .                                       : 
TLFamily_RGR       .                                       : 
TLFamily_RMN       .                                       : 
TLFamily_RTEN      .                                       : 
TLFamily_RTM       .                                       : 
TLFamily_SPEE      .         Cable Speed                   : 
TLFamily_TIME      .         Time                          : 
TLFamily_TM        .         Temperature                   : 
group              .         prim                          : 
~Curve Information
#_______________________________________________________________________________
#
#LOGNAME           .UNIT     LOG_ID                        : DESCRIPTION
#_______________________________________________________________________________
DEPT               .M                                      : 1 Глубина, м -    0.0 см 
CCLC               .E.ACP                                  : 9 Локатор муфт,  -   20.0 см 
GK                 .FLT                                    : 14 Гамма-активность фильтрованная, мкр./ч -  110.0 см 
GR                 .UR/H                                   : 13 Гамма-активность, мкр./ч -  110.0 см 
METKA              .CU                                     : 3 Метки,  -    0.0 см 
MN                 .ATM                                    : 12 Давление, атм. -  160.0 см 
RCOR               .CM/KM                                  : 5 Коррекция по ролику, см/км -    0.0 см 
RGR                .IMP/MIN                                : 10 Гамма-активность, усл.ед. -  110.0 см 
RMN                .E.ACP                                  : 8 Давление, усл.ед. -  160.0 см 
RTEN               .T                                      : 6 Натяжение кабеля, т -    0.0 см 
RTM                .E.ACP                                  : 7 Температура, усл.ед. -  170.0 см 
SPEE               .M/H                                    : 2 Скорость, м/час -    0.0 см 
TIME               .S                                      : 4 Время, сек -    0.0 см 
TM                 .DEGC                                   : 11 Температура, °C -  170.0 см 
~Ascii
# ...
2723.200109 112        10.99      10.99      0          373.804    -1083      500        19154      0.2        16180      573        454.11     64.05     
2723.400109 91         10.99      10.99      0          373.756    -1083      500        19152      0.2        16180      572        455.38     64.05     
2723.60011 152        11.25      11.25      0          373.761    -1083      512        19152      0.2        16178      571        456.66     64.043    
2723.80011 78         11.38      11.38      0          373.774    -1083      518        19153      0.2        16175      571        457.87     64.03     
2724.00011 165        9.67       9.67       0          373.707    -1083      440        19150      0.2        16172      571        459.22     64.019    
2724.200111 332        9.67       9.67       0          373.749    -1083      440        19152      0.2        16168      571        460.45     64.001    
2724.400111 274        8.1        8.1        0          373.76     -1083      369        19153      0.2        16169      571        461.7      64.005    
2724.600111 377        7.78       7.78       0          373.79     -1083      354        19154      0.2        16169      572        462.99     64.005    
2724.800112 350        7.78       7.78       0          373.784    -1083      354        19154      0.2        16165      571        464.3      63.991    
2725.000112 2328       7.78       7.78       0          373.733    -1083      354        19151      0.2        16162      572        465.55     63.978    
2725.200112 666        7.58       7.58       0          373.763    -1083      345        19153      0.2        16160      573        466.81     63.969    
2725.400112 396        7.58       7.58       0          373.782    -1083      345        19154      0.2        16157      572        468.04     63.956    
2725.600113 462        7.81       7.81       0          373.78     -1083      356        19154      0.2        16155      572        469.31     63.949    
2725.800113 458        7.93       7.93       0          373.778    -1083      361        19154      0.2        16152      572        470.6      63.936    
2726.000113 221        7.89       7.89       2          373.796    -1086      359        19155      0.2        16149      572        472.06     63.924    
2726.200114 151        7.89       7.89       0          373.834    -1086      359        19157      0.2        16143      572        473.33     63.9      
2726.400114 133        7.07       7.07       0          373.838    -1086      322        19157      0.2        16139      574        474.56     63.885    
2726.600114 62         6.9        6.9        0          373.85     -1086      314        19158      0.2        16135      573        475.84     63.87     
2726.800115 65         6.94       6.94       0          373.959    -1086      316        19163      0.2        16131      574        477.11     63.853    
2727.000115 60         6.94       6.94       0          373.963    -1086      316        19164      0.2        16130      574        478.36     63.849    
2727.200115 234        7.23       7.23       0          373.974    -1086      329        19164      0.2        16130      574        479.61     63.849    
2727.400116 259        7.23       7.23       0          374.017    -1086      329        19166      0.2        16129      575        480.88     63.845    
2727.600116 186        7.76       7.76       0          374.158    -1086      353        19173      0.2        16125      574        482.16     63.829    
2727.800116 135        7.76       7.76       0          374.152    -1086      353        19173      0.2        16124      574        483.43     63.826    
2728.000116 173        8.7        8.7        0          374.208    -1086      396        19176      0.2        16122      573        484.66     63.817    
2728.200117 222        8.7        8.7        0          374.156    -1086      396        19173      0.2        16120      572        485.93     63.808    
2728.400117 196        10         10         0          374.21     -1086      455        19176      0.2        16116      573        487.27     63.79     
2728.600117 94         10         10         0          374.514    -1086      455        19190      0.2        16112      572        488.49     63.777    
2728.800118 154        11.36      11.36      0          374.628    -1086      517        19196      0.2        16109      571        489.75     63.764    
2729.000118 74         11.36      11.36      0          374.773    -1086      517        19203      0.2        16107      572        491.01     63.755    
2729.200118 138        11.53      11.53      0          374.58     -1086      525        19194      0.2        16101      572        492.25     63.734    
2729.400119 107        11.53      11.53      0          374.515    -1086      525        19191      0.2        16099      573        493.59     63.724    
2729.600119 197        9.73       9.73       0          374.536    -1086      443        19192      0.2        16095      573        494.8      63.706    
2729.800119 158        9.73       9.73       0          374.693    -1086      443        19200      0.2        16088      573        496.08     63.68     
2730.000119 155        7.82       7.82       0          374.628    -1086      356        19197      0.2        16082      572        497.3      63.657    
2730.20012 101        7.82       7.82       0          374.623    -1086      356        19197      0.2        16074      573        498.64     63.622    
2730.40012 114        6.83       6.83       0          374.665    -1086      311        19199      0.2        16067      573        499.92     63.595    
2730.60012 80         6.83       6.83       0          374.731    -1086      311        19202      0.2        16064      572        501.13     63.583    
2730.800121 109        6.13       6.13       0          374.742    -1086      279        19203      0.2        16061      574        502.41     63.571    
2731.000121 100        6.13       6.13       0          374.902    -1086      279        19211      0.2        16057      573        503.62     63.555    
2731.200121 205        6.92       6.92       0          375.105    -1086      315        19221      0.2        16050      573        504.95     63.529    
2731.400122 108        6.92       6.92       0          375.227    -1086      315        19230      0.2        16008      574        506.16     63.358    
2731.600122 71         7.73       7.73       0          375.243    -1086      352        19239      0.2        15839      574        507.47     62.677    
2731.800122 47         7.73       7.73       0          375.11     -1086      352        19242      0.2        15563      574        508.69     61.568    
2732.000122 71         7.84       7.84       0          374.798    -1086      357        19236      0.2        15261      574        510.03     60.356    
2732.200123 51         7.78       7.78       0          374.415    -1086      354        19227      0.2        15002      573        511.27     59.316    
2732.400123 62         7.45       7.45       0          374.307    -1086      339        19230      0.2        14719      573        512.5      58.177    
2732.600123 64         7.45       7.45       0          374.39     -1086      339        19242      0.2        14469      574        513.77     57.17     
2732.800124 57         6.68       6.68       0          374.152    -1086      304        19238      0.2        14233      573        514.98     56.222    
2733.000124 58         6.9        6.9        0          374.112    -1086      314        19243      0.2        14008      573        516.31     55.32     
2733.200124 55         7.34       7.34       0          374.07     -1086      334        19245      0.2        13843      573        517.58     54.654    
2733.400124 87         7.34       7.34       0          373.942    -1086      334        19241      0.2        13752      572        518.84     54.289    
