~Version
 VERS              .         2.0                           : CWLS LOG ASCII STANDARD - VERSION 2.0
 WRAP              .         NO                            : ONE LINE PER DEPTH STEP
 DLM               .         SPACE                         : DELIMITING CHARACTER(SPACE TAB OR COMMA)
~Well Information
#_______________________________________________________________________________
#
#PARAMETER_NAME    .UNIT     VALUE                         : DESCRIPTION
#_______________________________________________________________________________
STRT               .M        2656.6                        : First reference value
STOP               .M        2765.2                        : Last reference value
STEP               .M        0.1999997                     : Step increment
NULL               .         -9999                         : Missing value
COMP               .                                       : Company
WELL               .         616                           : Well name
FLD                .                                       : Field
LOC                .                                       : Location
CNTY               .                                       : County
STAT               .                                       : State
CTRY               .                                       : Country
SRVC               .                                       : Service Company
DATE               .                                       : Date
API                .                                       : API number
PROJECT_UPGRADE_TIME .         2021-03-18T21_24_50           : 
group              .         Good                          : 
~Parameter Information Block
#_______________________________________________________________________________
#
#PARAMETER_NAME    .UNIT     VALUE                         : DESCRIPTION
#_______________________________________________________________________________
SET                .         D8102_D                       : 
OTHER              .         Программное обеспечение станции MONITOR-386EX 25/12/99 15_08_10   BGF V52 22/08/01 16_56_30   4_SNGF_BGF_N_011645: 
OTHER_10           .         Тарировки_                    : 
OTHER_11           .         TM.GRD = 0.00412*TM$.UE + -2.13: 
OTHER_12           .         MN.ATM = (5.87652e-006*TM.GRD + 0.01993)*(MN$.UE + -2.72*TM.GRD + -1925): 
OTHER_13           .         GK.MKR/H = GK$.UE / 57.4657   : 
OTHER_2            .         Kedr.exe версия 3.4.2.51      : 
OTHER_3            .         KedrData.dll версия 3.4.2.24  : 
OTHER_4            .         Драйвер версия 2.1.0.2        : 
OTHER_5            .         Мнемоники версия 3.3 S        : 
OTHER_6            .         Прибор_ АКП4-90               : 
OTHER_7            .         Номер прибора_ 53             : 
OTHER_8            .         Режим_ АКП4_90                : 
OTHER_9            .         Форма_ ПК-53ое                : 
PROJECT_UPGRADE_TIME .         2021-03-18T21_24_50           : 
TLFamily_DEPT      .         Measured Depth                : 
TLFamily_GK        .         Gamma Ray                     : 
TLFamily_GK$       .                                       : 
TLFamily_LM        .         Casing Collar locator         : 
TLFamily_METKA     .                                       : 
TLFamily_METKA_1   .                                       : 
TLFamily_MN        .                                       : 
TLFamily_MN$       .                                       : 
TLFamily_RCOR      .                                       : 
TLFamily_SPID      .         Spontaneous Potential         : 
TLFamily_TENS      .         Cable Tension                 : 
TLFamily_TIME      .         Time                          : 
TLFamily_TM        .         Temperature                   : 
TLFamily_TM$       .         Temperature                   : 
group              .         prim                          : 
~Curve Information
#_______________________________________________________________________________
#
#LOGNAME           .UNIT     LOG_ID                        : DESCRIPTION
#_______________________________________________________________________________
DEPT               .M                                      : 1 Глубина, м -    0.0 см 
GK                 .MKR/H                                  : 13 Гамма-активность, мкр./ч -   65.0 см 
GK$                .UE                                     : 10 Гамма-активность, усл.ед. -   65.0 см 
LM                 .                                       : 9 Локатор муфт,  -   30.0 см 
METKA              .                                       : 3 Метки,  -    0.0 см 
METKA_1            .                                       : 14 Маркеры - 65 см 
MN                 .ATM                                    : 12 Давление, атм. -  140.0 см 
MN$                .UE                                     : 8 Давление, усл.ед. -  140.0 см 
RCOR               .CM/KM                                  : 5 Коррекция по ролику, см/км -    0.0 см 
SPID               .M/H                                    : 2 Скорость, м/час -    0.0 см 
TENS               .T                                      : 6 Натяжение кабеля, т -    0.0 см 
TIME               .S                                      : 4 Время, сек -    0.0 см 
TM                 .GRD                                    : 11 Температура, °C -  145.0 см 
TM$                .UE                                     : 7 Температура, усл.ед. -  145.0 см 
~Ascii
# ...
2698.2     7.73       444        358        0          0          247.247    14331      -13        -299       0.75       1487.9     55.838     14070     
2698.4     6.85       394        315        0          0          247.252    14331      -13        -297       0.75       1485.5     55.587     14009     
2698.6     7.1        408        200        0          0          247.291    14333      -13        -297       0.75       1483.11    55.451     13976     
2698.8     7.38       424        225        0          0          247.305    14334      -13        -299       0.75       1480.71    55.359     13954     
2699       7.19       413        305        0          0          247.331    14335      -13        -299       0.75       1478.32    55.241     13925     
2699.2     7.53       433        220        0          0          247.351    14336      -13        -303       0.75       1475.89    55.189     13912     
2699.4     7.34       422        179        0          0          247.351    14336      -13        -297       0.76       1473.43    55.084     13887     
2699.6     7.15       411        212        0          0          247.351    14336      -13        -300       0.75       1471.01    54.97      13859     
2699.8     7.48       430        238        0          0          247.371    14337      -13        -300       0.75       1468.71    54.847     13829     
2700       7.62       438        259        0          0          247.378    14337      -13        -293       0.75       1466.22    54.734     13802     
2700.2     7.34       422        332        0          0          247.371    14337      -13        -292       0.75       1463.82    54.629     13777     
2700.4     7.6        437        209        0          0          247.438    14340      -13        -290       0.57       1461.43    54.483     13741     
2700.6     7.69       442        219        2          0          247.446    14341      -10        -301       0.73       1458.66    54.366     13713     
2700.8     7.24       416        228        0          0          247.466    14342      -10        -298       0.75       1456.26    54.255     13686     
2701       7.56       435        217        0          0          247.464    14342      -10        -297       0.75       1453.87    54.083     13644     
2701.2     8.23       473        239        0          0          247.461    14342      -10        -302       0.75       1451.41    53.957     13613     
2701.4     7.88       453        227        0          0          247.504    14344      -10        -293       0.75       1448.95    53.873     13593     
2701.6     7.33       421        202        0          0          247.531    14345      -10        -304       0.75       1446.69    53.754     13564     
2701.8     6.67       383        231        0          0          247.551    14346      -10        -297       0.75       1444.22    53.619     13531     
2702       6.75       388        280        0          0          247.57     14347      -10        -302       0.75       1441.77    53.439     13488     
2702.2     6.3        362        441        0          0          247.67     14352      -10        -302       0.75       1439.37    53.263     13445     
2702.4     5.92       340        1056       0          0          247.61     14349      -10        -301       0.75       1436.97    53.178     13424     
2702.6     5.63       324        275        0          0          247.69     14353      -10        -301       0.75       1434.58    53.091     13403     
2702.8     6.38       367        292        0          0          247.73     14355      -10        -301       0.75       1432.12    52.994     13380     
2703       7.56       435        218        0          0          247.75     14356      -10        -298       0.75       1429.79    52.913     13360     
2703.2     8.95       514        249        0          0          247.77     14357      -10        -301       0.75       1427.4     52.818     13337     
2703.4     8.9        511        332        0          0          247.77     14357      -10        -300       0.75       1424.94    52.703     13309     
2703.6     8.3        477        1025       0          0          247.83     14360      -10        -305       0.75       1422.49    52.597     13283     
2703.8     7.14       410        173        0          0          247.843    14361      -10        -299       0.75       1420.09    52.514     13263     
2704       7.56       435        363        0          0          247.849    14361      -10        -306       0.75       1417.75    52.431     13243     
2704.2     9.79       563        682        0          0          247.869    14362      -10        -301       0.75       1415.3     52.312     13214     
2704.4     10.05      578        995        0          0          247.909    14364      -10        -296       0.75       1412.9     52.265     13203     
2704.6     8.59       493        408        0          0          247.889    14363      -10        -291       0.75       1410.5     52.191     13185     
2704.8     7.13       409        357        0          0          247.909    14364      -10        -300       0.75       1408.12    52.1       13163     
2705       5.63       324        321        0          0          247.929    14365      -10        -294       0.75       1405.65    51.963     13129     
2705.2     5.26       302        4101       0          0          247.969    14367      -10        -301       0.75       1403.25    51.865     13106     
2705.4     5.45       313        19717      0          0          247.982    14368      -10        -293       0.75       1400.85    51.747     13077     
2705.6     5.66       325        1199       0          0          248.009    14369      -10        -296       0.75       1398.46    51.659     13056     
2705.8     5.79       333        411        0          0          248.009    14369      -10        -295       0.75       1396.06    51.556     13030     
2706       5.32       306        293        0          0          248.049    14371      -10        -293       0.75       1393.67    51.409     12995     
2706.2     5.01       288        604        0          0          248.089    14373      -10        -293       0.75       1391.21    51.356     12982     
2706.4     6.81       392        309        0          0          248.108    14374      -10        -301       0.76       1388.76    51.313     12972     
2706.6     9.38       539        401        0          0          248.102    14374      -10        -303       0.75       1386.36    51.257     12958     
2706.8     10.2       586        463        0          0          248.109    14374      -10        -303       0.75       1383.97    51.144     12931     
2707       9.38       539        272        0          0          248.168    14377      -10        -299       0.75       1381.58    51.03      12903     
2707.2     8.01       460        744        0          0          248.182    14378      -10        -299       0.75       1379.18    50.956     12885     
2707.4     6.87       395        185        0          0          248.188    14378      -10        -298       0.75       1376.66    50.85      12859     
2707.6     6.55       377        273        0          0          248.218    14380      -10        -304       0.75       1374.39    50.763     12838     
2707.8     6.33       364        314        0          0          248.228    14380      -10        -299       0.75       1371.93    50.666     12815     
2708       6.28       361        427        0          0          248.268    14382      -10        -294       0.75       1369.48    50.552     12787     
2708.2     6.41       368        484        0          0          248.275    14382      -10        -299       0.75       1367.08    50.428     12757     
2708.4     6.54       376        174        0          0          248.288    14383      -10        -296       0.75       1364.69    50.32      12731     
