~Version
 VERS              .         2.0                           : CWLS LOG ASCII STANDARD - VERSION 2.0
 WRAP              .         NO                            : ONE LINE PER DEPTH STEP
 DLM               .         SPACE                         : DELIMITING CHARACTER(SPACE TAB OR COMMA)
~Well Information
#_______________________________________________________________________________
#
#PARAMETER_NAME    .UNIT     VALUE                         : DESCRIPTION
#_______________________________________________________________________________
STRT               .M        2669.2                        : First reference value
STOP               .M        2776.2                        : Last reference value
STEP               .M        0.2                           : Step increment
NULL               .         -9999                         : Missing value
COMP               .                                       : Company
WELL               .         616                           : Well name
FLD                .                                       : Field
LOC                .                                       : Location
CNTY               .                                       : County
STAT               .                                       : State
CTRY               .                                       : Country
SRVC               .                                       : Service Company
DATE               .                                       : Date
API                .                                       : API number
PROJECT_UPGRADE_TIME .         2021-03-18T21_24_50           : 
group              .         Good                          : 
~Parameter Information Block
#_______________________________________________________________________________
#
#PARAMETER_NAME    .UNIT     VALUE                         : DESCRIPTION
#_______________________________________________________________________________
SET                .         D1809_D                       : 
OTHER              .         Программное обеспечение станции MONITOR-386EX 25/12/99 15_08_10   BGF V52 22/08/01 16_56_30   3.1_SNGF___BGF_N_092049: 
OTHER_10           .         Тарировки_                    : 
OTHER_11           .         TM.GRD = 0.00403*TM$.UE + -1.07: 
OTHER_12           .         MN.ATM = (9.34907e-006*TM.GRD + 0.02171)*(MN$.UE + -7.93*TM.GRD + -1787): 
OTHER_13           .         GK.MKR/H = LM. / 42.4676      : 
OTHER_14           .         GK.FLT = 0.1*GK.MKR/H[-1] + (1-0.1)*GK.MKR/H[0]: 
OTHER_2            .         Kedr.exe версия 3.4.2.51      : 
OTHER_3            .         KedrData.dll версия 3.4.2.24  : 
OTHER_4            .         Драйвер версия 2.1.1.3        : 
OTHER_5            .         Мнемоники версия 3.3 S        : 
OTHER_6            .         Прибор_ КСА-Т4                : 
OTHER_7            .         Номер прибора_ 03             : 
OTHER_8            .         Режим_ КСА-Т4                 : 
OTHER_9            .         Форма_ КВА.                   : 
PROJECT_UPGRADE_TIME .         2021-03-18T21_24_49           : 
TLFamily_DEPT      .         Measured Depth                : 
TLFamily_GK        .         Gamma Ray                     : 
TLFamily_GK$       .                                       : 
TLFamily_GK_2      .         Gamma Ray                     : 
TLFamily_LM        .         Casing Collar locator         : 
TLFamily_METKA     .                                       : 
TLFamily_MN        .                                       : 
TLFamily_MN$       .                                       : 
TLFamily_RCOR      .                                       : 
TLFamily_SPID      .         Spontaneous Potential         : 
TLFamily_TENS      .         Cable Tension                 : 
TLFamily_TIME      .         Time                          : 
TLFamily_TM        .         Temperature                   : 
TLFamily_TM$       .         Temperature                   : 
group              .         prim                          : 
~Curve Information
#_______________________________________________________________________________
#
#LOGNAME           .UNIT     LOG_ID                        : DESCRIPTION
#_______________________________________________________________________________
DEPT               .M                                      : 1 Глубина, м -    0.0 см 
GK                 .MKR/H                                  : 13 Гамма-активность, мкр./ч -  110.0 см 
GK$                .UE                                     : 10 Гамма-активность, усл.ед. -  110.0 см 
GK_2               .FLT                                    : 14 Гамма-активность фильтрованная, мкр./ч -  110.0 см 
LM                 .                                       : 9 Локатор муфт,  -   20.0 см 
METKA              .                                       : 3 Метки,  -    0.0 см 
MN                 .ATM                                    : 12 Давление, атм. -  160.0 см 
MN$                .UE                                     : 8 Давление, усл.ед. -  160.0 см 
RCOR               .CM/KM                                  : 5 Коррекция по ролику, см/км -    0.0 см 
SPID               .M/H                                    : 2 Скорость, м/час -    0.0 см 
TENS               .T                                      : 6 Натяжение кабеля, т -    0.0 см 
TIME               .S                                      : 4 Время, сек -    0.0 см 
TM                 .GRD                                    : 11 Температура, °C -  170.0 см 
TM$                .UE                                     : 7 Температура, усл.ед. -  170.0 см 
~Ascii
# ...
2762.8     9.07       385        9.07       116        0          254.117    13673      -684       583        0.07       6855.56    59.88      15124     
2763       8.24       350        8.3        126        0          254.106    13673      -684       576        0.07       6856.75    60.069     15171     
2763.2     8.24       350        8.24       121        0          254.138    13675      -684       572        0.07       6858.01    60.213     15207     
2763.4     8.08       343        8.09       113        0          254.136    13675      -684       572        0.07       6859.24    60.307     15230     
2763.6     8.08       343        8.08       104        0          254.149    13676      -684       565        0.07       6860.53    60.415     15257     
2763.8     8.27       351        8.26       129        0          254.162    13677      -684       570        0.07       6861.8     60.555     15292     
2764       8.27       351        8.26       129        0          254.179    13678      -684       573        0.07       6863.03    60.643     15313     
2764.2     7.96       338        7.99       117        0          254.195    13679      -684       575        0.07       6864.25    60.727     15334     
2764.4     7.96       338        7.96       131        0          254.187    13679      -684       576        0.07       6865.45    60.835     15361     
2764.6     7.68       326        7.69       149        0          254.22     13681      -684       575        0.07       6866.71    60.961     15392     
2764.8     7.68       326        7.68       136        0          254.221    13681      -684       567        0.07       6867.97    61.051     15415     
2765       8.9        378        8.82       152        0          254.241    13682      -684       555        0.07       6869.24    61.151     15439     
2765.2     8.9        378        8.9        151        0          254.249    13683      -684       555        0.07       6870.48    61.242     15462     
2765.4     9.65       410        9.57       167        0          254.264    13684      -684       566        0.07       6871.75    61.337     15485     
2765.6     9.65       410        9.65       175        0          254.281    13685      -684       570        0.07       6872.97    61.423     15507     
2765.8     9.18       390        9.21       176        0          254.298    13686      -684       573        0.07       6874.2     61.499     15526     
2766       9.18       390        9.18       158        0          254.31     13687      -684       575        0.07       6875.47    61.582     15546     
2766.2     9.44       401        9.42       222        0          254.312    13687      -684       580        0.07       6876.7     61.679     15570     
2766.4     9.44       401        9.44       209        0          254.348    13689      -684       570        0.07       6877.98    61.743     15586     
2766.6     9.21       391        9.22       205        0          254.361    13690      -684       566        0.07       6879.19    61.829     15608     
2766.8     9.21       391        9.21       218        0          254.381    13691      -684       565        0.07       6880.45    61.91      15628     
2767       8.76       372        8.79       211        0          254.388    13692      -684       570        0.07       6881.7     61.972     15643     
2767.2     8.76       372        8.76       226        0          254.41     13693      -684       573        0.07       6882.96    62.036     15659     
2767.4     9.35       397        9.28       193        0          254.414    13693      -684       575        0.07       6884.16    62.084     15671     
2767.6     9.35       397        9.35       243        0          254.44     13694      -684       576        0.07       6885.39    62.135     15684     
2767.8     9.23       392        9.24       305        0          254.451    13695      -684       589        0.07       6886.69    62.181     15695     
2768       9.23       392        9.23       309        0          254.493    13697      -684       585        0.07       6887.94    62.232     15708     
2768.2     7.91       336        8.03       314        0          254.492    13697      -684       590        0.07       6889.2     62.26      15715     
2768.4     7.91       336        7.92       306        0          254.512    13698      -684       587        0.07       6890.41    62.284     15721     
2768.6     6.76       287        6.92       222        0          254.55     13700      -684       585        0.07       6891.59    62.319     15729     
2768.8     6.76       287        6.76       220        0          254.572    13701      -684       584        0.07       6892.86    62.364     15741     
2769       6.95       295        6.93       214        0          254.576    13701      -684       583        0.07       6894.11    62.421     15755     
2769.2     6.95       295        6.95       237        0          254.6      13703      -684       582        0.07       6895.43    62.467     15766     
2769.4     8.1        344        7.96       215        0          254.606    13703      -684       577        0.07       6896.64    62.515     15778     
2769.6     8.1        344        8.09       238        0          254.633    13704      -684       583        0.07       6897.89    62.568     15791     
2769.8     8.64       367        8.6        229        0          254.658    13706      -684       587        0.07       6899.09    62.62      15804     
2770       8.64       367        8.64       178        2          254.679    13707      -684       591        0.07       6900.36    62.694     15822     
2770.2     8.85       376        8.83       244        0          254.7      13708      -691       587        0.04       6902.06    62.769     15841     
2770.4     8.85       376        8.85       2112       0          254.719    13709      -691       585        0.05       6903.25    62.824     15855     
2770.6     8.38       356        8.45       869        0          254.737    13710      -691       581        0.07       6904.56    62.874     15867     
2770.8     8.38       356        8.39       304        0          254.753    13711      -691       573        0.07       6905.78    62.94      15883     
2771       7.96       338        8          256        0          254.769    13712      -691       577        0.07       6907.03    63.053     15911     
2771.2     7.96       338        7.96       258        0          254.786    13713      -691       587        0.07       6908.3     63.116     15927     
2771.4     8.78       373        8.75       254        0          254.803    13714      -691       585        0.07       6909.54    63.2       15948     
2771.6     8.79       373        8.79       259        0          254.822    13715      -691       584        0.07       6910.71    63.291     15970     
2771.8     8.81       374        8.81       284        0          254.855    13717      -691       583        0.07       6911.95    63.414     16001     
2772       8.71       370        8.74       243        0          254.866    13718      -691       582        0.07       6913.22    63.49      16020     
2772.2     8.22       349        8.24       298        0          254.883    13719      -691       575        0.07       6914.53    63.622     16052     
2772.4     8.22       349        8.22       305        0          254.898    13720      -691       569        0.07       6915.74    63.757     16086     
2772.6     8.43       358        8.42       243        0          254.913    13721      -691       564        0.07       6916.98    63.849     16109     
2772.8     8.54       363        8.5        247        0          254.928    13722      -691       573        0.07       6918.19    63.952     16135     
2773       8.83       375        8.82       259        0          254.945    13723      -691       575        0.07       6919.45    64.037     16156     
