~Version
 VERS              .         2.0                           : CWLS LOG ASCII STANDARD - VERSION 2.0
 WRAP              .         NO                            : ONE LINE PER DEPTH STEP
 DLM               .         SPACE                         : DELIMITING CHARACTER(SPACE TAB OR COMMA)
~Well Information
#_______________________________________________________________________________
#
#PARAMETER_NAME    .UNIT     VALUE                         : DESCRIPTION
#_______________________________________________________________________________
STRT               .M        2649.6                        : First reference value
STOP               .M        2756.799946                   : Last reference value
STEP               .M        0.1999999                     : Step increment
NULL               .         -9999                         : Missing value
COMP               .                                       : Company
WELL               .         616                           : Well name
FLD                .                                       : Field
LOC                .                                       : Location
CNTY               .                                       : County
STAT               .                                       : State
CTRY               .                                       : Country
SRVC               .                                       : Service Company
DATE               .                                       : Date
API                .                                       : API number
PROJECT_UPGRADE_TIME .         2021-03-18T21_24_50           : 
group              .         Good                          : 
~Parameter Information Block
#_______________________________________________________________________________
#
#PARAMETER_NAME    .UNIT     VALUE                         : DESCRIPTION
#_______________________________________________________________________________
SET                .         D4412_D_2                     : 
COMM               .                                       : 
OTHER              .         Запись производится в присутствии: 
OTHER_10           .         Максимальная температура      : 
OTHER_11           .         Тип промывочной жидкости      : 
OTHER_12           .         Сопротивление ПЖ (Ом*м) при 20°C: 
OTHER_13           .         Плотность ПЖ(г/см3)           : 
OTHER_14           .         Вязкость ПЖ(с)                : 
OTHER_15           .         Водоотдача ПЖ(см3/30мин)      : 
OTHER_16           .         Уровень ПЖ                    : 
OTHER_17           .         Нефть ПЖ (%)                  : 
OTHER_18           .         Барит ПЖ (%)                  : 
OTHER_19           .         Гематит ПЖ (%)                : 
OTHER_2            .         Заказчик ННСН  ЦДНГ-1         : 
OTHER_20           .         КМЦ ПЖ (%)                    : 
OTHER_21           .         Разгазирование ПЖ (да,нет)    : 
OTHER_22           .         Подъемник                     : 
OTHER_23           .         Лаборатория                   : 
OTHER_24           .         Тип кабеля                    : 
OTHER_25           .         Длина кабеля (м)              : 
OTHER_26           .         Цена последней метки          : 
OTHER_27           .         Цена контрольной метки        : 
OTHER_28           .         Диаметр долота (мм)           : 
OTHER_29           .         Глубина бурения (м)           : 
OTHER_3            .         Площадь                       : 
OTHER_30           .         Искусственный забой (м)       : 
OTHER_31           .         Диаметр колонны (мм)          : 
OTHER_32           .         Толщина колонны (мм)          : 
OTHER_33           .         Башмак колонны (м)            : 
OTHER_34           .         Диаметр НКТ (мм)              : 
OTHER_35           .         Толщина НКТ (мм)              : 
OTHER_36           .         Воронка НКТ (м)               : 
OTHER_37           .         Дата цементожа                : 
OTHER_38           .         Тип, количество(т) и плотность цемента: 
OTHER_39           .         Интервалы перфорации (м)      : 
OTHER_4            .         Категория                     : 
OTHER_40           .         Направление, диаметр (мм)     : 
OTHER_41           .         Направление, глубина (м)      : 
OTHER_42           .         Кондуктор, диаметр (мм)       : 
OTHER_43           .         Кондуктор, глубина (м)        : 
OTHER_44           .         Техническая колонна, диаметр (мм): 
OTHER_45           .         Техническая колонна, глубина (м): 
OTHER_46           .         Эксплуатационная колонна, диаметр (мм): 
OTHER_47           .         Эксплуатационная колонна, глубина (м): 
OTHER_48           .         Программа Кедр-02 версия 3.4  : 
OTHER_49           .         Операционная система Windows NT 5.1 build 2600 Service Pack 2: 
OTHER_5            .         Назначение исследований       : 
OTHER_50           .         Программное обеспечение станции MONITOR-386EX 25/12/99 15_08_10   BGF V54 20/09/05 15_32_17   3.3__BGF_9030071: 
OTHER_51           .         Kedr.exe версия 3.4.2.74      : 
OTHER_52           .         KedrData.dll версия 3.4.2.29  : 
OTHER_53           .         Мнемоники версия 3.18 S       : 
OTHER_54           .         Драйвер версия 2.1.1.4        : 
OTHER_55           .         LasInf.dll 4.3.0.35           : 
OTHER_56           .         Прибор_ КСА-Т4                : 
OTHER_57           .         Номер прибора_ 160            : 
OTHER_58           .         Режим_ КСА-Т4                 : 
OTHER_59           .         Форма_ С.А.Б.                 : 
OTHER_6            .         Альтитуда стола ротора        : 
OTHER_60           .         Тарировки_                    : 
OTHER_61           .         <_techsia_sc_> Дата тарировки температуры 25.05.2010: 
OTHER_62           .         Ручной ввод коэффициентов     : 
OTHER_63           .         TM.DEGC = 0.00402*RTM.E.ACP + -0.994: 
OTHER_64           .         <_techsia_sc_> Дата тарировки давления 25.05.2010: 
OTHER_65           .         Ручной ввод коэффициентов     : 
OTHER_66           .         MN.ATM = (2.27521e-006*TM.DEGC + 0.02078)*(RMN.E.ACP + 6.2*TM.DEGC + -1688): 
OTHER_67           .         <_techsia_sc_> Дата тарировки ГК 25.05.2010: 
OTHER_68           .         Ручной ввод коэффициентов     : 
OTHER_69           .         GR.UR/H = RGR.IMP/MIN / 45.5144: 
OTHER_7            .         Вид исследований 3  6         : 
OTHER_70           .         GK.FLT = 0.1*GR.UR/H[-1] + (1-0.1)*GR.UR/H[0]: 
OTHER_8            .         Начало бурения интервала каротажа: 
OTHER_9            .         Окончание бурения интервала каротажа: 
PROJECT_UPGRADE_TIME .         2021-03-18T21_24_50           : 
PRTY               .         ПП-601-1                      : N партии
SRVC               .         Барковский                    : Начальник партии
TLFamily_DEPT      .         Measured Depth                : 
TLFamily_LM        .         Casing Collar locator         : 
TLFamily_MN        .                                       : 
TLFamily_TM        .         Temperature                   : 
group              .         second                        : 
~Curve Information
#_______________________________________________________________________________
#
#LOGNAME           .UNIT     LOG_ID                        : DESCRIPTION
#_______________________________________________________________________________
DEPT               .M                                      : Depth curve 
LM                 .е.ацп                                  : Локатор муфт,е.ацп 
MN                 .атм                                    : 12 Давление, атм. -  160.0 см 
TM                 .град.C                                 : Термограмма по стволу скважины,град.C 
~Ascii
2649.6000977 -9999      -9999      -9999     
2649.8     -9999      -9999      -9999     
2650       28         -9999      -9999     
2650.2     29         -9999      -9999     
2650.4     28         -9999      -9999     
2650.599999 28.226     -9999      -9999     
2650.799999 490.174    -9999      -9999     
2650.999999 847.013    -9999      -9999     
2651.199999 874.152    -9999      -9999     
2651.399999 1185.853   365.375    -9999     
2651.599999 886.218    365.422    64.355    
2651.799999 1331.943   365.584    64.353    
2651.999999 1215.023   365.636    64.351    
2652.199999 1262.912   365.797    64.351    
2652.399999 1083       365.836    64.358    
2652.599998 1083.948   365.896    64.359    
2652.799998 976.966    366.011    64.359    
2652.999998 907.879    366.097    64.362    
2653.199998 660.991    366.152    64.367    
2653.399998 642.104    366.188    64.372    
2653.599998 855.022    366.28     64.381    
2653.799998 901.032    366.313    64.39     
2653.999998 965.892    366.416    64.399    
2654.199998 744.978    366.389    64.403    
2654.399998 700.015    366.403    64.411    
2654.599997 730.916    366.453    64.413    
2654.799997 560.037    366.488    64.418    
2654.999997 634.962    366.405    64.422    
2655.199997 558.011    366.371    64.423    
2655.399997 580.995    366.407    64.427    
2655.599997 571.005    366.434    64.427    
2655.799997 580.989    366.414    64.429    
2655.999997 558.095    366.443    64.432    
2656.199997 753.661    366.471    64.436    
2656.399997 4149.617   366.541    64.44     
2656.599997 1321.699   366.571    64.444    
2656.799996 705.97     366.542    64.448    
2656.999996 645.005    366.599    64.452    
2657.199996 655.021    366.644    64.456    
2657.399996 696.963    366.628    64.46     
2657.599996 621.047    366.618    64.464    
2657.799996 717.917    366.645    64.468    
2657.999996 549.057    366.693    64.473    
2658.199996 664.975    366.663    64.479    
2658.399996 613.991    366.65     64.484    
2658.599995 594.96     366.678    64.489    
2658.799995 512.975    366.697    64.496    
2658.999995 461.021    366.681    64.496    
2659.199995 503.022    366.677    64.5      
2659.399995 547.911    366.705    64.504    
2659.599995 366.076    366.755    64.508    
2659.799995 520.927    366.801    64.508    
2659.999995 371.999    366.805    64.514    
2660.199995 369.04     366.861    64.516    
2660.399995 451.025    366.931    64.52     
2660.599994 502.94     366.998    64.52     
2660.799994 380.001    367.016    64.524    
2660.999994 382.073    367.056    64.529    
2661.199994 531        367.105    64.536    
2661.399994 530.998    367.165    64.541    
2661.599994 526.972    367.229    64.548    
2661.799994 469.981    367.251    64.555    
2661.999994 430.971    367.315    64.56     
2662.199994 372.101    367.316    64.564    
2662.399994 578.832    367.316    64.568    
2662.599993 236.157    367.371    64.572    
2662.799993 555.919    367.418    64.576    
2662.999993 389.998    367.422    64.578    
2663.199993 384.914    367.426    64.58     
2663.399993 209.119    367.493    64.588    
2663.599993 451.961    367.53     64.592    
2663.799993 372.987    367.566    64.6      
2663.999993 347.086    367.615    64.602    
2664.199993 521.859    367.678    64.606    
2664.399993 234.085    367.784    64.608    
2664.599993 406.993    367.812    64.612    
2664.799992 392.938    367.848    64.617    
2664.999992 267.082    367.849    64.624    
2665.199992 433.884    367.87     64.627    
2665.399992 198.059    367.907    64.632    
2665.599992 318.133    367.976    64.637    
2665.799992 591.28     368.046    64.638    
2665.999992 5245.152   368.133    64.641    
2666.199992 1470.548   368.18     64.645    
2666.399992 547.86     368.25     64.649    
2666.599991 261.945    368.257    64.653    
2666.799991 149.103    368.331    64.657    
2666.999991 359.037    368.402    64.657    
2667.199991 434.859    368.448    64.665    
2667.399991 147.105    368.485    64.669    
2667.599991 361.958    368.56     64.673    
2667.799991 275.91     368.548    64.677    
2667.999991 93.024     368.591    64.681    
2668.199991 141.071    368.634    64.685    
2668.399991 284.943    368.69     64.689    
2668.59999 168.974    368.838    64.693    
2668.79999 116.058    368.971    64.699    
2668.99999 235.014    369.021    64.701    
2669.19999 262.918    368.943    64.705    
2669.39999 94.997     368.885    64.706    
2669.59999 88.067     368.934    64.713    
2669.79999 224.027    368.987    64.714    
2669.99999 278.944    369.114    64.721    
2670.19999 164.962    369.22     64.714    
2670.39999 88.042     369.185    64.729    
2670.599989 173.049    369.171    64.733    
2670.799989 272.973    369.282    64.736    
2670.999989 217.946    369.333    64.737    
2671.199989 107.986    369.309    64.741    
2671.399989 80.003     369.271    64.744    
2671.599989 86.019     369.366    64.745    
2671.799989 125.07     369.4      64.745    
2671.999989 266.943    369.271    64.745    
2672.199989 150.967    369.257    64.748    
2672.399989 84.067     369.304    64.752    
2672.599989 219.988    369.259    64.753    
2672.799988 195.037    369.106    64.757    
2672.999988 271.058    369.128    64.757    
2673.199988 388.955    369.202    64.765    
2673.399988 296.901    369.254    64.769    
2673.599988 94.157     369.233    64.765    
2673.799988 413.935    369.322    64.765    
2673.999988 281.987    369.359    64.769    
2674.199988 256.068    369.332    64.773    
2674.399988 394.918    369.276    64.777    
2674.599987 226.925    369.309    64.773    
2674.799987 74.012     369.367    64.773    
2674.999987 99.051     369.382    64.777    
2675.199987 204.004    369.341    64.781    
2675.399987 212.053    369.425    64.785    
2675.599987 322.415    369.425    64.789    
2675.799987 5246.209   369.426    64.793    
2675.999987 3631.729   369.422    64.793    
2676.199987 1039.68    369.468    64.793    
2676.399987 387.015    369.539    64.797    
2676.599986 417.02     369.574    64.801    
2676.799986 456.99     369.616    64.805    
2676.999986 435.988    369.648    64.809    
2677.199986 410.989    369.717    64.809    
2677.399986 388.119    369.743    64.811    
2677.599986 630.976    369.785    64.813    
2677.799986 581.917    369.828    64.816    
2677.999986 412.163    369.88     64.821    
2678.199986 743.902    369.954    64.825    
2678.399986 544.971    370.018    64.825    
2678.599986 485.967    370.067    64.829    
2678.799985 417.906    370.102    64.83     
2678.999985 225.981    370.151    64.834    
2679.199985 187.066    370.187    64.834    
2679.399985 320.987    370.232    64.838    
2679.599985 293.966    370.27     64.838    
2679.799985 225.066    370.326    64.838    
2679.999985 358.916    370.358    64.838    
2680.199985 187.993    370.373    64.844    
2680.399985 174.006    370.328    64.846    
2680.599985 186.012    370.366    64.85     
2680.799984 209.959    370.392    64.85     
2680.999984 126.998    370.461    64.85     
2681.199984 121.997    370.461    64.85     
2681.399984 115.033    370.512    64.85     
2681.599984 183.043    370.545    64.854    
2681.799984 270.928    370.567    64.855    
2681.999984 124.015    370.549    64.858    
2682.199984 154.998    370.588    64.861    
2682.399984 151.028    370.358    64.862    
2682.599983 209.02     370.358    64.862    
2682.799983 249.007    370.403    64.862    
2682.999983 263.953    370.331    64.864    
2683.199983 168.018    370.203    64.866    
2683.399983 204.953    370.171    64.87     
2683.599983 110.038    370.192    64.87     
2683.799983 188.014    370.189    64.87     
2683.999983 217.043    370.163    64.874    
2684.199983 303.971    370.151    64.874    
2684.399983 245.056    370.172    64.874    
2684.599982 359.981    370.131    64.876    
2684.799982 321.009    370.131    64.878    
2684.999982 338.98     370.12     64.878    
2685.199982 299.601    370.11     64.878    
