~Version
 VERS              .         2.0                           : CWLS LOG ASCII STANDARD - VERSION 2.0
 WRAP              .         NO                            : ONE LINE PER DEPTH STEP
 DLM               .         SPACE                         : DELIMITING CHARACTER(SPACE TAB OR COMMA)
~Well Information
#_______________________________________________________________________________
#
#PARAMETER_NAME    .UNIT     VALUE                         : DESCRIPTION
#_______________________________________________________________________________
STRT               .M        2668.2                        : First reference value
STOP               .M        2774.800107                   : Last reference value
STEP               .M        0.2000002                     : Step increment
NULL               .         -9999                         : Missing value
COMP               .                                       : Company
WELL               .         616                           : Well name
FLD                .                                       : Field
LOC                .                                       : Location
CNTY               .                                       : County
STAT               .                                       : State
CTRY               .                                       : Country
SRVC               .                                       : Service Company
DATE               .                                       : Date
API                .                                       : API number
PROJECT_UPGRADE_TIME .         2021-03-18T21_24_50           : 
group              .         Good                          : 
~Parameter Information Block
#_______________________________________________________________________________
#
#PARAMETER_NAME    .UNIT     VALUE                         : DESCRIPTION
#_______________________________________________________________________________
SET                .         D1805_D_2                     : 
NPR                .                                       : 
OTHER              .         Программное обеспечение станции MONITOR-386EX 25/12/99 15_08_10   BGF V52 22/08/01 16_56_30   3.1_SNGF___BGF_N_092049: 
OTHER_10           .         Тарировки_                    : 
OTHER_11           .         TM.GRD = 0.00403*TM$.UE + -1.07: 
OTHER_12           .         MN.ATM = (9.34907e-006*TM.GRD + 0.02171)*(MN$.UE + -7.93*TM.GRD + -1787): 
OTHER_13           .         GK.MKR/H = LM. / 42.4676      : 
OTHER_14           .         GK.FLT = 0.1*GK.MKR/H[-1] + (1-0.1)*GK.MKR/H[0]: 
OTHER_2            .         Kedr.exe версия 3.4.2.51      : 
OTHER_3            .         KedrData.dll версия 3.4.2.24  : 
OTHER_4            .         Драйвер версия 2.1.1.3        : 
OTHER_5            .         Мнемоники версия 3.3 S        : 
OTHER_6            .         Прибор_ КСА-Т4                : 
OTHER_7            .         Номер прибора_ 03             : 
OTHER_8            .         Режим_ КСА-Т4                 : 
OTHER_9            .         Форма_ КВА.                   : 
PR                 .                                       : 
PROJECT_UPGRADE_TIME .         2021-03-18T21_24_49           : 
PRTY               .         ПП-603-1                      : N партии
SRV                .                                       : 
SRVC               .         Карпов                        : Начальник партии
TLFamily_DEPT      .         Measured Depth                : 
TLFamily_LM        .         Casing Collar locator         : 
TLFamily_MN        .                                       : 
TLFamily_TM        .         Temperature                   : 
group              .         second                        : 
~Curve Information
#_______________________________________________________________________________
#
#LOGNAME           .UNIT     LOG_ID                        : DESCRIPTION
#_______________________________________________________________________________
DEPT               .M                                      : Depth curve 
LM                 .е.ацп                                  : Локатор муфт,е.ацп 
MN                 .атм                                    : Манометрия, атм 
TM                 .град.C                                 : Термограмма по стволу скважины,град.C 
~Ascii
2668.1999512 -9999      -9999      -9999     
2668.4     -9999      -9999      -9999     
2668.6     316.951    -9999      -9999     
2668.800001 3367.255   -9999      -9999     
2669.000001 5330.521   -9999      -9999     
2669.200001 2127.782   -9999      -9999     
2669.400001 514.394    -9999      -9999     
2669.600001 398.028    -9999      -9999     
2669.800002 385.003    -9999      -9999     
2670.000002 348.009    -9999      -9999     
2670.200002 248.024    324.799    55.997    
2670.400002 275.993    323.894    55.999    
2670.600002 281.999    324.435    55.999    
2670.800003 334.987    324.429    55.999    
2671.000003 326.002    324.016    55.999    
2671.200003 370.989    324.87     55.999    
2671.400003 339.008    323.795    55.999    
2671.600003 302.009    324.253    55.999    
2671.800004 289.003    324.864    55.999    
2672.000004 259.007    324.66     55.999    
2672.200004 287.993    325.185    55.999    
2672.400004 312.994    324.298    55.995    
2672.600004 257.014    324.567    55.995    
2672.800005 290.992    324.531    55.994    
2673.000005 252.01     324.668    55.995    
2673.200005 289.991    324.748    55.992    
2673.400005 301.997    323.716    55.995    
2673.600005 241.015    325.271    55.991    
2673.800006 306.984    324.388    55.991    
2674.000006 292.004    324.664    55.991    
2674.200006 244.012    325.298    55.987    
2674.400006 264.995    324.017    55.987    
2674.600006 232.008    326.117    55.987    
2674.800007 265.992    324.403    55.987    
2675.000007 262.001    325.097    55.987    
2675.200007 234.007    325.444    55.987    
2675.400007 243.998    324.232    55.987    
2675.600007 254.997    325.327    55.987    
2675.800008 281.993    324.274    55.987    
2676.000008 247.009    325.229    55.987    
2676.200008 251.999    325.407    55.987    
2676.400008 251        324.855    55.985    
2676.600008 217.008    325.168    55.987    
2676.800009 265.988    324.256    55.987    
2677.000009 264        324.624    55.987    
2677.200009 225.009    325.423    55.983    
2677.400009 245.995    324.866    55.986    
2677.600009 263.996    325.743    55.983    
2677.80001 255.002    325.372    55.983    
2678.00001 196.014    325.124    55.983    
2678.20001 262.984    325.4      55.983    
2678.40001 248.004    325.238    55.983    
2678.60001 202.011    325.475    55.979    
2678.800011 180.005    323.948    55.983    
2679.000011 201.995    325.543    55.979    
2679.200011 220.995    324.845    55.979    
2679.400011 205.004    325.608    55.979    
2679.600011 216.997    325.855    55.978    
2679.800012 250.992    324.426    55.979    
2680.000012 299.988    326.644    55.978    
2680.200012 1355.743   324.875    55.975    
2680.400012 549.196    325.254    55.979    
2680.600012 227.078    324.997    55.979    
2680.800013 225        326.314    55.975    
2681.000013 221.001    325.44     55.971    
2681.200013 211.002    325.395    55.975    
2681.400013 175.009    325.844    55.971    
2681.600013 210.991    324.985    55.971    
2681.800014 161.012    326.094    55.968    
2682.000014 210.988    326.121    55.967    
2682.200014 207.001    325.599    55.967    
2682.400014 165.01     327.053    55.965    
2682.600014 210.989    324.865    55.963    
2682.800015 213.999    325.3      55.962    
2683.000015 180.008    326.423    55.963    
2683.200015 166.003    326.08     55.963    
2683.400015 214.988    326.808    55.963    
2683.600015 185.007    324.886    55.963    
2683.800016 209.994    325.926    55.959    
2684.000016 241.992    326.475    55.954    
2684.200016 221.005    326.1      55.954    
2684.400016 216.001    325.83     55.954    
2684.600016 201.004    325.352    55.954    
2684.800017 158.01     325.961    55.954    
2685.000017 186.993    326.398    55.954    
2685.200017 193.998    326.567    55.954    
2685.400017 170.006    326.279    55.95     
2685.600017 212.99     325.459    55.95     
2685.800018 215.999    326.334    55.95     
2686.000018 197.005    326.005    55.95     
2686.200018 209.997    326.352    55.948    
2686.400018 182.007    326.968    55.946    
2686.600018 168.003    326.645    55.946    
2686.800019 177.998    326.735    55.946    
2687.000019 181.999    325.656    55.946    
2687.200019 164.004    326.941    55.942    
2687.400019 213.988    326.939    55.942    
2687.600019 193.005    326.604    55.942    
2687.80002 190.001    327.425    55.944    
2688.00002 211.995    325.128    55.942    
2688.20002 217.999    326.827    55.942    
2688.40002 190.007    326.846    55.942    
2688.60002 160.007    326.487    55.938    
2688.800021 203.989    326.772    55.934    
2689.000021 218.996    325.279    55.934    
2689.200021 161.014    326.435    55.93     
2689.400021 244.98     326.81     55.93     
2689.600021 188.014    326.819    55.93     
2689.800022 211.994    326.572    55.926    
2690.000022 238.993    325.991    55.926    
2690.200022 188.012    327.981    55.926    
2690.400022 196.998    326.213    55.93     
2690.600022 206.998    326.785    55.93     
2690.800023 192.004    326.792    55.926    
2691.000023 219.993    326.741    55.926    
2691.200023 199.005    327.28     55.922    
2691.400023 1657.646   325.459    55.922    
2691.600023 667.24     327.748    55.918    
2691.800024 258.099    326.4      55.918    
2692.000024 214.011    326.721    55.918    
2692.200024 216.999    327.502    55.918    
2692.400024 230.997    327.129    55.918    
2692.600024 204.007    327.9      55.918    
2692.800025 202        326.318    55.914    
2693.000025 240.991    326.924    55.91     
2693.200025 219.005    327.537    55.907    
2693.400025 237.995    327.391    55.906    
2693.600025 193.011    327.467    55.906    
2693.800026 187.001    325.948    55.906    
2694.000026 158.007    327.035    55.906    
2694.200026 218.985    327.633    55.905    
2694.400026 177.01     326.908    55.902    
2694.600026 185.998    327.161    55.898    
2694.800027 207.995    326.643    55.898    
2695.000027 189.005    326.815    55.897    
2695.200027 201.997    327.123    55.895    
2695.400027 176.006    327.902    55.897    
2695.600027 209.992    327.671    55.887    
2695.800028 242.992    327.348    55.894    
2696.000028 320.981    327.343    55.894    
2696.200028 295.006    326.745    55.89     
2696.400028 226.017    327.691    55.889    
2696.600028 219.002    328.346    55.886    
2696.800029 169.012    327.736    55.886    
2697.000029 173.999    328.024    55.882    
2697.200029 181.998    326.312    55.882    
2697.400029 155.007    327.754    55.877    
2697.600029 163.998    327.747    55.872    
2697.80003 157.002    327.462    55.878    
2698.00003 131.006    327.969    55.874    
2698.20003 229.976    325.993    55.874    
2698.40003 194.009    327.469    55.874    
2698.60003 151.01     327.724    55.87     
2698.800031 145.001    327.824    55.87     
2699.000031 188.989    327.788    55.874    
2699.200031 191        326.393    55.874    
2699.400031 235.989    328.217    55.874    
2699.600031 224.003    327.313    55.874    
2699.800032 226.999    327.835    55.874    
2700.000032 221.001    328.02     55.874    
2700.200032 230.998    326.86     55.87     
2700.400032 160.017    327.94     55.866    
2700.600032 192.992    327.949    55.862    
2700.800033 208.996    328.294    55.858    
2701.000033 210        327.257    55.858    
2701.200033 181.007    327.859    55.854    
2701.400033 209.993    328.297    55.854    
2701.600033 175.008    328.171    55.854    
2701.800034 147.007    329.029    55.851    
2702.000034 222.982    327.234    55.854    
2702.200034 3188.283   327.882    55.85     
2702.400034 1273.463   328.557    55.846    
2702.600034 383.215    327.994    55.85     
2702.800035 215.041    328.026    55.847    
2703.000035 172.01     326.883    55.846    
2703.200035 165.002    327.971    55.846    
2703.400035 200.991    328.48     55.846    
2703.600035 174.007    328.296    55.842    
2703.800036 148.006    328.21     55.842    
