~Version
 VERS              .         2.0                           : CWLS LOG ASCII STANDARD - VERSION 2.0
 WRAP              .         NO                            : ONE LINE PER DEPTH STEP
 DLM               .         SPACE                         : DELIMITING CHARACTER(SPACE TAB OR COMMA)
~Well Information
#_______________________________________________________________________________
#
#PARAMETER_NAME    .UNIT     VALUE                         : DESCRIPTION
#_______________________________________________________________________________
STRT               .M        549.2                         : First reference value
STOP               .M        805.2                         : Last reference value
STEP               .M        0.2                           : Step increment
NULL               .         -9999                         : Missing value
COMP               .                                       : Company
WELL               .         616                           : Well name
FLD                .                                       : Field
LOC                .                                       : Location
CNTY               .                                       : County
STAT               .                                       : State
CTRY               .                                       : Country
SRVC               .                                       : Service Company
DATE               .                                       : Date
API                .                                       : API number
PROJECT_UPGRADE_TIME .         2021-03-18T21_24_50           : 
group              .         Good                          : 
~Parameter Information Block
#_______________________________________________________________________________
#
#PARAMETER_NAME    .UNIT     VALUE                         : DESCRIPTION
#_______________________________________________________________________________
SET                .         616_4                         : 
CONF               .         00                            : 
END                .         0                             : 
ERR                .         0                             : 
GS00               .M        0803.23                       : 
GS01               .M        0546.74                       : 
MM00               .M        0120.00                       : 
NOKG               .         0                             : 
NPR                .         980402                        : 
PART               .         Палагутин                     : 
PROJECT_UPGRADE_TIME .         2021-03-18T21_24_49           : 
PRZK               .         Шакиров                       : 
TLFamily_AZIMUTH   .         True Dip Azimuth              : 
TLFamily_DEPTH     .         Measured Depth                : 
TLFamily_METKA     .                                       : 
TLFamily_ROLL      .                                       : 
TLFamily_SPEED     .         Spontaneous Potential         : 
TLFamily_ZENIT     .                                       : 
VPRG               .         310                           : 
WAY                .         UP                            : 
group              .         prim                          : 
~Curve Information
#_______________________________________________________________________________
#
#LOGNAME           .UNIT     LOG_ID                        : DESCRIPTION
#_______________________________________________________________________________
DEPTH              .M                                      :  
AZIMUTH            .DEG                                    :  
METKA              .                                       :  
ROLL               .DEG                                    :  
SPEED              .M/H                                    :  
ZENIT              .DEG                                    :  
~Ascii
# ...
695.6      262.91     0          228.54     684        30.34     
695.8      257.14     0          228.67     648        30.03     
696        255.94     0          228.76     612        29.98     
696.2      256.6      0          229.01     648        30.01     
696.4      255.7      0          229.42     648        29.82     
696.6      257.02     0          229.57     648        29.99     
696.8      256.89     0          229.42     648        29.96     
697        257.02     0          229.48     648        29.97     
697.2      256.39     0          229.57     612        29.95     
697.4      256.61     0          229.79     684        29.97     
697.6      256.25     0          229.53     648        30.04     
697.8      255.83     0          228.99     648        29.81     
698        256.74     0          228.57     612        29.9      
698.2      256.69     0          227.68     648        29.92     
698.4      256.83     0          226.07     612        30.02     
698.6      257        0          225.06     648        30.07     
698.8      256.16     0          226.5      684        29.97     
699        255.39     0          228.42     684        29.95     
699.2      257.39     0          229.71     612        30.11     
699.4      256.23     0          229.58     612        30        
699.6      256.08     0          229.48     684        30.03     
699.8      256.33     0          230.05     648        30.07     
700        255.69     0          230.25     576        29.94     
700.2      255.78     0          230.56     648        29.93     
700.4      256.79     0          231.09     648        30.15     
700.6      257.53     0          231.18     648        30.36     
700.8      255.49     0          230.92     648        29.8      
701        255.92     0          230.65     648        29.89     
701.2      256.04     0          230.36     648        29.91     
701.4      255.48     0          230.46     648        29.81     
701.6      256.3      0          230.92     612        30.03     
701.8      256.11     0          231.18     648        29.94     
702        256.12     0          231.1      648        29.96     
702.2      256.95     1          231.2      612        30.12     
702.4      255.97     0          231.25     648        29.94     
702.6      256.05     0          230.98     612        29.96     
702.8      256.12     0          230.73     648        29.99     
703        256.09     0          230.8      612        29.95     
703.2      255.87     0          231.09     612        29.92     
703.4      256.34     0          231.15     684        30.01     
703.6      256.2      0          230.84     648        29.95     
703.8      255.61     0          230.52     612        29.86     
704        256.67     0          230.24     612        30.09     
704.2      256.29     0          229.88     648        30.04     
704.4      256.51     0          229.83     648        30.06     
704.6      256.82     0          230        684        30.13     
704.8      256.19     0          230.31     612        30.02     
705        256.39     0          230.61     648        30.01     
705.2      257.15     0          230.86     612        30.15     
705.4      257.18     0          230.91     684        30.1      
705.6      256.93     0          230.96     648        29.92     
705.8      258.3      0          231.3      648        29.95     
706        262.3      0          231.89     612        30.11     
706.2      271.97     0          232.43     648        30.05     
706.4      308.78     0          232.74     684        30.33     
706.6      128.33     0          232.6      648        30.47     
706.8      156.72     0          232.16     648        30.27     
707        6.48       0          231.57     612        30.47     
707.2      313.18     0          230.9      648        30.6      
707.4      271.31     0          230.37     648        30.58     
707.6      261.65     0          230.1      648        30.62     
707.8      258.8      0          230.04     648        30.62     
708        256.76     0          229.9      576        30.47     
708.2      256.97     0          229.57     612        30.44     
708.4      256.26     0          228.33     684        30.24     
708.6      256.31     0          228.1      648        30.19     
708.8      256.52     0          228.85     612        30.19     
709        256.84     0          229.04     648        30.35     
709.2      256.11     0          229.1      648        30.22     
709.4      255.95     0          229.53     612        30.13     
709.6      257.02     0          229.67     648        30.34     
709.8      255.2      0          229.15     612        29.95     
710        256.25     0          229.44     648        30.15     
710.2      255.94     0          230.22     648        30.05     
710.4      257.55     0          231.27     612        30.44     
710.6      258.44     0          231.88     684        30.83     
710.8      256        1          231.69     648        30.33     
711        256.2      0          231.47     828        30.29     
711.2      255.37     0          231.08     648        30.16     
711.4      255.64     0          230.51     684        30.22     
711.6      256.34     0          230.15     612        30.34     
711.8      255.16     0          230.3      648        30.11     
712        256.76     1          230.54     612        30.53     
712.2      256.63     0          230.8      612        30.5      
712.4      256.37     0          231.57     648        30.4      
712.6      256.94     0          232.05     684        30.5      
712.8      256.12     0          232.11     576        30.39     
713        255.48     0          231.77     648        30.31     
713.2      256.48     0          231.34     648        30.4      
713.4      256.23     0          230.96     684        30.44     
713.6      255.52     0          230.99     648        30.33     
713.8      255.72     0          231.37     576        30.35     
714        256.76     0          231.96     612        30.54     
714.2      256.03     0          232.24     648        30.4      
714.4      256.09     0          232.17     648        30.41     
714.6      257.05     0          231.97     648        30.57     
714.8      255.93     0          231.54     648        30.39     
715        256.04     0          231.02     648        30.37     
715.2      256.64     0          230.94     648        30.53     
715.4      255.91     0          231.38     648        30.32     
715.6      256.62     0          231.67     684        30.38     
715.8      256.36     0          231.56     612        30.41     
716        255.97     0          231.37     576        30.38     
716.2      255.72     0          231.46     684        30.35     
716.4      255.97     0          231.75     648        30.4      
716.6      255.86     0          232.21     648        30.4      
716.8      255.22     0          232.32     648        30.23     
717        257.23     0          232.13     648        30.64     
717.2      256.29     0          232.11     612        30.4      
717.4      256.51     0          232.71     648        30.39     
717.6      257.85     0          232.8      684        30.67     
717.8      258.2      0          232.6      576        30.59     
718        258.41     0          232.5      648        30.42     
718.2      261.85     0          232.59     612        30.56     
718.4      272.59     0          233.06     684        30.64     
718.6      302.77     0          233.46     648        30.55     
718.8      290.85     0          233.7      648        30.72     
719        185.93     0          233.84     612        30.8      
719.2      73.31      0          233.92     648        30.64     
719.4      330.65     0          234.38     612        30.86     
719.6      281.87     0          234.71     684        31        
719.8      262.09     0          234.36     612        30.7      
