~Version
 VERS              .         2.0                           : CWLS LOG ASCII STANDARD - VERSION 2.0
 WRAP              .         NO                            : ONE LINE PER DEPTH STEP
 DLM               .         SPACE                         : DELIMITING CHARACTER(SPACE TAB OR COMMA)
~Well Information
#_______________________________________________________________________________
#
#PARAMETER_NAME    .UNIT     VALUE                         : DESCRIPTION
#_______________________________________________________________________________
STRT               .M        2657.4                        : First reference value
STOP               .M        2769.200056                   : Last reference value
STEP               .M        0.2000001                     : Step increment
NULL               .         -9999                         : Missing value
COMP               .                                       : Company
WELL               .         616                           : Well name
FLD                .                                       : Field
LOC                .                                       : Location
CNTY               .                                       : County
STAT               .                                       : State
CTRY               .                                       : Country
SRVC               .                                       : Service Company
DATE               .                                       : Date
API                .                                       : API number
PROJECT_UPGRADE_TIME .         2021-03-18T21_24_50           : 
group              .         Good                          : 
~Parameter Information Block
#_______________________________________________________________________________
#
#PARAMETER_NAME    .UNIT     VALUE                         : DESCRIPTION
#_______________________________________________________________________________
SET                .         D8106_D_2                     : 
COMM               .                                       : 
OTHER              .         Программное обеспечение станции MONITOR-386EX 25/12/99 15_08_10   BGF V52 22/08/01 16_56_30   4_SNGF_BGF_N_011645: 
OTHER_10           .         Тарировки_                    : 
OTHER_11           .         TM.GRD = 0.00412*TM$.UE + -2.13: 
OTHER_12           .         MN.ATM = (5.87652e-006*TM.GRD + 0.01993)*(MN$.UE + -2.72*TM.GRD + -1925): 
OTHER_13           .         GK.MKR/H = GK$.UE / 57.4657   : 
OTHER_2            .         Kedr.exe версия 3.4.2.51      : 
OTHER_3            .         KedrData.dll версия 3.4.2.24  : 
OTHER_4            .         Драйвер версия 2.1.0.2        : 
OTHER_5            .         Мнемоники версия 3.3 S        : 
OTHER_6            .         Прибор_ АКП4-90               : 
OTHER_7            .         Номер прибора_ 53             : 
OTHER_8            .         Режим_ АКП4_90                : 
OTHER_9            .         Форма_ ПК-53ое                : 
PROJECT_UPGRADE_TIME .         2021-03-18T21_24_50           : 
PRTY               .         ПРП-614                       : N партии
SRVC               .         Глухов М.В.                   : Начальник партии
TLFamily_DEPT      .         Measured Depth                : 
TLFamily_GK        .         Russian Gamma Ray             : 
TLFamily_LM        .         Casing Collar locator         : 
TLFamily_TM        .         Temperature                   : 
group              .         second                        : 
~Curve Information
#_______________________________________________________________________________
#
#LOGNAME           .UNIT     LOG_ID                        : DESCRIPTION
#_______________________________________________________________________________
DEPT               .M                                      : Depth curve 
GK                 .мкР/ч                                  : Естественная гамма-активность,мкР/ч 
LM                 .е.ацп                                  : Локатор муфт,е.ацп 
TM                 .град.C                                 : Термограмма по стволу скважины,град.C 
~Ascii
2657.3999023 -9999      -9999      -9999     
2657.6     -9999      -9999      -9999     
2657.8     -9999      -9999      -9999     
2658       -9999      17.002     -9999     
2658.2     -9999      1575.239   -9999     
2658.400001 6.25       923.319    -9999     
2658.600001 6.05       268.32     -9999     
2658.800001 6.04       230.019    -9999     
2659.000001 6.66       373.93     -9999     
2659.200001 7.05       187.091    65.965    
2659.400001 7.2        465.864    65.965    
2659.600001 6.56       308.077    65.969    
2659.800001 6.42       451.93     65.965    
2660.000001 6.15       161.142    65.961    
2660.200001 6.14       164.998    65.957    
2660.400002 6.89       107.028    65.953    
2660.600002 6.93       530.793    65.943    
2660.800002 6.96       318.104    65.937    
2661.000002 6.64       416.952    65.928    
2661.200002 6.6        260.077    65.924    
2661.400002 6.86       165.046    65.918    
2661.600002 6.87       85.039     65.911    
2661.800002 6.74       367.862    65.899    
2662.000002 6.62       399.984    65.895    
2662.200002 6.43       444.978    65.887    
2662.400003 6.55       353.045    65.886    
2662.600003 6.61       166.091    65.879    
2662.800003 6.74       113.026    65.871    
2663.000003 6.75       460.83     65.862    
2663.200003 7.2        414.023    65.854    
2663.400003 7.22       354.029    65.846    
2663.600003 7.61       309.022    65.839    
2663.800003 7.35       101.101    65.831    
2664.000003 7.26       116.992    65.825    
2664.200003 6.62       329.896    65.821    
2664.400003 6.53       222.053    65.813    
2664.600004 6.56       449.889    65.805    
2664.800004 6.58       308.069    65.792    
2665.000004 6.76       325.991    65.788    
2665.200004 6.75       147.087    65.786    
2665.400004 6.72       243.953    65.776    
2665.600004 6.53       500.875    65.768    
2665.800004 6.51       1316.602   65.76     
2666.000004 6.3        857.224    65.753    
2666.200004 5.83       570.14     65.739    
2666.400005 5.11       213.174    65.726    
2666.600005 4.76       328.943    65.718    
2666.800005 4.6        141.092    65.707    
2667.000005 5.05       456.846    65.691    
2667.200005 5.15       343.056    65.681    
2667.400005 5.3        658.846    65.673    
2667.600005 5.45       197.225    65.656    
2667.800005 6.43       365.918    65.645    
2668.000005 6.76       482.943    65.629    
2668.200005 6.82       427.027    65.623    
2668.400006 6.23       564.933    65.602    
2668.600006 6.2        547.009    65.599    
2668.800006 6.26       964.796    65.567    
2669.000006 6.11       28165.73   65.549    
2669.200006 6.04       17944.99   65.53     
2669.400006 5.03       3146.214   65.52     
2669.600006 4.82       758.161    65.492    
2669.800006 4.85       517.117    65.474    
2670.000006 5.02       804.86     65.449    
2670.200006 5.49       691.056    65.427    
2670.400007 5.51       616.037    65.4      
2670.600007 5.52       478.067    65.395    
2670.800007 6.04       670.906    65.362    
2671.000007 6.07       609.03     65.342    
2671.200007 6.21       1620.507   65.318    
2671.400007 6.68       1425.095   65.302    
2671.600007 6.84       892.26     65.274    
2671.800007 6.93       399.24     65.249    
2672.000007 6.94       345.026    65.22     
2672.200007 6          167.087    65.189    
2672.400007 5.62       541.817    65.148    
2672.600008 5.33       165.184    65.122    
2672.800008 4.77       320.924    65.094    
2673.000008 4.61       548.889    65.075    
2673.200008 4.33       474.037    65.059    
2673.400008 4.27       303.083    65.024    
2673.600008 3.99       485.911    64.992    
2673.800008 3.91       417.034    64.96     
2674.000008 3.86       390.013    64.934    
2674.200008 4.11       228.079    64.883    
2674.400009 4.12       179.024    64.847    
2674.600009 4.21       364.909    64.808    
2674.800009 4.51       389.988    64.776    
2675.000009 4.63       800.8      64.731    
2675.200009 4.94       521.136    64.715    
2675.400009 4.98       515.003    64.681    
2675.600009 4.83       337.087    64.648    
2675.800009 4.99       558.892    64.604    
2676.000009 5.08       704.929    64.587    
2676.200009 4.84       432.133    64.547    
2676.40001 4.79       269.079    64.511    
2676.60001 4.21       524.875    64.462    
2676.80001 4.3        223.147    64.425    
2677.00001 4.59       396.915    64.353    
2677.20001 5.01       248.073    64.325    
2677.40001 5.16       272.988    64.303    
2677.60001 5.27       223.024    64.271    
2677.80001 5.27       1055.595   64.201    
2678.00001 5.12       897.077    64.131    
2678.20001 4.93       596.147    64.106    
2678.400011 4.84       403.094    64.049    
2678.600011 4.37       179.109    63.975    
2678.800011 4.36       354.914    63.929    
2679.000011 4.47       347.004    63.869    
2679.200011 4.6        770.794    63.808    
2679.400011 4.63       571.097    63.77     
2679.600011 4.85       389.089    63.702    
2679.800011 4.87       345.021    63.664    
2680.000011 5.46       642.855    63.598    
2680.200011 5.46       13576.7    63.558    
2680.400011 5.45       11836.85   63.488    
2680.600012 5.23       3285.162   63.422    
2680.800012 5.2        993.114    63.37     
2681.000012 5.17       614.184    63.322    
2681.200012 5.19       718.949    63.269    
2681.400012 5.2        468.122    63.207    
2681.600012 5.67       768.854    63.156    
2681.800012 5.71       501.13     63.117    
2682.000012 6.58       752.877    63.071    
2682.200012 6.64       655.048    63.001    
2682.400013 6.68       741.958    62.936    
2682.600013 5.82       780.981    62.87     
2682.800013 5.73       818.982    62.842    
2683.000013 5.21       906.957    62.776    
2683.200013 5.2        896.005    62.711    
2683.400013 5.32       700.095    62.645    
2683.600013 6.03       323.183    62.613    
2683.800013 6.12       433.946    62.541    
2684.000013 6.21       210.109    62.489    
2684.200013 5.64       726.749    62.408    
2684.400014 5.37       395.161    62.347    
2684.600014 5.62       510.944    62.268    
2684.800014 5.67       247.128    62.204    
2685.000014 6.03       485.884    62.157    
2685.200014 6.1        269.106    62.08     
2685.400014 6.14       760.761    62.004    
2685.600014 6.5        417.167    61.931    
2685.800014 6.58       444.986    61.881    
2686.000014 6.2        530.958    61.781    
2686.200014 6.05       593.969    61.697    
2686.400014 5.82       500.046    61.571    
2686.600015 6.06       371.063    61.495    
2686.800015 6.16       499.937    61.392    
2687.000015 6.5        358.069    61.332    
2687.200015 6.46       595.884    61.246    
2687.400015 6.22       313.138    61.177    
2687.600015 6.18       818.754    61.052    
2687.800015 6.18       302.251    60.968    
2688.000015 6.49       554.877    60.889    
2688.200015 6.57       307.121    60.803    
2688.400015 6.78       517.897    60.711    
2688.600016 7.06       477.02     60.637    
2688.800016 7.1        517.98     60.563    
2689.000016 7.08       584.967    60.462    
2689.200016 7.21       557.014    60.361    
2689.400016 7.29       630.964    60.22     
2689.600016 7.49       667.982    60.144    
2689.800016 7.52       467.098    60.046    
2690.000016 7.21       333.065    59.979    
2690.200016 7.04       505.916    59.818    
2690.400017 6.89       354.074    59.723    
2690.600017 7.15       703.83     59.629    
2690.800017 7.22       440.128    59.534    
2691.000017 7.38       471.984    59.384    
2691.200017 7.38       387.041    59.305    
2691.400017 7.33       20429.26   59.187    
2691.600017 7.16       12954.64   59.126    
2691.800017 7.08       2342.155   58.982    
2692.000017 6.98       1021.639   58.894    
2692.200017 6.98       1033.994   58.768    
2692.400018 6.93       499.26     58.665    
2692.600018 6.98       753.876    58.586    
2692.800018 7          641.055    58.492    
2693.000018 7.01       1353.654   58.431    
