~Version
 VERS              .         2.0                           : CWLS LOG ASCII STANDARD - VERSION 2.0
 WRAP              .         NO                            : ONE LINE PER DEPTH STEP
 DLM               .         SPACE                         : DELIMITING CHARACTER(SPACE TAB OR COMMA)
~Well Information
#_______________________________________________________________________________
#
#PARAMETER_NAME    .UNIT     VALUE                         : DESCRIPTION
#_______________________________________________________________________________
STRT               .M        2659.6                        : First reference value
STOP               .M        2769.6                        : Last reference value
STEP               .M        0.2                           : Step increment
NULL               .         -9999                         : Missing value
COMP               .                                       : Company
WELL               .         616                           : Well name
FLD                .                                       : Field
LOC                .                                       : Location
CNTY               .                                       : County
STAT               .                                       : State
CTRY               .                                       : Country
SRVC               .                                       : Service Company
DATE               .                                       : Date
API                .                                       : API number
PROJECT_UPGRADE_TIME .         2021-03-18T21_24_50           : 
group              .         Good                          : 
~Parameter Information Block
#_______________________________________________________________________________
#
#PARAMETER_NAME    .UNIT     VALUE                         : DESCRIPTION
#_______________________________________________________________________________
SET                .         D1162_D                       : 
OTHER              .         Программное обеспечение станции MONITOR-386EX 25/12/99 15_08_10   BGF V52 22/08/01 16_56_30   3.2_BGF_N_3070031: 
OTHER_10           .         Тарировки_                    : 
OTHER_11           .         TM.GRD = 0.00403*TM$.UE + -1.19: 
OTHER_12           .         MN.ATM = (7.1e-006*TM.GRD + 0.02017)*(MN$.UE + -3.03*TM.GRD + -1833): 
OTHER_13           .         Id error                      : 
OTHER_2            .         Kedr.exe версия 3.4.2.51      : 
OTHER_3            .         KedrData.dll версия 3.4.2.24  : 
OTHER_4            .         Драйвер версия 2.1.1.8        : 
OTHER_5            .         Мнемоники версия 3.3 S        : 
OTHER_6            .         Прибор_ КСА-М1                : 
OTHER_7            .         Номер прибора_ 265            : 
OTHER_8            .         Режим_ КСА-М1                 : 
OTHER_9            .         Форма_ ТЕРМОМЕТР              : 
PROJECT_UPGRADE_TIME .         2021-03-18T21_24_49           : 
TLFamily_DEPT      .         Measured Depth                : 
TLFamily_GK        .         Gamma Ray                     : 
TLFamily_GK$       .                                       : 
TLFamily_LM        .         Casing Collar locator         : 
TLFamily_METKA     .                                       : 
TLFamily_MN        .                                       : 
TLFamily_MN$       .                                       : 
TLFamily_RCOR      .                                       : 
TLFamily_SPID      .         Spontaneous Potential         : 
TLFamily_STD       .                                       : 
TLFamily_TENS      .         Cable Tension                 : 
TLFamily_TIME      .         Time                          : 
TLFamily_TM        .         Temperature                   : 
TLFamily_TM$       .         Temperature                   : 
TLFamily_VGD       .         Gas Volume                    : 
group              .         prim                          : 
~Curve Information
#_______________________________________________________________________________
#
#LOGNAME           .UNIT     LOG_ID                        : DESCRIPTION
#_______________________________________________________________________________
DEPT               .M                                      : 1 Глубина, м -    0.0 см 
GK                 .MKR/H                                  : 15 Гамма-активность, мкр./ч -  110.0 см 
GK$                .UE                                     : 12 Гамма-активность, усл.ед. -  110.0 см 
LM                 .                                       : 10 Локатор муфт,  -   20.0 см 
METKA              .                                       : 3 Метки,  -    0.0 см 
MN                 .ATM                                    : 14 Давление, атм. -  160.0 см 
MN$                .UE                                     : 8 Давление, усл.ед. -  160.0 см 
RCOR               .CM/KM                                  : 5 Коррекция по ролику, см/км -    0.0 см 
SPID               .M/H                                    : 2 Скорость, м/час -    0.0 см 
STD                .                                       : 11 Приток,  -  170.0 см 
TENS               .T                                      : 6 Натяжение кабеля, т -    0.0 см 
TIME               .S                                      : 4 Время, сек -    0.0 см 
TM                 .GRD                                    : 13 Температура, °C -  180.0 см 
TM$                .UE                                     : 7 Температура, усл.ед. -  180.0 см 
VGD                .                                       : 9 Влагомер,  -  170.0 см 
~Ascii
2659.6     -9999      -9999      -9999      0          -9999      -9999      -9999      -9999      -9999      -9999      -9999      -9999      -9999      -9999     
2659.8     -9999      -9999      1          0          -9999      -9999      -1400      109        -9999      0          17411.46   -9999      -9999      -9999     
2660       -9999      -9999      1          2          -9999      -9999      -1400      181        -9999      0          17412.06   -9999      -9999      -9999     
2660.2     -9999      -9999      1          0          -9999      -9999      -1400      267        -9999      0          17412.96   -9999      -9999      -9999     
2660.4     -9999      -9999      1          0          -9999      -9999      -1400      346        -9999      0          17414.24   -9999      -9999      -9999     
2660.6     -9999      -9999      1          0          -9999      -9999      -1400      402        -9999      0          17415.47   -9999      -9999      -9999     
2660.8     8.98       379        1          0          -9999      -9999      -1400      450        -9999      0          17416.7    -9999      -9999      -9999     
2661       8.88       377        1          0          -9999      -9999      -1400      489        -9999      0          17417.91   -9999      -9999      -9999     
2661.2     8.86       377        1          0          -9999      -9999      -1400      507        -9999      0          17419.21   -9999      -9999      -9999     
2661.4     8.93       388        1          0          246.621    13960      -1400      536        32108      0          17420.39   -9999      -9999      6520      
2661.6     9.03       388        1          0          246.637    13961      -1400      551        32120      0          17421.59   87.163     21924      6520      
2661.8     9.25       412        1          0          246.637    13961      -1400      562        32132      0          17422.83   87.162     21924      6520      
2662       9.51       412        1          0          246.637    13961      -1400      569        32158      0          17424.04   87.161     21923      6520      
2662.2     9.45       393        1          0          246.678    13963      -1400      578        32185      0          17425.28   87.16      21923      6518      
2662.4     9.11       383        1          0          246.665    13962      -1400      578        32174      0          17426.45   87.16      21923      6520      
2662.6     8.56       336        1          0          246.702    13964      -1400      582        32145      0          17427.69   87.16      21923      6519      
2662.8     8.08       336        1          0          246.702    13964      -1400      590        32114      0          17428.87   87.159     21923      6519      
2663       7.59       294        1          0          246.741    13966      -1400      602        32087      0          17430.04   87.156     21922      6519      
2663.2     7.11       294        1          0          246.741    13966      -1400      596        32067      0          17431.28   87.16      21923      6519      
2663.4     6.83       278        1          0          246.793    13969      -1400      603        32051      0          17432.46   87.162     21924      6517      
2663.6     6.36       263        1          0          246.783    13968      -1400      597        32039      0          17433.66   87.166     21925      6517      
2663.8     6.21       262        1          0          246.827    13970      -1400      598        32033      0          17434.86   87.172     21926      6516      
2664       6.09       258        1          0          246.827    13970      -1400      594        32029      0          17436.1    87.176     21927      6515      
2664.2     5.96       247        1          0          246.86     13972      -1400      596        32024      0          17437.35   87.18      21928      6515      
2664.4     5.69       238        1          0          246.878    13973      -1400      596        32022      0          17438.52   87.187     21930      6514      
2664.6     5.6        237        1          0          246.89     13973      -1400      604        32020      0          17439.69   87.188     21930      6513      
2664.8     5.46       231        1          0          246.949    13976      -1400      599        32021      0          17440.93   87.197     21932      6513      
2665       5.42       231        1          0          246.938    13975      -1400      604        32024      0          17442.1    87.2       21933      6514      
2665.2     6.03       272        1          0          246.991    13978      -1400      608        32024      0          17443.3    87.207     21935      6514      
2665.4     6.26       272        1          0          246.971    13977      -1400      602        32026      0          17444.52   87.208     21935      6511      
2665.6     6.32       271        1          0          247.033    13980      -1400      602        32027      0          17445.69   87.217     21937      6511      
2665.8     6.33       271        1          0          247.013    13979      -1400      602        32029      0          17446.87   87.225     21939      6512      
2666       6.4        277        1          0          247.054    13981      -1400      607        32032      0          17448.1    87.232     21941      6511      
2666.2     6.46       277        1          0          247.054    13981      -1400      592        32036      0          17449.29   87.236     21942      6511      
2666.4     6.42       273        1          0          247.096    13983      -1400      599        32038      0          17450.46   87.242     21943      6510      
2666.6     6.4        273        1          0          247.096    13983      -1400      604        32041      0          17451.64   87.245     21944      6510      
2666.8     6.52       284        1          0          247.117    13984      -1400      597        32044      0          17452.88   87.252     21946      6510      
2667       6.6        284        1          0          247.138    13985      -1400      602        32045      0          17454.05   87.259     21948      6511      
2667.2     6.89       312        1          0          247.159    13986      -1400      606        32049      0          17455.21   87.269     21950      6511      
2667.4     7.16       312        1          0          247.18     13987      -1400      609        32050      0          17456.4    87.274     21951      6511      
2667.6     7.05       286        1          0          247.201    13988      -1400      605        32054      0          17457.6    87.285     21954      6511      
2667.8     6.64       276        1          0          247.213    13989      -1400      603        32055      0          17458.79   87.288     21955      6510      
2668       6.55       280        1          0          247.243    13990      -1400      606        32056      0          17459.93   87.293     21956      6510      
2668.2     6.55       280        1          0          247.243    13990      -1400      602        32059      0          17461.22   87.297     21957      6511      
2668.4     6.52       277        1          0          247.282    13992      -1400      611        32059      0          17462.35   87.301     21958      6510      
2668.6     6.44       274        1          0          247.284    13992      -1400      611        32064      0          17463.52   87.304     21959      6510      
2668.8     6.4        271        1          0          247.305    13993      -1400      609        32064      0          17464.7    87.309     21960      6509      
2669       6.08       253        1          0          247.326    13994      -1400      607        32069      0          17465.94   87.31      21960      6509      
2669.2     5.97       253        1          0          247.326    13994      -1400      610        32069      0          17467.07   87.313     21961      6509      
