~Version
 VERS              .         2.0                           : CWLS LOG ASCII STANDARD - VERSION 2.0
 WRAP              .         NO                            : ONE LINE PER DEPTH STEP
 DLM               .         SPACE                         : DELIMITING CHARACTER(SPACE TAB OR COMMA)
~Well Information
#_______________________________________________________________________________
#
#PARAMETER_NAME    .UNIT     VALUE                         : DESCRIPTION
#_______________________________________________________________________________
STRT               .M        2650.4                        : First reference value
STOP               .M        2757.800161                   : Last reference value
STEP               .M        0.2000003                     : Step increment
NULL               .         -9999                         : Missing value
COMP               .                                       : Company
WELL               .         616                           : Well name
FLD                .                                       : Field
LOC                .                                       : Location
CNTY               .                                       : County
STAT               .                                       : State
CTRY               .                                       : Country
SRVC               .                                       : Service Company
DATE               .                                       : Date
API                .                                       : API number
PROJECT_UPGRADE_TIME .         2021-03-18T21_24_50           : 
group              .         Good                          : 
~Parameter Information Block
#_______________________________________________________________________________
#
#PARAMETER_NAME    .UNIT     VALUE                         : DESCRIPTION
#_______________________________________________________________________________
SET                .         D4412_D                       : 
OTHER              .         Запись производится в присутствии: 
OTHER_10           .         Максимальная температура      : 
OTHER_11           .         Тип промывочной жидкости      : 
OTHER_12           .         Сопротивление ПЖ (Ом*м) при 20°C: 
OTHER_13           .         Плотность ПЖ(г/см3)           : 
OTHER_14           .         Вязкость ПЖ(с)                : 
OTHER_15           .         Водоотдача ПЖ(см3/30мин)      : 
OTHER_16           .         Уровень ПЖ                    : 
OTHER_17           .         Нефть ПЖ (%)                  : 
OTHER_18           .         Барит ПЖ (%)                  : 
OTHER_19           .         Гематит ПЖ (%)                : 
OTHER_2            .         Заказчик ННСН  ЦДНГ-1         : 
OTHER_20           .         КМЦ ПЖ (%)                    : 
OTHER_21           .         Разгазирование ПЖ (да,нет)    : 
OTHER_22           .         Подъемник                     : 
OTHER_23           .         Лаборатория                   : 
OTHER_24           .         Тип кабеля                    : 
OTHER_25           .         Длина кабеля (м)              : 
OTHER_26           .         Цена последней метки          : 
OTHER_27           .         Цена контрольной метки        : 
OTHER_28           .         Диаметр долота (мм)           : 
OTHER_29           .         Глубина бурения (м)           : 
OTHER_3            .         Площадь                       : 
OTHER_30           .         Искусственный забой (м)       : 
OTHER_31           .         Диаметр колонны (мм)          : 
OTHER_32           .         Толщина колонны (мм)          : 
OTHER_33           .         Башмак колонны (м)            : 
OTHER_34           .         Диаметр НКТ (мм)              : 
OTHER_35           .         Толщина НКТ (мм)              : 
OTHER_36           .         Воронка НКТ (м)               : 
OTHER_37           .         Дата цементожа                : 
OTHER_38           .         Тип, количество(т) и плотность цемента: 
OTHER_39           .         Интервалы перфорации (м)      : 
OTHER_4            .         Категория                     : 
OTHER_40           .         Направление, диаметр (мм)     : 
OTHER_41           .         Направление, глубина (м)      : 
OTHER_42           .         Кондуктор, диаметр (мм)       : 
OTHER_43           .         Кондуктор, глубина (м)        : 
OTHER_44           .         Техническая колонна, диаметр (мм): 
OTHER_45           .         Техническая колонна, глубина (м): 
OTHER_46           .         Эксплуатационная колонна, диаметр (мм): 
OTHER_47           .         Эксплуатационная колонна, глубина (м): 
OTHER_48           .         Программа Кедр-02 версия 3.4  : 
OTHER_49           .         Операционная система Windows NT 5.1 build 2600 Service Pack 2: 
OTHER_5            .         Назначение исследований       : 
OTHER_50           .         Программное обеспечение станции MONITOR-386EX 25/12/99 15_08_10   BGF V54 20/09/05 15_32_17   3.3__BGF_9030071: 
OTHER_51           .         Kedr.exe версия 3.4.2.74      : 
OTHER_52           .         KedrData.dll версия 3.4.2.29  : 
OTHER_53           .         Мнемоники версия 3.18 S       : 
OTHER_54           .         Драйвер версия 2.1.1.4        : 
OTHER_55           .         LasInf.dll 4.3.0.35           : 
OTHER_56           .         Прибор_ КСА-Т4                : 
OTHER_57           .         Номер прибора_ 160            : 
OTHER_58           .         Режим_ КСА-Т4                 : 
OTHER_59           .         Форма_ С.А.Б.                 : 
OTHER_6            .         Альтитуда стола ротора        : 
OTHER_60           .         Тарировки_                    : 
OTHER_61           .         <_techsia_sc_> Дата тарировки температуры 25.05.2010: 
OTHER_62           .         Ручной ввод коэффициентов     : 
OTHER_63           .         TM.DEGC = 0.00402*RTM.E.ACP + -0.994: 
OTHER_64           .         <_techsia_sc_> Дата тарировки давления 25.05.2010: 
OTHER_65           .         Ручной ввод коэффициентов     : 
OTHER_66           .         MN.ATM = (2.27521e-006*TM.DEGC + 0.02078)*(RMN.E.ACP + 6.2*TM.DEGC + -1688): 
OTHER_67           .         <_techsia_sc_> Дата тарировки ГК 25.05.2010: 
OTHER_68           .         Ручной ввод коэффициентов     : 
OTHER_69           .         GR.UR/H = RGR.IMP/MIN / 45.5144: 
OTHER_7            .         Вид исследований 3  6         : 
OTHER_70           .         GK.FLT = 0.1*GR.UR/H[-1] + (1-0.1)*GR.UR/H[0]: 
OTHER_8            .         Начало бурения интервала каротажа: 
OTHER_9            .         Окончание бурения интервала каротажа: 
PROJECT_UPGRADE_TIME .         2021-03-18T21_24_50           : 
TLFamily_CCLC      .                                       : 
TLFamily_DEPT      .         Measured Depth                : 
TLFamily_GK        .         Gamma Ray                     : 
TLFamily_GR        .         Gamma Ray                     : 
TLFamily_METKA     .                                       : 
TLFamily_MN        .                                       : 
TLFamily_RCOR      .                                       : 
TLFamily_RGR       .                                       : 
TLFamily_RMN       .                                       : 
TLFamily_RTEN      .                                       : 
TLFamily_RTM       .                                       : 
TLFamily_SPEE      .         Cable Speed                   : 
TLFamily_TIME      .         Time                          : 
TLFamily_TM        .         Temperature                   : 
group              .         prim                          : 
~Curve Information
#_______________________________________________________________________________
#
#LOGNAME           .UNIT     LOG_ID                        : DESCRIPTION
#_______________________________________________________________________________
DEPT               .M                                      : 1 Глубина, м -    0.0 см 
CCLC               .E.ACP                                  : 9 Локатор муфт,  -   20.0 см 
GK                 .FLT                                    : 14 Гамма-активность фильтрованная, мкр./ч -  110.0 см 
GR                 .UR/H                                   : 13 Гамма-активность, мкр./ч -  110.0 см 
METKA              .CU                                     : 3 Метки,  -    0.0 см 
MN                 .ATM                                    : 12 Давление, атм. -  160.0 см 
RCOR               .CM/KM                                  : 5 Коррекция по ролику, см/км -    0.0 см 
RGR                .IMP/MIN                                : 10 Гамма-активность, усл.ед. -  110.0 см 
RMN                .E.ACP                                  : 8 Давление, усл.ед. -  160.0 см 
RTEN               .T                                      : 6 Натяжение кабеля, т -    0.0 см 
RTM                .E.ACP                                  : 7 Температура, усл.ед. -  170.0 см 
SPEE               .M/H                                    : 2 Скорость, м/час -    0.0 см 
TIME               .S                                      : 4 Время, сек -    0.0 см 
TM                 .DEGC                                   : 11 Температура, °C -  170.0 см 
~Ascii
# ...
2660.800016 372        7.49       7.49       0          366.805    -1094      341        18816      0.2        16296      529        66.5       64.514    
2661.000016 369        7.03       7.03       0          366.861    -1094      320        18819      0.2        16296      524        67.84      64.516    
2661.200016 451        7.03       7.03       0          366.931    -1094      320        18822      0.2        16297      535        69.12      64.52     
2661.400017 503        6.88       6.88       0          366.998    -1094      313        18825      0.2        16297      540        70.46      64.52     
2661.600017 380        6.88       6.88       0          367.016    -1094      313        18826      0.2        16298      549        71.65      64.524    
2661.800017 382        7.65       7.65       0          367.056    -1094      348        18828      0.2        16299      565        72.87      64.529    
2662.000017 531        7.96       7.96       0          367.105    -1094      362        18830      0.2        16301      574        74.11      64.536    
2662.200018 531        8.04       8.04       0          367.165    -1094      366        18833      0.2        16302      579        75.31      64.541    
2662.400018 527        7.94       7.94       0          367.229    -1094      361        18836      0.2        16304      582        76.52      64.548    
2662.600018 470        7.89       7.89       0          367.251    -1094      359        18837      0.2        16306      585        77.73      64.555    
2662.800019 431        8.02       8.02       0          367.315    -1094      365        18840      0.2        16307      587        78.99      64.56     
2663.000019 372        8.02       8.02       0          367.316    -1094      365        18840      0.2        16308      588        80.19      64.564    
2663.200019 579        7.93       7.93       0          367.316    -1094      361        18840      0.2        16309      591        81.4       64.568    
2663.400019 236        7.82       7.82       0          367.371    -1094      356        18843      0.2        16310      593        82.59      64.572    
2663.60002 556        7.82       7.82       0          367.418    -1094      356        18845      0.2        16311      593        83.83      64.576    
2663.80002 390        7.84       7.84       0          367.422    -1094      357        18845      0.2        16311      588        85.16      64.578    
2664.00002 385        7.79       7.79       0          367.426    -1094      355        18845      0.2        16312      586        86.37      64.58     
2664.200021 209        7.54       7.54       0          367.493    -1094      343        18848      0.2        16314      583        87.63      64.588    
2664.400021 452        7.54       7.54       0          367.53     -1094      343        18850      0.2        16315      582        88.86      64.592    
2664.600021 373        7.43       7.43       0          367.566    -1094      338        18852      0.2        16317      582        90.15      64.6      
2664.800022 347        7.43       7.43       0          367.615    -1094      338        18854      0.2        16317      581        91.42      64.602    
2665.000022 522        7.65       7.65       0          367.678    -1094      348        18857      0.2        16318      579        92.63      64.606    
2665.200022 234        7.65       7.65       0          367.784    -1094      348        18862      0.2        16319      579        93.88      64.608    
2665.400022 407        8.11       8.11       0          367.812    -1094      369        18863      0.2        16320      578        95.12      64.612    
2665.600023 393        8.11       8.11       0          367.848    -1094      369        18865      0.2        16321      579        96.39      64.617    
2665.800023 267        8.59       8.59       0          367.849    -1094      391        18865      0.2        16323      580        97.65      64.624    
2666.000023 434        8.59       8.59       2          367.87     -1090      391        18866      0.2        16324      581        98.63      64.627    
2666.200024 198        7.98       7.98       0          367.907    -1089      363        18868      0.2        16325      582        99.78      64.632    
2666.400024 318        7.98       7.98       0          367.976    -1089      363        18871      0.2        16326      582        101.11     64.637    
2666.600024 589        7.51       7.51       0          368.046    -1089      342        18874      0.2        16326      582        102.29     64.638    
2666.800025 5247       7.51       7.51       0          368.133    -1089      342        18878      0.2        16327      582        103.53     64.641    
2667.000025 1471       6.11       6.11       0          368.18     -1089      278        18881      0.2        16328      581        104.78     64.645    
2667.200025 548        6.11       6.11       0          368.25     -1089      278        18884      0.2        16329      580        106        64.649    
2667.400026 262        5.89       5.89       0          368.257    -1089      268        18884      0.2        16330      580        107.31     64.653    
2667.600026 149        5.89       5.89       0          368.331    -1089      268        18888      0.2        16331      581        108.55     64.657    
2667.800026 359        6.53       6.53       0          368.402    -1089      297        18891      0.2        16331      581        109.77     64.657    
2668.000026 435        6.53       6.53       0          368.448    -1089      297        18893      0.2        16333      582        110.97     64.665    
2668.200027 147        6.11       6.11       0          368.485    -1089      278        18895      0.2        16334      582        112.28     64.669    
2668.400027 362        6.11       6.11       0          368.56     -1089      278        18899      0.2        16335      581        113.53     64.673    
2668.600027 276        6.48       6.48       0          368.548    -1089      295        18898      0.2        16336      580        114.76     64.677    
2668.800028 93         6.48       6.48       0          368.591    -1089      295        18900      0.2        16337      581        116.01     64.681    
2669.000028 141        7.34       7.34       0          368.634    -1089      334        18902      0.2        16338      581        117.24     64.685    
2669.200028 285        7.34       7.34       0          368.69     -1089      334        18905      0.2        16339      582        118.51     64.689    
2669.400029 169        7.84       7.84       0          368.838    -1089      357        18912      0.2        16340      582        119.74     64.693    
2669.600029 116        7.84       7.84       0          368.971    -1089      357        18918      0.2        16341      583        120.99     64.699    
2669.800029 235        7.32       7.32       0          369.021    -1089      333        18920      0.2        16342      583        122.22     64.701    
2670.000029 263        7.32       7.32       0          368.943    -1089      333        18917      0.2        16343      584        123.47     64.705    
2670.20003 95         6.35       6.35       0          368.885    -1089      289        18914      0.2        16343      583        124.71     64.706    
2670.40003 88         6.35       6.35       0          368.934    -1089      289        18916      0.2        16345      583        125.98     64.713    
2670.60003 224        5.91       5.91       0          368.987    -1089      269        18919      0.2        16345      584        127.19     64.714    
2670.800031 279        5.91       5.91       0          369.114    -1089      269        18925      0.2        16347      584        128.41     64.721    
2671.000031 165        6.28       6.28       0          369.22     -1089      286        18930      0.2        16345      583        129.7      64.714    
