~Version
 VERS              .         2.0                           : CWLS LOG ASCII STANDARD - VERSION 2.0
 WRAP              .         NO                            : ONE LINE PER DEPTH STEP
 DLM               .         SPACE                         : DELIMITING CHARACTER(SPACE TAB OR COMMA)
~Well Information
#_______________________________________________________________________________
#
#PARAMETER_NAME    .UNIT     VALUE                         : DESCRIPTION
#_______________________________________________________________________________
STRT               .M        2648.8                        : First reference value
STOP               .M        2753.600052                   : Last reference value
STEP               .M        0.2000001                     : Step increment
NULL               .         -9999                         : Missing value
COMP               .                                       : Company
WELL               .         616                           : Well name
FLD                .                                       : Field
LOC                .                                       : Location
CNTY               .                                       : County
STAT               .                                       : State
CTRY               .                                       : Country
SRVC               .                                       : Service Company
DATE               .                                       : Date
API                .                                       : API number
PROJECT_UPGRADE_TIME .         2021-03-18T21_24_50           : 
group              .         Good                          : 
~Parameter Information Block
#_______________________________________________________________________________
#
#PARAMETER_NAME    .UNIT     VALUE                         : DESCRIPTION
#_______________________________________________________________________________
SET                .         D7027_D                       : 
OTHER              .         Kedr.exe версия 2.1.2.32      : 
OTHER_10           .         TM.GRD = 0.00404*TM$.UE + 0.07: 
OTHER_11           .         MN.ATM = (6.33279e-006*TM.GRD + 0.02401)*(MN$.UE + 2.72*TM.GRD + -2018): 
OTHER_12           .         GK.MKR/H = GK$.UE / 43.5489 + 0: 
OTHER_13           .         RES.SM = 0.00476*CRES.UE - 1.51709: 
OTHER_14           .         PL.GSM3 = 0 + 0 * (PL.UE / 1) +  0 * (PL.UE / 1)^2: 
OTHER_15           .         Постоянная времени ГГП = 6 сек: 
OTHER_16           .         Постоянная времени ГК = 6 сек : 
OTHER_2            .         KedrData.dll версия 3.2.2.14  : 
OTHER_3            .         LasInf.dll версия 3.2.0.13    : 
OTHER_4            .         Драйвер версия 1.2.0.5        : 
OTHER_5            .         Прибор_ КСА-M1                : 
OTHER_6            .         Номер прибора_ 155+р204       : 
OTHER_7            .         Режим_ КСА-М1 + ГГП + Резистивиметр: 
OTHER_8            .         Форма_ 223\2                  : 
OTHER_9            .         Тарировки_                    : 
PROJECT_UPGRADE_TIME .         2021-03-18T21_24_50           : 
TLFamily_CRES      .                                       : 
TLFamily_DEPT      .         Measured Depth                : 
TLFamily_GK        .         Gamma Ray                     : 
TLFamily_GK$       .                                       : 
TLFamily_LM        .         Casing Collar locator         : 
TLFamily_METKA     .                                       : 
TLFamily_MN        .                                       : 
TLFamily_MN$       .                                       : 
TLFamily_PL        .                                       : 
TLFamily_PL_2      .                                       : 
TLFamily_RCOR      .                                       : 
TLFamily_RES       .         Mud Resistivity               : 
TLFamily_SPID      .         Spontaneous Potential         : 
TLFamily_STD       .                                       : 
TLFamily_TIME      .         Time                          : 
TLFamily_TM        .         Temperature                   : 
TLFamily_TM$       .         Temperature                   : 
TLFamily_VGD       .         Gas Volume                    : 
group              .         prim                          : 
~Curve Information
#_______________________________________________________________________________
#
#LOGNAME           .UNIT     LOG_ID                        : DESCRIPTION
#_______________________________________________________________________________
DEPT               .M                                      : 1 Глубина, м -    0.0 см 
CRES               .UE                                     : 9 Проводимость, усл.ед. -  222.0 см 
GK                 .MKR/H                                  : 16 Гамма-активность, мкр./ч -  106.0 см 
GK$                .UE                                     : 13 Гамма-активность, усл.ед. -  106.0 см 
LM                 .                                       : 11 Локатор муфт,  -   16.0 см 
METKA              .                                       : 3 Метки,  -    0.0 см 
MN                 .ATM                                    : 15 Давление, атм. -  160.0 см 
MN$                .UE                                     : 7 Давление, усл.ед. -  160.0 см 
PL                 .UE                                     : 10 Плотность, усл.ед. -  270.0 см 
PL_2               .GSM3                                   : 18 Плотность, г./см3 -  270.0 см 
RCOR               .CM/KM                                  : 5 Коррекция по ролику, см/км -    0.0 см 
RES                .SM                                     : 17 Проводимость,  -  222.0 см 
SPID               .M/H                                    : 2 Скорость, м/час -    0.0 см 
STD                .                                       : 12 Приток,  -  170.0 см 
TIME               .S                                      : 4 Время, сек -    0.0 см 
TM                 .GRD                                    : 14 Температура, °C -  180.0 см 
TM$                .UE                                     : 6 Температура, усл.ед. -  180.0 см 
VGD                .                                       : 8 Влагомер,  -  170.0 см 
~Ascii
# ...
2698.000025 1223       10.84      470        59         0          248.044    12063      14         0          0          4.3044     580        10349      18318.86   52.894     13075      6631      
2698.200025 1222       10.77      466        57         0          248.073    12064      14         0          0          4.2996     580        10344      18320.11   52.863     13068      6630      
2698.400025 1219       10.72      462        85         0          248.088    12065      14         0          0          4.2854     522        10338      18321.43   52.839     13062      6629      
2698.600025 1218       10.62      458        76         0          248.111    12066      14         0          0          4.2806     580        10333      18322.68   52.83      13059      6627      
2698.800025 1219       10.52      446        75         0          248.133    12067      14         0          0          4.2853     533        10329      18324.01   52.816     13056      6628      
2699.000025 1217       10.38      446        72         0          248.156    12068      14         0          0          4.2742     533        10322      18325.33   52.804     13053      6626      
2699.200025 1217       10.34      452        63         0          248.179    12069      14         0          0          4.2774     510        10317      18326.64   52.792     13050      6626      
2699.400025 1219       10.4       456        60         0          248.175    12069      14         0          0          4.2846     568        10313      18327.91   52.778     13047      6631      
2699.600025 1218       10.54      479        46         0          248.204    12070      14         0          0          4.2806     580        10308      18329.23   52.748     13039      6627      
2699.800026 1218       10.77      479        52         0          248.232    12072      14         0          0          4.2806     568        10305      18330.54   52.726     13034      6635      
2700.000026 1218       11.14      517        56         0          248.261    12073      14         0          0          4.2806     580        10299      18331.79   52.717     13031      6630      
2700.200026 1219       11.51      517        49         1          248.264    12073      14         0          0          4.2853     510        10297      18333.86   52.696     13026      6633      
2700.400026 1217       11.81      541        36         0          248.285    12074      14         0          0          4.2766     580        10293      18335.11   52.683     13023      6635      
2700.600026 1217       12.11      541        44         0          248.323    12076      14         0          0          4.2782     580        10291      18336.42   52.661     13018      6635      
2700.800026 1217       12.06      512        64         0          248.327    12076      14         0          0          4.2743     510        10290      18337.68   52.641     13013      6635      
2701.000026 1217       11.91      512        50         0          248.349    12077      14         0          0          4.2758     580        10287      18339.01   52.61      13005      6635      
2701.200026 1217       10.85      440        50         0          248.37     12078      14         0          0          4.2742     580        10284      18340.32   52.592     13000      6634      
2701.400026 1215       10.35      414        61         0          248.391    12079      14         0          0          4.2647     510        10277      18341.64   52.568     12994      6635      
2701.600026 1216       9.93       414        45         0          248.414    12080      14         0          0          4.2704     510        10277      18342.91   52.543     12988      6634      
2701.800027 1216       10.21      528        51         0          248.44     12081      14         0          0          4.2703     580        10278      18344.22   52.529     12985      6635      
2702.000027 1215       11.13      528        62         0          248.457    12082      14         0          0          4.2663     580        10277      18345.5    52.509     12980      6634      
2702.200027 1216       12.2       623        54         0          248.48     12083      14         0          0          4.2695     568        10274      18346.8    52.49      12975      6634      
2702.400027 1214       13.26      623        50         0          248.5      12084      14         0          0          4.2615     510        10273      18348.12   52.474     12971      6633      
2702.600027 1214       13.27      559        42         0          248.522    12085      14         0          0          4.2616     580        10270      18349.41   52.446     12964      6633      
2702.800027 1214       13.05      559        46         0          248.544    12086      14         0          0          4.2615     533        10268      18350.69   52.424     12959      6632      
2703.000027 1214       13.2       598        50         0          248.566    12087      14         0          0          4.2595     510        10264      18352.02   52.408     12955      6633      
2703.200027 1212       13.46      598        38         0          248.588    12088      14         0          0          4.2528     557        10261      18353.33   52.393     12951      6634      
2703.400027 1212       13.79      622        36         0          248.593    12088      14         0          0          4.2512     580        10259      18354.6    52.372     12946      6636      
2703.600027 1211       14.03      622        1113       0          248.632    12090      14         0          0          4.2496     569        10253      18355.92   52.35      12941      6635      
2703.800028 1217       12.48      452        3859       0          248.633    12090      14         0          0          4.2743     510        10249      18357.19   52.335     12937      6634      
2704.000028 1213       11.43      452        1289       0          248.654    12091      14         0          0          4.2568     580        10244      18358.5    52.313     12931      6634      
2704.200028 1213       10.09      359        323        0          248.697    12093      14         0          0          4.2581     557        10242      18359.84   52.29      12926      6636      
2704.400028 1212       9.2        359        95         0          248.711    12094      14         0          0          4.252      522        10237      18361.09   52.273     12922      6632      
2704.600028 1212       8.66       353        52         0          248.741    12095      14         0          0          4.252      568        10233      18362.4    52.256     12917      6630      
2704.800028 1213       8.37       349        92         0          248.74     12095      14         0          0          4.2561     580        10230      18363.69   52.239     12913      6634      
2705.000028 1212       7.92       325        73         0          248.762    12096      14         0          0          4.252      560        10226      18365      52.229     12911      6635      
2705.200028 1211       7.89       371        53         0          248.784    12097      14         0          0          4.2473     510        10224      18366.3    52.214     12907      6634      
2705.400028 1210       8.45       394        58         0          248.806    12098      14         0          0          4.2425     580        10222      18367.62   52.195     12902      6634      
2705.600028 1211       8.89       426        60         0          248.828    12099      14         0          0          4.2488     545        10219      18368.88   52.178     12898      6633      
2705.800029 1209       11.14      586        46         0          248.849    12100      14         0          0          4.2378     580        10218      18370.15   52.159     12893      6635      
2706.000029 1208       12.44      614        52         0          248.871    12101      14         0          0          4.2316     510        10214      18371.45   52.138     12888      6633      
