~Version
 VERS              .         2.0                           : CWLS LOG ASCII STANDARD - VERSION 2.0
 WRAP              .         NO                            : ONE LINE PER DEPTH STEP
 DLM               .         SPACE                         : DELIMITING CHARACTER(SPACE TAB OR COMMA)
~Well Information
#_______________________________________________________________________________
#
#PARAMETER_NAME    .UNIT     VALUE                         : DESCRIPTION
#_______________________________________________________________________________
STRT               .M        2667.4                        : First reference value
STOP               .M        2776.000109                   : Last reference value
STEP               .M        0.2000002                     : Step increment
NULL               .         -9999                         : Missing value
COMP               .                                       : Company
WELL               .         616                           : Well name
FLD                .                                       : Field
LOC                .                                       : Location
CNTY               .                                       : County
STAT               .                                       : State
CTRY               .                                       : Country
SRVC               .                                       : Service Company
DATE               .                                       : Date
API                .                                       : API number
PROJECT_UPGRADE_TIME .         2021-03-18T21_24_50           : 
group              .         Good                          : 
~Parameter Information Block
#_______________________________________________________________________________
#
#PARAMETER_NAME    .UNIT     VALUE                         : DESCRIPTION
#_______________________________________________________________________________
SET                .         D1801_D                       : 
OTHER              .         Программное обеспечение станции MONITOR-386EX 25/12/99 15_08_10   BGF V52 22/08/01 16_56_30   3.1_SNGF___BGF_N_092049: 
OTHER_10           .         Тарировки_                    : 
OTHER_11           .         TM.GRD = 0.00403*TM$.UE + -1.07: 
OTHER_12           .         MN.ATM = (9.34907e-006*TM.GRD + 0.02171)*(MN$.UE + -7.93*TM.GRD + -1787): 
OTHER_13           .         GK.MKR/H = LM. / 42.4676      : 
OTHER_14           .         GK.FLT = 0.1*GK.MKR/H[-1] + (1-0.1)*GK.MKR/H[0]: 
OTHER_2            .         Kedr.exe версия 3.4.2.51      : 
OTHER_3            .         KedrData.dll версия 3.4.2.24  : 
OTHER_4            .         Драйвер версия 2.1.1.3        : 
OTHER_5            .         Мнемоники версия 3.3 S        : 
OTHER_6            .         Прибор_ КСА-Т4                : 
OTHER_7            .         Номер прибора_ 03             : 
OTHER_8            .         Режим_ КСА-Т4                 : 
OTHER_9            .         Форма_ КВА.                   : 
PROJECT_UPGRADE_TIME .         2021-03-18T21_24_49           : 
TLFamily_DEPT      .         Measured Depth                : 
TLFamily_GK        .         Gamma Ray                     : 
TLFamily_GK$       .                                       : 
TLFamily_GK_2      .         Gamma Ray                     : 
TLFamily_LM        .         Casing Collar locator         : 
TLFamily_METKA     .                                       : 
TLFamily_MN        .                                       : 
TLFamily_MN$       .                                       : 
TLFamily_RCOR      .                                       : 
TLFamily_SPID      .         Spontaneous Potential         : 
TLFamily_TENS      .         Cable Tension                 : 
TLFamily_TIME      .         Time                          : 
TLFamily_TM        .         Temperature                   : 
TLFamily_TM$       .         Temperature                   : 
group              .         prim                          : 
~Curve Information
#_______________________________________________________________________________
#
#LOGNAME           .UNIT     LOG_ID                        : DESCRIPTION
#_______________________________________________________________________________
DEPT               .M                                      : 1 Глубина, м -    0.0 см 
GK                 .MKR/H                                  : 13 Гамма-активность, мкр./ч -  110.0 см 
GK$                .UE                                     : 10 Гамма-активность, усл.ед. -  110.0 см 
GK_2               .FLT                                    : 14 Гамма-активность фильтрованная, мкр./ч -  110.0 см 
LM                 .                                       : 9 Локатор муфт,  -   20.0 см 
METKA              .                                       : 3 Метки,  -    0.0 см 
MN                 .ATM                                    : 12 Давление, атм. -  160.0 см 
MN$                .UE                                     : 8 Давление, усл.ед. -  160.0 см 
RCOR               .CM/KM                                  : 5 Коррекция по ролику, см/км -    0.0 см 
SPID               .M/H                                    : 2 Скорость, м/час -    0.0 см 
TENS               .T                                      : 6 Натяжение кабеля, т -    0.0 см 
TIME               .S                                      : 4 Время, сек -    0.0 см 
TM                 .GRD                                    : 11 Температура, °C -  170.0 см 
TM$                .UE                                     : 7 Температура, усл.ед. -  170.0 см 
~Ascii
# ...
2709.000042 10.71      455        10.72      131        0          248.096    13355      -620       574        0.05       7995.17    45.211     11484     
2709.200042 11.18      475        11.17      110        0          248.118    13356      -620       576        0.05       7996.42    45.206     11483     
2709.400042 11.18      475        11.18      167        0          248.141    13357      -620       565        0.05       7997.66    45.206     11483     
2709.600042 12.08      513        12.02      138        0          248.163    13358      -620       574        0.05       7998.91    45.202     11482     
2709.800042 12.08      513        12.08      151        0          248.185    13359      -620       585        0.05       8000.14    45.198     11481     
2710.000043 11.99      509        11.99      124        2          248.185    13359      -620       583        0.05       8001.39    45.196     11480     
2710.200043 11.99      509        11.99      87         0          248.221    13361      -628       582        0.05       8003.13    45.191     11479     
2710.400043 11.26      478        11.29      133        0          248.249    13362      -628       586        0.05       8004.33    45.19      11479     
2710.600043 11.26      478        11.26      163        0          248.256    13362      -628       579        0.05       8005.55    45.184     11478     
2710.800043 11.49      488        11.48      118        0          248.275    13363      -628       584        0.05       8006.86    45.179     11476     
2711.000044 11.49      488        11.49      109        0          248.294    13364      -628       577        0.05       8008.09    45.174     11475     
2711.200044 11.77      500        11.77      147        0          248.32     13365      -628       584        0.05       8009.28    45.174     11475     
2711.400044 12.55      533        12.29      91         0          248.342    13366      -628       589        0.05       8010.52    45.171     11474     
2711.600044 12.55      533        12.54      168        0          248.361    13367      -628       581        0.05       8011.76    45.17      11474     
2711.800044 12.72      540        12.66      131        0          248.398    13368      -628       582        0.05       8013       45.166     11473     
2712.000045 12.76      542        12.76      76         0          248.409    13369      -628       582        0.05       8014.25    45.162     11472     
2712.200045 11.75      499        12.12      112        0          248.41     13369      -628       585        0.05       8015.48    45.158     11471     
2712.400045 10.74      456        10.79      103        0          248.443    13371      -628       584        0.05       8016.8     45.155     11470     
2712.600045 10.56      448        10.63      142        1          248.454    13371      -628       583        0.05       8018       45.15      11469     
2712.800045 9.47       402        9.52       219        0          248.477    13372      -628       582        0.05       8019.22    45.15      11469     
2713.000046 10.71      455        10.25      153        0          248.499    13373      -628       581        0.05       8020.45    45.146     11468     
2713.200046 11.33      481        11.29      104        0          248.521    13374      -628       583        0.05       8021.7     45.141     11467     
2713.400046 12         510        11.75      161        0          248.544    13375      -628       576        0.05       8022.91    45.137     11466     
2713.600046 13.35      567        13.3       216        0          248.551    13375      -628       579        0.05       8024.12    45.134     11465     
2713.800046 13.21      561        13.26      168        0          248.566    13376      -628       579        0.05       8025.37    45.134     11465     
2714.000047 12.34      524        12.38      146        0          248.592    13377      -628       580        0.05       8026.67    45.129     11464     
2714.200047 13.19      560        12.88      161        0          248.611    13378      -628       579        0.05       8027.92    45.123     11462     
2714.400047 13.61      578        13.59      91         0          248.633    13379      -628       586        0.05       8029.16    45.122     11462     
2714.600047 13.89      590        13.79      93         0          248.656    13380      -628       587        0.05       8030.41    45.121     11462     
2714.800047 14.6       620        14.57      276        0          248.663    13380      -628       585        0.05       8031.6     45.118     11461     
2715.000048 14.6       620        14.6       1715       0          248.7      13382      -628       585        0.05       8032.83    45.114     11460     
2715.200048 10.43      443        10.6       710        0          248.704    13382      -628       578        0.05       8034.08    45.11      11459     
2715.400048 8.25       350        9.06       235        0          248.723    13383      -628       581        0.05       8035.27    45.11      11459     
2715.600048 7.16       304        7.22       143        0          248.745    13384      -628       574        0.05       8036.56    45.106     11458     
2715.800048 7.21       306        7.2        134        0          248.768    13385      -628       575        0.05       8037.8     45.102     11457     
2716.000049 7.32       311        7.32       177        0          248.79     13386      -628       582        0.05       8039.05    45.099     11456     
2716.200049 7.32       311        7.32       134        0          248.798    13386      -628       588        0.05       8040.28    45.098     11456     
2716.400049 7.98       339        7.95       196        0          248.835    13388      -628       592        0.05       8041.53    45.094     11455     
2716.600049 7.98       339        7.98       246        0          248.857    13389      -628       591        0.05       8042.77    45.09      11454     
2716.800049 11.68      496        11.44      255        0          248.868    13389      -628       588        0.05       8044.01    45.09      11454     
2717.00005 12.38      526        12.12      238        0          248.885    13390      -628       579        0.05       8045.19    45.086     11453     
2717.20005 15.87      674        15.73      265        0          248.92     13392      -628       570        0.05       8046.5     45.086     11453     
2717.40005 15.87      674        15.87      152        0          248.935    13393      -628       573        0.05       8047.73    45.086     11453     
2717.60005 13.19      560        13.31      71         0          248.946    13393      -628       575        0.05       8048.96    45.082     11452     
2717.80005 13.19      560        13.19      78         0          248.968    13394      -628       577        0.05       8050.16    45.078     11451     
2718.000051 10.08      428        10.29      118        0          248.99     13395      -628       584        0.05       8051.41    45.082     11452     
2718.200051 10.05      427        10.07      163        0          249.013    13396      -628       587        0.05       8052.65    45.078     11451     
2718.400051 9.94       422        9.94       163        0          249.035    13397      -628       585        0.05       8053.89    45.076     11451     
2718.600051 9.94       422        9.94       87         0          249.042    13397      -628       584        0.05       8055.14    45.074     11450     
2718.800051 9.35       397        9.38       191        0          249.076    13399      -628       572        0.05       8056.41    45.073     11450     
2719.000052 9.35       397        9.35       225        0          249.083    13399      -628       569        0.05       8057.64    45.071     11450     
2719.200052 9.63       409        9.61       134        0          249.102    13400      -628       574        0.05       8058.86    45.069     11449     
