~Version
 VERS              .         2.0                           : CWLS LOG ASCII STANDARD - VERSION 2.0
 WRAP              .         NO                            : ONE LINE PER DEPTH STEP
 DLM               .         SPACE                         : DELIMITING CHARACTER(SPACE TAB OR COMMA)
~Well Information
#_______________________________________________________________________________
#
#PARAMETER_NAME    .UNIT     VALUE                         : DESCRIPTION
#_______________________________________________________________________________
STRT               .M        2657.8                        : First reference value
STOP               .M        2767.999945                   : Last reference value
STEP               .M        0.1999999                     : Step increment
NULL               .         -9999                         : Missing value
COMP               .                                       : Company
WELL               .         616                           : Well name
FLD                .                                       : Field
LOC                .                                       : Location
CNTY               .                                       : County
STAT               .                                       : State
CTRY               .                                       : Country
SRVC               .                                       : Service Company
DATE               .                                       : Date
API                .                                       : API number
PROJECT_UPGRADE_TIME .         2021-03-18T21_24_50           : 
group              .         Good                          : 
~Parameter Information Block
#_______________________________________________________________________________
#
#PARAMETER_NAME    .UNIT     VALUE                         : DESCRIPTION
#_______________________________________________________________________________
SET                .         D7020_D_2                     : 
NPR                .         155                           : Номер прибора
OTHER              .         Kedr.exe версия 2.1.2.32      : 
OTHER_10           .         TM.GRD = 0.00404*TM$.UE + 0.07: 
OTHER_11           .         MN.ATM = (6.33279e-006*TM.GRD + 0.02401)*(MN$.UE + 2.72*TM.GRD + -2018): 
OTHER_12           .         GK.MKR/H = GK$.UE / 43.5489 + 0: 
OTHER_13           .         RES.SM = 0.00476*CRES.UE - 1.51709: 
OTHER_14           .         PL.GSM3 = 0 + 0 * (PL.UE / 1) +  0 * (PL.UE / 1)^2: 
OTHER_15           .         Постоянная времени ГГП = 6 сек: 
OTHER_16           .         Постоянная времени ГК = 6 сек : 
OTHER_2            .         KedrData.dll версия 3.2.2.14  : 
OTHER_3            .         LasInf.dll версия 3.2.0.13    : 
OTHER_4            .         Драйвер версия 1.2.0.5        : 
OTHER_5            .         Прибор_ КСА-M1                : 
OTHER_6            .         Номер прибора_ 155+р204       : 
OTHER_7            .         Режим_ КСА-М1 + ГГП + Резистивиметр: 
OTHER_8            .         Форма_ 223\2                  : 
OTHER_9            .         Тарировки_                    : 
PR                 .         КСА-Т7 М1                     : Тип прибора
PROJECT_UPGRADE_TIME .         2021-03-18T21_24_50           : 
PRTY               .         ПП-223_2                      : Номер партии
SRV                .         ЦКРС                          : Заказчик
SRVC               .         Лузин  А.Б.                   : Начальник партии
TLFamily_DEPT      .         Measured Depth                : 
TLFamily_LM        .         Casing Collar locator         : 
TLFamily_MN        .                                       : 
TLFamily_SPID      .         Spontaneous Potential         : 
TLFamily_TM        .         Temperature                   : 
group              .         second                        : 
~Curve Information
#_______________________________________________________________________________
#
#LOGNAME           .UNIT     LOG_ID                        : DESCRIPTION
#_______________________________________________________________________________
DEPT               .M                                      : Depth curve 
LM                 .е.ацп                                  : Локация муфт 
MN                 .атм                                    : Манометрия, атм 
SPID               .м/ч                                    : Скорость записи,м/час 
TM                 .град.С                                 : Термометрия,град.С 
~Ascii
# ...
2686.599986 68         245.68     580        47.79     
2686.799986 70.005     245.71     579.998    47.78     
2686.999985 88.996     245.74     570.002    47.76     
2687.199985 72.006     245.77     579.991    47.74     
2687.399985 96.993     245.75     544.997    47.72     
2687.599985 68.006     245.81     533.012    47.71     
2687.799985 92.997     245.81     580        47.7      
2687.999985 80.005     245.83     579.991    47.68     
2688.199985 101.006    245.85     544.994    47.67     
2688.399985 125.989    245.85     522.011    47.66     
2688.599985 81.997     245.88     568.003    47.65     
2688.799985 69.998     245.89     580        47.64     
2688.999984 62.002     245.93     579.985    47.63     
2689.199984 70.002     245.95     521.015    47.63     
2689.399984 78.016     245.95     580        47.61     
2689.599984 140.986    245.97     580        47.6      
2689.799984 83.999     245.99     580        47.58     
2689.999984 80.994     246.01     579.995    47.56     
2690.199984 57.998     246.03     560.005    47.52     
2690.399984 51.001     246.04     580        47.5      
2690.599984 55         246.07     579.993    47.5      
2690.799984 53.004     246.12     550.004    47.48     
2690.999983 70.004     246.12     567.986    47.47     
2691.199983 86.258     246.12     510.017    47.45     
2691.399983 1131.893   246.16     579.988    47.43     
2691.599983 696.856    246.18     533.012    47.41     
2691.799983 113.982    246.19     579.997    47.37     
2691.999983 40         246.23     567.996    47.36     
2692.199983 38         246.25     550.007    47.36     
2692.399983 37.998     246.28     580        47.34     
2692.599983 28.001     246.28     579.994    47.32     
2692.799983 32.002     246.29     557.006    47.3      
2692.999982 41         246.32     579.997    47.28     
2693.199982 43.001     246.34     568.988    47.26     
2693.399982 46.996     246.36     520.015    47.24     
2693.599982 31         246.39     579.988    47.24     
2693.799982 32         246.41     533.012    47.24     
2693.999982 34.003     246.41     580        47.22     
2694.199982 47         246.43     579.993    47.21     
2694.399982 45.998     246.47     549.993    47.19     
2694.599982 37         246.47     520.012    47.17     
2694.799982 34.999     246.5      567.993    47.17     
2694.999981 30         246.51     538.01     47.16     
2695.199981 30.001     246.54     579.988    47.15     
2695.399981 36.001     246.55     533.006    47.13     
2695.599981 41         246.57     557.006    47.13     
2695.799981 38.996     246.6      580        47.12     
2695.999981 22.001     246.61     579.991    47.12     
2696.199981 25.003     246.64     545.006    47.1      
2696.399981 37         246.66     567.989    47.09     
2696.599981 37.995     246.69     522.006    47.08     
2696.799981 16.017     246.67     545.009    47.06     
2696.99998 83.01      246.73     580        47.03     
2697.19998 123.989    246.73     580        47.01     
2697.39998 78.994     246.76     579.994    46.99     
2697.59998 54.005     246.77     556.988    46.98     
2697.79998 74.997     246.81     510.012    46.97     
2697.99998 61.996     246.81     560.005    46.96     
2698.19998 47.002     246.83     579.997    46.94     
2698.39998 56         246.85     567.989    46.93     
2698.59998 55.005     246.88     522.006    46.91     
2698.79998 74         246.8      545.009    46.91     
2698.999979 74.995     246.91     580        46.9      
2699.199979 53.997     246.92     579.988    46.88     
2699.399979 42.999     246.97     533        46.86     
2699.599979 36.997     246.99     533.012    46.84     
2699.799979 23.02      246.99     579.983    46.83     
2699.999979 104.999    247        510        46.81     
2700.199979 101.999    247.03     510.017    46.78     
2700.399979 98.997     247.04     579.983    46.77     
2700.599979 88         247.07     510.017    46.75     
2700.799979 87.992     247.09     580        46.74     
2700.999978 57.003     247.09     580        46.72     
2701.199978 69         247.12     580        46.7      
2701.399978 69.998     247.15     580        46.69     
2701.599978 61.008     247.19     579.983    46.68     
2701.799978 92.002     247.21     510.006    46.68     
2701.999978 102.753    247.2      533.012    46.67     
2702.199978 7182.917   247.23     580        46.66     
2702.399978 2806.483   247.26     580        46.66     
2702.599978 715.86     247.28     579.997    46.65     
2702.799978 149.983    247.29     567.986    46.64     
2702.999977 82.998     247.32     510.017    46.63     
2703.199977 75.014     247.32     579.993    46.62     
2703.399977 129.992    247.34     553.007    46.6      
2703.599977 97.008     247.37     580        46.58     
2703.799977 131.017    247.39     579.991    46.57     
2703.999977 197.979    247.43     545.009    46.57     
2704.199977 114.984    247.44     580        46.55     
2704.399977 51.997     247.46     580        46.54     
2704.599977 41         247.46     579.995    46.53     
2704.799977 42.001     247.49     559.988    46.53     
2704.999976 45.002     247.5      510.011    46.52     
2705.199976 55         247.53     556.006    46.5      
2705.399976 54.012     247.54     579.983    46.49     
2705.599976 102.995    247.58     510.017    46.47     
2705.799976 80.991     247.57     579.991    46.44     
2705.999976 45.998     247.62     544.994    46.43     
2706.199976 38.997     247.65     521.015    46.42     
2706.399976 26.999     247.64     580        46.41     
2706.599976 22.01      247.66     580        46.4      
2706.799976 60.998     247.69     579.983    46.39     
2706.999975 53.001     247.67     510.009    46.38     
2707.199975 56.002     247.73     544.997    46.37     
2707.399975 65.998     247.73     533.012    46.36     
2707.599975 55.999     247.76     579.988    46.34     
2707.799975 52         247.77     530.002    46.33     
2707.999975 50.002     247.8      540.01     46.33     
2708.199975 57.998     247.82     579.986    46.32     
2708.399975 50.998     247.84     522.006    46.32     
2708.599975 44.002     247.84     544.994    46.32     
2708.799975 50.998     247.9      522.014    46.3      
2708.999974 43         247.89     579.99     46.29     
2709.199974 43         247.94     539.998    46.29     
2709.399974 45.001     247.92     533.012    46.28     
2709.599974 48         247.96     580        46.28     
2709.799974 49.998     247.98     580        46.27     
2709.999974 43.001     248.01     579.99     46.27     
2710.199974 49.005     248.04     539.993    46.26     
2710.399974 69.998     248.03     510.017    46.25     
2710.599974 60.999     248.05     580        46.25     
2710.799974 54.999     248.09     580        46.24     
2710.999973 50.001     248.12     580        46.23     
2711.199973 54         248.15     579.988    46.23     
2711.399973 54.999     248.15     532.994    46.23     
2711.599973 49.005     248.18     510.017    46.22     
2711.799973 67.999     248.2      580        46.21     
2711.999973 63.996     248.23     579.991    46.21     
2712.199973 48.001     248.24     545.009    46.2      
2712.399973 51.003     248.26     580        46.19     
2712.599973 63.996     248.27     579.994    46.18     
2712.799972 47.999     248.31     557.006    46.18     
2712.999972 45.013     248.34     579.983    46.17     
2713.199972 96.92      248.34     510.014    46.17     
2713.399972 3799.431   248.36     567.986    46.16     
2713.599972 1506.725   248.39     510.017    46.16     
2713.799972 400.922    248.41     580        46.15     
2713.999972 86.991     248.41     580        46.15     
2714.199972 50.998     248.45     579.983    46.14     
2714.399972 43.005     248.49     510.017    46.15     
2714.599972 62.005     248.49     580        46.14     
2714.799972 83.994     248.52     580        46.13     
2714.999971 60.999     248.53     579.983    46.12     
2715.199971 56.997     248.55     510.017    46.12     
