~Version
 VERS              .         2.0                           : CWLS LOG ASCII STANDARD - VERSION 2.0
 WRAP              .         NO                            : ONE LINE PER DEPTH STEP
 DLM               .         SPACE                         : DELIMITING CHARACTER(SPACE TAB OR COMMA)
~Well Information
#_______________________________________________________________________________
#
#PARAMETER_NAME    .UNIT     VALUE                         : DESCRIPTION
#_______________________________________________________________________________
STRT               .M        2649.8                        : First reference value
STOP               .M        2761.600056                   : Last reference value
STEP               .M        0.2000001                     : Step increment
NULL               .         -9999                         : Missing value
COMP               .                                       : Company
WELL               .         616                           : Well name
FLD                .                                       : Field
LOC                .                                       : Location
CNTY               .                                       : County
STAT               .                                       : State
CTRY               .                                       : Country
SRVC               .                                       : Service Company
DATE               .                                       : Date
API                .                                       : API number
PROJECT_UPGRADE_TIME .         2021-03-18T21_24_50           : 
group              .         Good                          : 
~Parameter Information Block
#_______________________________________________________________________________
#
#PARAMETER_NAME    .UNIT     VALUE                         : DESCRIPTION
#_______________________________________________________________________________
SET                .         D8106_D                       : 
OTHER              .         Программное обеспечение станции MONITOR-386EX 25/12/99 15_08_10   BGF V52 22/08/01 16_56_30   4_SNGF_BGF_N_011645: 
OTHER_10           .         Тарировки_                    : 
OTHER_11           .         TM.GRD = 0.00412*TM$.UE + -2.13: 
OTHER_12           .         MN.ATM = (5.87652e-006*TM.GRD + 0.01993)*(MN$.UE + -2.72*TM.GRD + -1925): 
OTHER_13           .         GK.MKR/H = GK$.UE / 57.4657   : 
OTHER_2            .         Kedr.exe версия 3.4.2.51      : 
OTHER_3            .         KedrData.dll версия 3.4.2.24  : 
OTHER_4            .         Драйвер версия 2.1.0.2        : 
OTHER_5            .         Мнемоники версия 3.3 S        : 
OTHER_6            .         Прибор_ АКП4-90               : 
OTHER_7            .         Номер прибора_ 53             : 
OTHER_8            .         Режим_ АКП4_90                : 
OTHER_9            .         Форма_ ПК-53ое                : 
PROJECT_UPGRADE_TIME .         2021-03-18T21_24_50           : 
TLFamily_DEPT      .         Measured Depth                : 
TLFamily_GK        .         Gamma Ray                     : 
TLFamily_GK$       .                                       : 
TLFamily_LM        .         Casing Collar locator         : 
TLFamily_METKA     .                                       : 
TLFamily_METKA_1   .                                       : 
TLFamily_MN        .                                       : 
TLFamily_MN$       .                                       : 
TLFamily_RCOR      .                                       : 
TLFamily_SPID      .         Spontaneous Potential         : 
TLFamily_TENS      .         Cable Tension                 : 
TLFamily_TIME      .         Time                          : 
TLFamily_TM        .         Temperature                   : 
TLFamily_TM$       .         Temperature                   : 
group              .         prim                          : 
~Curve Information
#_______________________________________________________________________________
#
#LOGNAME           .UNIT     LOG_ID                        : DESCRIPTION
#_______________________________________________________________________________
DEPT               .M                                      : 1 Глубина, м -    0.0 см 
GK                 .MKR/H                                  : 13 Гамма-активность, мкр./ч -   65.0 см 
GK$                .UE                                     : 10 Гамма-активность, усл.ед. -   65.0 см 
LM                 .                                       : 9 Локатор муфт,  -   30.0 см 
METKA              .                                       : 3 Метки,  -    0.0 см 
METKA_1            .                                       : 14 Маркеры - 65 см 
MN                 .ATM                                    : 12 Давление, атм. -  140.0 см 
MN$                .UE                                     : 8 Давление, усл.ед. -  140.0 см 
RCOR               .CM/KM                                  : 5 Коррекция по ролику, см/км -    0.0 см 
SPID               .M/H                                    : 2 Скорость, м/час -    0.0 см 
TENS               .T                                      : 6 Натяжение кабеля, т -    0.0 см 
TIME               .S                                      : 4 Время, сек -    0.0 см 
TM                 .GRD                                    : 11 Температура, °C -  145.0 см 
TM$                .UE                                     : 7 Температура, усл.ед. -  145.0 см 
~Ascii
# ...
2660.200005 6.43       370        366        0          0          243.299    14133      -2         486        0.53       14438.7    65.645     16450     
2660.400005 6.76       388        483        0          0          243.349    14135      -2         493        0.55       14440.13   65.629     16446     
2660.600005 6.82       392        427        0          0          243.332    14134      -2         499        0.53       14441.57   65.623     16445     
2660.800006 6.23       358        565        0          0          243.353    14135      -2         495        0.55       14443      65.602     16440     
2661.000006 6.2        356        547        0          0          243.305    14133      -2         485        0.55       14444.45   65.599     16439     
2661.200006 6.26       360        965        0          0          243.429    14139      -2         493        0.55       14445.94   65.567     16431     
2661.400006 6.11       351        28179      0          0          243.385    14137      -2         484        0.55       14447.43   65.549     16427     
2661.600006 6.04       347        17940      0          0          243.517    14144      -2         490        0.53       14448.85   65.53      16422     
2661.800006 5.03       289        3139       0          0          243.401    14138      -2         481        0.53       14450.36   65.52      16420     
2662.000006 4.82       277        757        0          0          243.485    14142      -2         488        0.55       14451.8    65.492     16413     
2662.200006 4.85       279        517        0          0          243.409    14138      -2         479        0.55       14453.23   65.474     16409     
2662.400006 5.02       288        805        0          0          243.545    14145      -2         490        0.55       14454.75   65.449     16403     
2662.600006 5.49       315        691        0          0          243.485    14142      -2         482        0.55       14456.18   65.427     16397     
2662.800007 5.51       317        616        0          0          243.584    14147      -2         486        0.55       14457.69   65.4       16391     
2663.000007 5.52       317        478        0          0          243.501    14143      -2         486        0.55       14459.15   65.395     16390     
2663.200007 6.04       347        671        0          0          243.565    14146      -2         489        0.54       14460.6    65.362     16382     
2663.400007 6.07       349        609        0          0          243.529    14144      -2         489        0.54       14462.06   65.342     16377     
2663.600007 6.21       357        1621       0          0          243.644    14150      -2         492        0.55       14463.58   65.318     16371     
2663.800007 6.68       384        1425       0          0          243.565    14146      -2         488        0.55       14465.02   65.302     16367     
2664.000007 6.84       393        892        0          0          243.648    14150      -2         490        0.55       14466.47   65.274     16360     
2664.200007 6.93       398        399        0          0          243.533    14144      -2         486        0.53       14467.92   65.249     16354     
2664.400007 6.94       399        345        0          0          243.671    14151      -2         489        0.55       14469.42   65.22      16347     
2664.600007 6          345        167        0          0          243.664    14151      -2         491        0.55       14470.87   65.189     16339     
2664.800007 5.62       323        542        0          0          243.724    14154      -2         490        0.55       14472.34   65.148     16329     
2665.000008 5.33       306        165        0          0          243.697    14153      -2         497        0.55       14473.79   65.122     16323     
2665.200008 4.77       274        321        0          0          243.701    14153      -2         495        0.53       14475.25   65.094     16317     
2665.400008 4.61       265        549        0          0          243.744    14155      -2         497        0.55       14476.69   65.075     16312     
2665.600008 4.33       249        474        0          0          243.752    14155      -2         490        0.55       14478.2    65.059     16308     
2665.800008 4.27       246        303        0          0          243.816    14159      -2         492        0.55       14479.63   65.024     16299     
2666.000008 3.99       229        486        0          0          243.768    14156      -2         483        0.55       14481.15   64.992     16292     
2666.200008 3.91       225        417        0          0          243.834    14160      -2         491        0.55       14482.58   64.96      16284     
2666.400008 3.86       222        390        0          0          243.777    14157      -2         488        0.55       14484.1    64.934     16278     
2666.600008 4.11       236        228        0          0          243.907    14163      -2         490        0.55       14485.53   64.883     16265     
2666.800009 4.12       237        179        0          0          243.903    14163      -2         490        0.55       14487.02   64.847     16257     
2667.000009 4.21       242        365        0          0          243.943    14165      -2         493        0.55       14488.48   64.808     16247     
2667.200009 4.51       259        390        0          0          243.863    14161      -2         485        0.55       14489.99   64.776     16239     
2667.400009 4.63       266        801        0          0          243.983    14167      -2         493        0.55       14491.43   64.731     16228     
2667.600009 4.94       284        521        0          0          243.951    14165      -2         484        0.55       14492.88   64.715     16224     
2667.800009 4.98       286        515        0          0          244.023    14169      -2         488        0.55       14494.38   64.681     16216     
2668.000009 4.83       277        337        0          0          243.971    14166      -2         480        0.55       14495.84   64.648     16208     
2668.200009 4.99       286        559        0          0          244.056    14171      -2         485        0.55       14497.32   64.604     16198     
2668.400009 5.08       292        705        0          0          244.067    14171      -2         486        0.55       14498.84   64.587     16193     
2668.600009 4.84       278        432        0          0          244.126    14174      -2         486        0.55       14500.28   64.547     16184     
2668.80001 4.79       275        269        0          0          244.043    14170      -2         487        0.55       14501.79   64.511     16175     
2669.00001 4.21       242        525        0          0          244.142    14175      -2         479        0.55       14503.3    64.462     16163     
2669.20001 4.3        247        223        0          0          244.13     14174      -2         484        0.55       14504.73   64.425     16154     
2669.40001 4.59       264        397        0          0          244.182    14177      -2         486        0.55       14506.17   64.353     16137     
2669.60001 5.01       288        248        0          0          244.167    14176      -2         490        0.55       14507.68   64.325     16130     
2669.80001 5.16       297        273        2          0          244.23     14179      -2         487        0.55       14509.19   64.303     16124     
2670.00001 5.27       303        223        0          0          244.238    14180      -4         495        0.55       14510.79   64.271     16117     
2670.20001 5.27       303        1056       0          0          244.266    14181      -4         494        0.55       14512.3    64.201     16100     
2670.40001 5.12       294        897        0          0          244.298    14183      -4         496        0.55       14513.74   64.131     16083     
