~Version
 VERS              .         2.0                           : CWLS LOG ASCII STANDARD - VERSION 2.0
 WRAP              .         NO                            : ONE LINE PER DEPTH STEP
 DLM               .         SPACE                         : DELIMITING CHARACTER(SPACE TAB OR COMMA)
~Well Information
#_______________________________________________________________________________
#
#PARAMETER_NAME    .UNIT     VALUE                         : DESCRIPTION
#_______________________________________________________________________________
STRT               .M        2659.6                        : First reference value
STOP               .M        2768.6                        : Last reference value
STEP               .M        0.2                           : Step increment
NULL               .         -9999                         : Missing value
COMP               .                                       : Company
WELL               .         616                           : Well name
FLD                .                                       : Field
LOC                .                                       : Location
CNTY               .                                       : County
STAT               .                                       : State
CTRY               .                                       : Country
SRVC               .                                       : Service Company
DATE               .                                       : Date
API                .                                       : API number
PROJECT_UPGRADE_TIME .         2021-03-18T21_24_50           : 
group              .         Good                          : 
~Parameter Information Block
#_______________________________________________________________________________
#
#PARAMETER_NAME    .UNIT     VALUE                         : DESCRIPTION
#_______________________________________________________________________________
SET                .         D1166_D                       : 
OTHER              .         Программное обеспечение станции MONITOR-386EX 25/12/99 15_08_10   BGF V52 22/08/01 16_56_30   3.2_BGF_N_3070031: 
OTHER_10           .         Тарировки_                    : 
OTHER_11           .         TM.GRD = 0.00403*TM$.UE + -1.19: 
OTHER_12           .         MN.ATM = (7.1e-006*TM.GRD + 0.02017)*(MN$.UE + -3.03*TM.GRD + -1833): 
OTHER_13           .         Id error                      : 
OTHER_2            .         Kedr.exe версия 3.4.2.51      : 
OTHER_3            .         KedrData.dll версия 3.4.2.24  : 
OTHER_4            .         Драйвер версия 2.1.1.8        : 
OTHER_5            .         Мнемоники версия 3.3 S        : 
OTHER_6            .         Прибор_ КСА-М1                : 
OTHER_7            .         Номер прибора_ 265            : 
OTHER_8            .         Режим_ КСА-М1                 : 
OTHER_9            .         Форма_ ТЕРМОМЕТР              : 
PROJECT_UPGRADE_TIME .         2021-03-18T21_24_49           : 
TLFamily_DEPT      .         Measured Depth                : 
TLFamily_GK        .         Gamma Ray                     : 
TLFamily_GK$       .                                       : 
TLFamily_LM        .         Casing Collar locator         : 
TLFamily_METKA     .                                       : 
TLFamily_MN        .                                       : 
TLFamily_MN$       .                                       : 
TLFamily_RCOR      .                                       : 
TLFamily_SPID      .         Spontaneous Potential         : 
TLFamily_STD       .                                       : 
TLFamily_TENS      .         Cable Tension                 : 
TLFamily_TIME      .         Time                          : 
TLFamily_TM        .         Temperature                   : 
TLFamily_TM$       .         Temperature                   : 
TLFamily_VGD       .         Gas Volume                    : 
group              .         prim                          : 
~Curve Information
#_______________________________________________________________________________
#
#LOGNAME           .UNIT     LOG_ID                        : DESCRIPTION
#_______________________________________________________________________________
DEPT               .M                                      : 1 Глубина, м -    0.0 см 
GK                 .MKR/H                                  : 15 Гамма-активность, мкр./ч -  110.0 см 
GK$                .UE                                     : 12 Гамма-активность, усл.ед. -  110.0 см 
LM                 .                                       : 10 Локатор муфт,  -   20.0 см 
METKA              .                                       : 3 Метки,  -    0.0 см 
MN                 .ATM                                    : 14 Давление, атм. -  160.0 см 
MN$                .UE                                     : 8 Давление, усл.ед. -  160.0 см 
RCOR               .CM/KM                                  : 5 Коррекция по ролику, см/км -    0.0 см 
SPID               .M/H                                    : 2 Скорость, м/час -    0.0 см 
STD                .                                       : 11 Приток,  -  170.0 см 
TENS               .T                                      : 6 Натяжение кабеля, т -    0.0 см 
TIME               .S                                      : 4 Время, сек -    0.0 см 
TM                 .GRD                                    : 13 Температура, °C -  180.0 см 
TM$                .UE                                     : 7 Температура, усл.ед. -  180.0 см 
VGD                .                                       : 9 Влагомер,  -  170.0 см 
~Ascii
# ...
2669.4     6.34       274        1          0          355.459    19201      -1400      604        31202      0          21949.81   85.151     21425      6574      
2669.6     6.38       274        1          0          352.91     19079      -1400      609        31203      0          21951.05   85.168     21429      6573      
2669.8     6.35       271        1          0          354.267    19144      -1400      608        31210      0          21952.2    85.173     21430      6573      
2670       6.34       271        1          2          355.672    19211      -1400      615        31212      0          21953.45   85.177     21431      6573      
2670.2     6.61       290        1          0          352.953    19081      -1400      612        31218      0          21954.78   85.181     21432      6573      
2670.4     6.73       290        1003       0          354.035    19133      -1400      611        31217      0          21955.95   85.183     21433      6573      
2670.6     6.98       308        496        0          355.207    19189      -1400      607        31217      0          21957.08   85.186     21433      6573      
2670.8     7.13       308        1          0          353.482    19106      -1400      606        31219      0          21958.3    85.193     21435      6573      
2671       7.59       338        1          0          353.46     19105      -1400      605        31220      0          21959.52   85.196     21436      6572      
2671.2     7.82       338        1          0          353.919    19127      -1400      610        31222      0          21960.64   85.197     21436      6573      
2671.4     8.33       374        1          0          354.55     19157      -1400      612        31224      0          21961.84   85.205     21438      6573      
2671.6     8.61       374        1          0          353.632    19113      -1400      608        31230      0          21963.08   85.205     21438      6572      
2671.8     8.72       376        1          0          353.419    19103      -1400      611        31228      0          21964.21   85.213     21440      6572      
2672       8.77       376        1          0          355.377    19197      -1400      613        31230      0          21965.4    85.217     21441      6573      
2672.2     8.58       359        1          0          353.959    19129      -1400      609        31228      0          21966.63   85.22      21442      6571      
2672.4     8.46       359        1          0          354.764    19168      -1400      608        31231      0          21967.78   85.225     21443      6572      
2672.6     8.24       340        1          0          355.96     19225      -1400      612        31234      0          21968.97   85.229     21444      6573      
2672.8     8.05       340        1          0          354.024    19132      -1400      610        31238      0          21970.17   85.237     21446      6572      
2673       8.08       352        1          0          354.744    19167      -1400      605        31235      0          21971.35   85.241     21447      6572      
2673.2     8.36       363        1          0          356.183    19236      -1400      608        31231      0          21972.53   85.241     21447      6571      
2673.4     8.47       365        1          0          353.508    19107      -1400      612        31233      0          21973.69   85.249     21449      6572      
2673.6     8.51       365        1          0          354.731    19166      -1400      609        31235      0          21974.89   85.254     21450      6571      
2673.8     8.52       364        1          0          355.304    19194      -1400      603        31239      0          21976.09   85.258     21451      6572      
2674       8.48       362        1          0          354.173    19139      -1400      601        31240      0          21977.3    85.262     21452      6574      
2674.2     8.47       362        1          0          353.783    19120      -1400      607        31243      0          21978.45   85.271     21454      6572      
2674.4     8.81       385        1          0          353.85     19123      -1400      600        31243      0          21979.66   85.274     21455      6572      
2674.6     8.94       385        1          0          355.446    19200      -1400      600        31246      0          21980.86   85.278     21456      6572      
2674.8     8.96       383        1          0          354.446    19152      -1400      605        31247      0          21982      85.282     21457      6572      
2675       8.96       383        1          0          355.138    19185      -1400      609        31247      0          21983.19   85.286     21458      6572      
2675.2     8.33       339        1          0          356.245    19239      -1400      606        31250      0          21984.43   85.286     21458      6572      
2675.4     8.06       339        1          0          354.293    19145      -1400      608        31256      0          21985.64   85.292     21460      6571      
2675.6     7.89       332        1          0          355.46     19201      -1400      611        31254      0          21986.73   85.298     21461      6571      
2675.8     7.81       332        1          0          356.474    19250      -1400      606        31251      0          21987.99   85.302     21462      6571      
2676       7.94       351        1          0          353.924    19127      -1400      603        31256      0          21989.14   85.303     21462      6571      
2676.2     8.12       351        1          0          355.145    19186      -1400      608        31258      0          21990.29   85.308     21464      6571      
2676.4     8.47       377        1          0          355.676    19211      -1400      612        31262      0          21991.52   85.313     21465      6571      
2676.6     8.7        377        1          0          354.244    19142      -1400      605        31262      0          21992.76   85.314     21465      6573      
2676.8     8.89       391        1          0          355.213    19189      -1400      613        31266      0          21993.91   85.32      21466      6571      
2677       9.06       391        1          0          355.568    19206      -1400      615        31266      0          21995.06   85.322     21467      6571      
2677.2     9.05       382        1          0          355.852    19220      -1400      608        31270      0          21996.31   85.326     21468      6572      
2677.4     8.74       367        1          0          354.87     19172      -1400      613        31273      0          21997.47   85.332     21470      6571      
2677.6     8.57       359        1          0          355.402    19198      -1400      610        31273      0          21998.66   85.337     21471      6571      
2677.8     8.44       358        1          0          356.741    19262      -1400      611        31275      0          21999.85   85.338     21471      6571      
2678       8.36       354        1          0          354.669    19163      -1400      607        31278      0          22001.04   85.345     21473      6570      
2678.2     7.91       330        1          0          355.68     19211      -1400      610        31281      0          22002.18   85.348     21473      6570      
2678.4     7.78       330        1          0          357.289    19289      -1400      608        31279      0          22003.39   85.351     21474      6571      
2678.6     7.67       325        1          0          354.376    19149      -1400      601        31284      0          22004.61   85.354     21475      6571      
2678.8     7.62       325        1          0          355.619    19208      -1400      605        31288      0          22005.8    85.362     21477      6571      
2679       8.17       370        1          0          356.63     19257      -1400      609        31292      0          22006.95   85.366     21478      6570      
