~Version
 VERS              .         2.0                           : CWLS LOG ASCII STANDARD - VERSION 2.0
 WRAP              .         NO                            : ONE LINE PER DEPTH STEP
 DLM               .         SPACE                         : DELIMITING CHARACTER(SPACE TAB OR COMMA)
~Well Information
#_______________________________________________________________________________
#
#PARAMETER_NAME    .UNIT     VALUE                         : DESCRIPTION
#_______________________________________________________________________________
STRT               .M        10.2                          : First reference value
STOP               .M        2757.4                        : Last reference value
STEP               .M        0.2                           : Step increment
NULL               .         -9999                         : Missing value
COMP               .                                       : Company
WELL               .         616                           : Well name
FLD                .                                       : Field
LOC                .                                       : Location
CNTY               .                                       : County
STAT               .                                       : State
CTRY               .                                       : Country
SRVC               .                                       : Service Company
DATE               .                                       : Date
API                .                                       : API number
PROJECT_UPGRADE_TIME .         2021-03-18T21_24_50           : 
group              .         Good                          : 
~Parameter Information Block
#_______________________________________________________________________________
#
#PARAMETER_NAME    .UNIT     VALUE                         : DESCRIPTION
#_______________________________________________________________________________
SET                .         D7016_D                       : 
OTHER              .         Kedr.exe версия 2.1.2.32      : 
OTHER_10           .         TM.GRD = 0.00404*TM$.UE + 0.07: 
OTHER_11           .         MN.ATM = (6.33279e-006*TM.GRD + 0.02401)*(MN$.UE + 2.72*TM.GRD + -2018): 
OTHER_12           .         GK.MKR/H = GK$.UE / 43.5489 + 0: 
OTHER_13           .         RES.SM = 0.00476*CRES.UE - 1.51709: 
OTHER_14           .         PL.GSM3 = 0 + 0 * (PL.UE / 1) +  0 * (PL.UE / 1)^2: 
OTHER_15           .         Постоянная времени ГГП = 6 сек: 
OTHER_16           .         Постоянная времени ГК = 6 сек : 
OTHER_2            .         KedrData.dll версия 3.2.2.14  : 
OTHER_3            .         LasInf.dll версия 3.2.0.13    : 
OTHER_4            .         Драйвер версия 1.2.0.5        : 
OTHER_5            .         Прибор_ КСА-M1                : 
OTHER_6            .         Номер прибора_ 155+р204       : 
OTHER_7            .         Режим_ КСА-М1 + ГГП + Резистивиметр: 
OTHER_8            .         Форма_ 223\2                  : 
OTHER_9            .         Тарировки_                    : 
PROJECT_UPGRADE_TIME .         2021-03-18T21_24_50           : 
TLFamily_CRES      .                                       : 
TLFamily_DEPT      .         Measured Depth                : 
TLFamily_GK        .         Gamma Ray                     : 
TLFamily_GK$       .                                       : 
TLFamily_LM        .         Casing Collar locator         : 
TLFamily_METKA     .                                       : 
TLFamily_MN        .                                       : 
TLFamily_MN$       .                                       : 
TLFamily_PL        .                                       : 
TLFamily_PL_2      .                                       : 
TLFamily_RCOR      .                                       : 
TLFamily_RES       .         Mud Resistivity               : 
TLFamily_SPID      .         Spontaneous Potential         : 
TLFamily_STD       .                                       : 
TLFamily_TIME      .         Time                          : 
TLFamily_TM        .         Temperature                   : 
TLFamily_TM$       .         Temperature                   : 
TLFamily_VGD       .         Gas Volume                    : 
group              .         prim                          : 
~Curve Information
#_______________________________________________________________________________
#
#LOGNAME           .UNIT     LOG_ID                        : DESCRIPTION
#_______________________________________________________________________________
DEPT               .M                                      : 1 Глубина, м -    0.0 см 
CRES               .UE                                     : 9 Проводимость, усл.ед. -  270.0 см 
GK                 .MKR/H                                  : 16 Гамма-активность, мкр./ч -  106.0 см 
GK$                .UE                                     : 13 Гамма-активность, усл.ед. -  106.0 см 
LM                 .                                       : 11 Локатор муфт,  -   16.0 см 
METKA              .                                       : 3 Метки,  -    0.0 см 
MN                 .ATM                                    : 15 Давление, атм. -  160.0 см 
MN$                .UE                                     : 7 Давление, усл.ед. -  160.0 см 
PL                 .UE                                     : 10 Плотность, усл.ед. -  270.0 см 
PL_2               .GSM3                                   : 18 Плотность, г./см3 -  270.0 см 
RCOR               .CM/KM                                  : 5 Коррекция по ролику, см/км -    0.0 см 
RES                .SM                                     : 17 Проводимость,  -  270.0 см 
SPID               .M/H                                    : 2 Скорость, м/час -    0.0 см 
STD                .                                       : 12 Приток,  -  170.0 см 
TIME               .S                                      : 4 Время, сек -    0.0 см 
TM                 .GRD                                    : 14 Температура, °C -  180.0 см 
TM$                .UE                                     : 6 Температура, усл.ед. -  180.0 см 
VGD                .                                       : 8 Влагомер,  -  170.0 см 
~Ascii
# ...
2199.6     1416       9.82       445        201        0          198.522    9994       14         0          0          5.2231     1660       11739      6422.8     60.064     14850      6652      
2199.8     1418       9.9        445        171        0          198.548    9995       14         0          0          5.2331     1660       11739      6423.23    60.064     14850      6652      
2200       1420       9.96       445        171        0          198.574    9996       13         0          0          5.2405     1660       11740      6423.67    60.064     14850      6652      
2200.2     1417       10.03      449        157        1          198.596    9997       14         0          0          5.2276     1660       11741      6424.35    60.068     14851      6653      
2200.4     1414       10.09      449        140        0          198.602    9997       14         0          0          5.2136     1660       11740      6424.78    60.069     14851      6653      
2200.6     1415       10.14      449        148        0          198.628    9998       14         0          0          5.2176     1660       11741      6425.21    60.072     14852      6653      
2200.8     1417       10.17      449        232        0          198.646    9999       14         0          0          5.2255     1660       11742      6425.65    60.073     14852      6655      
2201       1418       10.2       449        265        0          198.67     10000      14         0          0          5.2306     1660       11743      6426.08    60.076     14853      6652      
2201.2     1417       10.11      423        238        0          198.709    10002      14         0          0          5.2266     1604       11744      6426.54    60.076     14853      6654      
2201.4     1415       10.03      423        974        0          198.719    10002      14         0          0          5.2198     1603       11745      6426.98    60.076     14853      6656      
2201.6     1416       9.96       423        509        0          198.719    10002      14         0          0          5.2253     1653       11745      6427.41    60.076     14853      6653      
2201.8     1419       9.91       423        405        0          198.755    10003      14         0          0          5.2358     1613       11748      6427.85    60.079     14854      6653      
2202       1419       9.87       423        420        0          198.782    10005      14         0          0          5.2373     1660       11749      6428.27    60.08      14854      6654      
2202.2     1419       9.75       403        477        0          198.793    10005      14         0          0          5.2373     1660       11749      6428.71    60.08      14854      6655      
2202.4     1419       9.58       389        428        0          198.811    10006      14         0          0          5.2373     1660       11750      6429.15    60.08      14854      6653      
2202.6     1419       9.45       389        335        0          198.837    10007      14         0          0          5.2363     1660       11750      6429.59    60.083     14855      6655      
2202.8     1418       9.34       389        293        0          198.842    10007      14         0          0          5.2326     1660       11751      6430.02    60.084     14855      6655      
2203       1421       9.26       389        263        0          198.868    10008      14         0          0          5.2469     1660       11751      6430.46    60.084     14855      6657      
2203.2     1423       9.2        389        261        0          198.894    10009      14         0          0          5.2554     1660       11751      6430.9     60.084     14855      6656      
2203.4     1421       9.15       390        355        0          198.915    10010      14         0          0          5.2469     1660       11751      6431.33    60.088     14856      6655      
2203.6     1421       9.13       396        291        0          198.922    10010      14         0          0          5.2456     1607       11751      6431.77    60.088     14856      6654      
2203.8     1421       9.13       396        266        0          198.95     10011      14         0          0          5.2472     1730       11751      6432.21    60.089     14856      6655      
2204       1421       9.12       396        235        0          198.965    10012      14         0          0          5.2492     1715       11752      6432.63    60.092     14857      6655      
2204.2     1421       9.11       396        261        0          198.98     10013      14         0          0          5.2449     1660       11752      6433.06    60.092     14857      6654      
2204.4     1420       9.11       396        193        0          199.006    10014      14         0          0          5.2437     1660       11753      6433.51    60.095     14858      6654      
2204.6     1423       9.1        395        174        0          199.033    10015      14         0          0          5.2562     1660       11752      6433.94    60.096     14858      6652      
2204.8     1421       9.09       394        189        0          199.039    10015      14         0          0          5.2461     1660       11752      6434.36    60.096     14858      6653      
2205       1422       9.08       394        228        0          199.062    10016      14         0          0          5.2516     1660       11752      6434.8     60.1       14859      6652      
2205.2     1420       9.07       394        237        0          199.088    10017      14         0          0          5.2421     1660       11752      6435.23    60.1       14859      6652      
2205.4     1420       9.07       394        265        0          199.092    10017      14         0          0          5.2421     1660       11753      6435.67    60.101     14859      6653      
2205.6     1419       9.05       390        492        0          199.118    10018      14         0          0          5.2389     1660       11753      6436.09    60.104     14860      6653      
2205.8     1419       8.94       370        454        0          199.144    10019      14         0          0          5.2358     1660       11754      6436.54    60.104     14860      6654      
2206       1422       8.85       370        333        0          199.162    10020      14         0          0          5.2516     1660       11754      6436.98    60.106     14860      6653      
2206.2     1421       8.78       370        429        0          199.174    10021      14         0          0          5.2492     1649       11754      6437.41    60.108     14861      6652      
2206.4     1422       8.72       370        503        0          199.201    10022      14         0          0          5.2498     1600       11754      6437.86    60.108     14861      6651      
2206.6     1421       8.67       370        477        0          199.227    10023      14         0          0          5.2451     1622       11753      6438.29    60.111     14862      6652      
2206.8     1423       8.64       369        676        0          199.236    10023      14         0          0          5.2562     1660       11753      6438.72    60.112     14862      6651      
2207       1423       8.6        369        677        0          199.256    10024      14         0          0          5.2572     1660       11753      6439.15    60.115     14863      6653      
2207.2     1423       8.58       369        592        0          199.282    10025      14         0          0          5.2564     1704       11752      6439.58    60.117     14863      6652      
2207.4     1421       8.55       369        486        0          199.285    10025      13         0          0          5.2474     1682       11752      6440.01    60.117     14863      6651      
2207.6     1423       8.54       369        5919       0          199.312    10026      14         0          0          5.2564     1660       11752      6440.44    60.121     14864      6655      
