~Version
 VERS              .         2.0                           : CWLS LOG ASCII STANDARD - VERSION 2.0
 WRAP              .         NO                            : ONE LINE PER DEPTH STEP
 DLM               .         SPACE                         : DELIMITING CHARACTER(SPACE TAB OR COMMA)
~Well Information
#_______________________________________________________________________________
#
#PARAMETER_NAME    .UNIT     VALUE                         : DESCRIPTION
#_______________________________________________________________________________
STRT               .M        1549.2                        : First reference value
STOP               .M        2296.2                        : Last reference value
STEP               .M        0.2                           : Step increment
NULL               .         -9999                         : Missing value
COMP               .                                       : Company
WELL               .         616                           : Well name
FLD                .                                       : Field
LOC                .                                       : Location
CNTY               .                                       : County
STAT               .                                       : State
CTRY               .                                       : Country
SRVC               .                                       : Service Company
DATE               .                                       : Date
API                .                                       : API number
PROJECT_UPGRADE_TIME .         2021-03-18T21_24_50           : 
group              .         Good                          : 
~Parameter Information Block
#_______________________________________________________________________________
#
#PARAMETER_NAME    .UNIT     VALUE                         : DESCRIPTION
#_______________________________________________________________________________
SET                .         616_10                        : 
CONF               .         00                            : 
END                .         0                             : 
ERR                .         2                             : 
GS00               .M        2294.21                       : 
GS01               .M        1546.72                       : 
MM00               .M        2240.00                       : 
NOKG               .         0                             : 
NPR                .         980119                        : 
PART               .         Палагутин                     : 
PROJECT_UPGRADE_TIME .         2021-03-18T21_24_49           : 
PRZK               .         Якименко                      : 
TLFamily_AZIMUTH   .         True Dip Azimuth              : 
TLFamily_DEPTH     .         Measured Depth                : 
TLFamily_METKA     .                                       : 
TLFamily_ROLL      .                                       : 
TLFamily_SPEED     .         Spontaneous Potential         : 
TLFamily_ZENIT     .                                       : 
VPRG               .         310                           : 
WAY                .         UP                            : 
group              .         prim                          : 
~Curve Information
#_______________________________________________________________________________
#
#LOGNAME           .UNIT     LOG_ID                        : DESCRIPTION
#_______________________________________________________________________________
DEPTH              .M                                      :  
AZIMUTH            .DEG                                    :  
METKA              .                                       :  
ROLL               .DEG                                    :  
SPEED              .M/H                                    :  
ZENIT              .DEG                                    :  
~Ascii
# ...
1598       281.86     0          158.53     648        29.25     
1598.2     318.36     0          158.17     612        29.25     
1598.4     247.07     0          158.05     576        29.28     
1598.6     120.29     0          157.85     612        29.24     
1598.8     57.53      0          157.68     648        29.26     
1599       319.53     0          158.05     648        29.25     
1599.2     274.42     0          159.8      612        29.21     
1599.4     265.66     0          162.67     612        29.33     
1599.6     262.21     0          166.05     612        29.26     
1599.8     259.69     0          170.79     648        29.21     
1600       259.28     0          177        648        28.94     
1600.2     258.05     0          182.71     648        28.41     
1600.4     259.46     0          186.43     648        28.58     
1600.6     261.46     0          188.38     648        28.86     
1600.8     259.64     0          189.85     612        28.57     
1601       259.3      0          192.87     648        28.52     
1601.2     259.75     0          198.78     576        28.57     
1601.4     259.32     0          207.12     612        28.43     
1601.6     258.87     0          214.34     612        28.28     
1601.8     259.25     0          217.51     612        28.4      
1602       260.27     1          219.8      648        28.47     
1602.2     259.79     0          221.76     468        28.29     
1602.4     262.14     0          223.45     576        28.55     
1602.6     260.2      0          224.7      648        28.56     
1602.8     260.63     0          224.85     612        28.65     
1603       260.23     0          224.43     612        28.62     
1603.2     260.1      0          224.2      612        28.57     
1603.4     260.83     0          225        612        28.68     
1603.6     261.14     0          226.08     612        28.8      
1603.8     260.28     0          226.22     648        28.55     
1604       260.64     0          226.17     612        28.6      
1604.2     260.61     0          225.99     540        28.61     
1604.4     260.28     0          226.31     648        28.49     
1604.6     260.37     0          226        648        28.5      
1604.8     260.75     0          224.71     648        28.59     
1605       260.03     0          223.22     612        28.48     
1605.2     260.68     0          222.91     648        28.43     
1605.4     260.98     0          223.13     612        28.57     
1605.6     260.59     0          223.13     648        28.51     
1605.8     259.99     0          223.3      612        28.33     
1606       260.44     0          223.28     648        28.49     
1606.2     260.54     0          222.75     648        28.53     
1606.4     259.6      0          221.91     648        28.29     
1606.6     260.43     0          221.32     648        28.49     
1606.8     261.25     0          221.26     648        28.67     
1607       260.07     0          221.23     612        28.41     
1607.2     259.72     0          221.72     612        28.32     
1607.4     263.09     0          223.18     576        28.76     
1607.6     258.24     0          223.38     612        27.8      
1607.8     260.32     0          223.18     648        28.3      
1608       260.59     0          222.94     612        28.4      
1608.2     260.69     0          223.06     576        28.31     
1608.4     259.94     0          223.45     648        28.15     
1608.6     260.2      0          223.5      648        28.3      
1608.8     260.61     0          223.98     648        28.28     
1609       260.94     0          224.41     576        28.33     
1609.2     261.23     0          224.37     612        28.45     
1609.4     260.39     0          224.01     648        28.22     
1609.6     260.94     0          223.48     612        28.22     
1609.8     262.79     0          222.97     612        28.45     
1610       262.52     0          222.79     648        28.13     
1610.2     267.95     0          223.57     576        28.27     
1610.4     291.96     0          223.25     612        28.41     
1610.6     264.05     0          222.43     648        28.47     
1610.8     157.8      1          221.58     612        28.35     
1611       84.22      0          221.03     792        28.42     
1611.2     337.97     0          220.59     576        28.48     
1611.4     278.46     0          220.75     576        28.45     
1611.6     265.63     0          221.46     612        28.34     
1611.8     263.07     0          222.38     612        28.46     
1612       261.86     0          223.05     612        28.42     
1612.2     260        1          223.51     576        28.1      
1612.4     260.33     0          224.56     540        28.01     
1612.6     261.14     0          224.99     648        28.05     
1612.8     261.16     0          224.24     612        28        
1613       261.21     0          224.26     576        28.06     
1613.2     262.08     0          224.46     576        28.18     
1613.4     260.67     0          223.27     612        28.06     
1613.6     260.79     0          222.28     612        28.03     
1613.8     260.11     0          222.87     648        27.8      
1614       260.84     0          223.75     576        27.71     
1614.2     261.42     0          223.53     576        27.83     
1614.4     261.05     0          222.99     612        27.8      
1614.6     261.39     0          223.33     648        27.71     
1614.8     261.55     0          224.87     648        28.04     
1615       261.35     0          226.04     576        27.99     
1615.2     259.83     0          225.85     540        27.75     
1615.4     261.02     0          225.29     648        27.92     
1615.6     261.24     0          224.71     612        27.96     
1615.8     259.83     0          224.98     648        27.68     
1616       260.43     0          225.18     612        27.81     
1616.2     260.62     0          225.02     504        27.87     
1616.4     260.08     0          225.15     612        27.77     
1616.6     260.42     0          225.32     648        27.76     
1616.8     261.09     0          224.8      612        27.9      
1617       260.27     0          223.83     576        27.86     
1617.2     260        0          223.22     612        27.75     
1617.4     259.98     0          223.64     576        27.72     
1617.6     260.69     0          224.11     648        27.91     
1617.8     260.17     0          224.53     612        27.84     
1618       259.57     0          224.66     612        27.64     
1618.2     260.65     0          225.2      540        27.8      
1618.4     260.69     0          225.2      612        27.8      
1618.6     259.97     0          224.32     612        27.66     
1618.8     259.37     0          223.87     612        27.56     
1619       260.73     0          224.6      612        27.69     
1619.2     260.47     0          226.93     612        27.65     
1619.4     255.33     0          233.55     612        27.23     
1619.6     255.77     0          253.3      576        27.39     
1619.8     260.87     0          279.81     648        28.49     
1620       255.25     0          310.84     612        28.45     
1620.2     251.21     0          344.98     612        27.38     
1620.4     257.72     0          345.01     180        27.37     
1620.6     262.93     0          335.48     36         27.79     
1620.8     258.37     0          55.99      252        27.64     
1621       258.82     0          45.74      108        27.32     
1621.2     260.46     0          38.87      324        27.64     
1621.4     260.29     0          39.13      540        27.48     
1621.6     259.8      0          38.97      612        27.44     
1621.8     260.27     0          38.62      648        27.47     
1622       260.43     0          38.7       612        27.44     
1622.2     261.37     1          38.94      576        27.45     
