~Version
 VERS              .         2.0                           : CWLS LOG ASCII STANDARD - VERSION 2.0
 WRAP              .         NO                            : ONE LINE PER DEPTH STEP
 DLM               .         SPACE                         : DELIMITING CHARACTER(SPACE TAB OR COMMA)
~Well Information
#_______________________________________________________________________________
#
#PARAMETER_NAME    .UNIT     VALUE                         : DESCRIPTION
#_______________________________________________________________________________
STRT               .M        2658.4                        : First reference value
STOP               .M        2763.200052                   : Last reference value
STEP               .M        0.2000001                     : Step increment
NULL               .         -9999                         : Missing value
COMP               .                                       : Company
WELL               .         616                           : Well name
FLD                .                                       : Field
LOC                .                                       : Location
CNTY               .                                       : County
STAT               .                                       : State
CTRY               .                                       : Country
SRVC               .                                       : Service Company
DATE               .                                       : Date
API                .                                       : API number
PROJECT_UPGRADE_TIME .         2021-03-18T21_24_50           : 
group              .         Good                          : 
~Parameter Information Block
#_______________________________________________________________________________
#
#PARAMETER_NAME    .UNIT     VALUE                         : DESCRIPTION
#_______________________________________________________________________________
SET                .         D7027_D_2                     : 
NPR                .         155                           : Номер прибора
OTHER              .         Kedr.exe версия 2.1.2.32      : 
OTHER_10           .         TM.GRD = 0.00404*TM$.UE + 0.07: 
OTHER_11           .         MN.ATM = (6.33279e-006*TM.GRD + 0.02401)*(MN$.UE + 2.72*TM.GRD + -2018): 
OTHER_12           .         GK.MKR/H = GK$.UE / 43.5489 + 0: 
OTHER_13           .         RES.SM = 0.00476*CRES.UE - 1.51709: 
OTHER_14           .         PL.GSM3 = 0 + 0 * (PL.UE / 1) +  0 * (PL.UE / 1)^2: 
OTHER_15           .         Постоянная времени ГГП = 6 сек: 
OTHER_16           .         Постоянная времени ГК = 6 сек : 
OTHER_2            .         KedrData.dll версия 3.2.2.14  : 
OTHER_3            .         LasInf.dll версия 3.2.0.13    : 
OTHER_4            .         Драйвер версия 1.2.0.5        : 
OTHER_5            .         Прибор_ КСА-M1                : 
OTHER_6            .         Номер прибора_ 155+р204       : 
OTHER_7            .         Режим_ КСА-М1 + ГГП + Резистивиметр: 
OTHER_8            .         Форма_ 223\2                  : 
OTHER_9            .         Тарировки_                    : 
PR                 .         КСА-Т7 М1                     : Тип прибора
PROJECT_UPGRADE_TIME .         2021-03-18T21_24_50           : 
PRTY               .         ПП-223_2                      : Номер партии
SRV                .         ЦКРС                          : Заказчик
SRVC               .         Лузин  А.Б.                   : Начальник партии
TLFamily_DEPT      .         Measured Depth                : 
TLFamily_LM        .         Casing Collar locator         : 
TLFamily_MN        .                                       : 
TLFamily_SPID      .         Spontaneous Potential         : 
TLFamily_TM        .         Temperature                   : 
group              .         second                        : 
~Curve Information
#_______________________________________________________________________________
#
#LOGNAME           .UNIT     LOG_ID                        : DESCRIPTION
#_______________________________________________________________________________
DEPT               .M                                      : Depth curve 
LM                 .е.ацп                                  : Локация муфт 
MN                 .атм                                    : Манометрия, атм 
SPID               .м/ч                                    : Скорость записи,м/час 
TM                 .град.С                                 : Термометрия,град.С 
~Ascii
2658.3999023 -9999      -9999      -9999      -9999     
2658.6     -9999      -9999      -9999      -9999     
2658.8     27         -9999      379.907    -9999     
2659       24.001     -9999      544.919    -9999     
2659.2     411.811    -9999      579.983    -9999     
2659.400001 322.044    -9999      580        -9999     
2659.600001 197.061    -9999      580        -9999     
2659.800001 147.024    -9999      580        -9999     
2660.000001 177.985    -9999      580        -9999     
2660.200001 169.004    -9999      580        -9999     
2660.400001 152.008    244.03     580        -9999     
2660.600001 114.019    244.02     580        57.23     
2660.800001 146.984    244        510.034    57.23     
2661.000001 150.998    243.99     579.966    57.23     
2661.200001 146.002    244.01     580        57.23     
2661.400002 243.952    244.04     580        57.24     
2661.600002 175.034    244.09     510.034    57.23     
2661.800002 141.017    244.11     510        57.23     
2662.000002 160.99     244.11     579.966    57.23     
2662.200002 140.01     244.09     559.01     57.22     
2662.400002 151.994    244.1      579.99     57.22     
2662.600002 116.018    244.13     510.034    57.22     
2662.800002 128.994    244.18     579.966    57.21     
2663.000002 132.998    244.18     510.034    57.21     
2663.200002 182.976    244.17     579.966    57.2      
2663.400003 172.005    244.17     580        57.19     
2663.600003 119.026    244.2      533.023    57.18     
2663.800003 107.006    244.22     579.977    57.18     
2664.000003 110.998    244.27     580        57.17     
2664.200003 135.988    244.27     580        57.17     
2664.400003 146.995    244.28     560.01     57.16     
2664.600003 116.015    244.27     510.024    57.16     
2664.800003 102.007    244.29     579.966    57.15     
2665.000003 93.004     244.31     533.023    57.14     
2665.200003 117.988    244.35     579.977    57.13     
2665.400003 124.997    244.36     580        57.13     
2665.600004 127.999    244.37     540.02     57.12     
2665.800004 111.008    244.37     533.003    57.12     
2666.000004 111        244.4      579.977    57.11     
2666.200004 103.004    244.4      568.006    57.1      
2666.400004 97.003     244.44     579.994    57.1      
2666.600004 95.001     244.45     557.011    57.09     
2666.800004 112.991    244.45     510.023    57.07     
2667.000004 77.018     244.47     579.966    57.07     
2667.200004 201.939    244.47     545.017    57.06     
2667.400005 138.031    244.5      579.983    57.05     
2667.600005 95.021     244.52     580        57.04     
2667.800005 86.004     244.54     560.01     57.03     
2668.000005 71.007     244.55     579.99     57.02     
2668.200005 102.984    244.56     580        57.01     
2668.400005 83.01      244.56     510.034    57        
2668.600005 64.009     244.59     510        57        
2668.800005 82.991     244.61     579.966    56.99     
2669.000005 5638.291   244.63     568.006    56.98     
2669.200005 4142.731   244.63     579.994    56.98     
2669.400006 1019.523   244.65     580        56.97     
2669.600006 260.369    244.67     557.011    56.95     
2669.800006 109.074    244.7      545.006    56.94     
2670.000006 107.001    244.7      522.011    56.93     
2670.200006 108        244.72     579.972    56.93     
2670.400006 84.012     244.75     557.011    56.92     
2670.600006 90.997     244.76     579.989    56.91     
2670.800006 77.007     244.77     580        56.89     
2671.000006 116.981    244.79     522.028    56.89     
2671.200006 91.013     244.81     544.989    56.87     
2671.400007 106.992    244.82     579.983    56.87     
2671.600007 74.016     244.84     580        56.85     
2671.800007 61.006     244.86     580        56.85     
2672.000007 81.99      244.88     510.034    56.84     
2672.200007 87.997     244.88     579.966    56.83     
2672.400007 75.006     244.9      580        56.82     
2672.600007 100.987    244.93     510.034    56.8      
2672.800007 68.016     244.95     579.966    56.8      
2673.000007 136.966    244.95     580        56.79     
2673.200007 91.022     244.97     510.034    56.77     
2673.400007 98.996     244.99     579.966    56.76     
2673.600008 116.991    244.99     580        56.75     
2673.800008 87.015     245.02     580        56.74     
2674.000008 73.007     245.04     510.034    56.73     
2674.200008 74         245.06     579.966    56.72     
2674.400008 47.013     245.08     580        56.71     
2674.600008 103.972    245.08     533.023    56.7      
2674.800008 83.01      245.11     579.977    56.68     
2675.000008 95.994     245.13     568.006    56.67     
2675.200008 80.008     245.12     569.999    56.65     
2675.400009 81.999     245.15     579.995    56.64     
2675.600009 71.005     245.17     557.011    56.63     
2675.800009 76.997     245.19     579.989    56.61     
2676.000009 73.002     245.21     580        56.59     
2676.200009 50.011     245.22     534.022    56.58     
2676.400009 60.995     245.24     579.978    56.56     
2676.600009 82.989     245.24     580        56.55     
2676.800009 60.011     245.28     580        56.53     
2677.000009 63.998     245.29     545.017    56.53     
2677.200009 71.996     245.3      579.983    56.52     
2677.40001 55.008     245.32     580        56.5      
2677.60001 51.002     245.33     557.011    56.49     
2677.80001 90.981     245.36     579.989    56.47     
2678.00001 85.003     245.37     568.006    56.47     
2678.20001 59.013     245.39     522.022    56.45     
2678.40001 46.006     245.41     544.989    56.42     
2678.60001 46         245.42     579.983    56.41     
2678.80001 57.994     245.45     580        56.38     
2679.00001 99.98      245.45     530.024    56.36     
2679.20001 64.018     245.47     579.976    56.33     
2679.400011 52.006     245.5      580        56.31     
2679.600011 76.988     245.49     580        56.3      
2679.800011 124.977    245.52     522.028    56.28     
2680.000011 99.013     245.54     579.972    56.27     
2680.200011 5169.531   245.56     580        56.25     
2680.400011 3192.964   245.58     557.011    56.23     
2680.600011 502.31     245.6      510.023    56.21     
2680.800011 163.164    245.6      567.972    56.19     
2681.000011 78.041     245.62     579.994    56.18     
2681.200011 79         245.64     569.005    56.16     
2681.400011 83.998     245.67     510.029    56.13     
2681.600012 98.993     245.69     556.977    56.11     
2681.800012 103.998    245.71     579.989    56.1      
2682.000012 179.963    245.72     580        56.08     
2682.200012 128.025    245.73     522.028    56.06     
2682.400012 102.013    245.75     579.972    56.05     
2682.600012 133.984    245.78     510.034    56.04     
2682.800012 101.016    245.79     579.966    56.02     
2683.000012 75.013     245.8      580        56.01     
2683.200012 75         245.82     580        56        
2683.400013 126.975    245.86     580        55.97     
2683.600013 94.016     245.86     580        55.96     
2683.800013 81.006     245.88     510.034    55.94     
2684.000013 81         245.89     579.966    55.91     
2684.200013 96.992     245.9      569.005    55.89     
2684.400013 115.991    245.93     510.029    55.88     
2684.600013 101.007    245.95     579.966    55.86     
2684.800013 110.995    245.96     580        55.85     
2685.000013 92.009     245.98     520.029    55.82     
2685.200013 78.007     245.99     510.005    55.81     
2685.400014 47.015     246.01     579.966    55.78     
2685.600014 51.998     246.03     568.006    55.75     
2685.800014 87.982     246.05     510.028    55.74     
2686.000014 82.003     246.07     539.985    55.72     
2686.200014 231.927    246.1      556.992    55.68     
2686.400014 75.076     246.09     510.023    55.67     
2686.600014 72.001     246.14     559.976    55.64     
2686.800014 86.993     246.14     579.99     55.63     
2687.000014 139.974    246.16     580        55.6      
