~Version
 VERS              .         2.0                           : CWLS LOG ASCII STANDARD - VERSION 2.0
 WRAP              .         NO                            : ONE LINE PER DEPTH STEP
 DLM               .         SPACE                         : DELIMITING CHARACTER(SPACE TAB OR COMMA)
~Well Information
#_______________________________________________________________________________
#
#PARAMETER_NAME    .UNIT     VALUE                         : DESCRIPTION
#_______________________________________________________________________________
STRT               .M        1740.47                       : First reference value
STOP               .M        2787.78                       : Last reference value
STEP               .M        0                             : Step increment
NULL               .         -9999                         : Missing value
COMP               .                                       : Company
WELL               .         616                           : Well name
FLD                .                                       : Field
LOC                .                                       : Location
CNTY               .                                       : County
STAT               .                                       : State
CTRY               .                                       : Country
SRVC               .                                       : Service Company
DATE               .                                       : Date
API                .                                       : API number
PROJECT_UPGRADE_TIME .         2021-03-18T21_24_50           : 
group              .         Good                          : 
~Parameter Information Block
#_______________________________________________________________________________
#
#PARAMETER_NAME    .UNIT     VALUE                         : DESCRIPTION
#_______________________________________________________________________________
SET                .         D2664                         : 
NPR                .         980607                        : ЗАВ НОМЕР ПРИБОРА
NPRT               .         Мещеряков                     : НАЧ ПАРТИИ
PROJECT_UPGRADE_TIME .         2021-03-18T21_24_50           : 
TLFamily_AZIMUTH   .         True Dip Azimuth              : 
TLFamily_DEPTH     .         Measured Depth                : 
TLFamily_DRILL     .                                       : 
TLFamily_METKA     .                                       : 
TLFamily_ZENIT     .                                       : 
group              .         prim                          : 
~Curve Information
#_______________________________________________________________________________
#
#LOGNAME           .UNIT     LOG_ID                        : DESCRIPTION
#_______________________________________________________________________________
DEPTH              .M                                      : 1 ГЛУБИНА 
AZIMUTH            .ГРАД                                   : 4 АЗИМУТ 
DRILL              .ГРАД                                   : 2 ПОВОРОТ 
METKA              .                                       : 5 МАГН МЕТКА 
ZENIT              .ГРАД                                   : 3 ЗЕНИТ 
~Ascii
# ...
2779.2     132.12     166.49     0          1.4       
2779.37    132.32     95.32      0          1.41      
2779.54    132.22     25         0          1.43      
2779.71    132        205.8      0          1.45      
2779.87    131.38     129.06     0          1.46      
2780.03    131.4      62.24      0          1.47      
2780.2     131.13     291.99     0          1.49      
2780.36    130.86     150.72     0          1.5       
2780.51    130.13     76.32      0          1.5       
2780.67    130.56     341.95     0          1.53      
2780.82    129.88     157.02     0          1.53      
2780.97    129.05     89.8       0          1.54      
2781.12    129.71     357.67     0          1.56      
2781.27    128.66     187.04     0          1.56      
2781.41    128.4      97.36      0          1.58      
2781.56    129.04     332.24     0          1.59      
2781.7     128.05     272        0          1.59      
2781.84    127.97     351.91     0          1.6       
2781.97    128.08     319.76     0          1.61      
2782.11    127.66     304.4      0          1.61      
2782.24    127.59     316.18     0          1.61      
2782.37    127.48     314.6      0          1.62      
2782.5     127.43     314.78     0          1.62      
2782.63    127.56     323.45     0          1.63      
2782.75    127.83     314.37     0          1.63      
2782.88    127.7      296.65     0          1.63      
2783       128.07     345.17     0          1.64      
2783.12    129.25     322.22     0          1.64      
2783.25    128.85     280.46     0          1.63      
2783.37    130.12     50.05      0          1.64      
2783.49    130.97     338.93     0          1.64      
2783.61    131.34     282.55     0          1.64      
2783.73    131.31     228.02     0          1.63      
2783.85    132.43     331.79     0          1.64      
2783.97    133.69     296.51     0          1.63      
2784.09    133.64     305.22     0          1.62      
2784.21    134.5      310.72     0          1.62      
2784.33    135.09     336.13     0          1.62      
2784.45    136.58     304.68     0          1.63      
2784.57    136.96     249.1      0          1.62      
2784.69    137.01     1.71       0          1.61      
2784.81    138.03     307.15     0          1.61      
2784.93    138.36     261.27     0          1.61      
2785.06    139.93     340.6      0          1.63      
2785.18    140.41     303.6      0          1.61      
2785.3     140.46     313.41     0          1.6       
2785.42    141.09     304.38     0          1.6       
2785.54    141.34     341.91     0          1.59      
2785.66    142.35     288.81     0          1.61      
2785.78    143.53     159.07     0          1.62      
2785.9     144.33     319.55     0          1.62      
2786.02    145.42     243.12     0          1.64      
2786.14    146.63     166.52     0          1.64      
2786.25    147.25     171.05     0          1.64      
2786.36    148.18     173.33     0          1.65      
2786.47    149.53     157.49     0          1.66      
2786.57    150.17     160.26     0          1.66      
2786.67    150.93     162.63     0          1.67      
2786.76    152.33     154.23     0          1.68      
2786.85    153.02     157.6      0          1.68      
2786.93    153.47     157.46     0          1.69      
2787.01    154.75     152.18     0          1.7       
2787.09    155.92     156.25     0          1.71      
2787.16    156.25     154.29     0          1.71      
2787.23    156.77     153.04     0          1.72      
2787.3     157.79     156.69     0          1.74      
2787.36    158.74     153.26     0          1.75      
2787.41    159.17     154.83     0          1.75      
2787.47    159.37     154.49     0          1.75      
2787.51    160.01     152.64     0          1.76      
2787.56    161.11     155.63     0          1.78      
2787.6     161.77     153.28     0          1.79      
2787.64    162.17     154.25     0          1.78      
2787.67    162.26     153.96     0          1.78      
2787.7     162.8      152.77     0          1.8       
2787.72    163.56     154.87     0          1.81      
2787.74    164.46     152.62     0          1.83      
2787.76    164.93     154.26     0          1.83      
2787.77    165.02     153.06     0          1.83      
2787.78    165.07     153.71     0          1.82      
2787.78    164.87     153.22     0          1.82      
