~Version
 VERS              .         2.0                           : CWLS LOG ASCII STANDARD - VERSION 2.0
 WRAP              .         NO                            : ONE LINE PER DEPTH STEP
 DLM               .         SPACE                         : DELIMITING CHARACTER(SPACE TAB OR COMMA)
~Well Information
#_______________________________________________________________________________
#
#PARAMETER_NAME    .UNIT     VALUE                         : DESCRIPTION
#_______________________________________________________________________________
STRT               .M        2671                          : First reference value
STOP               .M        2773.4                        : Last reference value
STEP               .M        0.1999998                     : Step increment
NULL               .         -9999                         : Missing value
COMP               .                                       : Company
WELL               .         616                           : Well name
FLD                .                                       : Field
LOC                .                                       : Location
CNTY               .                                       : County
STAT               .                                       : State
CTRY               .                                       : Country
SRVC               .                                       : Service Company
DATE               .                                       : Date
API                .                                       : API number
PROJECT_UPGRADE_TIME .         2021-03-18T21_24_50           : 
group              .         Good                          : 
~Parameter Information Block
#_______________________________________________________________________________
#
#PARAMETER_NAME    .UNIT     VALUE                         : DESCRIPTION
#_______________________________________________________________________________
SET                .         D0402_D                       : 
OTHER              .         Kedr.exe версия 2.1.2.32      : 
OTHER_10           .         TM.GRD = 0.00379*TM$.UE + 7.11: 
OTHER_11           .         MN.ATM = (8e-006*TM.GRD + 0.02)*(MN$.UE + -8*TM.GRD + -1800): 
OTHER_12           .         GK.MKR/H = GK$.UE / 57.17 + 0 : 
OTHER_2            .         KedrData.dll версия 3.2.2.14  : 
OTHER_3            .         LasInf.dll версия 3.2.0.13    : 
OTHER_4            .         Драйвер версия 1.2.0.4        : 
OTHER_5            .         Прибор_ АКП4_90               : 
OTHER_6            .         Номер прибора_ 56             : 
OTHER_7            .         Режим_ АКП4_90 - все каналы   : 
OTHER_8            .         Форма_ Г-1                    : 
OTHER_9            .         Тарировки_                    : 
PROJECT_UPGRADE_TIME .         2021-03-18T21_24_49           : 
TLFamily_DEPT      .         Measured Depth                : 
TLFamily_GK        .         Gamma Ray                     : 
TLFamily_GK$       .                                       : 
TLFamily_LM        .         Casing Collar locator         : 
TLFamily_METKA     .                                       : 
TLFamily_METKA_1   .                                       : 
TLFamily_MN        .                                       : 
TLFamily_MN$       .                                       : 
TLFamily_RCOR      .                                       : 
TLFamily_SPID      .         Spontaneous Potential         : 
TLFamily_TIME      .         Time                          : 
TLFamily_TM        .         Temperature                   : 
TLFamily_TM$       .         Temperature                   : 
group              .         second                        : 
~Curve Information
#_______________________________________________________________________________
#
#LOGNAME           .UNIT     LOG_ID                        : DESCRIPTION
#_______________________________________________________________________________
DEPT               .M                                      : 1 Глубина, м -    0.0 см 
GK                 .MKR/H                                  : 12 Гамма-активность, мкр./ч -   65.0 см 
GK$                .UE                                     : 9 Гамма-активность, усл.ед. -   65.0 см 
LM                 .                                       : 8 Локатор муфт,  -   30.0 см 
METKA              .                                       : 3 Метки,  -    0.0 см 
METKA_1            .                                       : 13 Маркеры - 65 см 
MN                 .ATM                                    : 11 Давление, атм. -  140.0 см 
MN$                .UE                                     : 7 Давление, усл.ед. -  140.0 см 
RCOR               .CM/KM                                  : 5 Коррекция по ролику, см/км -    0.0 см 
SPID               .M/H                                    : 2 Скорость, м/час -    0.0 см 
TIME               .S                                      : 4 Время, сек -    0.0 см 
TM                 .GRD                                    : 10 Температура, °C -  145.0 см 
TM$                .UE                                     : 6 Температура, усл.ед. -  145.0 см 
~Ascii
# ...
2749.4     7.42       472        519        0          0          266.973    15391      0          -320       7372.54    85.305     20632     
2749.6     7.26       401        388        0          0          266.987    15391      0          -320       7370.16    85.31      20633     
2749.8     7.39       416        537        0          0          267.042    15394      0          -275       7367.81    85.32      20636     
2750       7.33       442        452        1          0          267.083    15396      0          -260       7365.4     85.332     20639     
2750.2     7.24       402        492        0          0          267.123    15398      0          -260       7362.32    85.339     20641     
2750.4     7.4        412        560        0          0          267.15     15399      0          -320       7359.87    85.343     20642     
2750.6     7.39       448        556        0          0          267.192    15401      0          -320       7357.55    85.347     20643     
2750.8     6.85       436        549        0          0          267.226    15403      0          -320       7355.17    85.347     20643     
2751       6.6        384        802        0          0          267.247    15404      0          -320       7352.8     85.351     20644     
2751.2     6.61       365        530        0          0          267.292    15406      0          -280       7350.49    85.356     20645     
2751.4     6.7        381        399        0          0          267.328    15408      0          -260       7348.04    85.366     20648     
2751.6     6.79       368        623        0          0          267.204    15402      0          -260       7345.72    85.373     20650     
2751.8     7.11       368        721        0          0          267.21     15402      0          -275       7343.31    85.381     20652     
2752       7.62       408        7095       0          0          267.223    15403      0          -305       7340.96    85.389     20654     
2752.2     7.95       443        6524       0          0          267.233    15403      0          -300       7338.61    85.4       20657     
2752.4     8.08       458        884        0          0          267.257    15405      0          -320       7336.22    85.404     20658     
2752.6     8.12       471        545        0          0          267.277    15406      0          -320       7333.84    85.411     20660     
2752.8     8.01       466        492        0          0          267.242    15404      0          -320       7331.54    85.419     20662     
2753       7.91       458        546        0          0          267.283    15406      0          -320       7329.09    85.427     20664     
2753.2     7.82       458        526        0          0          267.309    15407      0          -260       7326.77    85.427     20664     
2753.4     7.7        452        719        0          0          267.329    15408      0          -320       7324.45    85.434     20666     
2753.6     7.57       446        631        0          0          267.379    15411      0          -300       7322.01    85.444     20669     
2753.8     7.38       445        542        0          0          267.416    15413      0          -320       7319.69    85.453     20671     
2754       7.31       416        520        0          0          267.44     15414      0          -320       7317.32    85.457     20672     
2754.2     7.44       407        478        0          0          267.46     15415      0          -300       7314.94    85.457     20672     
2754.4     7.47       438        446        0          0          267.529    15418      0          -320       7312.62    85.468     20675     
2754.6     7.28       440        493        0          0          267.57     15420      0          -320       7310.17    85.472     20676     
2754.8     7.1        411        620        0          0          267.591    15421      0          -260       7307.87    85.476     20677     
2755       7.06       405        596        0          0          267.631    15423      0          -260       7305.54    85.487     20680     
2755.2     7.06       400        655        0          0          267.637    15423      0          -305       7303.13    85.495     20682     
2755.4     7.21       382        406        0          0          267.671    15425      0          -260       7300.79    85.499     20683     
2755.6     7.56       420        504        0          0          267.699    15426      0          -190       7298.4     85.502     20684     
2755.8     7.68       440        599        0          0          267.726    15428      0          -260       7295.77    85.515     20687     
2756       7.65       449        510        0          0          267.753    15429      0          -260       7293.19    85.523     20689     
2756.2     7.47       443        627        0          0          267.793    15431      0          -320       7290.49    85.533     20692     
2756.4     7.21       427        608        0          0          267.793    15431      0          -280       7287.92    85.539     20694     
2756.6     6.96       420        459        0          0          267.809    15432      0          -260       7285.21    85.54      20694     
2756.8     6.68       373        515        0          0          267.835    15433      0          -260       7282.65    85.544     20695     
2757       6.84       373        572        0          0          267.875    15435      0          -300       7279.94    85.555     20698     
2757.2     7.15       381        526        0          0          267.895    15436      0          -260       7277.36    85.563     20700     
2757.4     7.54       398        438        0          0          267.936    15438      0          -320       7274.68    85.569     20702     
2757.6     7.88       448        482        0          0          267.894    15436      0          -260       7271.97    85.574     20703     
2757.8     7.78       469        434        0          0          267.859    15434      0          -260       7269.4     85.574     20703     
2758       7.58       443        531        0          0          267.859    15434      0          -320       7266.82    85.586     20706     
2758.2     7.58       424        552        0          0          267.907    15437      0          -300       7264.13    85.593     20708     
2758.4     7.68       430        382        0          0          267.941    15438      0          -260       7261.54    85.597     20709     
2758.6     7.9        424        635        0          0          268.038    15443      0          -260       7258.84    85.601     20710     
2758.8     8.01       453        718        0          0          268.079    15445      0          -280       7256.28    85.605     20711     
2759       7.77       467        580        0          0          268.057    15444      0          -300       7253.57    85.616     20714     
2759.2     7.7        444        416        0          0          268.078    15445      0          -260       7250.99    85.62      20715     
2759.4     7.58       444        435        0          0          268.05     15444      0          -260       7248.29    85.624     20716     
2759.6     7.38       415        736        0          0          268.001    15441      0          -260       7245.73    85.631     20718     
2759.8     7.48       429        518        1          0          268.056    15444      0          -260       7243.14    85.635     20719     
2760       7.43       438        405        0          0          268.097    15446      0          -260       7239.54    85.639     20720     
2760.2     7.22       430        750        0          0          268.124    15447      0          -260       7236.85    85.65      20723     
2760.4     6.93       419        886        0          0          268.241    15453      0          -320       7234.15    85.65      20723     
