~Version
 VERS              .         2.0                           : CWLS LOG ASCII STANDARD - VERSION 2.0
 WRAP              .         NO                            : ONE LINE PER DEPTH STEP
 DLM               .         SPACE                         : DELIMITING CHARACTER(SPACE TAB OR COMMA)
~Well Information
#_______________________________________________________________________________
#
#PARAMETER_NAME    .UNIT     VALUE                         : DESCRIPTION
#_______________________________________________________________________________
STRT               .M        2671                          : First reference value
STOP               .M        2773.4                        : Last reference value
STEP               .M        0.1999998                     : Step increment
NULL               .         -9999                         : Missing value
COMP               .                                       : Company
WELL               .         616                           : Well name
FLD                .                                       : Field
LOC                .                                       : Location
CNTY               .                                       : County
STAT               .                                       : State
CTRY               .                                       : Country
SRVC               .                                       : Service Company
DATE               .                                       : Date
API                .                                       : API number
PROJECT_UPGRADE_TIME .         2021-03-18T21_24_50           : 
group              .         Good                          : 
~Parameter Information Block
#_______________________________________________________________________________
#
#PARAMETER_NAME    .UNIT     VALUE                         : DESCRIPTION
#_______________________________________________________________________________
SET                .         D0402_D                       : 
OTHER              .         Kedr.exe версия 2.1.2.32      : 
OTHER_10           .         TM.GRD = 0.00379*TM$.UE + 7.11: 
OTHER_11           .         MN.ATM = (8e-006*TM.GRD + 0.02)*(MN$.UE + -8*TM.GRD + -1800): 
OTHER_12           .         GK.MKR/H = GK$.UE / 57.17 + 0 : 
OTHER_2            .         KedrData.dll версия 3.2.2.14  : 
OTHER_3            .         LasInf.dll версия 3.2.0.13    : 
OTHER_4            .         Драйвер версия 1.2.0.4        : 
OTHER_5            .         Прибор_ АКП4_90               : 
OTHER_6            .         Номер прибора_ 56             : 
OTHER_7            .         Режим_ АКП4_90 - все каналы   : 
OTHER_8            .         Форма_ Г-1                    : 
OTHER_9            .         Тарировки_                    : 
PROJECT_UPGRADE_TIME .         2021-03-18T21_24_49           : 
TLFamily_DEPT      .         Measured Depth                : 
TLFamily_GK        .         Gamma Ray                     : 
TLFamily_GK$       .                                       : 
TLFamily_LM        .         Casing Collar locator         : 
TLFamily_METKA     .                                       : 
TLFamily_METKA_1   .                                       : 
TLFamily_MN        .                                       : 
TLFamily_MN$       .                                       : 
TLFamily_RCOR      .                                       : 
TLFamily_SPID      .         Spontaneous Potential         : 
TLFamily_TIME      .         Time                          : 
TLFamily_TM        .         Temperature                   : 
TLFamily_TM$       .         Temperature                   : 
group              .         second                        : 
~Curve Information
#_______________________________________________________________________________
#
#LOGNAME           .UNIT     LOG_ID                        : DESCRIPTION
#_______________________________________________________________________________
DEPT               .M                                      : 1 Глубина, м -    0.0 см 
GK                 .MKR/H                                  : 12 Гамма-активность, мкр./ч -   65.0 см 
GK$                .UE                                     : 9 Гамма-активность, усл.ед. -   65.0 см 
LM                 .                                       : 8 Локатор муфт,  -   30.0 см 
METKA              .                                       : 3 Метки,  -    0.0 см 
METKA_1            .                                       : 13 Маркеры - 65 см 
MN                 .ATM                                    : 11 Давление, атм. -  140.0 см 
MN$                .UE                                     : 7 Давление, усл.ед. -  140.0 см 
RCOR               .CM/KM                                  : 5 Коррекция по ролику, см/км -    0.0 см 
SPID               .M/H                                    : 2 Скорость, м/час -    0.0 см 
TIME               .S                                      : 4 Время, сек -    0.0 см 
TM                 .GRD                                    : 10 Температура, °C -  145.0 см 
TM$                .UE                                     : 6 Температура, усл.ед. -  145.0 см 
~Ascii
# ...
2693.4     6.67       352        628        0          0          261.115    15102      0          -320       8025.19    83.569     20174     
2693.6     6.98       368        581        0          0          261.136    15103      0          -320       8022.86    83.573     20175     
2693.8     7.34       392        610        0          0          261.151    15104      0          -320       8020.54    83.569     20174     
2694       7.55       430        618        0          0          261.161    15104      0          -320       8018.24    83.577     20176     
2694.2     7.57       433        578        0          0          261.176    15105      0          -320       8015.92    83.588     20179     
2694.4     7.58       431        559        0          0          261.237    15108      0          -320       8013.6     83.604     20183     
2694.6     7.62       426        643        0          0          261.276    15110      0          -320       8011.29    83.618     20187     
2694.8     7.75       443        535        0          0          261.256    15109      0          -320       8009.06    83.633     20191     
2695       7.76       446        712        0          0          261.276    15110      0          -275       8006.76    83.634     20191     
2695.2     7.66       446        569        0          0          261.297    15111      0          -320       8004.43    83.638     20192     
2695.4     7.68       435        659        0          0          261.358    15114      0          -320       8002.11    83.638     20192     
2695.6     7.73       436        502        0          0          261.358    15114      0          -320       7999.8     83.643     20193     
2695.8     7.9        428        513        0          0          261.358    15114      0          -260       7997.49    83.649     20195     
2696       8.11       443        584        0          0          261.378    15115      0          -320       7995.2     83.653     20196     
2696.2     8.16       479        658        0          0          261.399    15116      0          -320       7992.76    83.657     20197     
2696.4     8.05       467        2270       0          0          261.45     15118      0          -320       7990.43    83.658     20197     
2696.6     8.1        436        6148       0          0          261.481    15120      0          -320       7988.1     83.668     20200     
2696.8     8.39       462        602        0          0          261.469    15119      0          -320       7985.78    83.677     20202     
2697       8.62       482        553        0          0          261.485    15120      0          -320       7983.56    83.687     20205     
2697.2     8.7        508        526        0          0          261.505    15121      0          -320       7981.24    83.691     20206     
2697.4     8.53       522        480        0          0          261.548    15123      0          -320       7978.93    83.692     20206     
2697.6     8.04       471        515        0          0          261.562    15124      0          -320       7976.62    83.696     20207     
2697.8     7.87       454        554        0          0          261.581    15125      0          -320       7974.3     83.71      20211     
2698       8.21       433        539        0          0          261.602    15126      0          -320       7972.02    83.715     20212     
2698.2     8.46       459        516        0          0          261.622    15127      0          -300       7969.7     83.721     20214     
2698.4     8.38       505        544        0          0          261.658    15129      0          -320       7967.39    83.721     20214     
2698.6     8.21       482        503        1          0          261.688    15130      0          -320       7965.07    83.726     20215     
2698.8     8.01       484        560        0          0          261.688    15130      0          -320       7962.75    83.738     20218     
2699       7.74       465        466        0          0          261.703    15131      0          -320       7960.44    83.749     20221     
2699.2     7.61       417        464        0          0          261.723    15132      0          -320       7958.19    83.763     20225     
2699.4     7.86       423        480        0          0          261.77     15134      0          -320       7955.8     83.77      20227     
2699.6     8.14       455        449        0          0          261.797    15136      0          -290       7953.55    83.779     20229     
2699.8     8.26       471        455        1          0          261.789    15135      0          -320       7951.24    83.793     20233     
2700       8.33       448        542        0          0          261.803    15136      0          -320       7948.22    83.801     20235     
2700.2     8.76       490        542        0          0          261.823    15137      0          -320       7945.9     83.801     20235     
2700.4     8.92       516        489        0          0          261.85     15138      0          -260       7943.58    83.808     20237     
2700.6     8.83       516        497        0          0          261.895    15141      0          -320       7941.29    83.816     20239     
2700.8     8.72       501        432        0          0          261.912    15141      0          -275       7938.98    83.823     20241     
2701       8.68       481        438        0          0          261.914    15141      0          -320       7936.64    83.831     20243     
2701.2     8.99       494        503        0          0          261.924    15142      0          -275       7934.35    83.842     20246     
2701.4     9.21       501        523        0          0          261.986    15145      0          -320       7932.03    83.85      20248     
2701.6     9.13       543        461        0          0          261.999    15146      0          -320       7929.82    83.861     20251     
2701.8     8.78       545        525        0          0          262.005    15146      0          -320       7927.5     83.865     20252     
2702       8.44       506        401        0          0          262.01     15146      0          -320       7925.2     83.875     20255     
2702.2     8.44       463        391        0          0          262.051    15148      0          -260       7922.87    83.884     20257     
2702.4     8.65       479        454        0          0          262.086    15150      0          -320       7920.56    83.892     20259     
2702.6     8.7        514        453        0          0          262.106    15151      0          -320       7918.23    83.902     20262     
2702.8     8.52       491        464        0          0          262.121    15152      0          -320       7915.93    83.911     20264     
2703       8.51       472        486        0          0          262.126    15152      0          -320       7913.6     83.918     20266     
2703.2     8.73       480        393        0          0          262.146    15153      0          -320       7911.29    83.922     20267     
2703.4     8.98       521        417        0          0          262.187    15155      0          -320       7909.07    83.93      20269     
2703.6     8.86       532        381        0          0          262.228    15157      0          -320       7906.75    83.939     20272     
2703.8     8.19       531        426        0          0          262.269    15159      0          -320       7904.44    83.945     20273     
2704       7.52       495        399        0          0          262.248    15158      0          -320       7902.13    83.952     20275     
2704.2     6.82       469        464        0          0          262.268    15159      0          -320       7899.81    83.956     20276     
2704.4     6.22       408        389        0          0          262.268    15159      0          -320       7897.53    83.961     20277     
