~Version
 VERS              .         2.0                           : CWLS LOG ASCII STANDARD - VERSION 2.0
 WRAP              .         NO                            : ONE LINE PER DEPTH STEP
 DLM               .         SPACE                         : DELIMITING CHARACTER(SPACE TAB OR COMMA)
~Well Information
#_______________________________________________________________________________
#
#PARAMETER_NAME    .UNIT     VALUE                         : DESCRIPTION
#_______________________________________________________________________________
STRT               .M        2648.8                        : First reference value
STOP               .M        2755.39984                    : Last reference value
STEP               .M        0.1999997                     : Step increment
NULL               .         -9999                         : Missing value
COMP               .                                       : Company
WELL               .         616                           : Well name
FLD                .                                       : Field
LOC                .                                       : Location
CNTY               .                                       : County
STAT               .                                       : State
CTRY               .                                       : Country
SRVC               .                                       : Service Company
DATE               .                                       : Date
API                .                                       : API number
PROJECT_UPGRADE_TIME .         2021-03-18T21_24_50           : 
group              .         Good                          : 
~Parameter Information Block
#_______________________________________________________________________________
#
#PARAMETER_NAME    .UNIT     VALUE                         : DESCRIPTION
#_______________________________________________________________________________
SET                .         D7023_D                       : 
OTHER              .         Kedr.exe версия 2.1.2.32      : 
OTHER_10           .         TM.GRD = 0.00404*TM$.UE + 0.07: 
OTHER_11           .         MN.ATM = (6.33279e-006*TM.GRD + 0.02401)*(MN$.UE + 2.72*TM.GRD + -2018): 
OTHER_12           .         GK.MKR/H = GK$.UE / 43.5489 + 0: 
OTHER_13           .         RES.SM = 0.00476*CRES.UE - 1.51709: 
OTHER_14           .         PL.GSM3 = 0 + 0 * (PL.UE / 1) +  0 * (PL.UE / 1)^2: 
OTHER_15           .         Постоянная времени ГГП = 6 сек: 
OTHER_16           .         Постоянная времени ГК = 6 сек : 
OTHER_2            .         KedrData.dll версия 3.2.2.14  : 
OTHER_3            .         LasInf.dll версия 3.2.0.13    : 
OTHER_4            .         Драйвер версия 1.2.0.5        : 
OTHER_5            .         Прибор_ КСА-M1                : 
OTHER_6            .         Номер прибора_ 155+р204       : 
OTHER_7            .         Режим_ КСА-М1 + ГГП + Резистивиметр: 
OTHER_8            .         Форма_ 223\2                  : 
OTHER_9            .         Тарировки_                    : 
PROJECT_UPGRADE_TIME .         2021-03-18T21_24_50           : 
TLFamily_CRES      .                                       : 
TLFamily_DEPT      .         Measured Depth                : 
TLFamily_GK        .         Gamma Ray                     : 
TLFamily_GK$       .                                       : 
TLFamily_LM        .         Casing Collar locator         : 
TLFamily_METKA     .                                       : 
TLFamily_MN        .                                       : 
TLFamily_MN$       .                                       : 
TLFamily_PL        .                                       : 
TLFamily_PL_2      .                                       : 
TLFamily_RCOR      .                                       : 
TLFamily_RES       .         Mud Resistivity               : 
TLFamily_SPID      .         Spontaneous Potential         : 
TLFamily_STD       .                                       : 
TLFamily_TIME      .         Time                          : 
TLFamily_TM        .         Temperature                   : 
TLFamily_TM$       .         Temperature                   : 
TLFamily_VGD       .         Gas Volume                    : 
group              .         prim                          : 
~Curve Information
#_______________________________________________________________________________
#
#LOGNAME           .UNIT     LOG_ID                        : DESCRIPTION
#_______________________________________________________________________________
DEPT               .M                                      : 1 Глубина, м -    0.0 см 
CRES               .UE                                     : 9 Проводимость, усл.ед. -  222.0 см 
GK                 .MKR/H                                  : 16 Гамма-активность, мкр./ч -  106.0 см 
GK$                .UE                                     : 13 Гамма-активность, усл.ед. -  106.0 см 
LM                 .                                       : 11 Локатор муфт,  -   16.0 см 
METKA              .                                       : 3 Метки,  -    0.0 см 
MN                 .ATM                                    : 15 Давление, атм. -  160.0 см 
MN$                .UE                                     : 7 Давление, усл.ед. -  160.0 см 
PL                 .UE                                     : 10 Плотность, усл.ед. -  270.0 см 
PL_2               .GSM3                                   : 18 Плотность, г./см3 -  270.0 см 
RCOR               .CM/KM                                  : 5 Коррекция по ролику, см/км -    0.0 см 
RES                .SM                                     : 17 Проводимость,  -  222.0 см 
SPID               .M/H                                    : 2 Скорость, м/час -    0.0 см 
STD                .                                       : 12 Приток,  -  170.0 см 
TIME               .S                                      : 4 Время, сек -    0.0 см 
TM                 .GRD                                    : 14 Температура, °C -  180.0 см 
TM$                .UE                                     : 6 Температура, усл.ед. -  180.0 см 
VGD                .                                       : 8 Влагомер,  -  170.0 см 
~Ascii
# ...
2665.199975 1227       6.46       285        100        0          357.082    16531      13         0          0          4.3226     520        10696      14807.2    54.563     13488      6694      
2665.399975 1227       6.52       287        117        0          357.098    16532      14         0          0          4.3241     550        10697      14808.5    54.557     13487      6695      
2665.599975 1226       6.55       287        94         0          356.572    16510      13         0          0          4.318      580        10697      14809.79   54.553     13486      6694      
2665.799975 1224       6.48       277        123        0          355.583    16469      14         0          0          4.3108     580        10697      14811.06   54.548     13485      6695      
2665.999974 1224       6.42       277        89         0          355.644    16472      14         0          0          4.3076     522        10694      14812.4    54.539     13482      6694      
2666.199974 1224       6.68       303        98         0          355.643    16472      14         0          0          4.3091     580        10692      14813.64   54.529     13480      6692      
2666.399974 1223       6.81       303        122        0          355.813    16479      13         0          0          4.3068     510        10692      14814.98   54.523     13479      6697      
2666.599973 1223       6.98       313        117        0          357.42     16545      15         0          0          4.3051     580        10692      14816.25   54.523     13478      6698      
2666.799973 1222       7.08       313        91         0          355.657    16473      14         0          0          4.2989     580        10691      14817.58   54.518     13477      6695      
2666.999973 1225       6.71       275        95         0          356.309    16499      14         0          0          4.3139     580        10689      14818.83   54.513     13476      6695      
2667.199972 1224       6.55       283        105        0          358.036    16570      13         0          0          4.3092     510        10687      14820.17   54.509     13475      6697      
2667.399972 1225       6.65       294        101        0          357.802    16561      14         0          0          4.3131     510        10688      14821.5    54.501     13473      6695      
2667.599972 1221       6.75       305        90         0          358.291    16581      15         0          0          4.2942     510        10689      14822.77   54.493     13471      6695      
2667.799972 1222       6.9        307        83         0          358.283    16581      13         0          0          4.2996     545        10688      14824.09   54.488     13470      6695      
2667.999971 1221       6.92       296        95         0          358.623    16595      14         0          0          4.2925     580        10687      14825.37   54.485     13469      6695      
2668.199971 1220       6.69       281        73         0          358.21     16578      13         0          0          4.2909     510        10687      14826.69   54.481     13468      6696      
2668.399971 1221       6.54       273        96         0          358.684    16597      14         0          0          4.2949     568        10685      14827.96   54.477     13467      6696      
2668.59997 1223       6.41       273        83         0          358.079    16572      13         0          0          4.3028     545        10681      14829.28   54.469     13465      6697      
2668.79997 1220       6.5        300        104        0          356.925    16525      14         0          0          4.2901     580        10679      14830.61   54.461     13463      6697      
2668.99997 1222       6.7        300        90         0          356.531    16509      14         0          0          4.2996     580        10679      14831.88   54.456     13462      6698      
2669.199969 1221       6.95       320        76         0          356.866    16523      14         0          0          4.2949     580        10679      14833.19   54.448     13460      6698      
2669.399969 1223       7.14       320        82         0          356.045    16489      14         0          0          4.3044     545        10680      14834.46   54.444     13459      6698      
2669.599969 1223       7.27       324        87         0          355.648    16473      14         0          0          4.3044     580        10679      14835.75   54.44      13458      6699      
2669.799968 1223       7.35       324        148        0          355.804    16479      13         0          0          4.3036     580        10680      14837.06   54.436     13457      6697      
2669.999968 1221       7.51       338        160        0          355.872    16482      14         0          0          4.2957     580        10679      14838.33   54.432     13456      6697      
2670.199968 1217       7.63       338        87         1          357.3      16541      14         0          0          4.2751     568        10677      14840.2    54.42      13453      6697      
2670.399968 1220       7.47       314        4245       0          357.973    16568      14         0          0          4.2917     580        10675      14841.54   54.418     13452      6698      
2670.599967 1222       7.34       314        1647       0          358.426    16587      14         0          0          4.2989     545        10673      14842.85   54.409     13450      6696      
2670.799967 1221       7.19       303        411        0          359.109    16615      14         0          0          4.2964     557        10668      14844.12   54.396     13447      6697      
2670.999967 1221       7.08       303        111        0          358.462    16589      14         0          0          4.2925     580        10665      14845.39   54.387     13445      6694      
2671.199966 1219       7.8        366        103        0          358.738    16600      13         0          0          4.2869     568        10667      14846.73   54.378     13442      6697      
2671.399966 1220       8.21       388        89         0          359.945    16650      15         0          0          4.2901     580        10666      14848.01   54.373     13441      6698      
2671.599966 1220       8.56       388        161        0          359.431    16629      14         0          0          4.2909     560        10662      14849.33   54.368     13440      6698      
2671.799966 1221       8.76       392        133        0          355.697    16475      14         0          0          4.2928     580        10657      14850.64   54.351     13436      6697      
2671.999965 1224       8.87       392        105        0          356.648    16514      14         0          0          4.3076     580        10655      14851.91   54.343     13434      6698      
2672.199965 1222       8.99       402        155        0          357.555    16552      14         0          0          4.3012     545        10657      14853.23   54.339     13433      6698      
2672.399965 1222       9.11       402        141        0          358.325    16583      14         0          0          4.302      580        10657      14854.52   54.331     13431      6698      
2672.599964 1224       8.91       366        81         0          358.596    16595      14         0          0          4.3076     510        10659      14855.78   54.329     13430      6697      
2672.799964 1223       8.66       366        89         0          359.804    16644      14         0          0          4.3067     510        10659      14857.1    54.328     13430      6697      
2672.999964 1221       8.53       365        97         0          359.441    16629      14         0          0          4.2964     580        10657      14858.42   54.319     13428      6694      
2673.199963 1221       8.46       365        83         0          359.298    16623      14         0          0          4.2925     580        10657      14859.68   54.315     13427      6697      
