~Version
 VERS              .         2.0                           : CWLS LOG ASCII STANDARD - VERSION 2.0
 WRAP              .         NO                            : ONE LINE PER DEPTH STEP
 DLM               .         SPACE                         : DELIMITING CHARACTER(SPACE TAB OR COMMA)
~Well Information
#_______________________________________________________________________________
#
#PARAMETER_NAME    .UNIT     VALUE                         : DESCRIPTION
#_______________________________________________________________________________
STRT               .M        2667.4                        : First reference value
STOP               .M        2776.000109                   : Last reference value
STEP               .M        0.2000002                     : Step increment
NULL               .         -9999                         : Missing value
COMP               .                                       : Company
WELL               .         616                           : Well name
FLD                .                                       : Field
LOC                .                                       : Location
CNTY               .                                       : County
STAT               .                                       : State
CTRY               .                                       : Country
SRVC               .                                       : Service Company
DATE               .                                       : Date
API                .                                       : API number
PROJECT_UPGRADE_TIME .         2021-03-18T21_24_50           : 
group              .         Good                          : 
~Parameter Information Block
#_______________________________________________________________________________
#
#PARAMETER_NAME    .UNIT     VALUE                         : DESCRIPTION
#_______________________________________________________________________________
SET                .         D1801_D                       : 
OTHER              .         Программное обеспечение станции MONITOR-386EX 25/12/99 15_08_10   BGF V52 22/08/01 16_56_30   3.1_SNGF___BGF_N_092049: 
OTHER_10           .         Тарировки_                    : 
OTHER_11           .         TM.GRD = 0.00403*TM$.UE + -1.07: 
OTHER_12           .         MN.ATM = (9.34907e-006*TM.GRD + 0.02171)*(MN$.UE + -7.93*TM.GRD + -1787): 
OTHER_13           .         GK.MKR/H = LM. / 42.4676      : 
OTHER_14           .         GK.FLT = 0.1*GK.MKR/H[-1] + (1-0.1)*GK.MKR/H[0]: 
OTHER_2            .         Kedr.exe версия 3.4.2.51      : 
OTHER_3            .         KedrData.dll версия 3.4.2.24  : 
OTHER_4            .         Драйвер версия 2.1.1.3        : 
OTHER_5            .         Мнемоники версия 3.3 S        : 
OTHER_6            .         Прибор_ КСА-Т4                : 
OTHER_7            .         Номер прибора_ 03             : 
OTHER_8            .         Режим_ КСА-Т4                 : 
OTHER_9            .         Форма_ КВА.                   : 
PROJECT_UPGRADE_TIME .         2021-03-18T21_24_49           : 
TLFamily_DEPT      .         Measured Depth                : 
TLFamily_GK        .         Gamma Ray                     : 
TLFamily_GK$       .                                       : 
TLFamily_GK_2      .         Gamma Ray                     : 
TLFamily_LM        .         Casing Collar locator         : 
TLFamily_METKA     .                                       : 
TLFamily_MN        .                                       : 
TLFamily_MN$       .                                       : 
TLFamily_RCOR      .                                       : 
TLFamily_SPID      .         Spontaneous Potential         : 
TLFamily_TENS      .         Cable Tension                 : 
TLFamily_TIME      .         Time                          : 
TLFamily_TM        .         Temperature                   : 
TLFamily_TM$       .         Temperature                   : 
group              .         prim                          : 
~Curve Information
#_______________________________________________________________________________
#
#LOGNAME           .UNIT     LOG_ID                        : DESCRIPTION
#_______________________________________________________________________________
DEPT               .M                                      : 1 Глубина, м -    0.0 см 
GK                 .MKR/H                                  : 13 Гамма-активность, мкр./ч -  110.0 см 
GK$                .UE                                     : 10 Гамма-активность, усл.ед. -  110.0 см 
GK_2               .FLT                                    : 14 Гамма-активность фильтрованная, мкр./ч -  110.0 см 
LM                 .                                       : 9 Локатор муфт,  -   20.0 см 
METKA              .                                       : 3 Метки,  -    0.0 см 
MN                 .ATM                                    : 12 Давление, атм. -  160.0 см 
MN$                .UE                                     : 8 Давление, усл.ед. -  160.0 см 
RCOR               .CM/KM                                  : 5 Коррекция по ролику, см/км -    0.0 см 
SPID               .M/H                                    : 2 Скорость, м/час -    0.0 см 
TENS               .T                                      : 6 Натяжение кабеля, т -    0.0 см 
TIME               .S                                      : 4 Время, сек -    0.0 см 
TM                 .GRD                                    : 11 Температура, °C -  170.0 см 
TM$                .UE                                     : 7 Температура, усл.ед. -  170.0 см 
~Ascii
# ...
2729.800062 10.62      451        10.62      83         0          250.142    13447      -636       579        0.07       8125.07    45.069     11449     
2730.000063 11.21      476        11.15      249        2          250.09     13445      -636       580        0.07       8126.24    45.069     11449     
2730.200063 11.21      476        11.21      264        0          250.174    13449      -642       568        0.05       8127.88    45.08      11452     
2730.400063 10.2       433        10.32      351        0          250.202    13450      -642       571        0.05       8129.07    45.09      11454     
2730.600063 10.2       433        10.2       223        0          250.205    13450      -642       574        0.05       8130.31    45.106     11458     
2730.800063 8.05       342        8.19       281        0          250.237    13451      -642       579        0.05       8131.56    45.121     11462     
2731.000064 8.05       342        8.06       282        0          250.266    13453      -642       589        0.05       8132.8     45.131     11464     
2731.200064 6.62       281        6.67       154        0          250.27     13453      -642       580        0.07       8134.11    45.138     11466     
2731.400064 6.62       281        6.62       197        0          250.283    13454      -642       580        0.07       8135.34    45.142     11467     
2731.600064 6.5        276        6.51       369        0          250.291    13454      -642       576        0.07       8136.56    45.146     11468     
2731.800064 6.44       274        6.46       235        0          250.316    13455      -642       567        0.07       8137.77    45.15      11469     
2732.000065 6.33       269        6.34       1373       0          250.357    13457      -642       574        0.07       8139.02    45.157     11471     
2732.200065 6.44       274        6.4        559        0          250.379    13458      -642       576        0.07       8140.21    45.162     11472     
2732.400065 6.97       296        6.95       242        0          250.379    13458      -642       577        0.07       8141.44    45.162     11472     
2732.600065 6.97       296        6.97       1676       0          250.402    13459      -642       581        0.07       8142.75    45.155     11470     
2732.800065 7.79       331        7.75       466        0          250.42     13460      -642       581        0.07       8143.98    45.149     11469     
2733.000066 7.79       331        7.79       176        0          250.447    13461      -642       581        0.07       8145.23    45.138     11466     
2733.200066 7.77       330        7.77       172        0          250.479    13462      -642       580        0.07       8146.42    45.127     11463     
2733.400066 7.77       330        7.77       196        0          250.494    13463      -642       578        0.07       8147.66    45.114     11460     
2733.600066 7.51       319        7.52       177        0          250.495    13463      -642       579        0.07       8148.9     45.096     11456     
2733.800066 7.51       319        7.51       237        0          250.54     13465      -642       579        0.07       8150.14    45.083     11452     
2734.000067 7.56       321        7.56       209        0          250.552    13466      -642       579        0.07       8151.33    45.07      11449     
2734.200067 7.56       321        7.56       247        0          250.564    13466      -642       575        0.07       8152.66    45.061     11447     
2734.400067 7.75       329        7.73       271        0          250.588    13467      -642       579        0.07       8153.88    45.041     11442     
2734.600067 7.75       329        7.75       176        0          250.606    13468      -642       589        0.07       8155.11    44.997     11431     
2734.800067 7.63       324        7.63       212        0          95.623     6464       -642       586        0.07       8156.36    44.955     11421     
2735.000068 7.63       324        7.63       245        0          250.659    13470      -642       584        0.07       8157.59    44.957     11421     
2735.200068 7.84       333        7.83       177        0          250.682    13471      -642       593        0.07       8158.83    44.953     11420     
2735.400068 7.84       333        7.84       345        0          250.701    13472      -642       596        0.07       8160.05    44.941     11417     
2735.600068 8.17       347        8.14       185        0          250.727    13473      -642       591        0.07       8161.27    44.932     11415     
2735.800068 8.17       347        8.17       163        0          250.727    13473      -642       581        0.07       8162.56    44.928     11414     
2736.000069 8.92       379        8.89       181        0          250.749    13474      -642       581        0.07       8163.79    44.924     11413     
2736.200069 8.92       379        8.92       166        0          250.772    13475      -642       581        0.07       8165       44.922     11413     
2736.400069 9.37       398        9.34       156        0          250.794    13476      -642       579        0.07       8166.23    44.917     11411     
2736.600069 9.37       398        9.37       187        0          250.817    13477      -642       579        0.07       8167.47    44.913     11410     
2736.800069 8.74       371        8.8        200        0          250.839    13478      -642       579        0.07       8168.73    44.912     11410     
2737.00007 8.74       371        8.74       4704       0          250.861    13479      -642       591        0.07       8169.97    44.911     11410     
2737.20007 7.35       312        7.41       1899       0          250.883    13480      -642       579        0.07       8171.17    44.912     11410     
2737.40007 7.35       312        7.35       523        0          250.906    13481      -642       575        0.07       8172.46    44.908     11409     
2737.60007 7.06       300        7.09       165        0          250.906    13481      -642       577        0.07       8173.7     44.908     11409     
2737.80007 7.06       300        7.06       171        0          250.928    13482      -642       578        0.06       8174.95    44.904     11408     
2738.000071 7.86       334        7.78       126        0          250.95     13483      -642       581        0.06       8176.13    44.907     11409     
2738.200071 7.86       334        7.86       124        0          250.979    13484      -642       577        0.07       8177.38    44.908     11409     
2738.400071 7.51       319        7.56       145        0          251.009    13486      -642       578        0.07       8178.61    44.908     11409     
2738.600071 7.51       319        7.51       130        0          251.016    13486      -642       579        0.07       8179.86    44.908     11409     
2738.800071 7.23       307        7.25       141        0          251.038    13487      -642       579        0.07       8181.15    44.907     11409     
2739.000072 7.23       307        7.23       232        0          251.051    13488      -642       583        0.07       8182.41    44.922     11412     
2739.200072 8.15       346        8.05       174        0          251.078    13489      -642       589        0.07       8183.6     44.953     11420     
2739.400072 8.15       346        8.14       173        0          251.09     13490      -642       586        0.07       8184.84    44.985     11428     
2739.600072 8.17       347        8.17       138        0          251.118    13491      -642       584        0.07       8186.06    45.025     11438     
2739.800072 8.17       347        8.17       183        0          251.133    13492      -642       585        0.07       8187.31    45.061     11447     
2740.000073 7.7        327        7.74       188        2          251.155    13493      -642       581        0.07       8188.5     45.11      11459     
