~Version
 VERS              .         2.0                           : CWLS LOG ASCII STANDARD - VERSION 2.0
 WRAP              .         NO                            : ONE LINE PER DEPTH STEP
 DLM               .         SPACE                         : DELIMITING CHARACTER(SPACE TAB OR COMMA)
~Well Information
#_______________________________________________________________________________
#
#PARAMETER_NAME    .UNIT     VALUE                         : DESCRIPTION
#_______________________________________________________________________________
STRT               .M        2654.8                        : First reference value
STOP               .M        2761.6                        : Last reference value
STEP               .M        0.2000001                     : Step increment
NULL               .         -9999                         : Missing value
COMP               .                                       : Company
WELL               .         616                           : Well name
FLD                .                                       : Field
LOC                .                                       : Location
CNTY               .                                       : County
STAT               .                                       : State
CTRY               .                                       : Country
SRVC               .                                       : Service Company
DATE               .                                       : Date
API                .                                       : API number
PROJECT_UPGRADE_TIME .         2021-03-18T21_24_50           : 
group              .         Good                          : 
~Parameter Information Block
#_______________________________________________________________________________
#
#PARAMETER_NAME    .UNIT     VALUE                         : DESCRIPTION
#_______________________________________________________________________________
SET                .         D8107_D                       : 
OTHER              .         Программное обеспечение станции MONITOR-386EX 25/12/99 15_08_10   BGF V52 22/08/01 16_56_30   4_SNGF_BGF_N_011645: 
OTHER_10           .         Тарировки_                    : 
OTHER_11           .         TM.GRD = 0.00412*TM$.UE + -2.13: 
OTHER_12           .         MN.ATM = (5.87652e-006*TM.GRD + 0.01993)*(MN$.UE + -2.72*TM.GRD + -1925): 
OTHER_13           .         GK.MKR/H = GK$.UE / 57.4657   : 
OTHER_2            .         Kedr.exe версия 3.4.2.51      : 
OTHER_3            .         KedrData.dll версия 3.4.2.24  : 
OTHER_4            .         Драйвер версия 2.1.0.2        : 
OTHER_5            .         Мнемоники версия 3.3 S        : 
OTHER_6            .         Прибор_ АКП4-90               : 
OTHER_7            .         Номер прибора_ 53             : 
OTHER_8            .         Режим_ АКП4_90                : 
OTHER_9            .         Форма_ ПК-53ое                : 
PROJECT_UPGRADE_TIME .         2021-03-18T21_24_50           : 
TLFamily_DEPT      .         Measured Depth                : 
TLFamily_GK        .         Gamma Ray                     : 
TLFamily_GK$       .                                       : 
TLFamily_LM        .         Casing Collar locator         : 
TLFamily_METKA     .                                       : 
TLFamily_METKA_1   .                                       : 
TLFamily_MN        .                                       : 
TLFamily_MN$       .                                       : 
TLFamily_RCOR      .                                       : 
TLFamily_SPID      .         Spontaneous Potential         : 
TLFamily_TENS      .         Cable Tension                 : 
TLFamily_TIME      .         Time                          : 
TLFamily_TM        .         Temperature                   : 
TLFamily_TM$       .         Temperature                   : 
group              .         prim                          : 
~Curve Information
#_______________________________________________________________________________
#
#LOGNAME           .UNIT     LOG_ID                        : DESCRIPTION
#_______________________________________________________________________________
DEPT               .M                                      : 1 Глубина, м -    0.0 см 
GK                 .MKR/H                                  : 13 Гамма-активность, мкр./ч -   65.0 см 
GK$                .UE                                     : 10 Гамма-активность, усл.ед. -   65.0 см 
LM                 .                                       : 9 Локатор муфт,  -   30.0 см 
METKA              .                                       : 3 Метки,  -    0.0 см 
METKA_1            .                                       : 14 Маркеры - 65 см 
MN                 .ATM                                    : 12 Давление, атм. -  140.0 см 
MN$                .UE                                     : 8 Давление, усл.ед. -  140.0 см 
RCOR               .CM/KM                                  : 5 Коррекция по ролику, см/км -    0.0 см 
SPID               .M/H                                    : 2 Скорость, м/час -    0.0 см 
TENS               .T                                      : 6 Натяжение кабеля, т -    0.0 см 
TIME               .S                                      : 4 Время, сек -    0.0 см 
TM                 .GRD                                    : 11 Температура, °C -  145.0 см 
TM$                .UE                                     : 7 Температура, усл.ед. -  145.0 см 
~Ascii
# ...
2665.2     4.53       261        379        0          0          243.92     14164      -24        -619       1.03       15750.96   64.087     16072     
2665.4     4.63       266        195        0          0          243.906    14163      -24        -627       1.05       15749.83   64.064     16066     
2665.6     4.58       263        273        0          0          243.923    14164      -24        -622       1.05       15748.68   64.009     16053     
2665.8     4.54       261        419        0          0          243.983    14167      -24        -615       1.03       15747.5    63.961     16041     
2666       4.56       262        171        0          0          243.966    14166      -24        -627       1.03       15746.37   63.923     16032     
2666.2     4.63       266        373        0          0          244.003    14168      -24        -623       1.05       15745.22   63.856     16016     
2666.4     4.7        270        523        0          0          244.023    14169      -24        -618       1.05       15744.04   63.803     16003     
2666.6     4.96       285        198        0          0          244.023    14169      -24        -623       1.04       15742.89   63.765     15994     
2666.8     4.92       283        321        0          0          244.063    14171      -24        -619       1.05       15741.76   63.7       15978     
2667       4.49       258        367        0          0          244.043    14170      -24        -627       1.05       15740.59   63.658     15968     
2667.2     4.49       258        289        0          0          244.052    14170      -24        -627       1.05       15739.42   63.61      15956     
2667.4     4.55       262        526        0          0          244.088    14172      -24        -622       1.05       15738.32   63.55      15942     
2667.6     4.59       264        447        0          0          244.123    14174      -24        -630       1.05       15737.16   63.512     15932     
2667.8     4.86       279        322        0          0          244.142    14175      -24        -626       1.05       15736      63.436     15914     
2668       4.91       282        621        0          0          244.182    14177      -24        -625       1.03       15734.86   63.377     15900     
2668.2     4.72       271        360        0          0          244.182    14177      -24        -627       1.03       15733.69   63.346     15892     
2668.4     4.25       244        289        0          0          244.2      14178      -24        -625       1.03       15732.56   63.274     15875     
2668.6     4.23       243        393        0          0          244.252    14180      -24        -620       1.03       15731.41   63.221     15862     
2668.8     4.2        241        729        0          0          244.231    14179      -24        -628       1.03       15730.22   63.175     15851     
2669       4.23       243        317        0          0          244.292    14183      -24        -623       1.05       15729.09   63.123     15838     
2669.2     4.53       260        447        0          0          244.31     14183      -24        -632       1.03       15727.95   63.083     15828     
2669.4     4.55       262        212        0          0          244.293    14183      -24        -629       1.03       15726.76   63.02      15813     
2669.6     5.1        293        731        0          0          244.368    14186      -24        -631       1.03       15725.68   62.952     15797     
2669.8     5.12       294        227        2          0          244.348    14185      -24        -628       1.03       15724.55   62.907     15786     
2670       5.52       317        253        0          0          244.376    14187      -21        -623       1.04       15723.17   62.818     15764     
2670.2     5.51       317        516        0          0          244.422    14189      -21        -619       1.03       15722.04   62.735     15744     
2670.4     5.4        310        640        0          0          244.405    14188      -21        -631       1.03       15720.87   62.694     15734     
2670.6     5.26       302        467        0          0          244.456    14191      -21        -627       1.05       15719.74   62.601     15711     
2670.8     5.28       303        676        0          0          244.501    14193      -21        -627       1.03       15718.57   62.564     15702     
2671       5.33       306        1301       0          0          244.461    14191      -21        -625       1.03       15717.41   62.513     15690     
2671.2     5.45       313        4695       0          0          244.535    14195      -21        -619       1.03       15716.29   62.449     15674     
2671.4     5.69       327        18160      0          0          244.531    14194      -21        -626       1.03       15715.15   62.393     15661     
2671.6     5.71       328        2079       0          0          244.551    14196      -21        -626       1.05       15713.96   62.31      15641     
2671.8     5.84       336        552        0          0          244.581    14197      -21        -623       1.04       15712.82   62.248     15626     
2672       5.79       333        730        0          0          244.57     14196      -21        -624       1.03       15711.65   62.184     15610     
2672.2     5.36       308        241        0          0          244.601    14198      -21        -619       1.03       15710.51   62.124     15596     
2672.4     5.36       308        401        0          0          244.587    14197      -21        -624       1.03       15709.37   62.088     15587     
2672.6     5.34       307        324        0          0          244.601    14198      -21        -632       1.05       15708.23   62.019     15570     
2672.8     5.37       309        864        0          0          244.644    14200      -21        -630       1.05       15707.1    61.951     15554     
2673       5.88       338        1154       0          0          244.701    14203      -21        -626       1.05       15705.9    61.903     15542     
2673.2     5.87       338        257        0          0          244.689    14202      -21        -628       1.05       15704.77   61.816     15521     
2673.4     5.74       330        462        0          0          244.74     14205      -21        -624       1.03       15703.64   61.742     15503     
2673.6     5.57       320        340        0          0          244.724    14204      -21        -626       1.03       15702.44   61.693     15491     
2673.8     5.64       324        387        0          0          244.74     14205      -21        -622       1.05       15701.31   61.628     15475     
2674       5.92       340        791        0          0          244.817    14209      -21        -622       1.05       15700.17   61.593     15467     
2674.2     6.01       345        394        0          0          244.78     14207      -21        -623       1.05       15699.04   61.535     15453     
2674.4     6.33       364        599        0          0          244.82     14209      -21        -616       1.05       15697.86   61.433     15428     
2674.6     6.28       361        364        0          0          244.86     14211      -21        -617       1.04       15696.72   61.379     15415     
2674.8     5.6        322        348        0          0          244.82     14209      -21        -623       1.04       15695.54   61.297     15395     
2675       5.59       322        875        0          0          244.903    14213      -21        -622       1.05       15694.4    61.214     15375     
2675.2     5.52       317        1436       0          0          244.916    14214      -21        -625       1.05       15693.26   61.157     15361     
2675.4     5.53       318        1728       0          0          244.923    14214      -21        -623       1.05       15692.1    61.062     15338     
