~Version
 VERS              .         2.0                           : CWLS LOG ASCII STANDARD - VERSION 2.0
 WRAP              .         NO                            : ONE LINE PER DEPTH STEP
 DLM               .         SPACE                         : DELIMITING CHARACTER(SPACE TAB OR COMMA)
~Well Information
#_______________________________________________________________________________
#
#PARAMETER_NAME    .UNIT     VALUE                         : DESCRIPTION
#_______________________________________________________________________________
STRT               .M        1740.47                       : First reference value
STOP               .M        2787.78                       : Last reference value
STEP               .M        0                             : Step increment
NULL               .         -9999                         : Missing value
COMP               .                                       : Company
WELL               .         616                           : Well name
FLD                .                                       : Field
LOC                .                                       : Location
CNTY               .                                       : County
STAT               .                                       : State
CTRY               .                                       : Country
SRVC               .                                       : Service Company
DATE               .                                       : Date
API                .                                       : API number
PROJECT_UPGRADE_TIME .         2021-03-18T21_24_50           : 
group              .         Good                          : 
~Parameter Information Block
#_______________________________________________________________________________
#
#PARAMETER_NAME    .UNIT     VALUE                         : DESCRIPTION
#_______________________________________________________________________________
SET                .         D2664                         : 
NPR                .         980607                        : ЗАВ НОМЕР ПРИБОРА
NPRT               .         Мещеряков                     : НАЧ ПАРТИИ
PROJECT_UPGRADE_TIME .         2021-03-18T21_24_50           : 
TLFamily_AZIMUTH   .         True Dip Azimuth              : 
TLFamily_DEPTH     .         Measured Depth                : 
TLFamily_DRILL     .                                       : 
TLFamily_METKA     .                                       : 
TLFamily_ZENIT     .                                       : 
group              .         prim                          : 
~Curve Information
#_______________________________________________________________________________
#
#LOGNAME           .UNIT     LOG_ID                        : DESCRIPTION
#_______________________________________________________________________________
DEPTH              .M                                      : 1 ГЛУБИНА 
AZIMUTH            .ГРАД                                   : 4 АЗИМУТ 
DRILL              .ГРАД                                   : 2 ПОВОРОТ 
METKA              .                                       : 5 МАГН МЕТКА 
ZENIT              .ГРАД                                   : 3 ЗЕНИТ 
~Ascii
# ...
2011.98    257.72     15.22      0          16.54     
2012.36    257.66     15.43      0          16.54     
2012.75    257.65     15.71      0          16.54     
2013.13    257.6      16         0          16.54     
2013.52    257.62     16.28      0          16.54     
2013.9     257.63     16.51      0          16.55     
2014.29    257.63     16.71      0          16.55     
2014.67    257.59     16.93      0          16.56     
2015.05    257.56     17.16      0          16.55     
2015.44    257.64     17.33      0          16.57     
2015.82    257.61     17.44      0          16.57     
2016.21    257.58     17.63      0          16.57     
2016.59    257.59     17.91      0          16.57     
2016.98    257.59     18.2       0          16.57     
2017.36    257.55     18.5       0          16.57     
2017.74    257.5      18.82      0          16.56     
2018.13    257.47     19.2       0          16.56     
2018.51    257.46     19.61      0          16.57     
2018.9     257.39     20.01      0          16.56     
2019.28    257.35     20.4       0          16.56     
2019.67    257.38     20.74      0          16.56     
2020.05    257.38     21.06      0          16.56     
2020.43    257.39     21.36      0          16.56     
2020.82    257.36     21.64      0          16.56     
2021.01    257.38     21.78      0          16.57     
2021.2     257.38     21.87      0          16.58     
2021.39    257.41     21.92      0          16.59     
2021.77    257.35     23.3       0          16.59     
2022.16    257.35     24.86      0          16.59     
2022.54    257.3      26.63      0          16.58     
2022.93    257.12     28.54      0          16.55     
2023.31    257.1      30.47      0          16.54     
2023.7     257.07     32.4       0          16.53     
2024.08    257.06     34.37      0          16.54     
2024.47    257.01     36.37      0          16.53     
2024.85    256.97     38.39      0          16.52     
2025.23    256.91     40.48      0          16.52     
2025.62    256.89     42.65      0          16.51     
2026       256.83     44.88      0          16.5      
2026.39    256.79     47.24      0          16.49     
2026.77    256.76     49.69      0          16.49     
2027.16    256.7      52.21      0          16.48     
2027.54    256.7      54.76      0          16.47     
2027.92    256.68     57.33      0          16.47     
2028.31    256.67     59.9       0          16.46     
2028.69    256.66     62.5       0          16.46     
2029.08    256.62     65.13      0          16.45     
2029.46    256.61     67.76      0          16.44     
2029.85    256.59     70.38      0          16.43     
2030.23    256.6      72.95      0          16.42     
2030.61    256.58     75.48      0          16.42     
2031       256.54     77.92      0          16.41     
2031.38    256.51     80.28      0          16.4      
2031.77    256.49     82.57      0          16.39     
2032.15    256.5      84.79      0          16.39     
2032.54    256.47     86.93      0          16.38     
2032.92    256.43     89         0          16.37     
2033.11    256.43     90         0          16.37     
2033.3     256.43     90.93      0          16.37     
2033.49    256.44     91.72      0          16.36     
2033.87    256.58     92.87      0          16.38     
2034.26    256.56     93.94      0          16.37     
2034.64    256.57     94.97      0          16.35     
2035.02    256.51     95.97      0          16.33     
2035.41    256.49     96.98      0          16.33     
2035.79    256.49     98.06      0          16.32     
2036.18    256.5      99.15      0          16.31     
2036.56    256.5      100.19     0          16.3      
2036.95    256.53     101.16     0          16.3      
2037.33    256.52     102.04     0          16.3      
2037.72    256.49     102.85     0          16.29     
2038.1     256.48     103.61     0          16.28     
2038.49    256.4      104.34     0          16.27     
2038.87    256.38     105.06     0          16.27     
2039.26    256.36     105.82     0          16.26     
2039.64    256.33     106.55     0          16.26     
2040.03    256.33     107.22     0          16.26     
2040.41    256.29     107.8      0          16.26     
2040.8     256.28     108.33     0          16.26     
2041.18    256.23     108.87     0          16.25     
2041.57    256.18     109.47     0          16.24     
2041.95    256.16     110.12     0          16.24     
2042.34    256.13     110.8      0          16.24     
2042.72    256.1      111.52     0          16.23     
2043.11    256.06     112.24     0          16.22     
2043.49    256.02     112.94     0          16.22     
2043.88    255.98     113.59     0          16.21     
2044.26    255.95     114.25     0          16.2      
2044.65    255.97     114.96     0          16.19     
2045.03    255.93     115.7      0          16.19     
2045.22    255.89     115.95     0          16.19     
2045.41    255.9      116.22     0          16.19     
2045.6     255.9      116.5      0          16.2      
2045.98    255.91     117.42     0          16.2      
2046.37    255.91     118.33     0          16.19     
2046.75    255.85     119.15     0          16.19     
2047.14    255.85     119.89     0          16.18     
2047.52    255.8      120.62     0          16.16     
2047.91    255.8      121.34     0          16.16     
2048.29    255.76     122.08     0          16.16     
2048.68    255.77     122.81     0          16.16     
2049.06    255.79     123.48     0          16.16     
2049.44    255.79     124.09     0          16.16     
2049.83    255.71     124.64     0          16.16     
2050.21    255.7      125.2      0          16.15     
2050.6     255.67     125.83     0          16.14     
2050.98    255.64     126.59     0          16.14     
2051.37    255.61     127.47     0          16.13     
2051.75    255.59     128.43     0          16.13     
2052.14    255.59     129.39     0          16.13     
2052.52    255.58     130.28     0          16.13     
2052.91    255.55     131.12     0          16.13     
2053.29    255.56     131.95     0          16.13     
2053.68    255.55     132.78     0          16.13     
2054.06    255.52     133.63     0          16.12     
2054.45    255.54     134.47     0          16.12     
2054.83    255.56     135.29     0          16.13     
2055.22    255.54     136.02     0          16.12     
2055.6     255.49     136.66     0          16.13     
2055.98    255.45     137.27     0          16.13     
2056.37    255.42     137.93     0          16.13     
2056.76    255.39     138.68     0          16.12     
2057.14    255.36     139.49     0          16.11     
2057.33    255.37     139.68     0          16.13     
2057.52    255.34     139.86     0          16.13     
2057.71    255.35     140.06     0          16.14     
2058.09    255.31     140.24     0          16.12     
2058.48    255.32     140.48     0          16.12     
2058.86    255.3      140.72     0          16.11     
2059.24    255.29     140.93     0          16.09     
2059.63    255.25     141.15     0          16.07     
2060.02    255.42     141.33     0          16.09     
2060.4     255.37     141.48     0          16.07     
2060.78    255.4      141.64     0          16.06     
2061.17    255.38     141.78     0          16.05     
2061.55    255.4      141.88     0          16.04     
2061.94    255.41     141.88     0          16.03     
2062.32    255.41     141.77     0          16.01     
2062.71    255.38     141.62     0          15.99     
2063.09    255.38     141.48     0          15.98     
2063.48    255.35     141.39     0          15.96     
2063.86    255.34     141.35     0          15.94     
2064.25    255.31     141.3      0          15.93     
2064.63    255.32     141.27     0          15.91     
2065.01    255.34     141.23     0          15.9      
2065.4     255.32     141.21     0          15.88     
