~Version
 VERS              .         2.0                           : CWLS LOG ASCII STANDARD - VERSION 2.0
 WRAP              .         NO                            : ONE LINE PER DEPTH STEP
 DLM               .         SPACE                         : DELIMITING CHARACTER(SPACE TAB OR COMMA)
~Well Information
#_______________________________________________________________________________
#
#PARAMETER_NAME    .UNIT     VALUE                         : DESCRIPTION
#_______________________________________________________________________________
STRT               .M        1149                          : First reference value
STOP               .M        2127.4                        : Last reference value
STEP               .M        0.2                           : Step increment
NULL               .         -9999                         : Missing value
COMP               .                                       : Company
WELL               .         616                           : Well name
FLD                .                                       : Field
LOC                .                                       : Location
CNTY               .                                       : County
STAT               .                                       : State
CTRY               .                                       : Country
SRVC               .                                       : Service Company
DATE               .                                       : Date
API                .                                       : API number
PROJECT_UPGRADE_TIME .         2021-03-18T21_24_50           : 
group              .         Good                          : 
~Parameter Information Block
#_______________________________________________________________________________
#
#PARAMETER_NAME    .UNIT     VALUE                         : DESCRIPTION
#_______________________________________________________________________________
SET                .         616_9                         : 
CONF               .         00                            : 
END                .         0                             : 
ERR                .         0                             : 
GS00               .M        2125.46                       : 
GS01               .M        1146.68                       : 
MM00               .M        2120.00                       : 
NOKG               .         0                             : 
NPR                .         990907                        : 
PART               .         Ивашин                        : 
PROJECT_UPGRADE_TIME .         2021-03-18T21_24_49           : 
PRZK               .         Шакиров                       : 
TLFamily_AZIMUTH   .         True Dip Azimuth              : 
TLFamily_DEPTH     .         Measured Depth                : 
TLFamily_METKA     .                                       : 
TLFamily_ROLL      .                                       : 
TLFamily_SPEED     .         Spontaneous Potential         : 
TLFamily_ZENIT     .                                       : 
VPRG               .         310                           : 
WAY                .         UP                            : 
group              .         prim                          : 
~Curve Information
#_______________________________________________________________________________
#
#LOGNAME           .UNIT     LOG_ID                        : DESCRIPTION
#_______________________________________________________________________________
DEPTH              .M                                      :  
AZIMUTH            .DEG                                    :  
METKA              .                                       :  
ROLL               .DEG                                    :  
SPEED              .M/H                                    :  
ZENIT              .DEG                                    :  
~Ascii
# ...
1978.6     49.9       0          33.37      648        17        
1978.8     7.24       0          32.35      612        17.14     
1979       285.41     0          31.36      648        16.77     
1979.2     7.73       0          31.21      612        16.8      
1979.4     189.32     0          31.03      648        16.75     
1979.6     167.74     0          31.14      648        16.72     
1979.8     14.71      0          31.56      612        16.8      
1980       259.22     0          32.73      648        16.72     
1980.2     144.51     0          34.33      612        16.66     
1980.4     123.64     0          36.31      648        16.7      
1980.6     104.47     0          37.2       612        16.73     
1980.8     75.16      0          36.71      648        16.79     
1981       108.94     0          36.3       612        16.65     
1981.2     163.37     0          36.45      648        16.79     
1981.4     92.17      0          35.89      612        16.77     
1981.6     140.45     0          35.37      648        16.77     
1981.8     173.84     0          35.25      612        16.78     
1982       148.99     0          35.18      648        16.68     
1982.2     161.17     1          36.01      612        16.71     
1982.4     152.96     0          37.18      612        16.68     
1982.6     221.2      0          36.45      648        16.67     
1982.8     159.85     0          36.1       648        16.69     
1983       44.45      0          36.4       612        16.78     
1983.2     184.76     0          36.4       648        16.67     
1983.4     87.83      0          36.4       612        16.61     
1983.6     92.06      0          37.35      648        16.65     
1983.8     158.36     0          39.08      612        16.62     
1984       296.39     0          40.8       648        16.64     
1984.2     142.75     0          42.2       648        16.71     
1984.4     109.93     0          42.63      612        16.55     
1984.6     181.28     0          43.1       648        16.65     
1984.8     205.37     0          44.46      648        16.64     
1985       234.15     0          46.1       612        16.63     
1985.2     194.85     0          46.84      648        16.68     
1985.4     233.19     0          46.28      612        16.71     
1985.6     207.65     0          44.48      648        16.69     
1985.8     255.99     0          41.97      648        16.81     
1986       242.22     0          38.66      612        16.77     
1986.2     291.89     0          36.02      648        16.69     
1986.4     143.15     0          35.39      612        16.69     
1986.6     346.21     0          34.97      648        16.72     
1986.8     242.74     0          35.44      648        16.63     
1987       143.34     0          37.11      612        16.86     
1987.2     170.62     0          36.32      648        16.6      
1987.4     153.87     0          35.72      648        16.96     
1987.6     1.54       0          37.35      612        16.98     
1987.8     8.5        0          39.29      648        16.99     
1988       358.62     0          40.99      612        17.09     
1988.2     353.4      0          42.04      648        17.12     
1988.4     35.2       0          42.27      612        17.26     
1988.6     345.68     0          41.83      612        17.28     
1988.8     349.25     0          41.77      648        17.43     
1989       336.8      0          41.68      612        17.03     
1989.2     350.95     0          40.76      648        16.66     
1989.4     355.99     0          39.25      612        16.48     
1989.6     332.04     0          38         648        16.53     
1989.8     344.18     0          36.21      648        16.4      
1990       310.12     0          34.52      648        16.2      
1990.2     280.07     0          34.56      612        16.26     
1990.4     316.2      0          35.31      648        16.43     
1990.6     290.1      0          35.03      612        16.9      
1990.8     295.54     0          32.43      648        16.74     
1991       277.34     0          30.39      612        16.61     
1991.2     325.87     0          29.76      648        16.53     
1991.4     317.55     0          29.88      648        16.56     
1991.6     333.95     0          30.41      612        16.54     
1991.8     332.12     0          31.57      648        16.57     
1992       314.92     0          33.29      612        16.58     
1992.2     314.07     1          34.96      648        16.5      
1992.4     279.41     0          38.44      648        16.61     
1992.6     302        0          39.65      612        16.55     
1992.8     302.39     0          39.7       648        16.59     
1993       354.73     0          39.5       612        16.5      
1993.2     270.6      0          39.87      612        16.69     
1993.4     244.86     0          38.89      648        16.53     
1993.6     315.09     0          36.66      648        16.58     
1993.8     159.34     0          34.75      612        16.66     
1994       344.2      0          33.81      648        16.58     
1994.2     210.95     0          33.7       612        16.6      
1994.4     80.16      0          34.12      648        16.57     
1994.6     254.3      0          34.77      648        16.58     
1994.8     212.43     0          35.16      648        16.71     
1995       331.82     0          36.11      612        16.63     
1995.2     192.14     0          37.06      612        16.63     
1995.4     197.39     0          37.5       648        16.62     
1995.6     223.08     0          37.92      612        16.65     
1995.8     125.2      0          37.82      648        16.69     
1996       274.69     0          37.19      648        16.59     
1996.2     134.86     0          38         648        16.64     
1996.4     355.56     0          40.87      612        16.52     
1996.6     214.89     0          43.78      648        16.62     
1996.8     232.3      0          44.79      612        16.63     
1997       275.58     0          45.04      648        16.61     
1997.2     46.56      0          45.03      612        16.71     
1997.4     312.74     0          45.03      648        16.72     
1997.6     67.03      0          44.64      648        16.7      
1997.8     37.05      0          43.54      612        16.73     
1998       33.56      0          42.56      648        16.67     
1998.2     27.31      0          41.1       648        16.72     
1998.4     344.65     0          39.46      648        16.71     
1998.6     0.53       0          39.31      612        16.67     
1998.8     160.58     0          40.25      648        16.75     
1999       333.96     0          41.71      648        16.69     
1999.2     180        0          43.25      612        16.65     
1999.4     133.13     0          43.17      648        16.58     
1999.6     15.78      0          43.73      612        16.81     
1999.8     6.53       0          45.45      648        16.88     
2000       29.1       0          47.31      612        16.85     
2000.2     3.39       0          50.45      648        17.05     
2000.4     355.69     0          51.85      648        17.03     
2000.6     23.89      0          52.15      612        17.01     
2000.8     180        0          50.59      612        17.16     
2001       252.35     0          48.25      648        16.94     
2001.2     0.14       0          46.3       612        16.88     
2001.4     356.06     0          43.89      648        16.73     
2001.6     352.2      0          41.56      612        16.48     
2001.8     317.71     0          40.45      612        16.39     
2002       31.74      0          40.09      432        16.21     
2002.2     22.35      1          39.14      396        16.36     
2002.4     341.77     0          37.92      648        16.35     
2002.6     12.69      0          38.68      648        16.92     
2002.8     31.36      0          38.04      648        16.53     
