~Version
 VERS              .         2.0                           : CWLS LOG ASCII STANDARD - VERSION 2.0
 WRAP              .         NO                            : ONE LINE PER DEPTH STEP
 DLM               .         SPACE                         : DELIMITING CHARACTER(SPACE TAB OR COMMA)
~Well Information
#_______________________________________________________________________________
#
#PARAMETER_NAME    .UNIT     VALUE                         : DESCRIPTION
#_______________________________________________________________________________
STRT               .M        2667.4                        : First reference value
STOP               .M        2776.000109                   : Last reference value
STEP               .M        0.2000002                     : Step increment
NULL               .         -9999                         : Missing value
COMP               .                                       : Company
WELL               .         616                           : Well name
FLD                .                                       : Field
LOC                .                                       : Location
CNTY               .                                       : County
STAT               .                                       : State
CTRY               .                                       : Country
SRVC               .                                       : Service Company
DATE               .                                       : Date
API                .                                       : API number
PROJECT_UPGRADE_TIME .         2021-03-18T21_24_50           : 
group              .         Good                          : 
~Parameter Information Block
#_______________________________________________________________________________
#
#PARAMETER_NAME    .UNIT     VALUE                         : DESCRIPTION
#_______________________________________________________________________________
SET                .         D1801_D                       : 
OTHER              .         Программное обеспечение станции MONITOR-386EX 25/12/99 15_08_10   BGF V52 22/08/01 16_56_30   3.1_SNGF___BGF_N_092049: 
OTHER_10           .         Тарировки_                    : 
OTHER_11           .         TM.GRD = 0.00403*TM$.UE + -1.07: 
OTHER_12           .         MN.ATM = (9.34907e-006*TM.GRD + 0.02171)*(MN$.UE + -7.93*TM.GRD + -1787): 
OTHER_13           .         GK.MKR/H = LM. / 42.4676      : 
OTHER_14           .         GK.FLT = 0.1*GK.MKR/H[-1] + (1-0.1)*GK.MKR/H[0]: 
OTHER_2            .         Kedr.exe версия 3.4.2.51      : 
OTHER_3            .         KedrData.dll версия 3.4.2.24  : 
OTHER_4            .         Драйвер версия 2.1.1.3        : 
OTHER_5            .         Мнемоники версия 3.3 S        : 
OTHER_6            .         Прибор_ КСА-Т4                : 
OTHER_7            .         Номер прибора_ 03             : 
OTHER_8            .         Режим_ КСА-Т4                 : 
OTHER_9            .         Форма_ КВА.                   : 
PROJECT_UPGRADE_TIME .         2021-03-18T21_24_49           : 
TLFamily_DEPT      .         Measured Depth                : 
TLFamily_GK        .         Gamma Ray                     : 
TLFamily_GK$       .                                       : 
TLFamily_GK_2      .         Gamma Ray                     : 
TLFamily_LM        .         Casing Collar locator         : 
TLFamily_METKA     .                                       : 
TLFamily_MN        .                                       : 
TLFamily_MN$       .                                       : 
TLFamily_RCOR      .                                       : 
TLFamily_SPID      .         Spontaneous Potential         : 
TLFamily_TENS      .         Cable Tension                 : 
TLFamily_TIME      .         Time                          : 
TLFamily_TM        .         Temperature                   : 
TLFamily_TM$       .         Temperature                   : 
group              .         prim                          : 
~Curve Information
#_______________________________________________________________________________
#
#LOGNAME           .UNIT     LOG_ID                        : DESCRIPTION
#_______________________________________________________________________________
DEPT               .M                                      : 1 Глубина, м -    0.0 см 
GK                 .MKR/H                                  : 13 Гамма-активность, мкр./ч -  110.0 см 
GK$                .UE                                     : 10 Гамма-активность, усл.ед. -  110.0 см 
GK_2               .FLT                                    : 14 Гамма-активность фильтрованная, мкр./ч -  110.0 см 
LM                 .                                       : 9 Локатор муфт,  -   20.0 см 
METKA              .                                       : 3 Метки,  -    0.0 см 
MN                 .ATM                                    : 12 Давление, атм. -  160.0 см 
MN$                .UE                                     : 8 Давление, усл.ед. -  160.0 см 
RCOR               .CM/KM                                  : 5 Коррекция по ролику, см/км -    0.0 см 
SPID               .M/H                                    : 2 Скорость, м/час -    0.0 см 
TENS               .T                                      : 6 Натяжение кабеля, т -    0.0 см 
TIME               .S                                      : 4 Время, сек -    0.0 см 
TM                 .GRD                                    : 11 Температура, °C -  170.0 см 
TM$                .UE                                     : 7 Температура, усл.ед. -  170.0 см 
~Ascii
# ...
2698.600031 14.06      597        14.06      177        0          247.072    13310      -613       577        0.07       7930.3     45.601     11581     
2698.800031 12.2       518        12.28      215        0          247.096    13311      -613       582        0.07       7931.55    45.589     11578     
2699.000032 12.2       518        12.2       164        0          247.101    13311      -613       581        0.07       7932.78    45.571     11573     
2699.200032 9.18       390        9.38       174        0          247.133    13313      -613       581        0.07       7933.97    45.547     11568     
2699.400032 9.02       383        9.09       198        0          247.143    13313      -613       583        0.07       7935.21    45.536     11565     
2699.600032 8.22       349        8.25       171        0          247.188    13315      -613       587        0.07       7936.45    45.525     11562     
2699.800032 8.22       349        8.22       90         0          247.189    13315      -613       585        0.07       7937.76    45.514     11559     
2700.000033 8.92       379        8.89       71         2          247.211    13316      -613       584        0.07       7938.96    45.508     11558     
2700.200033 8.92       379        8.92       80         0          247.234    13317      -620       582        0.05       7940.61    45.505     11557     
2700.400033 9.14       388        9.12       67         0          247.246    13318      -620       586        0.05       7941.86    45.501     11556     
2700.600033 9.14       388        9.14       90         0          247.258    13318      -620       576        0.05       7943.1     45.483     11552     
2700.800033 8.43       358        8.46       91         0          247.304    13320      -620       574        0.05       7944.34    45.464     11547     
2701.000034 8.43       358        8.43       101        0          247.327    13321      -620       576        0.05       7945.59    45.449     11543     
2701.200034 7.96       338        7.97       102        0          247.327    13321      -620       577        0.05       7946.83    45.44      11541     
2701.400034 8.11       344        8.06       87         0          247.35     13322      -620       572        0.05       7948.14    45.432     11539     
2701.600034 8.27       351        8.26       97         0          247.373    13323      -620       584        0.05       7949.36    45.425     11537     
2701.800034 8.4        357        8.35       170        0          247.392    13324      -620       589        0.05       7950.56    45.412     11534     
2702.000035 9.09       386        9.06       157        0          247.418    13325      -620       587        0.05       7951.8     45.406     11532     
2702.200035 9.15       389        9.13       98         0          247.43     13326      -620       585        0.05       7953.04    45.393     11529     
2702.400035 9.16       389        9.16       72         0          247.463    13327      -620       583        0.05       7954.25    45.389     11528     
2702.600035 9.3        395        9.25       73         0          247.486    13328      -620       583        0.05       7955.47    45.388     11528     
2702.800035 9.4        399        9.39       82         0          247.497    13328      -620       573        0.05       7956.7     45.38      11526     
2703.000036 9.57       406        9.5        72         0          247.509    13329      -620       570        0.05       7958.02    45.372     11524     
2703.200036 10.41      442        10.37      75         0          247.532    13330      -620       573        0.05       7959.25    45.364     11522     
2703.400036 10.2       433        10.28      77         0          247.554    13331      -620       575        0.05       7960.5     45.36      11521     
2703.600036 10.15      431        10.15      82         0          247.562    13331      -620       584        0.05       7961.75    45.355     11520     
2703.800036 9.83       417        9.95       2343       0          247.599    13333      -620       591        0.05       7962.93    45.35      11518     
2704.000037 9.4        399        9.41       635        0          247.609    13333      -620       587        0.05       7964.17    45.348     11518     
2704.200037 9.48       403        9.45       216        0          247.636    13335      -620       585        0.05       7965.42    45.347     11518     
2704.400037 9.91       421        9.9        115        0          247.644    13335      -620       584        0.05       7966.66    45.344     11517     
2704.600037 10.48      445        10.27      235        0          247.667    13336      -620       576        0.05       7967.91    45.336     11515     
2704.800037 10.6       450        10.58      177        0          247.689    13337      -620       583        0.05       7969.14    45.327     11513     
2705.000038 10.59      450        10.59      126        0          247.711    13338      -620       582        0.05       7970.39    45.327     11513     
2705.200038 10.57      449        10.57      126        0          247.734    13339      -620       581        0.05       7971.63    45.324     11512     
2705.400038 10.57      449        10.57      130        0          247.75     13340      -620       581        0.05       7972.88    45.315     11510     
2705.600038 10.17      432        10.19      105        0          247.757    13340      -620       581        0.05       7974.11    45.307     11508     
2705.800038 10.17      432        10.17      119        0          247.78     13341      -620       584        0.05       7975.36    45.299     11506     
2706.000039 10.48      445        10.46      145        0          247.803    13342      -620       593        0.05       7976.59    45.291     11504     
2706.200039 10.67      453        10.6       191        0          247.825    13343      -620       582        0.05       7977.89    45.281     11502     
2706.400039 11.04      469        11.03      127        0          247.848    13344      -620       582        0.07       7979.08    45.278     11501     
2706.600039 11.04      469        11.04      83         0          247.863    13345      -620       577        0.05       7980.33    45.271     11499     
2706.800039 11.02      468        11.02      106        0          247.871    13345      -620       579        0.07       7981.54    45.262     11497     
2707.00004 11.02      468        11.02      135        0          247.916    13347      -620       580        0.07       7982.81    45.255     11495     
2707.20004 10.93      464        10.93      145        0          247.931    13348      -620       580        0.07       7984.03    45.251     11494     
2707.40004 11.31      480        11.17      109        0          247.939    13348      -620       580        0.07       7985.23    45.247     11493     
2707.60004 12.08      513        12.05      124        0          247.961    13349      -620       580        0.07       7986.47    45.239     11491     
2707.80004 12.08      513        12.08      158        0          247.983    13350      -620       580        0.07       7987.78    45.235     11490     
2708.000041 12.36      525        12.35      167        0          248.006    13351      -620       580        0.07       7989.02    45.231     11489     
2708.200041 12.36      525        12.36      160        0          248.028    13352      -620       580        0.07       7990.27    45.231     11489     
2708.400041 11.14      473        11.22      147        0          248.051    13353      -620       580        0.07       7991.49    45.223     11487     
2708.600041 11.14      473        11.14      71         0          248.073    13354      -620       574        0.07       7992.71    45.219     11486     
2708.800041 10.71      455        10.75      97         1          248.073    13354      -620       566        0.05       7993.95    45.219     11486     
