~Version
 VERS              .         2.0                           : CWLS LOG ASCII STANDARD - VERSION 2.0
 WRAP              .         NO                            : ONE LINE PER DEPTH STEP
 DLM               .         SPACE                         : DELIMITING CHARACTER(SPACE TAB OR COMMA)
~Well Information
#_______________________________________________________________________________
#
#PARAMETER_NAME    .UNIT     VALUE                         : DESCRIPTION
#_______________________________________________________________________________
STRT               .M        2659.8                        : First reference value
STOP               .M        2768.999945                   : Last reference value
STEP               .M        0.1999999                     : Step increment
NULL               .         -9999                         : Missing value
COMP               .                                       : Company
WELL               .         616                           : Well name
FLD                .                                       : Field
LOC                .                                       : Location
CNTY               .                                       : County
STAT               .                                       : State
CTRY               .                                       : Country
SRVC               .                                       : Service Company
DATE               .                                       : Date
API                .                                       : API number
PROJECT_UPGRADE_TIME .         2021-03-18T21_24_50           : 
group              .         Good                          : 
~Parameter Information Block
#_______________________________________________________________________________
#
#PARAMETER_NAME    .UNIT     VALUE                         : DESCRIPTION
#_______________________________________________________________________________
SET                .         D1169_D                       : 
OTHER              .         Программное обеспечение станции MONITOR-386EX 25/12/99 15_08_10   BGF V52 22/08/01 16_56_30   3.2_BGF_N_3070031: 
OTHER_10           .         Тарировки_                    : 
OTHER_11           .         TM.GRD = 0.00403*TM$.UE + -1.19: 
OTHER_12           .         MN.ATM = (7.1e-006*TM.GRD + 0.02017)*(MN$.UE + -3.03*TM.GRD + -1833): 
OTHER_13           .         Id error                      : 
OTHER_2            .         Kedr.exe версия 3.4.2.51      : 
OTHER_3            .         KedrData.dll версия 3.4.2.24  : 
OTHER_4            .         Драйвер версия 2.1.1.8        : 
OTHER_5            .         Мнемоники версия 3.3 S        : 
OTHER_6            .         Прибор_ КСА-М1                : 
OTHER_7            .         Номер прибора_ 265            : 
OTHER_8            .         Режим_ КСА-М1                 : 
OTHER_9            .         Форма_ ТЕРМОМЕТР              : 
PROJECT_UPGRADE_TIME .         2021-03-18T21_24_49           : 
TLFamily_DEPT      .         Measured Depth                : 
TLFamily_GK        .         Gamma Ray                     : 
TLFamily_GK$       .                                       : 
TLFamily_LM        .         Casing Collar locator         : 
TLFamily_METKA     .                                       : 
TLFamily_MN        .                                       : 
TLFamily_MN$       .                                       : 
TLFamily_RCOR      .                                       : 
TLFamily_SPID      .         Spontaneous Potential         : 
TLFamily_STD       .                                       : 
TLFamily_TENS      .         Cable Tension                 : 
TLFamily_TIME      .         Time                          : 
TLFamily_TM        .         Temperature                   : 
TLFamily_TM$       .         Temperature                   : 
TLFamily_VGD       .         Gas Volume                    : 
group              .         prim                          : 
~Curve Information
#_______________________________________________________________________________
#
#LOGNAME           .UNIT     LOG_ID                        : DESCRIPTION
#_______________________________________________________________________________
DEPT               .M                                      : 1 Глубина, м -    0.0 см 
GK                 .MKR/H                                  : 15 Гамма-активность, мкр./ч -  110.0 см 
GK$                .UE                                     : 12 Гамма-активность, усл.ед. -  110.0 см 
LM                 .                                       : 10 Локатор муфт,  -   20.0 см 
METKA              .                                       : 3 Метки,  -    0.0 см 
MN                 .ATM                                    : 14 Давление, атм. -  160.0 см 
MN$                .UE                                     : 8 Давление, усл.ед. -  160.0 см 
RCOR               .CM/KM                                  : 5 Коррекция по ролику, см/км -    0.0 см 
SPID               .M/H                                    : 2 Скорость, м/час -    0.0 см 
STD                .                                       : 11 Приток,  -  170.0 см 
TENS               .T                                      : 6 Натяжение кабеля, т -    0.0 см 
TIME               .S                                      : 4 Время, сек -    0.0 см 
TM                 .GRD                                    : 13 Температура, °C -  180.0 см 
TM$                .UE                                     : 7 Температура, усл.ед. -  180.0 см 
VGD                .                                       : 9 Влагомер,  -  170.0 см 
~Ascii
2659.8000488 -9999      -9999      -9999      0          -9999      -9999      -9999      -9999      -9999      -9999      -9999      -9999      -9999      -9999     
2660       -9999      -9999      1          2          -9999      -9999      -1400      241        -9999      0          25560.74   -9999      -9999      -9999     
2660.2     -9999      -9999      1          0          -9999      -9999      -1400      336        -9999      0          25561.99   -9999      -9999      -9999     
2660.4     -9999      -9999      1          0          -9999      -9999      -1400      392        -9999      0          25563.35   -9999      -9999      -9999     
2660.6     -9999      -9999      1          0          -9999      -9999      -1400      431        -9999      0          25564.53   -9999      -9999      -9999     
2660.8     -9999      -9999      1          0          -9999      -9999      -1400      475        -9999      0          25565.71   -9999      -9999      -9999     
2660.999999 8.79       378        1          0          -9999      -9999      -1400      508        -9999      0          25566.89   -9999      -9999      -9999     
2661.199999 8.84       381        1          0          -9999      -9999      -1400      526        -9999      0          25568.12   -9999      -9999      -9999     
2661.399999 9.1        393        1          0          -9999      -9999      -1400      551        -9999      0          25569.29   -9999      -9999      -9999     
2661.599999 9.1        385        1          0          255.361    14386      -1400      564        30295      0          25570.5    -9999      -9999      6578      
2661.799999 8.86       374        1          0          255.361    14386      -1400      579        30296      0          25571.67   82.589     20789      6578      
2661.999999 8.78       374        1          0          255.402    14388      -1400      579        30297      0          25572.88   82.59      20789      6580      
2662.199999 8.65       367        1          0          255.387    14387      -1400      591        30275      0          25574.04   82.59      20789      6580      
2662.399999 8.6        367        1          0          255.434    14390      -1400      599        30244      0          25575.21   82.604     20793      6579      
2662.599999 8.24       342        1          0          255.424    14389      -1400      588        30211      0          25576.44   82.618     20796      6579      
2662.799999 8.02       335        1          0          255.469    14391      -1400      597        30180      0          25577.59   82.636     20801      6579      
2662.999998 7.16       289        1          0          255.487    14392      -1400      607        30159      0          25578.75   82.655     20805      6579      
2663.199998 6.88       289        1          0          255.502    14393      -1400      606        30144      0          25579.89   82.669     20809      6579      
2663.399998 6.66       279        1          0          255.529    14394      -1400      608        30132      0          25581.06   82.677     20811      6579      
2663.599998 6.56       279        1          0          255.535    14394      -1400      604        30123      0          25582.18   82.684     20812      6579      
2663.799998 6.4        268        1          0          255.571    14396      -1400      613        30119      0          25583.34   82.694     20815      6578      
2663.999998 6.31       268        1          0          255.545    14395      -1400      614        30117      0          25584.54   82.703     20817      6578      
2664.199998 6.25       264        1          0          255.613    14398      -1400      620        30116      0          25585.66   82.709     20819      6578      
2664.399998 6.2        264        1          0          255.592    14397      -1400      625        30117      0          25586.76   82.717     20821      6579      
2664.599998 6.11       255        1          0          255.655    14400      -1400      629        30117      0          25587.89   82.725     20823      6579      
2664.799998 5.97       252        1          0          255.641    14399      -1400      626        30118      0          25589.08   82.731     20824      6578      
2664.999997 5.93       253        1          0          255.663    14400      -1400      630        30122      0          25590.2    82.741     20827      6578      
2665.199997 6.03       260        1          0          255.676    14401      -1400      632        30126      0          25591.32   82.748     20828      6579      
2665.399997 6.11       266        1          0          255.691    14402      -1400      627        30127      0          25592.51   82.759     20831      6578      
2665.599997 6.34       276        1          0          255.749    14404      -1400      626        30131      0          25593.63   82.767     20833      6578      
2665.799997 6.42       276        1          0          255.721    14403      -1400      629        30132      0          25594.71   82.773     20835      6578      
2665.999997 6.46       277        1          0          255.775    14406      -1400      632        30134      0          25595.88   82.784     20837      6579      
2666.199997 6.47       277        1          0          255.76     14405      -1400      623        30138      0          25597.03   82.787     20838      6579      
2666.399997 6.42       272        1          0          255.805    14407      -1400      627        30137      0          25598.12   82.801     20841      6578      
2666.599997 6.38       272        1          0          255.807    14407      -1400      630        30142      0          25599.3    82.807     20843      6578      
2666.799997 6.34       269        1          0          255.818    14408      -1400      629        30143      0          25600.42   82.815     20845      6578      
2666.999996 6.31       269        1          0          255.865    14410      -1400      630        30145      0          25601.54   82.823     20847      6578      
2667.199996 6.25       263        1          0          255.844    14409      -1400      632        30150      0          25602.66   82.831     20849      6579      
2667.399996 6.03       253        1          0          255.907    14412      -1400      634        30152      0          25603.79   82.843     20852      6578      
2667.599996 5.96       253        1          0          255.886    14411      -1400      630        30156      0          25604.97   82.849     20853      6579      
2667.799996 6.11       266        1          0          255.922    14413      -1400      633        30160      0          25606.08   82.86      20856      6578      
2667.999996 6.19       266        1          0          255.944    14414      -1400      634        30163      0          25607.21   82.864     20857      6578      
2668.199996 6.21       266        1          0          255.949    14414      -1400      631        30166      0          25608.34   82.872     20859      6577      
2668.399996 6.22       266        1          0          255.991    14416      -1400      637        30168      0          25609.46   82.88      20861      6578      
2668.599996 6.22       266        1          0          255.991    14416      -1400      638        30171      0          25610.59   82.89      20864      6577      
2668.799996 6.22       266        1          0          256.051    14419      -1400      638        30175      0          25611.7    82.901     20866      6577      
2668.999995 6.4        286        1          0          256.043    14418      -1400      634        30179      0          25612.88   82.908     20868      6578      
2669.199995 6.59       286        1          0          256.059    14419      -1400      635        30183      0          25614      82.918     20871      6577      
2669.399995 6.63       282        1          0          256.078    14420      -1400      636        30187      0          25615.13   82.925     20872      6578      
