~Version
 VERS              .         2.0                           : CWLS LOG ASCII STANDARD - VERSION 2.0
 WRAP              .         NO                            : ONE LINE PER DEPTH STEP
 DLM               .         SPACE                         : DELIMITING CHARACTER(SPACE TAB OR COMMA)
~Well Information
#_______________________________________________________________________________
#
#PARAMETER_NAME    .UNIT     VALUE                         : DESCRIPTION
#_______________________________________________________________________________
STRT               .M        2671                          : First reference value
STOP               .M        2773.4                        : Last reference value
STEP               .M        0.1999998                     : Step increment
NULL               .         -9999                         : Missing value
COMP               .                                       : Company
WELL               .         616                           : Well name
FLD                .                                       : Field
LOC                .                                       : Location
CNTY               .                                       : County
STAT               .                                       : State
CTRY               .                                       : Country
SRVC               .                                       : Service Company
DATE               .                                       : Date
API                .                                       : API number
PROJECT_UPGRADE_TIME .         2021-03-18T21_24_50           : 
group              .         Good                          : 
~Parameter Information Block
#_______________________________________________________________________________
#
#PARAMETER_NAME    .UNIT     VALUE                         : DESCRIPTION
#_______________________________________________________________________________
SET                .         D0402_D                       : 
OTHER              .         Kedr.exe версия 2.1.2.32      : 
OTHER_10           .         TM.GRD = 0.00379*TM$.UE + 7.11: 
OTHER_11           .         MN.ATM = (8e-006*TM.GRD + 0.02)*(MN$.UE + -8*TM.GRD + -1800): 
OTHER_12           .         GK.MKR/H = GK$.UE / 57.17 + 0 : 
OTHER_2            .         KedrData.dll версия 3.2.2.14  : 
OTHER_3            .         LasInf.dll версия 3.2.0.13    : 
OTHER_4            .         Драйвер версия 1.2.0.4        : 
OTHER_5            .         Прибор_ АКП4_90               : 
OTHER_6            .         Номер прибора_ 56             : 
OTHER_7            .         Режим_ АКП4_90 - все каналы   : 
OTHER_8            .         Форма_ Г-1                    : 
OTHER_9            .         Тарировки_                    : 
PROJECT_UPGRADE_TIME .         2021-03-18T21_24_49           : 
TLFamily_DEPT      .         Measured Depth                : 
TLFamily_GK        .         Gamma Ray                     : 
TLFamily_GK$       .                                       : 
TLFamily_LM        .         Casing Collar locator         : 
TLFamily_METKA     .                                       : 
TLFamily_METKA_1   .                                       : 
TLFamily_MN        .                                       : 
TLFamily_MN$       .                                       : 
TLFamily_RCOR      .                                       : 
TLFamily_SPID      .         Spontaneous Potential         : 
TLFamily_TIME      .         Time                          : 
TLFamily_TM        .         Temperature                   : 
TLFamily_TM$       .         Temperature                   : 
group              .         second                        : 
~Curve Information
#_______________________________________________________________________________
#
#LOGNAME           .UNIT     LOG_ID                        : DESCRIPTION
#_______________________________________________________________________________
DEPT               .M                                      : 1 Глубина, м -    0.0 см 
GK                 .MKR/H                                  : 12 Гамма-активность, мкр./ч -   65.0 см 
GK$                .UE                                     : 9 Гамма-активность, усл.ед. -   65.0 см 
LM                 .                                       : 8 Локатор муфт,  -   30.0 см 
METKA              .                                       : 3 Метки,  -    0.0 см 
METKA_1            .                                       : 13 Маркеры - 65 см 
MN                 .ATM                                    : 11 Давление, атм. -  140.0 см 
MN$                .UE                                     : 7 Давление, усл.ед. -  140.0 см 
RCOR               .CM/KM                                  : 5 Коррекция по ролику, см/км -    0.0 см 
SPID               .M/H                                    : 2 Скорость, м/час -    0.0 см 
TIME               .S                                      : 4 Время, сек -    0.0 см 
TM                 .GRD                                    : 10 Температура, °C -  145.0 см 
TM$                .UE                                     : 6 Температура, усл.ед. -  145.0 см 
~Ascii
# ...
2727       5.4        296        476        0          0          264.666    15277      0          -320       7635.28    84.616     20450     
2727.2     5.47       311        489        0          0          264.645    15276      0          -320       7632.96    84.627     20453     
2727.4     5.55       303        499        0          0          264.629    15275      0          -320       7630.64    84.633     20455     
2727.6     5.7        315        508        0          0          264.654    15277      0          -379       7628.33    84.642     20457     
2727.8     5.81       336        481        0          0          264.685    15278      0          -320       7626.02    84.646     20458     
2728       5.76       335        513        0          0          264.747    15281      0          -320       7623.69    84.65      20459     
2728.2     5.67       332        449        0          0          264.787    15283      0          -260       7621.38    84.655     20460     
2728.4     5.55       327        454        0          0          264.849    15286      0          -290       7619.16    84.665     20463     
2728.6     5.39       328        539        0          0          264.89     15288      0          -320       7616.87    84.669     20464     
2728.8     5.05       316        455        0          0          264.91     15289      0          -290       7614.62    84.674     20465     
2729       4.99       287        1216       0          0          264.93     15290      0          -290       7612.3     84.684     20468     
2729.2     5.02       281        523        0          0          264.889    15288      0          -320       7609.99    84.685     20468     
2729.4     5.03       290        523        0          0          264.889    15288      0          -320       7607.67    84.691     20470     
2729.6     5.12       276        1933       0          0          264.868    15287      0          -320       7605.4     84.695     20471     
2729.8     5.24       296        6650       1          0          264.893    15288      0          -320       7603.07    84.699     20472     
2730       5.31       294        553        0          0          264.909    15289      0          -320       7599.92    84.703     20473     
2730.2     5.43       302        468        0          0          264.939    15291      0          -380       7597.67    84.706     20474     
2730.4     5.49       321        428        0          0          264.98     15292      0          -320       7595.35    84.71      20475     
2730.6     5.4        308        485        0          0          265.032    15295      0          -320       7593.04    84.714     20476     
2730.8     5.47       301        510        0          0          265.084    15298      0          -320       7590.72    84.722     20478     
2731       5.63       305        532        0          0          265.128    15300      0          -320       7588.41    84.725     20479     
2731.2     5.84       319        464        0          0          265.141    15300      0          -275       7586.13    84.729     20480     
2731.4     6.01       347        446        0          0          265.072    15297      0          -320       7583.77    84.733     20481     
2731.6     5.95       351        523        0          0          265.093    15298      0          -280       7581.45    84.741     20483     
2731.8     5.78       338        516        0          0          265.141    15300      0          -320       7579.15    84.741     20483     
2732       5.71       329        569        0          0          265.203    15303      0          -275       7576.87    84.741     20483     
2732.2     5.7        327        600        0          0          265.237    15305      0          -320       7574.55    84.748     20485     
2732.4     5.76       320        534        0          0          265.284    15307      0          -320       7572.32    84.762     20489     
2732.6     5.85       324        573        0          0          265.313    15309      0          -320       7570.01    84.775     20492     
2732.8     5.9        337        528        0          0          265.317    15309      0          -320       7567.7     84.778     20493     
2733       6          326        533        0          0          265.33     15310      0          -320       7565.38    84.786     20495     
2733.2     6.19       340        654        0          0          265.31     15309      0          -320       7563.16    84.79      20496     
2733.4     6.21       375        676        0          0          265.322    15309      0          -300       7560.87    84.794     20497     
2733.6     5.96       364        524        0          0          265.29     15308      0          -320       7558.53    84.797     20498     
2733.8     5.69       336        476        0          0          265.296    15308      0          -320       7556.21    84.801     20499     
2734       5.59       315        473        0          0          265.295    15308      0          -320       7553.89    84.811     20502     
2734.2     5.66       319        417        0          0          265.336    15310      0          -280       7551.61    84.813     20502     
2734.4     5.72       330        514        0          0          265.377    15312      0          -320       7549.29    84.82      20504     
2734.6     5.67       326        566        0          0          265.418    15314      0          -320       7546.98    84.835     20508     
2734.8     5.74       318        482        0          0          265.465    15316      0          -320       7544.67    84.844     20510     
2735       5.89       319        425        0          0          265.536    15320      0          -320       7542.35    84.847     20511     
2735.2     6.1        326        433        0          0          265.597    15323      0          -320       7540.03    84.852     20512     
2735.4     6.34       337        448        0          0          265.638    15325      0          -320       7537.78    84.856     20513     
2735.6     6.48       373        563        0          0          265.671    15326      0          -320       7535.4     84.862     20515     
2735.8     6.34       388        1045       0          0          265.691    15327      0          -320       7532.96    84.873     20518     
2736       6.13       343        513        0          0          265.697    15328      0          -260       7530.74    84.881     20520     
2736.2     6.4        304        882        0          0          265.69     15327      0          -320       7528.42    84.885     20521     
2736.4     7.23       368        483        0          0          265.676    15327      0          -320       7526.14    84.892     20523     
2736.6     7.73       467        516        0          0          265.654    15326      0          -320       7523.82    84.896     20524     
2736.8     7.35       453        477        0          0          265.661    15326      0          -320       7521.5     84.9       20525     
2737       6.88       392        490        0          0          265.626    15324      0          -320       7519.25    84.9       20525     
2737.2     6.91       389        477        0          0          265.62     15324      0          -320       7517.01    84.904     20526     
2737.4     7.1        380        585        0          0          265.645    15325      0          -320       7514.69    84.911     20528     
2737.6     7.47       382        687        0          0          265.692    15328      0          -320       7512.36    84.915     20529     
2737.8     7.91       410        519        0          0          265.716    15329      0          -320       7510.05    84.92      20530     
2738       8.21       447        523        0          0          265.771    15331      0          -320       7507.74    84.919     20530     
