~Version
 VERS              .         2.0                           : CWLS LOG ASCII STANDARD - VERSION 2.0
 WRAP              .         NO                            : ONE LINE PER DEPTH STEP
 DLM               .         SPACE                         : DELIMITING CHARACTER(SPACE TAB OR COMMA)
~Well Information
#_______________________________________________________________________________
#
#PARAMETER_NAME    .UNIT     VALUE                         : DESCRIPTION
#_______________________________________________________________________________
STRT               .M        2648.8                        : First reference value
STOP               .M        2755.39984                    : Last reference value
STEP               .M        0.1999997                     : Step increment
NULL               .         -9999                         : Missing value
COMP               .                                       : Company
WELL               .         616                           : Well name
FLD                .                                       : Field
LOC                .                                       : Location
CNTY               .                                       : County
STAT               .                                       : State
CTRY               .                                       : Country
SRVC               .                                       : Service Company
DATE               .                                       : Date
API                .                                       : API number
PROJECT_UPGRADE_TIME .         2021-03-18T21_24_50           : 
group              .         Good                          : 
~Parameter Information Block
#_______________________________________________________________________________
#
#PARAMETER_NAME    .UNIT     VALUE                         : DESCRIPTION
#_______________________________________________________________________________
SET                .         D7023_D                       : 
OTHER              .         Kedr.exe версия 2.1.2.32      : 
OTHER_10           .         TM.GRD = 0.00404*TM$.UE + 0.07: 
OTHER_11           .         MN.ATM = (6.33279e-006*TM.GRD + 0.02401)*(MN$.UE + 2.72*TM.GRD + -2018): 
OTHER_12           .         GK.MKR/H = GK$.UE / 43.5489 + 0: 
OTHER_13           .         RES.SM = 0.00476*CRES.UE - 1.51709: 
OTHER_14           .         PL.GSM3 = 0 + 0 * (PL.UE / 1) +  0 * (PL.UE / 1)^2: 
OTHER_15           .         Постоянная времени ГГП = 6 сек: 
OTHER_16           .         Постоянная времени ГК = 6 сек : 
OTHER_2            .         KedrData.dll версия 3.2.2.14  : 
OTHER_3            .         LasInf.dll версия 3.2.0.13    : 
OTHER_4            .         Драйвер версия 1.2.0.5        : 
OTHER_5            .         Прибор_ КСА-M1                : 
OTHER_6            .         Номер прибора_ 155+р204       : 
OTHER_7            .         Режим_ КСА-М1 + ГГП + Резистивиметр: 
OTHER_8            .         Форма_ 223\2                  : 
OTHER_9            .         Тарировки_                    : 
PROJECT_UPGRADE_TIME .         2021-03-18T21_24_50           : 
TLFamily_CRES      .                                       : 
TLFamily_DEPT      .         Measured Depth                : 
TLFamily_GK        .         Gamma Ray                     : 
TLFamily_GK$       .                                       : 
TLFamily_LM        .         Casing Collar locator         : 
TLFamily_METKA     .                                       : 
TLFamily_MN        .                                       : 
TLFamily_MN$       .                                       : 
TLFamily_PL        .                                       : 
TLFamily_PL_2      .                                       : 
TLFamily_RCOR      .                                       : 
TLFamily_RES       .         Mud Resistivity               : 
TLFamily_SPID      .         Spontaneous Potential         : 
TLFamily_STD       .                                       : 
TLFamily_TIME      .         Time                          : 
TLFamily_TM        .         Temperature                   : 
TLFamily_TM$       .         Temperature                   : 
TLFamily_VGD       .         Gas Volume                    : 
group              .         prim                          : 
~Curve Information
#_______________________________________________________________________________
#
#LOGNAME           .UNIT     LOG_ID                        : DESCRIPTION
#_______________________________________________________________________________
DEPT               .M                                      : 1 Глубина, м -    0.0 см 
CRES               .UE                                     : 9 Проводимость, усл.ед. -  222.0 см 
GK                 .MKR/H                                  : 16 Гамма-активность, мкр./ч -  106.0 см 
GK$                .UE                                     : 13 Гамма-активность, усл.ед. -  106.0 см 
LM                 .                                       : 11 Локатор муфт,  -   16.0 см 
METKA              .                                       : 3 Метки,  -    0.0 см 
MN                 .ATM                                    : 15 Давление, атм. -  160.0 см 
MN$                .UE                                     : 7 Давление, усл.ед. -  160.0 см 
PL                 .UE                                     : 10 Плотность, усл.ед. -  270.0 см 
PL_2               .GSM3                                   : 18 Плотность, г./см3 -  270.0 см 
RCOR               .CM/KM                                  : 5 Коррекция по ролику, см/км -    0.0 см 
RES                .SM                                     : 17 Проводимость,  -  222.0 см 
SPID               .M/H                                    : 2 Скорость, м/час -    0.0 см 
STD                .                                       : 12 Приток,  -  170.0 см 
TIME               .S                                      : 4 Время, сек -    0.0 см 
TM                 .GRD                                    : 14 Температура, °C -  180.0 см 
TM$                .UE                                     : 6 Температура, усл.ед. -  180.0 см 
VGD                .                                       : 8 Влагомер,  -  170.0 см 
~Ascii
# ...
2689.799939 1214       8.06       366        31         0          362.201    16746      14         0          0          4.2616     550        10539      14968.13   53.745     13286      6679      
2689.999938 1214       8.23       366        25         0          361.439    16715      14         0          0          4.2631     580        10536      14969.42   53.737     13284      6683      
2690.199938 1215       8.4        378        109        1          361.098    16701      14         0          0          4.2663     580        10536      14971.29   53.735     13283      6689      
2690.399938 1215       8.54       378        108        0          360.628    16682      14         0          0          4.2663     557        10534      14972.61   53.722     13280      6689      
2690.599937 1218       8.96       420        95         0          360.422    16674      14         0          0          4.2822     510        10535      14973.94   53.717     13279      6682      
2690.799937 1218       9.3        420        78         0          360.323    16670      14         0          0          4.2806     568        10531      14975.21   53.712     13278      6676      
2690.999937 1217       9.59       433        70         0          359.815    16649      13         0          0          4.2758     580        10526      14976.48   53.705     13276      6681      
2691.199936 1217       9.8        430        64         0          360.132    16662      14         0          0          4.2758     557        10524      14977.79   53.701     13275      6681      
2691.399936 1216       9.75       423        67         0          360.662    16684      14         0          0          4.2695     580        10523      14979.06   53.697     13274      6683      
2691.599936 1213       9.83       445        103        0          361.033    16699      14         0          0          4.2548     522        10521      14980.4    53.693     13273      6694      
2691.799936 1215       10.07      449        115        0          362.289    16750      14         0          0          4.2648     545        10517      14981.72   53.69      13272      6700      
2691.999935 1214       10.36      478        141        0          361.394    16714      14         0          0          4.2622     580        10519      14983      53.675     13269      6698      
2692.199935 1218       10.66      478        4926       0          360.91     16694      14         0          0          4.2806     568        10519      14984.27   53.666     13266      6695      
2692.399935 1217       10.61      450        6685       0          360.958    16696      14         0          0          4.2758     522        10520      14985.61   53.657     13264      6690      
2692.599934 1218       10.47      450        1617       0          360.575    16680      14         0          0          4.279      534        10520      14986.88   53.648     13262      6688      
2692.799934 1217       10.31      434        407        0          360.037    16658      14         0          0          4.2749     580        10520      14988.21   53.644     13261      6695      
2692.999934 1218       10.14      434        128        0          360.361    16672      14         0          0          4.279      580        10520      14989.46   53.638     13259      6693      
2693.199933 1215       9.91       414        85         0          360.177    16664      14         0          0          4.2663     580        10517      14990.79   53.632     13258      6687      
2693.399933 1215       9.71       414        110        0          361.779    16730      14         0          0          4.2647     580        10518      14992.1    53.623     13256      6693      
2693.599933 1216       9.55       407        125        0          361.742    16729      14         0          0          4.2711     580        10518      14993.4    53.61      13252      6695      
2693.799933 1215       9.45       407        106        0          362.622    16765      14         0          0          4.2648     580        10517      14994.65   53.597     13249      6694      
2693.999932 1212       9.54       421        201        0          363.139    16786      14         0          0          4.2536     580        10514      14995.98   53.588     13247      6698      
2694.199932 1213       9.6        421        150        0          362.208    16748      14         0          0          4.2584     580        10512      14997.25   53.575     13244      6701      
2694.399932 1216       9.81       440        69         0          363.297    16793      14         0          0          4.2711     550        10511      14998.55   53.562     13241      6690      
2694.599931 1215       9.95       440        56         0          363.784    16813      14         0          0          4.2671     580        10510      14999.84   53.545     13236      6695      
2694.799931 1215       10.27      463        48         0          363.722    16810      14         0          0          4.2663     580        10509      15001.17   53.535     13234      6690      
2694.999931 1213       10.42      458        49         0          363.01     16781      14         0          0          4.2568     533        10508      15002.44   53.527     13232      6684      
2695.19993 1213       10.19      433        62         0          362.778    16772      14         0          0          4.2568     533        10503      15003.77   53.517     13230      6690      
2695.39993 1212       10.07      433        73         0          362.73     16770      14         0          0          4.2528     510        10498      15005.09   53.506     13227      6687      
2695.59993 1212       9.96       429        74         0          362.386    16756      13         0          0          4.2513     568        10491      15006.36   53.495     13224      6675      
2695.799929 1211       9.94       436        112        0          362.427    16757      14         0          0          4.2457     580        10483      15007.69   53.486     13222      6681      
2695.999929 1220       10.38      472        54         0          361.833    16733      14         0          0          4.2915     566        10479      15009      53.473     13219      6683      
2696.199929 1211       10.68      490        35         0          361.192    16707      14         0          0          4.2481     580        10477      15010.27   53.464     13216      6681      
2696.399929 1212       11.07      499        35         0          361.133    16704      14         0          0          4.252      568        10476      15011.54   53.455     13214      6687      
2696.599928 1211       11.28      502        38         0          361.537    16721      14         0          0          4.2486     580        10476      15012.88   53.451     13213      6688      
2696.799928 1213       11.4       502        70         0          360.924    16696      14         0          0          4.2568     510        10477      15014.18   53.448     13212      6687      
2696.999928 1210       11.44      498        90         0          361.827    16733      14         0          0          4.2441     580        10476      15015.46   53.434     13209      6690      
2697.199927 1212       11.42      496        123        0          361.273    16710      14         0          0          4.252      580        10476      15016.74   53.422     13206      6683      
2697.399927 1212       11.19      456        98         0          362.268    16751      14         0          0          4.2536     580        10477      15018.06   53.413     13204      6684      
2697.599927 1213       10.84      456        79         0          364.062    16825      14         0          0          4.2568     510        10474      15019.38   53.4       13200      6675      
2697.799927 1212       10.8       477        61         0          364.056    16825      13         0          0          4.252      510        10469      15020.65   53.391     13198      6675      
