~Version
 VERS              .         2.0                           : CWLS LOG ASCII STANDARD - VERSION 2.0
 WRAP              .         NO                            : ONE LINE PER DEPTH STEP
 DLM               .         SPACE                         : DELIMITING CHARACTER(SPACE TAB OR COMMA)
~Well Information
#_______________________________________________________________________________
#
#PARAMETER_NAME    .UNIT     VALUE                         : DESCRIPTION
#_______________________________________________________________________________
STRT               .M        2648.8                        : First reference value
STOP               .M        2755.39984                    : Last reference value
STEP               .M        0.1999997                     : Step increment
NULL               .         -9999                         : Missing value
COMP               .                                       : Company
WELL               .         616                           : Well name
FLD                .                                       : Field
LOC                .                                       : Location
CNTY               .                                       : County
STAT               .                                       : State
CTRY               .                                       : Country
SRVC               .                                       : Service Company
DATE               .                                       : Date
API                .                                       : API number
PROJECT_UPGRADE_TIME .         2021-03-18T21_24_50           : 
group              .         Good                          : 
~Parameter Information Block
#_______________________________________________________________________________
#
#PARAMETER_NAME    .UNIT     VALUE                         : DESCRIPTION
#_______________________________________________________________________________
SET                .         D7023_D                       : 
OTHER              .         Kedr.exe версия 2.1.2.32      : 
OTHER_10           .         TM.GRD = 0.00404*TM$.UE + 0.07: 
OTHER_11           .         MN.ATM = (6.33279e-006*TM.GRD + 0.02401)*(MN$.UE + 2.72*TM.GRD + -2018): 
OTHER_12           .         GK.MKR/H = GK$.UE / 43.5489 + 0: 
OTHER_13           .         RES.SM = 0.00476*CRES.UE - 1.51709: 
OTHER_14           .         PL.GSM3 = 0 + 0 * (PL.UE / 1) +  0 * (PL.UE / 1)^2: 
OTHER_15           .         Постоянная времени ГГП = 6 сек: 
OTHER_16           .         Постоянная времени ГК = 6 сек : 
OTHER_2            .         KedrData.dll версия 3.2.2.14  : 
OTHER_3            .         LasInf.dll версия 3.2.0.13    : 
OTHER_4            .         Драйвер версия 1.2.0.5        : 
OTHER_5            .         Прибор_ КСА-M1                : 
OTHER_6            .         Номер прибора_ 155+р204       : 
OTHER_7            .         Режим_ КСА-М1 + ГГП + Резистивиметр: 
OTHER_8            .         Форма_ 223\2                  : 
OTHER_9            .         Тарировки_                    : 
PROJECT_UPGRADE_TIME .         2021-03-18T21_24_50           : 
TLFamily_CRES      .                                       : 
TLFamily_DEPT      .         Measured Depth                : 
TLFamily_GK        .         Gamma Ray                     : 
TLFamily_GK$       .                                       : 
TLFamily_LM        .         Casing Collar locator         : 
TLFamily_METKA     .                                       : 
TLFamily_MN        .                                       : 
TLFamily_MN$       .                                       : 
TLFamily_PL        .                                       : 
TLFamily_PL_2      .                                       : 
TLFamily_RCOR      .                                       : 
TLFamily_RES       .         Mud Resistivity               : 
TLFamily_SPID      .         Spontaneous Potential         : 
TLFamily_STD       .                                       : 
TLFamily_TIME      .         Time                          : 
TLFamily_TM        .         Temperature                   : 
TLFamily_TM$       .         Temperature                   : 
TLFamily_VGD       .         Gas Volume                    : 
group              .         prim                          : 
~Curve Information
#_______________________________________________________________________________
#
#LOGNAME           .UNIT     LOG_ID                        : DESCRIPTION
#_______________________________________________________________________________
DEPT               .M                                      : 1 Глубина, м -    0.0 см 
CRES               .UE                                     : 9 Проводимость, усл.ед. -  222.0 см 
GK                 .MKR/H                                  : 16 Гамма-активность, мкр./ч -  106.0 см 
GK$                .UE                                     : 13 Гамма-активность, усл.ед. -  106.0 см 
LM                 .                                       : 11 Локатор муфт,  -   16.0 см 
METKA              .                                       : 3 Метки,  -    0.0 см 
MN                 .ATM                                    : 15 Давление, атм. -  160.0 см 
MN$                .UE                                     : 7 Давление, усл.ед. -  160.0 см 
PL                 .UE                                     : 10 Плотность, усл.ед. -  270.0 см 
PL_2               .GSM3                                   : 18 Плотность, г./см3 -  270.0 см 
RCOR               .CM/KM                                  : 5 Коррекция по ролику, см/км -    0.0 см 
RES                .SM                                     : 17 Проводимость,  -  222.0 см 
SPID               .M/H                                    : 2 Скорость, м/час -    0.0 см 
STD                .                                       : 12 Приток,  -  170.0 см 
TIME               .S                                      : 4 Время, сек -    0.0 см 
TM                 .GRD                                    : 14 Температура, °C -  180.0 см 
TM$                .UE                                     : 6 Температура, усл.ед. -  180.0 см 
VGD                .                                       : 8 Влагомер,  -  170.0 см 
~Ascii
# ...
2697.999926 1211       10.88      477        77         0          364.473    16842      14         0          0          4.2457     580        10465      15021.98   53.382     13196      6686      
2698.199926 1208       11.27      518        88         0          363.788    16814      14         0          0          4.2339     580        10463      15023.25   53.374     13194      6683      
2698.399926 1207       11.57      518        82         0          364.557    16846      15         0          0          4.2266     580        10465      15024.53   53.37      13193      6678      
2698.599925 1206       11.47      482        87         0          364.363    16838      15         0          0          4.2241     580        10465      15025.9    53.358     13190      6693      
2698.799925 1209       11.28      482        70         0          364.372    16838      13         0          0          4.2401     557        10464      15027.17   53.345     13187      6694      
2698.999925 1208       10.98      460        54         0          363.187    16790      13         0          0          4.2339     575        10462      15028.44   53.324     13182      6696      
2699.199924 1206       10.78      460        66         0          362.527    16763      13         0          0          4.2235     580        10460      15029.76   53.303     13176      6690      
2699.399924 1208       10.64      457        89         0          361.979    16740      13         0          0          4.2316     580        10457      15031.08   53.297     13175      6696      
2699.599924 1208       10.59      463        81         0          361.472    16720      13         0          0          4.233      534        10455      15032.36   53.281     13171      6700      
2699.799924 1208       10.96      494        95         0          361.965    16740      14         0          0          4.233      493        10453      15033.7    53.271     13169      6701      
2699.999923 1208       11.15      494        69         0          361.414    16717      14         0          0          4.2346     580        10451      15035.01   53.261     13166      6699      
2700.199923 1207       11.65      534        59         1          361.645    16727      14         0          0          4.2282     545        10447      15036.81   53.257     13165      6707      
2700.399923 1207       11.95      531        84         0          362.157    16748      13         0          0          4.2306     580        10444      15038.1    53.253     13164      6705      
2700.599922 1208       11.92      518        92         0          362.699    16770      14         0          0          4.235      580        10446      15039.42   53.244     13162      6705      
2700.799922 1208       11.71      473        76         0          363.707    16812      14         0          0          4.2322     580        10445      15040.73   53.236     13160      6703      
2700.999922 1207       10.93      443        71         0          362.913    16779      14         0          0          4.2282     550        10447      15042.03   53.224     13157      6702      
2701.199921 1207       9.97       389        80         0          363.625    16808      14         0          0          4.2282     522        10444      15043.33   53.212     13154      6702      
2701.399921 1206       9.45       389        87         0          364.162    16831      14         0          0          4.2235     580        10440      15044.6    53.199     13151      6704      
2701.599921 1206       10.15      511        76         0          365.477    16885      14         0          0          4.2242     580        10437      15045.92   53.173     13144      6701      
2701.799921 1207       10.94      511        65         0          361.532    16723      14         0          0          4.2282     550        10430      15047.22   53.164     13142      6706      
2701.99992 1207       12.37      617        59         0          361.878    16737      14         0          0          4.2266     522        10426      15048.52   53.139     13136      6698      
2702.19992 1206       13.24      617        58         0          361.003    16701      14         0          0          4.2219     580        10424      15049.79   53.127     13133      6705      
2702.39992 1206       12.96      549        67         0          362.743    16773      14         0          0          4.2243     533        10421      15051.11   53.123     13132      6709      
2702.599919 1206       12.79      549        55         0          363.187    16791      14         0          0          4.2228     550        10417      15052.4    53.108     13128      6700      
2702.799919 1206       12.51      530        77         0          364.069    16828      14         0          0          4.2235     510        10413      15053.71   53.095     13125      6703      
2702.999919 1204       12.35      530        63         0          364.324    16838      14         0          0          4.214      580        10410      15055.04   53.076     13120      6686      
2703.199918 1204       12.55      557        136        0          363.847    16819      14         0          0          4.2126     533        10407      15056.29   53.067     13118      6700      
2703.399918 1201       12.51      520        2892       0          364.82     16859      13         0          0          4.1997     580        10407      15057.58   53.057     13116      6698      
2703.599918 1202       11.36      445        5215       0          365.239    16876      14         0          0          4.206      580        10406      15058.87   53.044     13112      6704      
2703.799917 1203       10.4       351        812        0          365.867    16902      14         0          0          4.2092     580        10405      15060.17   53.024     13107      6693      
2703.999917 1204       9.06       336        225        0          364.771    16857      14         0          0          4.214      510        10402      15061.43   53.018     13106      6710      
2704.199917 1205       8.38       331        81         0          364.559    16848      14         0          0          4.2187     552        10400      15062.73   53.009     13104      6711      
2704.399917 1205       7.93       324        67         0          364.237    16835      14         0          0          4.2171     580        10399      15064.02   52.996     13100      6711      
2704.599916 1206       7.78       345        58         0          363.975    16824      14         0          0          4.2235     580        10398      15065.35   52.983     13097      6710      
2704.799916 1205       7.89       349        77         0          363.961    16824      14         0          0          4.2173     580        10398      15066.67   52.97      13094      6711      
2704.999916 1205       8.36       426        77         0          363.583    16808      14         0          0          4.2187     545        10397      15067.96   52.966     13093      6711      
2705.199915 1203       9.04       426        73         0          363.113    16789      14         0          0          4.21       580        10392      15069.21   52.96      13091      6711      
2705.399915 1201       10.38      573        87         0          362.338    16757      13         0          0          4.1997     510        10391      15070.54   52.951     13089      6710      
2705.599915 1205       11.78      573        74         0          363.128    16790      14         0          0          4.2179     568        10387      15071.81   52.937     13086      6711      
2705.799915 1203       12.56      590        84         0          362.713    16773      14         0          0          4.2092     580        10383      15073.14   52.925     13083      6710      
2705.999914 1203       13.04      590        60         0          363.813    16818      14         0          0          4.2076     533        10378      15074.4    52.92      13082      6710      
