~Version
 VERS              .         2.0                           : CWLS LOG ASCII STANDARD - VERSION 2.0
 WRAP              .         NO                            : ONE LINE PER DEPTH STEP
 DLM               .         SPACE                         : DELIMITING CHARACTER(SPACE TAB OR COMMA)
~Well Information
#_______________________________________________________________________________
#
#PARAMETER_NAME    .UNIT     VALUE                         : DESCRIPTION
#_______________________________________________________________________________
STRT               .M        1549.2                        : First reference value
STOP               .M        2296.2                        : Last reference value
STEP               .M        0.2                           : Step increment
NULL               .         -9999                         : Missing value
COMP               .                                       : Company
WELL               .         616                           : Well name
FLD                .                                       : Field
LOC                .                                       : Location
CNTY               .                                       : County
STAT               .                                       : State
CTRY               .                                       : Country
SRVC               .                                       : Service Company
DATE               .                                       : Date
API                .                                       : API number
PROJECT_UPGRADE_TIME .         2021-03-18T21_24_50           : 
group              .         Good                          : 
~Parameter Information Block
#_______________________________________________________________________________
#
#PARAMETER_NAME    .UNIT     VALUE                         : DESCRIPTION
#_______________________________________________________________________________
SET                .         616_10                        : 
CONF               .         00                            : 
END                .         0                             : 
ERR                .         2                             : 
GS00               .M        2294.21                       : 
GS01               .M        1546.72                       : 
MM00               .M        2240.00                       : 
NOKG               .         0                             : 
NPR                .         980119                        : 
PART               .         Палагутин                     : 
PROJECT_UPGRADE_TIME .         2021-03-18T21_24_49           : 
PRZK               .         Якименко                      : 
TLFamily_AZIMUTH   .         True Dip Azimuth              : 
TLFamily_DEPTH     .         Measured Depth                : 
TLFamily_METKA     .                                       : 
TLFamily_ROLL      .                                       : 
TLFamily_SPEED     .         Spontaneous Potential         : 
TLFamily_ZENIT     .                                       : 
VPRG               .         310                           : 
WAY                .         UP                            : 
group              .         prim                          : 
~Curve Information
#_______________________________________________________________________________
#
#LOGNAME           .UNIT     LOG_ID                        : DESCRIPTION
#_______________________________________________________________________________
DEPTH              .M                                      :  
AZIMUTH            .DEG                                    :  
METKA              .                                       :  
ROLL               .DEG                                    :  
SPEED              .M/H                                    :  
ZENIT              .DEG                                    :  
~Ascii
# ...
2086       7.19       0          151.67     612        15.47     
2086.2     350.19     0          150.28     576        15.51     
2086.4     127.11     0          149.94     684        15.57     
2086.6     294.86     0          150.89     648        15.56     
2086.8     38.24      0          152.09     648        15.57     
2087       43.41      0          152.74     684        15.35     
2087.2     357.44     0          152.09     648        15.32     
2087.4     328.07     0          153.8      684        15.31     
2087.6     356.4      0          157.04     684        15.02     
2087.8     53.08      0          160.02     684        14.69     
2088       31.25      0          163.45     648        14.58     
2088.2     62.87      0          171.49     540        14.5      
2088.4     38.32      0          184.09     684        14.52     
2088.6     53.45      0          194.15     648        14.51     
2088.8     37.95      0          203.82     684        14.53     
2089       39.96      0          215.73     648        14.71     
2089.2     18.38      0          224.1      648        14.72     
2089.4     7.13       0          227.85     648        14.7      
2089.6     37.32      0          228.67     720        14.7      
2089.8     27.72      0          228.95     648        14.66     
2090       32.94      0          230.01     684        14.65     
2090.2     11.81      0          232.29     576        14.66     
2090.4     22.41      0          235.94     648        14.63     
2090.6     5.86       0          239.93     612        14.64     
2090.8     20.49      0          246.3      684        14.56     
2091       5.83       0          257.84     684        14.65     
2091.2     26.48      0          270.42     612        14.72     
2091.4     9.59       0          281.94     684        14.88     
2091.6     8.86       0          292.8      648        14.86     
2091.8     18.96      0          302.54     684        14.77     
2092       22.75      0          310.02     684        14.84     
2092.2     20.71      1          320.25     576        14.95     
2092.4     17.72      0          335.01     612        14.85     
2092.6     9.27       0          349.76     684        14.65     
2092.8     32.93      0          5.23       612        14.53     
2093       14.82      0          16.7       648        14.67     
2093.2     356.28     0          23.86      576        14.71     
2093.4     16.34      0          26.51      684        14.69     
2093.6     15.77      0          27.73      684        14.72     
2093.8     24.99      0          28.54      612        14.62     
2094       13.95      0          29.07      684        14.57     
2094.2     28.31      0          31.02      612        14.49     
2094.4     12.74      0          36.45      648        14.44     
2094.6     26.39      0          42.14      648        14.51     
2094.8     354.06     0          46.36      612        14.44     
2095       28.16      0          55.79      684        14.41     
2095.2     35.65      0          67.97      576        14.64     
2095.4     57.65      0          80.01      684        14.72     
2095.6     332.29     0          88.91      648        14.67     
2095.8     338.21     0          98.69      684        14.68     
2096       336.43     0          110.28     612        14.73     
2096.2     31.67      0          121.06     648        14.84     
2096.4     350.54     0          130.02     648        14.78     
2096.6     284.99     0          137.06     684        14.66     
2096.8     313.76     0          142.58     648        14.65     
2097       103.29     0          147.35     648        14.64     
2097.2     48.55      0          150.38     576        14.69     
2097.4     150.12     0          152.53     648        14.8      
2097.6     105.04     0          153.68     684        14.86     
2097.8     23.1       0          153.48     648        14.84     
2098       2.77       0          151.92     684        14.9      
2098.2     8.67       0          148.76     612        14.97     
2098.4     350.85     0          146.57     684        15.03     
2098.6     352.84     0          145.28     648        15.18     
2098.8     306.5      0          146.56     684        15.16     
2099       326.13     0          150.42     648        14.96     
2099.2     356.03     0          152.01     612        14.78     
2099.4     336.87     0          150.05     612        14.66     
2099.6     337.55     0          150.72     684        14.51     
2099.8     321.3      0          155.16     648        14.33     
2100       321.37     0          161.1      684        14.46     
2100.2     315.92     0          172.5      684        14.19     
2100.4     354.01     0          184.24     612        14.23     
2100.6     23.26      0          196.72     684        14.25     
2100.8     22.41      0          208.25     684        13.94     
2101       8.46       0          216.98     648        13.95     
2101.2     353.75     0          224.61     612        14.44     
2101.4     350.19     0          229.37     684        14.46     
2101.6     356.84     0          232.41     612        14.43     
2101.8     340.22     0          237.34     684        14.25     
2102       5.99       0          249.95     648        14.25     
2102.2     318.38     1          269.46     180        14.44     
2102.4     337.29     0          292.79     684        14.59     
2102.6     183.91     0          307.29     684        14.81     
2102.8     286.25     0          321.43     648        14.64     
2103       237.22     0          334.74     612        14.43     
2103.2     269.04     0          345.05     648        14.4      
2103.4     248.02     0          353.33     684        14.39     
2103.6     240.08     0          1.95       612        14.42     
2103.8     263.46     0          10.84      648        14.23     
2104       310.82     0          20.2       648        14.2      
2104.2     288.09     0          26.99      648        14.18     
2104.4     350.85     0          30.61      684        14.31     
2104.6     250.78     0          33         648        14.33     
2104.8     292.43     0          33.72      684        14.34     
2105       290.73     0          33.83      576        14.4      
2105.2     302.2      0          33.66      684        14.35     
2105.4     298.32     0          33.41      684        14.31     
2105.6     278.05     0          33.38      648        14.3      
2105.8     290.88     0          34.18      684        14.28     
2106       241.85     0          35.74      540        14.3      
2106.2     303.28     0          37.29      684        14.29     
2106.4     280.22     0          38.82      648        14.19     
2106.6     343.09     0          47.83      648        14.12     
2106.8     299.5      0          58.85      684        14.11     
2107       356.79     0          67.93      540        14.15     
2107.2     359.38     0          76.46      684        14.22     
2107.4     354.27     0          84.16      684        14.27     
2107.6     294.34     0          91.83      648        14.4      
2107.8     320.93     0          99.57      684        14.49     
2108       14.32      0          109.71     576        14.43     
2108.2     25.32      0          121.05     684        14.44     
2108.4     166.57     0          131.46     684        14.39     
2108.6     63.39      0          139.67     684        14.36     
2108.8     186.69     0          144.97     648        14.39     
2109       64.31      0          148.83     576        14.28     
2109.2     94.1       0          151.61     648        14.24     
2109.4     94.73      0          153.68     684        14.38     
2109.6     103.26     0          155.15     648        14.49     
2109.8     37.54      0          155.24     648        14.51     
2110       22.85      0          154.74     648        14.44     
2110.2     312.28     0          153.6      648        14.61     
