~Version
 VERS              .         2.0                           : CWLS LOG ASCII STANDARD - VERSION 2.0
 WRAP              .         NO                            : ONE LINE PER DEPTH STEP
 DLM               .         SPACE                         : DELIMITING CHARACTER(SPACE TAB OR COMMA)
~Well Information
#_______________________________________________________________________________
#
#PARAMETER_NAME    .UNIT     VALUE                         : DESCRIPTION
#_______________________________________________________________________________
STRT               .M        2668.2                        : First reference value
STOP               .M        2774.000053                   : Last reference value
STEP               .M        0.2000001                     : Step increment
NULL               .         -9999                         : Missing value
COMP               .                                       : Company
WELL               .         616                           : Well name
FLD                .                                       : Field
LOC                .                                       : Location
CNTY               .                                       : County
STAT               .                                       : State
CTRY               .                                       : Country
SRVC               .                                       : Service Company
DATE               .                                       : Date
API                .                                       : API number
PROJECT_UPGRADE_TIME .         2021-03-18T21_24_50           : 
group              .         Good                          : 
~Parameter Information Block
#_______________________________________________________________________________
#
#PARAMETER_NAME    .UNIT     VALUE                         : DESCRIPTION
#_______________________________________________________________________________
SET                .         D1812_D_2                     : 
NPR                .                                       : 
OTHER              .         Программное обеспечение станции MONITOR-386EX 25/12/99 15_08_10   BGF V52 22/08/01 16_56_30   3.1_SNGF___BGF_N_092049: 
OTHER_10           .         Тарировки_                    : 
OTHER_11           .         TM.GRD = 0.00403*TM$.UE + -1.07: 
OTHER_12           .         MN.ATM = (9.34907e-006*TM.GRD + 0.02171)*(MN$.UE + -7.93*TM.GRD + -1787): 
OTHER_13           .         GK.MKR/H = LM. / 42.4676      : 
OTHER_14           .         GK.FLT = 0.1*GK.MKR/H[-1] + (1-0.1)*GK.MKR/H[0]: 
OTHER_2            .         Kedr.exe версия 3.4.2.51      : 
OTHER_3            .         KedrData.dll версия 3.4.2.24  : 
OTHER_4            .         Драйвер версия 2.1.1.3        : 
OTHER_5            .         Мнемоники версия 3.3 S        : 
OTHER_6            .         Прибор_ КСА-Т4                : 
OTHER_7            .         Номер прибора_ 03             : 
OTHER_8            .         Режим_ КСА-Т4                 : 
OTHER_9            .         Форма_ КВА.                   : 
PR                 .                                       : 
PROJECT_UPGRADE_TIME .         2021-03-18T21_24_49           : 
PRTY               .         ПП-603-1                      : N партии
SRV                .                                       : 
SRVC               .         Карпов                        : Начальник партии
TLFamily_DEPT      .         Measured Depth                : 
TLFamily_LM        .         Casing Collar locator         : 
TLFamily_MN        .                                       : 
TLFamily_TM        .         Temperature                   : 
group              .         second                        : 
~Curve Information
#_______________________________________________________________________________
#
#LOGNAME           .UNIT     LOG_ID                        : DESCRIPTION
#_______________________________________________________________________________
DEPT               .M                                      : Depth curve 
LM                 .е.ацп                                  : Локатор муфт,е.ацп 
MN                 .атм                                    : Манометрия, атм 
TM                 .град.C                                 : Термограмма по стволу скважины,град.C 
~Ascii
2668.1999512 -9999      -9999      -9999     
2668.4     -9999      -9999      -9999     
2668.6     155.976    -9999      -9999     
2668.8     4101.037   -9999      -9999     
2669       1039.748   -9999      -9999     
2669.2     440.146    -9999      -9999     
2669.400001 345.023    -9999      -9999     
2669.600001 498.962    -9999      -9999     
2669.800001 322.043    -9999      -9999     
2670.000001 332.997    -9999      -9999     
2670.200001 302.008    245.629    51.808    
2670.400001 309.998    245.592    51.804    
2670.600001 329.995    245.651    51.805    
2670.800001 336.998    245.651    51.808    
2671.000001 351.996    245.666    51.8      
2671.200001 347.001    245.674    51.794    
2671.400002 371.994    245.682    51.788    
2671.600002 295.019    245.697    51.787    
2671.800002 302.998    245.72     51.779    
2672.000002 290.003    245.721    51.763    
2672.200002 289        245.729    51.753    
2672.400002 271.004    245.745    51.742    
2672.600002 277.998    245.754    51.731    
2672.800002 285.998    245.791    51.718    
2673.000002 299.997    245.792    51.708    
2673.200002 274.006    245.814    51.697    
2673.400003 276.999    245.815    51.687    
2673.600003 256.005    245.839    51.671    
2673.800003 255        245.839    51.659    
2674.000003 270.996    245.862    51.656    
2674.200003 255.004    245.884    51.65     
2674.400003 278.994    245.885    51.636    
2674.600003 250.007    245.909    51.626    
2674.800003 249        245.921    51.614    
2675.000003 227.005    245.933    51.601    
2675.200003 216.003    245.956    51.587    
2675.400004 280.984    245.964    51.575    
2675.600004 253.007    245.98     51.566    
2675.800004 256.999    246.002    51.551    
2676.000004 278.995    246.003    51.542    
2676.200004 273.001    246.041    51.527    
2676.400004 231.01     246.049    51.517    
2676.600004 235.999    246.072    51.511    
2676.800004 263.993    246.095    51.497    
2677.000004 233.008    246.096    51.485    
2677.200004 226.002    246.101    51.477    
2677.400005 259.992    246.142    51.465    
2677.600005 218.01     246.143    51.453    
2677.800005 181.009    246.166    51.445    
2678.000005 234.987    246.174    51.433    
2678.200005 244.998    246.208    51.424    
2678.400005 210.009    246.213    51.41     
2678.600005 197.003    246.236    51.395    
2678.800005 222.994    246.259    51.384    
2679.000005 215.002    246.281    51.379    
2679.200005 220.999    246.297    51.364    
2679.400006 193.007    246.305    51.355    
2679.600006 236.989    246.328    51.344    
2679.800006 191.011    246.351    51.33     
2680.000006 1580.662   246.363    51.32     
2680.200006 2178.855   246.375    51.316    
2680.400006 597.385    246.398    51.309    
2680.600006 235.088    246.42     51.294    
2680.800006 219.004    246.435    51.285    
2681.000006 217        246.444    51.274    
2681.200006 159.014    246.467    51.268    
2681.400007 207.988    246.49     51.258    
2681.600007 176.008    246.513    51.243    
2681.800007 178.999    246.514    51.231    
2682.000007 197.995    246.537    51.227    
2682.200007 178.005    246.56     51.213    
2682.400007 219.99     246.56     51.202    
2682.600007 206.003    246.584    51.187    
2682.800007 198.002    246.606    51.182    
2683.000007 209.997    246.629    51.172    
2683.200007 241.992    246.652    51.163    
2683.400008 193.012    246.653    51.151    
2683.600008 232.99     246.676    51.139    
2683.800008 229.001    246.699    51.134    
2684.000008 173.014    246.708    51.12     
2684.200008 170.001    246.745    51.106    
2684.400008 215.989    246.746    51.098    
2684.600008 154.015    246.769    51.085    
2684.800008 134.005    246.784    51.074    
2685.000008 213.981    246.814    51.069    
2685.200008 190.006    246.815    51.053    
2685.400009 163.007    246.838    51.04     
2685.600009 180.996    246.861    51.033    
2685.800009 203.994    246.884    51.019    
2686.000009 183.005    246.885    51.01     
2686.200009 177.001    246.908    51.002    
2686.400009 198.995    246.931    50.993    
2686.600009 197        246.954    50.982    
2686.800009 151.011    246.984    50.971    
2687.000009 184.992    246.999    50.965    
2687.200009 214.993    247.008    50.951    
2687.40001 181.008    247.023    50.941    
2687.60001 177.001    247.024    50.934    
2687.80001 171.001    247.069    50.921    
2688.00001 125.011    247.092    50.91     
2688.20001 182.986    247.115    50.895    
2688.40001 204.995    247.137    50.889    
2688.60001 194.003    247.16     50.881    
2688.80001 183.003    247.161    50.872    
2689.00001 203.995    247.173    50.859    
2689.20001 220.996    247.207    50.852    
2689.400011 221        247.218    50.844    
2689.600011 162.014    247.234    50.835    
2689.800011 195.992    247.253    50.821    
2690.000011 174.005    247.291    50.814    
2690.200011 194.995    247.299    50.804    
2690.400011 198.999    247.322    50.792    
2690.600011 200        247.345    50.784    
2690.800011 213.997    247.345    50.776    
2691.000011 191.006    247.368    50.768    
2691.200011 293.975    247.391    50.757    
2691.400012 2207.536   247.414    50.747    
2691.600012 894.319    247.429    50.727    
2691.800012 306.143    247.442    50.73     
2692.000012 185.029    247.482    50.72     
2692.200012 140.011    247.483    50.711    
2692.400012 166.993    247.524    50.707    
2692.600012 216.988    247.536    50.699    
2692.800012 206.003    247.574    50.687    
2693.000012 218.997    247.575    50.673    
2693.200012 219        247.575    50.662    
2693.400013 230.997    247.598    50.652    
2693.600013 175.014    247.621    50.645    
2693.800013 113.015    247.64     50.639    
2694.000013 158.989    247.667    50.627    
2694.200013 254.977    247.667    50.618    
2694.400013 211.011    247.701    50.608    
2694.600013 205.001    247.713    50.603    
2694.800013 161.011    247.748    50.599    
2695.000013 139.005    247.758    50.589    
2695.200013 161.994    247.781    50.574    
2695.400014 215.987    247.782    50.564    
2695.600014 197.005    247.805    50.558    
2695.800014 227.992    247.827    50.552    
2696.000014 193.008    247.85     50.541    
2696.200014 156.009    247.873    50.534    
2696.400014 154        247.874    50.525    
2696.600014 148.001    247.914    50.514    
2696.800014 121.007    247.942    50.504    
2697.000014 196.982    247.964    50.494    
2697.200014 280.98     247.98     50.486    
2697.400015 223.014    247.984    50.478    
2697.600015 161.015    247.989    50.467    
2697.800015 150.003    248.011    50.457    
2698.000015 148        248.045    50.45     
2698.200015 165.996    248.061    50.439    
2698.400015 173.998    248.08     50.433    
2698.600015 171.001    248.102    50.423    
2698.800015 162.002    248.121    50.417    
2699.000015 186.994    248.148    50.413    
2699.200015 192.999    248.17     50.405    
2699.400016 185.002    248.184    50.398    
2699.600016 154.007    248.216    50.389    
2699.800016 166.997    248.216    50.379    
2700.000016 193.993    248.239    50.371    
2700.200016 165.007    248.262    50.359    
2700.400016 144.005    248.281    50.349    
2700.600016 186.99     248.308    50.343    
2700.800016 143.011    248.327    50.336    
2701.000016 129.003    248.353    50.326    
2701.200016 132.999    248.354    50.32     
2701.400017 121.003    248.399    50.308    
2701.600017 126.999    248.4      50.299    
2701.800017 133.998    248.415    50.292    
2702.000017 443.925    248.423    50.282    
2702.200017 1709.694   248.446    50.276    
2702.400017 691.246    248.469    50.264    
2702.600017 214.115    248.492    50.255    
2702.800017 163.012    248.514    50.245    
2703.000017 143.005    248.537    50.242    
2703.200017 178.991    248.56     50.232    
2703.400018 171.002    248.565    50.226    
2703.600018 149.005    248.583    50.216    
2703.800018 180.992    248.614    50.204    
