~Version
 VERS              .         2.0                           : CWLS LOG ASCII STANDARD - VERSION 2.0
 WRAP              .         NO                            : ONE LINE PER DEPTH STEP
 DLM               .         SPACE                         : DELIMITING CHARACTER(SPACE TAB OR COMMA)
~Well Information
#_______________________________________________________________________________
#
#PARAMETER_NAME    .UNIT     VALUE                         : DESCRIPTION
#_______________________________________________________________________________
STRT               .M        3.8                           : First reference value
STOP               .M        216                           : Last reference value
STEP               .M        0.2                           : Step increment
NULL               .         -9999                         : Missing value
COMP               .                                       : Company
WELL               .         616                           : Well name
FLD                .                                       : Field
LOC                .                                       : Location
CNTY               .                                       : County
STAT               .                                       : State
CTRY               .                                       : Country
SRVC               .                                       : Service Company
DATE               .                                       : Date
API                .                                       : API number
PROJECT_UPGRADE_TIME .         2021-03-18T21_24_50           : 
group              .         Good                          : 
~Parameter Information Block
#_______________________________________________________________________________
#
#PARAMETER_NAME    .UNIT     VALUE                         : DESCRIPTION
#_______________________________________________________________________________
SET                .         D1350_D                       : 
OTHER              .         Программное обеспечение станции MONITOR-386EX 25/12/99 15_08_10   BGF V52 22/08/01 16_56_30   3.1_SNGF__BGF_								111238: 
OTHER_10           .         Тарировки_                    : 
OTHER_11           .         <_techsia_sc_> Постоянная времени фильтра  0.5 сек, kf=0.181269: 
OTHER_12           .         TM.GRD = 0.00428968*TM$.UE + -0.3284: 
OTHER_13           .         GK.MKR/H = GK$.UE / 40.16     : 
OTHER_14           .         NKT. = NKT$.UE / 1            : 
OTHER_2            .         Kedr.exe версия 3.3.2.43      : 
OTHER_3            .         KedrData.dll версия 3.3.2.22  : 
OTHER_4            .         Драйвер версия 2.1.1.3        : 
OTHER_5            .         Мнемоники версия 3.3 S        : 
OTHER_6            .         Прибор_ РК4-38                : 
OTHER_7            .         Номер прибора_ 35с            : 
OTHER_8            .         Режим_ РК4-38                 : 
OTHER_9            .         Форма_ 3                      : 
PROJECT_UPGRADE_TIME .         2021-03-18T21_24_49           : 
TLFamily_DEPT      .         Measured Depth                : 
TLFamily_GK        .         Gamma Ray                     : 
TLFamily_GK$       .                                       : 
TLFamily_LM        .         Casing Collar locator         : 
TLFamily_METKA     .                                       : 
TLFamily_NKT       .         Neutron Far                   : 
TLFamily_NKT$      .         Neutron Far                   : 
TLFamily_RCOR      .                                       : 
TLFamily_SPID      .         Spontaneous Potential         : 
TLFamily_TENS      .         Cable Tension                 : 
TLFamily_TIME      .         Time                          : 
TLFamily_TM        .         Temperature                   : 
TLFamily_TM$       .         Temperature                   : 
group              .         prim                          : 
~Curve Information
#_______________________________________________________________________________
#
#LOGNAME           .UNIT     LOG_ID                        : DESCRIPTION
#_______________________________________________________________________________
DEPT               .M                                      : 1 Глубина, м -    0.0 см 
GK                 .MKR/H                                  : 12 Гамма-активность, мкр./ч -   23.0 см 
GK$                .UE                                     : 10 Гамма-активность, усл.ед. -   23.0 см 
LM                 .                                       : 8 Локатор муфт,  -  180.0 см 
METKA              .                                       : 3 Метки,  -    0.0 см 
NKT                .                                       : 13 НКТ, прив. -  160.0 см 
NKT$               .UE                                     : 9 НКТ, усл.ед. -  160.0 см 
RCOR               .CM/KM                                  : 5 Коррекция по ролику, см/км -    0.0 см 
SPID               .M/H                                    : 2 Скорость, м/час -    0.0 см 
TENS               .T                                      : 6 Натяжение кабеля, т -    0.0 см 
TIME               .S                                      : 4 Время, сек -    0.0 см 
TM                 .GRD                                    : 11 Температура, °C -  193.0 см 
TM$                .UE                                     : 7 Температура, усл.ед. -  193.0 см 
~Ascii
# ...
160.6      3.05       121        253        0          0.001      0          7013       -322       0          2387.74    3.884      982       
160.8      3.23       118        215        0          0.005      0          7013       -322       0          2385.48    3.868      978       
161        3.73       144        154        0          0.023      0          7013       -308       0          2383.21    3.863      977       
161.2      4.01       159        271        0          0.103      0          7013       -313       0          2380.94    3.841      972       
161.4      4.14       164        222        0          0.417      0          7013       -317       0          2378.63    3.831      970       
161.6      4.31       175        222        0          0.632      1          7013       -314       0          2376.32    3.814      966       
161.8      4.16       169        189        0          0          0          7013       -327       0          2374.1     3.787      959       
162        3.98       161        208        0          0          0          7013       -312       0          2371.79    3.773      956       
162.2      4          159        227        0          0          0          7013       -308       0          2369.48    3.753      951       
162.4      4.11       160        309        0          0          0          7013       -314       0          2367.27    3.757      952       
162.6      4.3        165        262        0          0          0          7013       -318       0          2364.97    3.74       949       
162.8      4.51       178        318        0          0          0          7013       -312       0          2362.68    3.714      942       
163        4.53       188        304        0          0          0          7013       -313       0          2360.48    3.708      941       
163.2      4.2        179        345        0          0          0          7013       -315       0          2358.24    3.648      927       
163.4      3.75       149        317        0          0          0          7013       -315       0          2355.89    3.652      928       
163.6      3.86       154        362        0          0          0          7013       -315       0          2353.75    3.601      916       
163.8      3.93       160        381        0          0          0          7013       -320       0          2351.41    3.61       918       
164        3.74       147        306        0          0          0          7013       -325       0          2349.12    3.599      916       
164.2      4.02       147        346        0          0          0          7013       -312       0          2346.82    3.579      911       
164.4      3.99       166        222        0          0          0          7013       -319       0          2344.62    3.567      908       
164.6      3.96       158        218        0          0          0          7013       -319       0          2342.23    3.558      906       
164.8      4.05       158        239        0          0          0          7013       -316       0          2339.98    3.545      903       
165        4.07       169        251        0          0          0          7013       -321       0          2337.74    3.519      897       
165.2      3.94       158        218        0          0          0          7013       -314       0          2335.49    3.504      893       
165.4      3.95       157        217        0          0          0          7013       -309       0          2333.25    3.494      891       
165.6      4.04       163        236        0          0          0          7013       -308       0          2330.95    3.472      886       
165.8      3.99       163        215        0          0          0          7013       -321       0          2328.6     3.438      878       
166        3.78       150        317        0          0          0          7013       -320       0          2326.33    3.432      877       
166.2      3.95       153        374        0          0          0          7013       -320       0          2324.14    3.408      871       
166.4      4.44       167        225        0          0          0          7013       -320       0          2321.84    3.378      864       
166.6      4.5        181        231        0          0          0          7013       -319       0          2319.54    3.363      860       
166.8      4.1        188        222        0          0          0          7013       -318       0          2317.35    3.352      858       
167        3.51       155        314        0          0          0          7013       -324       0          2315.05    3.335      854       
167.2      3.3        127        341        0          0          0          7013       -314       0          2312.71    3.288      843       
167.4      3.58       138        3284       0          0          0          7013       -313       0          2310.39    3.268      838       
167.6      3.87       149        6916       0          0          0          7013       -317       0          2308.22    3.251      835       
167.8      4.15       165        210        0          0          0          7013       -322       0          2305.88    3.225      828       
168        4.26       177        248        0          0          0          7013       -313       0          2303.58    3.219      827       
168.2      3.79       153        184        0          0          0          7013       -312       0          2301.34    3.183      819       
168.4      3.72       148        187        0          0          0          7013       -319       0          2299.1     3.172      816       
168.6      3.83       148        199        0          0          0          7013       -318       0          2296.8     3.146      810       
168.8      3.91       155        237        0          0          0          7013       -317       0          2294.5     3.125      805       
169        3.9        158        303        0          0          0          7013       -313       0          2292.21    3.079      794       
169.2      3.93       155        206        0          0          0          7013       -311       0          2289.92    3.078      794       
169.4      4.07       158        221        0          0          0          7013       -310       0          2287.72    3.048      787       
169.6      4.17       170        304        0          0          0          7013       -318       0          2285.48    3.052      788       
169.8      4.06       166        262        0          0          0          7013       -312       0          2283.13    3          776       
170        3.94       155        313        2          0          0          7013       -295       0          2280.91    3          776       
170.2      4.13       167        247        0          0          0          7013       -302       0          2278.71    2.988      773       
170.4      4.02       165        255        0          0          0          7013       -316       0          2277.85    2.973      770       
170.6      3.97       165        254        0          0          0          7013       -317       0          2275.6     2.939      762       
170.8      3.71       148        294        0          0          0          7013       -313       0          2273.36    2.932      760       
171        3.77       152        316        0          0          0          7013       -312       0          2270.97    2.906      754       
171.2      3.73       147        265        0          0          0          7013       -314       0          2268.77    2.88       748       
171.4      3.96       157        230        0          0          0          7013       -321       0          2266.47    2.855      742       
171.6      4.12       167        275        0          0          0          7013       -321       0          2264.18    2.835      737       
