~Version
 VERS              .         2.0                           : CWLS LOG ASCII STANDARD - VERSION 2.0
 WRAP              .         NO                            : ONE LINE PER DEPTH STEP
 DLM               .         SPACE                         : DELIMITING CHARACTER(SPACE TAB OR COMMA)
~Well Information
#_______________________________________________________________________________
#
#PARAMETER_NAME    .UNIT     VALUE                         : DESCRIPTION
#_______________________________________________________________________________
STRT               .M        2659.6                        : First reference value
STOP               .M        2768.6                        : Last reference value
STEP               .M        0.2                           : Step increment
NULL               .         -9999                         : Missing value
COMP               .                                       : Company
WELL               .         616                           : Well name
FLD                .                                       : Field
LOC                .                                       : Location
CNTY               .                                       : County
STAT               .                                       : State
CTRY               .                                       : Country
SRVC               .                                       : Service Company
DATE               .                                       : Date
API                .                                       : API number
PROJECT_UPGRADE_TIME .         2021-03-18T21_24_50           : 
group              .         Good                          : 
~Parameter Information Block
#_______________________________________________________________________________
#
#PARAMETER_NAME    .UNIT     VALUE                         : DESCRIPTION
#_______________________________________________________________________________
SET                .         D1166_D                       : 
OTHER              .         Программное обеспечение станции MONITOR-386EX 25/12/99 15_08_10   BGF V52 22/08/01 16_56_30   3.2_BGF_N_3070031: 
OTHER_10           .         Тарировки_                    : 
OTHER_11           .         TM.GRD = 0.00403*TM$.UE + -1.19: 
OTHER_12           .         MN.ATM = (7.1e-006*TM.GRD + 0.02017)*(MN$.UE + -3.03*TM.GRD + -1833): 
OTHER_13           .         Id error                      : 
OTHER_2            .         Kedr.exe версия 3.4.2.51      : 
OTHER_3            .         KedrData.dll версия 3.4.2.24  : 
OTHER_4            .         Драйвер версия 2.1.1.8        : 
OTHER_5            .         Мнемоники версия 3.3 S        : 
OTHER_6            .         Прибор_ КСА-М1                : 
OTHER_7            .         Номер прибора_ 265            : 
OTHER_8            .         Режим_ КСА-М1                 : 
OTHER_9            .         Форма_ ТЕРМОМЕТР              : 
PROJECT_UPGRADE_TIME .         2021-03-18T21_24_49           : 
TLFamily_DEPT      .         Measured Depth                : 
TLFamily_GK        .         Gamma Ray                     : 
TLFamily_GK$       .                                       : 
TLFamily_LM        .         Casing Collar locator         : 
TLFamily_METKA     .                                       : 
TLFamily_MN        .                                       : 
TLFamily_MN$       .                                       : 
TLFamily_RCOR      .                                       : 
TLFamily_SPID      .         Spontaneous Potential         : 
TLFamily_STD       .                                       : 
TLFamily_TENS      .         Cable Tension                 : 
TLFamily_TIME      .         Time                          : 
TLFamily_TM        .         Temperature                   : 
TLFamily_TM$       .         Temperature                   : 
TLFamily_VGD       .         Gas Volume                    : 
group              .         prim                          : 
~Curve Information
#_______________________________________________________________________________
#
#LOGNAME           .UNIT     LOG_ID                        : DESCRIPTION
#_______________________________________________________________________________
DEPT               .M                                      : 1 Глубина, м -    0.0 см 
GK                 .MKR/H                                  : 15 Гамма-активность, мкр./ч -  110.0 см 
GK$                .UE                                     : 12 Гамма-активность, усл.ед. -  110.0 см 
LM                 .                                       : 10 Локатор муфт,  -   20.0 см 
METKA              .                                       : 3 Метки,  -    0.0 см 
MN                 .ATM                                    : 14 Давление, атм. -  160.0 см 
MN$                .UE                                     : 8 Давление, усл.ед. -  160.0 см 
RCOR               .CM/KM                                  : 5 Коррекция по ролику, см/км -    0.0 см 
SPID               .M/H                                    : 2 Скорость, м/час -    0.0 см 
STD                .                                       : 11 Приток,  -  170.0 см 
TENS               .T                                      : 6 Натяжение кабеля, т -    0.0 см 
TIME               .S                                      : 4 Время, сек -    0.0 см 
TM                 .GRD                                    : 13 Температура, °C -  180.0 см 
TM$                .UE                                     : 7 Температура, усл.ед. -  180.0 см 
VGD                .                                       : 9 Влагомер,  -  170.0 см 
~Ascii
# ...
2698.8     9.11       396        1          0          360.222    19429      -1400      590        31472      0          22126.43   85.802     21586      6571      
2699       9.23       397        1          0          357.563    19301      -1400      585        31476      0          22127.69   85.81      21588      6570      
2699.2     9.24       394        1          0          358.662    19354      -1400      594        31472      0          22128.88   85.816     21590      6571      
2699.4     9.14       389        1          0          359.94     19415      -1400      591        31469      0          22130.1    85.82      21591      6571      
2699.6     9.11       389        1          0          357.467    19296      -1400      593        31467      0          22131.32   85.823     21591      6571      
2699.8     8.88       375        1          0          358.839    19362      -1400      577        31470      0          22132.57   85.83      21593      6570      
2700       8.93       391        1          2          359.747    19406      -1400      588        31473      0          22133.76   85.833     21594      6571      
2700.2     9.34       407        1          0          357.756    19310      -1400      597        31472      0          22135.09   85.84      21596      6571      
2700.4     9.44       403        1          0          358.79     19360      -1400      592        31473      0          22136.33   85.846     21597      6570      
2700.6     9.1        382        1          0          359.402    19389      -1400      592        31470      0          22137.55   85.85      21598      6570      
2700.8     8.98       382        1          0          357.56     19300      -1400      597        31475      0          22138.76   85.85      21598      6571      
2701       7.73       299        1          0          358.28     19335      -1400      598        31476      0          22139.97   85.857     21600      6571      
2701.2     6.98       273        1          0          358.47     19344      -1400      592        31477      0          22141.22   85.858     21600      6570      
2701.4     6.26       253        1          0          358.355    19339      -1400      590        31478      0          22142.41   85.862     21601      6571      
2701.6     6.02       252        1          0          358.401    19341      -1400      592        31481      0          22143.64   85.87      21603      6570      
2701.8     5.89       249        1          0          358.51     19346      -1400      589        31482      0          22144.9    85.874     21604      6570      
2702       5.84       249        1          0          358.915    19366      -1400      587        31485      0          22146.11   85.881     21606      6570      
2702.2     6.52       295        1          0          358.697    19355      -1400      591        31485      0          22147.29   85.885     21607      6566      
2702.4     6.81       299        1          0          358.998    19370      -1400      588        31487      0          22148.54   85.888     21608      6566      
2702.6     7.15       312        1          0          359.898    19413      -1400      592        31492      0          22149.78   85.894     21609      6567      
2702.8     7.25       312        1          0          358.483    19345      -1400      589        31497      0          22150.92   85.898     21610      6566      
2703       7.05       297        1          0          359.225    19380      -1400      592        31498      0          22152.18   85.902     21611      6567      
2703.2     6.98       297        1          0          360.358    19435      -1400      584        31495      0          22153.45   85.907     21612      6567      
2703.4     6.81       286        55         0          358.608    19351      -1400      592        31501      0          22154.63   85.916     21614      6566      
2703.6     6.72       286        1887       0          359.528    19395      -1400      594        31501      0          22155.81   85.919     21615      6566      
2703.8     6.7        286        555        0          360.801    19456      -1400      591        31505      0          22157.02   85.927     21617      6565      
2704       6.69       286        1          0          358.371    19339      -1400      588        31505      0          22158.32   85.929     21618      6567      
2704.2     6.91       302        1          0          359.426    19390      -1400      592        31513      0          22159.52   85.937     21620      6567      
2704.4     7.02       302        1          0          360.715    19452      -1400      600        31517      0          22160.7    85.94      21620      6567      
2704.6     7.14       309        1          0          358.494    19345      -1400      589        31527      0          22161.95   85.943     21621      6566      
2704.8     7.2        309        1          0          359.537    19395      -1400      596        31525      0          22163.21   85.947     21622      6565      
2705       7.09       296        1          0          360.086    19422      -1400      602        31524      0          22164.39   85.951     21623      6565      
2705.2     6.97       296        1          0          358.064    19324      -1400      601        31524      0          22165.62   85.959     21625      6566      
2705.4     6.93       295        1          0          359.372    19387      -1400      585        31528      0          22166.84   85.963     21626      6565      
2705.6     6.91       295        1          0          360.124    19424      -1400      595        31534      0          22168.03   85.967     21627      6566      
2705.8     6.86       291        1          0          358.476    19344      -1400      594        31540      0          22169.22   85.967     21627      6566      
2706       6.82       291        1          0          358.7      19355      -1400      581        31541      0          22170.5    85.973     21628      6566      
2706.2     6.96       309        1          0          358.693    19355      -1400      584        31535      0          22171.72   85.976     21629      6566      
2706.4     7.14       309        1          0          359.117    19375      -1400      594        31537      0          22172.86   85.984     21631      6567      
2706.6     7.72       355        1          0          358.714    19356      -1400      596        31537      0          22174.11   85.991     21633      6566      
2706.8     8.12       355        1          0          359.148    19376      -1400      591        31544      0          22175.38   85.995     21634      6566      
2707       8.36       368        1          0          360.318    19433      -1400      593        31542      0          22176.55   85.997     21635      6566      
2707.2     8.53       368        1          0          359.038    19371      -1400      596        31544      0          22177.73   86.008     21637      6566      
2707.4     8.55       364        1          0          359.625    19399      -1400      592        31542      0          22178.99   86.015     21639      6566      
2707.6     8.51       363        1          0          360.763    19454      -1400      589        31546      0          22180.24   86.022     21641      6566      
2707.8     8.38       348        1          0          359.055    19372      -1400      592        31548      0          22181.44   86.034     21644      6565      
2708       7.92       329        1          0          360.117    19423      -1400      589        31550      0          22182.62   86.039     21645      6565      
2708.2     7.59       307        1          0          361.486    19489      -1400      588        31553      0          22183.87   86.043     21646      6564      
2708.4     7.27       304        1          0          358.913    19365      -1400      595        31557      0          22185.08   86.047     21647      6563      
