~Version
 VERS              .         2.0                           : CWLS LOG ASCII STANDARD - VERSION 2.0
 WRAP              .         NO                            : ONE LINE PER DEPTH STEP
 DLM               .         SPACE                         : DELIMITING CHARACTER(SPACE TAB OR COMMA)
~Well Information
#_______________________________________________________________________________
#
#PARAMETER_NAME    .UNIT     VALUE                         : DESCRIPTION
#_______________________________________________________________________________
STRT               .M        1149                          : First reference value
STOP               .M        2127.4                        : Last reference value
STEP               .M        0.2                           : Step increment
NULL               .         -9999                         : Missing value
COMP               .                                       : Company
WELL               .         616                           : Well name
FLD                .                                       : Field
LOC                .                                       : Location
CNTY               .                                       : County
STAT               .                                       : State
CTRY               .                                       : Country
SRVC               .                                       : Service Company
DATE               .                                       : Date
API                .                                       : API number
PROJECT_UPGRADE_TIME .         2021-03-18T21_24_50           : 
group              .         Good                          : 
~Parameter Information Block
#_______________________________________________________________________________
#
#PARAMETER_NAME    .UNIT     VALUE                         : DESCRIPTION
#_______________________________________________________________________________
SET                .         616_9                         : 
CONF               .         00                            : 
END                .         0                             : 
ERR                .         0                             : 
GS00               .M        2125.46                       : 
GS01               .M        1146.68                       : 
MM00               .M        2120.00                       : 
NOKG               .         0                             : 
NPR                .         990907                        : 
PART               .         Ивашин                        : 
PROJECT_UPGRADE_TIME .         2021-03-18T21_24_49           : 
PRZK               .         Шакиров                       : 
TLFamily_AZIMUTH   .         True Dip Azimuth              : 
TLFamily_DEPTH     .         Measured Depth                : 
TLFamily_METKA     .                                       : 
TLFamily_ROLL      .                                       : 
TLFamily_SPEED     .         Spontaneous Potential         : 
TLFamily_ZENIT     .                                       : 
VPRG               .         310                           : 
WAY                .         UP                            : 
group              .         prim                          : 
~Curve Information
#_______________________________________________________________________________
#
#LOGNAME           .UNIT     LOG_ID                        : DESCRIPTION
#_______________________________________________________________________________
DEPTH              .M                                      :  
AZIMUTH            .DEG                                    :  
METKA              .                                       :  
ROLL               .DEG                                    :  
SPEED              .M/H                                    :  
ZENIT              .DEG                                    :  
~Ascii
# ...
1661.4     346.13     0          322.11     684        25.77     
1661.6     267.79     0          322.01     648        25.63     
1661.8     328.6      0          321.95     648        25.46     
1662       207.84     0          321.15     684        25.78     
1662.2     180        1          316.44     648        24.99     
1662.4     180        0          313.29     684        26.21     
1662.6     220.11     0          316.36     648        25.98     
1662.8     191.69     0          317.63     684        25.95     
1663       51.61      0          317.07     648        26        
1663.2     172.4      0          316.54     684        25.95     
1663.4     180        0          316.33     648        26.02     
1663.6     180        0          316.04     684        25.96     
1663.8     180        0          315.11     648        25.95     
1664       180        0          313.31     648        26.02     
1664.2     244.99     0          311.72     684        25.95     
1664.4     257.17     0          310.94     648        25.93     
1664.6     287.64     0          310.96     648        26.05     
1664.8     23.44      0          311.63     684        25.98     
1665       305.57     0          312.97     648        26.01     
1665.2     355.1      0          313.89     684        25.91     
1665.4     7.15       0          313.69     648        25.89     
1665.6     342.93     0          313.43     684        26.02     
1665.8     357.69     0          313.59     648        26.06     
1666       333.43     0          313.98     648        25.98     
1666.2     356.97     0          314.36     684        26        
1666.4     346.15     0          314.62     648        26.03     
1666.6     354.5      0          314.82     684        26.04     
1666.8     1.67       0          315.11     648        26.07     
1667       358.71     0          315.7      648        26.04     
1667.2     14.5       0          316.05     684        26.07     
1667.4     40.82      0          316.33     648        26        
1667.6     7.25       0          317.36     684        26.05     
1667.8     12.62      0          318.2      684        25.98     
1668       16.11      0          318.6      648        25.89     
1668.2     17.58      0          319.14     648        26.05     
1668.4     18.19      0          319.84     684        25.97     
1668.6     17.66      0          320.4      648        25.89     
1668.8     15.09      0          320.97     648        26        
1669       12.76      0          321.52     648        25.87     
1669.2     20.86      0          321.55     684        25.97     
1669.4     137.66     0          321.76     648        25.92     
1669.6     317.66     0          322.07     684        25.96     
1669.8     24.26      0          322.44     648        25.93     
1670       14.12      0          323.08     684        25.85     
1670.2     32.36      0          323.56     648        25.87     
1670.4     152.58     0          324.17     684        25.88     
1670.6     44.92      0          324.58     648        25.76     
1670.8     180        0          324.74     648        25.82     
1671       180        0          325.13     684        25.8      
1671.2     102.05     0          326.31     648        26.07     
1671.4     11.6       0          327.21     648        26.19     
1671.6     358.13     0          327.66     684        25.77     
1671.8     7.71       0          328.09     648        26.02     
1672       9.04       0          327.59     684        25.84     
1672.2     359.01     1          326.68     648        26.11     
1672.4     180        0          325.11     648        26.29     
1672.6     180        0          323.97     684        26.36     
1672.8     42.29      0          324.27     684        25.85     
1673       6.77       0          324.82     648        25.4      
1673.2     355.83     0          324.76     684        25.65     
1673.4     22.09      0          324.48     648        25.42     
1673.6     9.93       0          325.04     648        24.89     
1673.8     339.88     0          325.35     684        24.99     
1674       347.11     0          325.12     648        25.13     
1674.2     346.74     0          325.89     684        24.6      
1674.4     341.29     0          326.31     648        24.54     
1674.6     336.14     0          324.83     648        25.65     
1674.8     348.1      0          325.24     684        25.32     
1675       353.72     0          325.21     648        25.23     
1675.2     347.55     0          324.07     648        25.32     
1675.4     338.26     0          323.6      684        25.4      
1675.6     2.96       0          323.62     684        25.31     
1675.8     343.52     0          323.71     648        25.35     
1676       351.66     0          323.68     648        25.29     
1676.2     346.58     0          323.68     684        25.3      
1676.4     346.6      0          323.55     684        25.33     
1676.6     339.22     0          323.31     648        25.22     
1676.8     338.56     0          323.22     648        25.27     
1677       345.34     0          323.36     648        25.3      
1677.2     350.71     0          323.42     684        25.18     
1677.4     345.49     0          323.19     648        25.38     
1677.6     11.42      0          323.72     648        25.29     
1677.8     341.93     0          324.51     648        25.01     
1678       3.1        0          324.9      684        25.41     
1678.2     346.05     0          324.92     648        25.12     
1678.4     345.12     0          325.04     684        25.17     
1678.6     335.85     0          325.21     648        25.19     
1678.8     336.54     0          325.39     648        25.12     
1679       333.07     0          325.42     684        25.18     
1679.2     342.41     0          325.32     648        25.14     
1679.4     346.56     0          325.3      648        25.15     
1679.6     358.87     0          325.39     648        25.1      
1679.8     341.07     0          325.42     684        25.08     
1680       348.9      0          325.07     648        25.25     
1680.2     353.97     0          324.98     684        25.13     
1680.4     314.93     0          325.74     648        25.18     
1680.6     138.96     0          328.69     684        25.46     
1680.8     14.59      0          336.01     648        25.2      
1681       348.49     0          343.63     684        25.28     
1681.2     345.21     0          348.47     648        25.17     
1681.4     348.08     0          352.32     684        25.09     
1681.6     355.22     0          356.53     648        25.38     
1681.8     359.84     0          0.19       648        25.13     
1682       359.95     0          2.93       684        24.99     
1682.2     190        1          7.12       648        25.11     
1682.4     180        0          18.12      648        24.83     
1682.6     180        0          23.73      684        24.98     
1682.8     180        0          28.8       648        24.64     
1683       180        0          35.71      684        24.67     
1683.2     180        0          44.1       648        25.19     
1683.4     343.56     0          51.92      684        24.86     
1683.6     341.39     0          63.76      648        24.76     
1683.8     5.87       0          76.3       684        25.02     
1684       355.09     0          87.35      648        25.21     
1684.2     338.78     0          99.78      648        25.78     
1684.4     346.64     0          119.32     684        25.98     
1684.6     5.51       0          142.8      648        25.51     
1684.8     20.77      0          157.89     684        25.6      
1685       358.51     0          169.02     648        24.81     
1685.2     1.25       0          179.37     684        24.56     
1685.4     41.38      0          189.87     648        24.53     
1685.6     42.61      0          200.82     648        24.29     
