~Version
 VERS              .         2.0                           : CWLS LOG ASCII STANDARD - VERSION 2.0
 WRAP              .         NO                            : ONE LINE PER DEPTH STEP
 DLM               .         SPACE                         : DELIMITING CHARACTER(SPACE TAB OR COMMA)
~Well Information
#_______________________________________________________________________________
#
#PARAMETER_NAME    .UNIT     VALUE                         : DESCRIPTION
#_______________________________________________________________________________
STRT               .M        1549.2                        : First reference value
STOP               .M        2296.2                        : Last reference value
STEP               .M        0.2                           : Step increment
NULL               .         -9999                         : Missing value
COMP               .                                       : Company
WELL               .         616                           : Well name
FLD                .                                       : Field
LOC                .                                       : Location
CNTY               .                                       : County
STAT               .                                       : State
CTRY               .                                       : Country
SRVC               .                                       : Service Company
DATE               .                                       : Date
API                .                                       : API number
PROJECT_UPGRADE_TIME .         2021-03-18T21_24_50           : 
group              .         Good                          : 
~Parameter Information Block
#_______________________________________________________________________________
#
#PARAMETER_NAME    .UNIT     VALUE                         : DESCRIPTION
#_______________________________________________________________________________
SET                .         616_10                        : 
CONF               .         00                            : 
END                .         0                             : 
ERR                .         2                             : 
GS00               .M        2294.21                       : 
GS01               .M        1546.72                       : 
MM00               .M        2240.00                       : 
NOKG               .         0                             : 
NPR                .         980119                        : 
PART               .         Палагутин                     : 
PROJECT_UPGRADE_TIME .         2021-03-18T21_24_49           : 
PRZK               .         Якименко                      : 
TLFamily_AZIMUTH   .         True Dip Azimuth              : 
TLFamily_DEPTH     .         Measured Depth                : 
TLFamily_METKA     .                                       : 
TLFamily_ROLL      .                                       : 
TLFamily_SPEED     .         Spontaneous Potential         : 
TLFamily_ZENIT     .                                       : 
VPRG               .         310                           : 
WAY                .         UP                            : 
group              .         prim                          : 
~Curve Information
#_______________________________________________________________________________
#
#LOGNAME           .UNIT     LOG_ID                        : DESCRIPTION
#_______________________________________________________________________________
DEPTH              .M                                      :  
AZIMUTH            .DEG                                    :  
METKA              .                                       :  
ROLL               .DEG                                    :  
SPEED              .M/H                                    :  
ZENIT              .DEG                                    :  
~Ascii
# ...
1695.6     264.4      0          36.53      648        24.52     
1695.8     268.49     0          36.71      648        24.41     
1696       287.74     0          36.44      612        24.53     
1696.2     272.03     0          35.94      612        24.45     
1696.4     219.13     0          36.21      576        24.49     
1696.6     216.57     0          36.51      612        24.43     
1696.8     318.15     0          35.94      612        24.55     
1697       273.42     0          34.79      648        24.65     
1697.2     265.41     0          33.25      648        24.51     
1697.4     262.59     0          32.71      540        24.46     
1697.6     262.71     0          34.07      612        24.35     
1697.8     260.61     0          34.82      684        24.21     
1698       260.96     0          34.78      612        23.81     
1698.2     261.17     0          35.11      576        23.96     
1698.4     260.19     0          35.01      612        23.77     
1698.6     260.49     0          35.53      612        23.83     
1698.8     261.15     0          35.34      612        23.93     
1699       260.24     0          34.18      612        23.82     
1699.2     260.27     0          34.4       648        23.68     
1699.4     260.7      0          35.21      540        23.63     
1699.6     261.41     0          36.29      648        23.64     
1699.8     261.06     0          36.78      612        23.6      
1700       262.05     0          37.14      648        23.87     
1700.2     258.01     0          37.97      540        22.9      
1700.4     261.28     0          39.76      612        23.77     
1700.6     261.27     0          40.4       648        23.83     
1700.8     261.37     0          40.38      612        23.81     
1701       260.92     0          40.25      648        23.69     
1701.2     260.69     0          40.12      576        23.68     
1701.4     261.6      0          39.67      648        23.87     
1701.6     260.79     0          39.29      612        23.66     
1701.8     260.84     0          39.25      648        23.7      
1702       260.75     0          39.34      648        23.66     
1702.2     260.7      1          38.85      576        23.64     
1702.4     260.81     0          38.51      612        23.74     
1702.6     260.37     0          38.63      612        23.6      
1702.8     260.04     0          39         648        23.62     
1703       260.34     0          39.41      612        23.62     
1703.2     260.41     0          39.49      504        23.67     
1703.4     260.41     0          39.18      648        23.66     
1703.6     260.8      0          38.86      612        23.71     
1703.8     261.07     0          38.87      648        23.77     
1704       260.7      0          39.06      576        23.71     
1704.2     260.91     0          39.7       612        23.72     
1704.4     261.3      0          40.03      576        23.83     
1704.6     261.02     0          39.76      612        23.76     
1704.8     261.37     0          39.1       648        23.82     
1705       261.58     0          38         612        23.89     
1705.2     261.27     0          36.96      576        23.81     
1705.4     260.65     0          36.33      612        23.7      
1705.6     260.89     0          36.58      648        23.71     
1705.8     261.8      0          37.94      612        23.8      
1706       261.47     0          39.27      648        23.71     
1706.2     261.15     0          39.75      612        23.66     
1706.4     260.69     0          39.38      612        23.61     
1706.6     260.49     0          38.55      612        23.53     
1706.8     261.43     0          37.84      612        23.73     
1707       260.72     0          37.64      612        23.55     
1707.2     261.81     0          37.99      612        23.65     
1707.4     261.77     0          37.93      684        23.57     
1707.6     263.25     0          37.83      612        23.62     
1707.8     265.96     0          38.14      612        23.57     
1708       276.01     0          38.52      612        23.55     
1708.2     322.38     0          38.97      540        23.77     
1708.4     156.33     0          39.69      612        23.71     
1708.6     120.4      0          40.1       612        23.65     
1708.8     350.85     0          40.2       612        23.71     
1709       292.06     0          39.12      612        23.8      
1709.2     267.9      0          37.4       576        23.75     
1709.4     265.08     0          36.73      648        24.01     
1709.6     262.37     0          36.12      612        23.7      
1709.8     262.09     0          36.88      648        23.59     
1710       261.34     0          35.78      540        23.35     
1710.2     261.43     0          34.48      612        23.28     
1710.4     261.24     0          34.49      612        23.24     
1710.6     261.2      1          34.43      648        23.29     
1710.8     260.91     0          34.03      1008       23.21     
1711       260.04     0          33.76      1008       23.08     
1711.2     259.76     0          34.41      540        23.02     
1711.4     260.76     0          36.88      648        22.93     
1711.6     260.61     0          37.75      648        22.87     
1711.8     259.47     0          37.89      612        22.8      
1712       260.39     0          38.8       648        22.86     
1712.2     259.92     1          40.4       576        22.83     
1712.4     260.11     0          40.11      612        23.03     
1712.6     260.28     0          39.96      612        22.97     
1712.8     260.35     0          40.21      648        22.99     
1713       260.26     0          40.51      612        22.98     
1713.2     260.97     0          40.59      576        23.08     
1713.4     260.6      0          40.7       648        23.11     
1713.6     260.81     0          40.81      648        23.1      
1713.8     260.66     0          40.67      612        23.11     
1714       260.69     0          40.14      648        23.16     
1714.2     260.21     0          39.18      540        23.11     
1714.4     260.18     0          38.04      612        23.06     
1714.6     259.99     0          37.41      612        23.02     
1714.8     259.97     0          38.29      648        23.01     
1715       260.11     0          39.76      612        22.97     
1715.2     260.41     0          40.44      576        23.04     
1715.4     260.03     0          40.07      612        22.93     
1715.6     259.89     0          38.98      648        22.94     
1715.8     259.95     0          38.06      612        22.88     
1716       260.47     0          37.9       576        22.93     
1716.2     260.17     0          38.4       612        22.83     
1716.4     260.92     0          39.2       612        22.92     
1716.6     260.74     0          39.67      648        22.95     
1716.8     260.71     0          39.8       648        22.88     
1717       260.81     0          39.82      612        22.93     
1717.2     260.97     0          39.65      540        22.98     
1717.4     260.62     0          39.42      648        22.92     
1717.6     261.11     0          39.25      612        22.97     
1717.8     261.6      0          38.84      612        23.06     
1718       260.75     0          38.49      576        22.89     
1718.2     260.88     0          38.32      576        22.9      
1718.4     261.2      0          37.94      612        22.93     
1718.6     260.89     0          38.08      648        22.82     
1718.8     261.16     0          38.77      648        22.83     
1719       261.21     0          39.24      648        22.83     
1719.2     261.22     0          39.23      540        22.81     
1719.4     260.96     0          38.8       648        22.69     
1719.6     261.81     0          38.91      648        22.8      
1719.8     261.84     0          39.48      612        22.65     
