~Version
 VERS              .         2.0                           : CWLS LOG ASCII STANDARD - VERSION 2.0
 WRAP              .         NO                            : ONE LINE PER DEPTH STEP
 DLM               .         SPACE                         : DELIMITING CHARACTER(SPACE TAB OR COMMA)
~Well Information
#_______________________________________________________________________________
#
#PARAMETER_NAME    .UNIT     VALUE                         : DESCRIPTION
#_______________________________________________________________________________
STRT               .M        2648.8                        : First reference value
STOP               .M        2753.600052                   : Last reference value
STEP               .M        0.2000001                     : Step increment
NULL               .         -9999                         : Missing value
COMP               .                                       : Company
WELL               .         616                           : Well name
FLD                .                                       : Field
LOC                .                                       : Location
CNTY               .                                       : County
STAT               .                                       : State
CTRY               .                                       : Country
SRVC               .                                       : Service Company
DATE               .                                       : Date
API                .                                       : API number
PROJECT_UPGRADE_TIME .         2021-03-18T21_24_50           : 
group              .         Good                          : 
~Parameter Information Block
#_______________________________________________________________________________
#
#PARAMETER_NAME    .UNIT     VALUE                         : DESCRIPTION
#_______________________________________________________________________________
SET                .         D7027_D                       : 
OTHER              .         Kedr.exe версия 2.1.2.32      : 
OTHER_10           .         TM.GRD = 0.00404*TM$.UE + 0.07: 
OTHER_11           .         MN.ATM = (6.33279e-006*TM.GRD + 0.02401)*(MN$.UE + 2.72*TM.GRD + -2018): 
OTHER_12           .         GK.MKR/H = GK$.UE / 43.5489 + 0: 
OTHER_13           .         RES.SM = 0.00476*CRES.UE - 1.51709: 
OTHER_14           .         PL.GSM3 = 0 + 0 * (PL.UE / 1) +  0 * (PL.UE / 1)^2: 
OTHER_15           .         Постоянная времени ГГП = 6 сек: 
OTHER_16           .         Постоянная времени ГК = 6 сек : 
OTHER_2            .         KedrData.dll версия 3.2.2.14  : 
OTHER_3            .         LasInf.dll версия 3.2.0.13    : 
OTHER_4            .         Драйвер версия 1.2.0.5        : 
OTHER_5            .         Прибор_ КСА-M1                : 
OTHER_6            .         Номер прибора_ 155+р204       : 
OTHER_7            .         Режим_ КСА-М1 + ГГП + Резистивиметр: 
OTHER_8            .         Форма_ 223\2                  : 
OTHER_9            .         Тарировки_                    : 
PROJECT_UPGRADE_TIME .         2021-03-18T21_24_50           : 
TLFamily_CRES      .                                       : 
TLFamily_DEPT      .         Measured Depth                : 
TLFamily_GK        .         Gamma Ray                     : 
TLFamily_GK$       .                                       : 
TLFamily_LM        .         Casing Collar locator         : 
TLFamily_METKA     .                                       : 
TLFamily_MN        .                                       : 
TLFamily_MN$       .                                       : 
TLFamily_PL        .                                       : 
TLFamily_PL_2      .                                       : 
TLFamily_RCOR      .                                       : 
TLFamily_RES       .         Mud Resistivity               : 
TLFamily_SPID      .         Spontaneous Potential         : 
TLFamily_STD       .                                       : 
TLFamily_TIME      .         Time                          : 
TLFamily_TM        .         Temperature                   : 
TLFamily_TM$       .         Temperature                   : 
TLFamily_VGD       .         Gas Volume                    : 
group              .         prim                          : 
~Curve Information
#_______________________________________________________________________________
#
#LOGNAME           .UNIT     LOG_ID                        : DESCRIPTION
#_______________________________________________________________________________
DEPT               .M                                      : 1 Глубина, м -    0.0 см 
CRES               .UE                                     : 9 Проводимость, усл.ед. -  222.0 см 
GK                 .MKR/H                                  : 16 Гамма-активность, мкр./ч -  106.0 см 
GK$                .UE                                     : 13 Гамма-активность, усл.ед. -  106.0 см 
LM                 .                                       : 11 Локатор муфт,  -   16.0 см 
METKA              .                                       : 3 Метки,  -    0.0 см 
MN                 .ATM                                    : 15 Давление, атм. -  160.0 см 
MN$                .UE                                     : 7 Давление, усл.ед. -  160.0 см 
PL                 .UE                                     : 10 Плотность, усл.ед. -  270.0 см 
PL_2               .GSM3                                   : 18 Плотность, г./см3 -  270.0 см 
RCOR               .CM/KM                                  : 5 Коррекция по ролику, см/км -    0.0 см 
RES                .SM                                     : 17 Проводимость,  -  222.0 см 
SPID               .M/H                                    : 2 Скорость, м/час -    0.0 см 
STD                .                                       : 12 Приток,  -  170.0 см 
TIME               .S                                      : 4 Время, сек -    0.0 см 
TM                 .GRD                                    : 14 Температура, °C -  180.0 см 
TM$                .UE                                     : 6 Температура, усл.ед. -  180.0 см 
VGD                .                                       : 8 Влагомер,  -  170.0 см 
~Ascii
# ...
2714.400033 1194       7.52       318        351        0          249.733    12140      14         0          0          4.167      522        10073      18426.63   51.461     12721      6631      
2714.600033 1192       7.43       320        1695       0          249.758    12141      14         0          0          4.1585     545        10069      18427.95   51.455     12719      6630      
2714.800033 1193       7.45       331        659        0          249.782    12142      14         0          0          4.1632     580        10067      18429.22   51.459     12720      6630      
2715.000033 1195       7.53       331        207        0          249.804    12143      14         0          0          4.1695     580        10064      18430.53   51.455     12719      6615      
2715.200033 1194       7.69       347        273        0          249.827    12144      14         0          0          4.1663     533        10062      18431.85   51.436     12714      6625      
2715.400033 1197       7.82       347        234        0          249.834    12144      14         0          0          4.183      580        10058      18433.13   51.425     12712      6625      
2715.600033 1206       8.1        380        222        0          249.848    12145      14         0          0          4.2235     569        10056      18434.42   51.409     12708      6623      
2715.800034 1206       8.41       380        91         0          249.871    12146      14         0          0          4.2235     520        10053      18435.74   51.4       12705      6625      
2716.000034 1207       8.43       363        80         0          249.898    12147      14         0          0          4.2282     580        10052      18436.99   51.387     12702      6626      
2716.200034 1207       8.38       363        51         0          249.917    12148      14         0          0          4.2282     552        10049      18438.29   51.378     12700      6624      
2716.400034 1206       8.09       335        89         0          249.941    12149      14         0          0          4.2235     522        10050      18439.58   51.37      12698      6625      
2716.600034 1207       7.9        335        55         0          249.964    12150      14         0          0          4.2267     560        10049      18440.94   51.366     12697      6622      
2716.800034 1205       7.7        324        40         0          249.988    12151      14         0          0          4.2195     580        10051      18442.22   51.358     12695      6625      
2717.000034 1204       7.58       324        55         0          250.01     12152      14         0          0          4.2119     566        10050      18443.53   51.352     12694      6624      
2717.200034 1203       7.53       326        69         0          250.026    12153      14         0          0          4.2108     580        10048      18444.79   51.335     12689      6626      
2717.400034 1209       7.51       326        95         0          250.053    12154      14         0          0          4.2377     580        10043      18446.06   51.303     12681      6626      
2717.600034 1209       7.83       355        75         0          250.062    12154      14         0          0          4.2378     580        10039      18447.38   51.29      12678      6625      
2717.800035 1208       7.98       355        93         0          250.103    12156      14         0          0          4.233      522        10037      18448.69   51.3       12681      6626      
2718.000035 1208       8.65       414        50         0          250.104    12156      14         0          0          4.2322     522        10036      18450.01   51.301     12681      6626      
2718.200035 1208       9.08       414        76         0          250.13     12157      14         0          0          4.233      533        10037      18451.28   51.313     12684      6626      
2718.400035 1206       9.83       462        45         0          250.154    12158      14         0          0          4.2244     533        10037      18452.59   51.321     12686      6625      
2718.600035 1206       10.27      475        55         0          250.177    12159      14         0          0          4.2235     580        10037      18453.91   51.321     12686      6625      
2718.800035 1206       10.74      488        66         0          250.2      12160      14         0          0          4.2235     580        10034      18455.22   51.314     12684      6625      
2719.000035 1207       10.81      452        260        0          250.221    12161      14         0          0          4.2282     545        10029      18456.49   51.297     12680      6624      
2719.200035 1207       10.59      452        777        0          250.244    12162      14         0          0          4.2263     510        10026      18457.8    51.272     12674      6624      
2719.400035 1206       10.21      388        428        0          250.264    12163      14         0          0          4.2251     580        10024      18459.07   51.265     12672      6624      
2719.600035 1208       9.19       356        458        0          250.27     12163      14         0          0          4.233      534        10025      18460.39   51.265     12672      6625      
2719.800036 1207       8.44       311        713        0          250.293    12164      14         0          0          4.229      510        10024      18461.71   51.244     12667      6624      
2720.000036 1208       7.81       311        825        0          250.318    12166      14         0          0          4.233      580        10022      18463.02   51.21      12658      6621      
2720.200036 1206       7.42       304        762        1          250.328    12166      14         0          0          4.2225     533        10021      18464.89   51.152     12644      6621      
2720.400036 1197       7.2        304        702        0          250.364    12167      14         0          0          4.1806     580        10021      18466.14   51.164     12647      6622      
2720.600036 1196       7.09       303        400        0          250.398    12169      14         0          0          4.1759     522        10022      18467.45   51.199     12656      6622      
2720.800036 1203       7.02       303        665        0          250.416    12169      14         0          0          4.2076     580        10024      18468.77   51.231     12664      6619      
2721.000036 1206       7.11       319        256        0          250.42     12169      14         0          0          4.2235     557        10027      18470.04   51.274     12674      6618      
2721.200036 1207       7.26       322        121        0          250.472    12171      14         0          0          4.229      580        10031      18471.35   51.305     12682      6616      
2721.400036 1210       7.35       324        136        0          250.495    12172      14         0          0          4.2449     557        10038      18472.67   51.334     12689      6616      
2721.600036 1214       7.37       320        120        0          250.534    12173      14         0          0          4.2615     580        10050      18473.94   51.389     12703      6616      
2721.800037 1216       7.11       298        98         0          250.569    12174      14         0          0          4.2711     568        10067      18475.25   51.439     12715      6619      
2722.000037 1216       7.02       306        80         0          250.593    12175      14         0          0          4.2727     580        10075      18476.5    51.514     12734      6614      
2722.200037 1218       7.07       310        78         0          250.604    12175      14         0          0          4.2787     580        10084      18477.83   51.542     12741      6610      
2722.400037 1217       7.18       326        72         0          250.627    12176      14         0          0          4.2758     533        10091      18479.15   51.565     12746      6613      
