~Version
 VERS              .         2.0                           : CWLS LOG ASCII STANDARD - VERSION 2.0
 WRAP              .         NO                            : ONE LINE PER DEPTH STEP
 DLM               .         SPACE                         : DELIMITING CHARACTER(SPACE TAB OR COMMA)
~Well Information
#_______________________________________________________________________________
#
#PARAMETER_NAME    .UNIT     VALUE                         : DESCRIPTION
#_______________________________________________________________________________
STRT               .M        2648.8                        : First reference value
STOP               .M        2755.39984                    : Last reference value
STEP               .M        0.1999997                     : Step increment
NULL               .         -9999                         : Missing value
COMP               .                                       : Company
WELL               .         616                           : Well name
FLD                .                                       : Field
LOC                .                                       : Location
CNTY               .                                       : County
STAT               .                                       : State
CTRY               .                                       : Country
SRVC               .                                       : Service Company
DATE               .                                       : Date
API                .                                       : API number
PROJECT_UPGRADE_TIME .         2021-03-18T21_24_50           : 
group              .         Good                          : 
~Parameter Information Block
#_______________________________________________________________________________
#
#PARAMETER_NAME    .UNIT     VALUE                         : DESCRIPTION
#_______________________________________________________________________________
SET                .         D7023_D                       : 
OTHER              .         Kedr.exe версия 2.1.2.32      : 
OTHER_10           .         TM.GRD = 0.00404*TM$.UE + 0.07: 
OTHER_11           .         MN.ATM = (6.33279e-006*TM.GRD + 0.02401)*(MN$.UE + 2.72*TM.GRD + -2018): 
OTHER_12           .         GK.MKR/H = GK$.UE / 43.5489 + 0: 
OTHER_13           .         RES.SM = 0.00476*CRES.UE - 1.51709: 
OTHER_14           .         PL.GSM3 = 0 + 0 * (PL.UE / 1) +  0 * (PL.UE / 1)^2: 
OTHER_15           .         Постоянная времени ГГП = 6 сек: 
OTHER_16           .         Постоянная времени ГК = 6 сек : 
OTHER_2            .         KedrData.dll версия 3.2.2.14  : 
OTHER_3            .         LasInf.dll версия 3.2.0.13    : 
OTHER_4            .         Драйвер версия 1.2.0.5        : 
OTHER_5            .         Прибор_ КСА-M1                : 
OTHER_6            .         Номер прибора_ 155+р204       : 
OTHER_7            .         Режим_ КСА-М1 + ГГП + Резистивиметр: 
OTHER_8            .         Форма_ 223\2                  : 
OTHER_9            .         Тарировки_                    : 
PROJECT_UPGRADE_TIME .         2021-03-18T21_24_50           : 
TLFamily_CRES      .                                       : 
TLFamily_DEPT      .         Measured Depth                : 
TLFamily_GK        .         Gamma Ray                     : 
TLFamily_GK$       .                                       : 
TLFamily_LM        .         Casing Collar locator         : 
TLFamily_METKA     .                                       : 
TLFamily_MN        .                                       : 
TLFamily_MN$       .                                       : 
TLFamily_PL        .                                       : 
TLFamily_PL_2      .                                       : 
TLFamily_RCOR      .                                       : 
TLFamily_RES       .         Mud Resistivity               : 
TLFamily_SPID      .         Spontaneous Potential         : 
TLFamily_STD       .                                       : 
TLFamily_TIME      .         Time                          : 
TLFamily_TM        .         Temperature                   : 
TLFamily_TM$       .         Temperature                   : 
TLFamily_VGD       .         Gas Volume                    : 
group              .         prim                          : 
~Curve Information
#_______________________________________________________________________________
#
#LOGNAME           .UNIT     LOG_ID                        : DESCRIPTION
#_______________________________________________________________________________
DEPT               .M                                      : 1 Глубина, м -    0.0 см 
CRES               .UE                                     : 9 Проводимость, усл.ед. -  222.0 см 
GK                 .MKR/H                                  : 16 Гамма-активность, мкр./ч -  106.0 см 
GK$                .UE                                     : 13 Гамма-активность, усл.ед. -  106.0 см 
LM                 .                                       : 11 Локатор муфт,  -   16.0 см 
METKA              .                                       : 3 Метки,  -    0.0 см 
MN                 .ATM                                    : 15 Давление, атм. -  160.0 см 
MN$                .UE                                     : 7 Давление, усл.ед. -  160.0 см 
PL                 .UE                                     : 10 Плотность, усл.ед. -  270.0 см 
PL_2               .GSM3                                   : 18 Плотность, г./см3 -  270.0 см 
RCOR               .CM/KM                                  : 5 Коррекция по ролику, см/км -    0.0 см 
RES                .SM                                     : 17 Проводимость,  -  222.0 см 
SPID               .M/H                                    : 2 Скорость, м/час -    0.0 см 
STD                .                                       : 12 Приток,  -  170.0 см 
TIME               .S                                      : 4 Время, сек -    0.0 см 
TM                 .GRD                                    : 14 Температура, °C -  180.0 см 
TM$                .UE                                     : 6 Температура, усл.ед. -  180.0 см 
VGD                .                                       : 8 Влагомер,  -  170.0 см 
~Ascii
# ...
2730.799877 1161       14.26      641        114        0          365.943    16938      14         0          0          4.0093     580        9389       15237.35   47.984     11860      6719      
2730.999877 1160       14.41      627        120        0          367.559    17005      14         0          0          4.0061     568        9389       15238.62   47.98      11859      6720      
2731.199876 1160       14.4       627        140        0          367.987    17022      14         0          0          4.0061     568        9389       15239.95   47.984     11860      6719      
2731.399876 1161       13.87      580        123        0          369.852    17099      14         0          0          4.0085     580        9390       15241.22   47.978     11858      6719      
2731.599876 1162       13.51      559        111        0          368.733    17053      14         0          0          4.0141     540        9391       15242.52   47.984     11860      6718      
2731.799876 1162       12.95      538        100        0          366.333    16954      14         0          0          4.014      580        9390       15243.82   47.988     11861      6718      
2731.999875 1164       12.51      504        96         0          366.609    16965      14         0          0          4.0236     580        9392       15245.09   48.005     11865      6719      
2732.199875 1165       11.98      498        83         0          367.505    17002      14         0          0          4.0283     557        9395       15246.43   48.017     11868      6718      
2732.399875 1167       11.67      488        85         0          367.709    17010      14         0          0          4.0378     533        9398       15247.76   48.04      11874      6718      
2732.599874 1170       11.21      468        79         0          369.547    17086      13         0          0          4.0514     580        9404       15249.1    48.069     11881      6715      
2732.799874 1170       10.86      438        94         0          367.043    16982      14         0          0          4.0528     580        9410       15250.37   48.1       11889      6718      
2732.999874 1171       10.39      432        94         0          368.858    17057      14         0          0          4.0569     580        9416       15251.63   48.144     11900      6718      
2733.199873 1173       9.99       400        97         0          368.784    17053      14         0          0          4.0664     510        9426       15252.97   48.182     11909      6717      
2733.399873 1174       9.59       400        105        0          369.575    17086      14         0          0          4.0711     580        9434       15254.24   48.238     11923      6718      
2733.599873 1173       9.57       425        86         0          370.518    17124      14         0          0          4.0664     510        9445       15255.51   48.298     11938      6717      
2733.799873 1176       9.67       425        75         0          369.663    17088      14         0          0          4.0807     566        9456       15256.79   48.376     11957      6717      
2733.999872 1177       9.81       442        83         0          369.421    17078      14         0          0          4.0831     580        9468       15258.11   48.444     11974      6716      
2734.199872 1179       9.98       442        85         0          369.134    17066      14         0          0          4.097      560        9481       15259.4    48.504     11989      6716      
2734.399872 1181       10.03      438        94         0          369.145    17066      14         0          0          4.1045     510        9494       15260.71   48.534     11996      6716      
2734.599871 1182       10.04      438        76         0          368.608    17043      14         0          0          4.1092     580        9504       15261.98   48.573     12006      6716      
2734.799871 1183       9.9        421        79         0          368.193    17026      14         0          0          4.1121     550        9514       15263.29   48.644     12023      6715      
2734.999871 1184       9.79       421        87         0          367.495    16997      14         0          0          4.1195     533        9525       15264.59   48.739     12047      6717      
2735.19987 1187       9.75       423        85         0          367.177    16983      14         0          0          4.133      580        9539       15265.86   48.809     12064      6717      
2735.39987 1188       9.73       423        97         0          367.516    16997      14         0          0          4.1394     554        9553       15267.2    48.865     12078      6715      
2735.59987 1190       9.93       448        81         0          369.296    17069      13         0          0          4.1473     580        9566       15268.53   48.932     12095      6717      
2735.79987 1191       10.11      448        94         0          367.384    16990      14         0          0          4.1536     510        9582       15269.79   49.023     12117      6716      
2735.999869 1195       10.03      431        87         0          368.297    17027      14         0          0          4.1711     580        9597       15271.07   49.086     12133      6715      
2736.199869 1195       9.96       431        115        0          367.75     17004      14         0          0          4.1703     570        9612       15272.39   49.168     12153      6714      
2736.399869 1195       9.99       436        101        0          368.504    17035      14         0          0          4.1731     580        9628       15273.67   49.257     12175      6714      
2736.599868 1199       9.96       427        4533       0          369.937    17093      14         0          0          4.1886     580        9644       15274.96   49.332     12194      6714      
2736.799868 1205       9.81       420        1658       0          370.412    17112      13         0          0          4.218      580        9663       15276.22   49.428     12217      6715      
2736.999868 1202       9.76       428        417        0          371.089    17139      13         0          0          4.2044     580        9682       15277.56   49.562     12251      6713      
2737.199867 1206       9.79       428        163        0          370.277    17104      14         0          0          4.2251     533        9703       15278.89   49.667     12276      6709      
2737.399867 1205       9.88       443        125        0          370.988    17133      13         0          0          4.2187     545        9725       15280.16   49.788     12307      6712      
2737.599867 1208       10.35      473        102        0          370.242    17102      14         0          0          4.2314     521        9745       15281.5    49.894     12333      6712      
2737.799867 1210       10.49      447        102        0          370.806    17125      14         0          0          4.2402     580        9764       15282.77   49.966     12350      6710      
2737.999866 1213       10.25      436        99         0          369.899    17086      14         0          0          4.2568     580        9782       15284.1    50.041     12369      6708      
2738.199866 1215       10.1       430        115        0          369.757    17080      14         0          0          4.267      545        9801       15285.37   50.158     12398      6710      
2738.399866 1218       9.99       430        149        0          368.926    17045      13         0          0          4.2798     522        9819       15286.71   50.283     12429      6702      
2738.599865 1218       10.23      471        136        0          368.099    17010      14         0          0          4.2806     580        9839       15287.97   50.386     12454      6703      
2738.799865 1220       10.51      471        105        0          368.524    17027      14         0          0          4.2917     580        9860       15289.24   50.505     12484      6705      
