~Version
 VERS              .         2.0                           : CWLS LOG ASCII STANDARD - VERSION 2.0
 WRAP              .         NO                            : ONE LINE PER DEPTH STEP
 DLM               .         SPACE                         : DELIMITING CHARACTER(SPACE TAB OR COMMA)
~Well Information
#_______________________________________________________________________________
#
#PARAMETER_NAME    .UNIT     VALUE                         : DESCRIPTION
#_______________________________________________________________________________
STRT               .M        2689.5                        : First reference value
STOP               .M        2741.9                        : Last reference value
STEP               .M        0.09999981                    : Step increment
NULL               .         -9999                         : Missing value
COMP               .                                       : Company
WELL               .         616                           : Well name
FLD                .                                       : Field
LOC                .                                       : Location
CNTY               .                                       : County
STAT               .                                       : State
CTRY               .                                       : Country
SRVC               .                                       : Service Company
DATE               .                                       : Date
API                .                                       : API number
PROJECT_UPGRADE_TIME .         2021-03-18T21_24_50           : 
group              .         Good                          : 
~Parameter Information Block
#_______________________________________________________________________________
#
#PARAMETER_NAME    .UNIT     VALUE                         : DESCRIPTION
#_______________________________________________________________________________
SET                .         D7030_D                       : 
OTHER              .         Kedr.exe версия 2.1.2.32      : 
OTHER_10           .         RGD. = 0.647457 * RGD. + 2.35279: 
OTHER_2            .         KedrData.dll версия 3.2.2.14  : 
OTHER_3            .         LasInf.dll версия 3.2.0.13    : 
OTHER_4            .         Драйвер версия 1.2.0.6        : 
OTHER_5            .         Прибор_ Расходомер            : 
OTHER_6            .         Номер прибора_ 963            : 
OTHER_7            .         Режим_ Расходомер             : 
OTHER_8            .         Форма_ Саня                   : 
OTHER_9            .         Тарировки_                    : 
PROJECT_UPGRADE_TIME .         2021-03-18T21_24_50           : 
TLFamily_DEPT      .         Measured Depth                : 
TLFamily_METKA     .                                       : 
TLFamily_RCOR      .                                       : 
TLFamily_RGD       .                                       : 
TLFamily_RGD_2     .                                       : 
TLFamily_SPID      .         Spontaneous Potential         : 
TLFamily_TIME      .         Time                          : 
group              .         prim                          : 
~Curve Information
#_______________________________________________________________________________
#
#LOGNAME           .UNIT     LOG_ID                        : DESCRIPTION
#_______________________________________________________________________________
DEPT               .M                                      : 1 Глубина, м -    0.0 см 
METKA              .                                       : 3 Метки,  -    0.0 см 
RCOR               .CM/KM                                  : 5 Коррекция по ролику, см/км -    0.0 см 
RGD                .                                       : 6 Расход, усл.ед. -   49.0 см 
RGD_2              .                                       : 7 Расход, м3/сут -   49.0 см 
SPID               .M/H                                    : 2 Скорость, м/час -    0.0 см 
TIME               .S                                      : 4 Время, сек -    0.0 см 
~Ascii
# ...
2699.9     1          0          91         61.32      -190       43843.61  
2700       0          0          92         61.9       -190       43839.36  
2700.1     0          0          94         63.28      -131       43837.35  
2700.2     0          0          93         62.37      -190       43835.35  
2700.3     0          0          95         64.03      -190       43833.35  
2700.4     0          0          98         65.7       -130       43831.37  
2700.5     0          0          83         55.85      -190       43829.36  
2700.6     0          0          98         65.79      -130       43827.48  
2700.7     0          0          84         56.97      -190       43825.36  
2700.8     0          0          89         60.27      -130       43823.6   
2700.9     0          0          97         65.31      -160       43821.48  
2701       0          0          91         61.5       -190       43819.48  
2701.1     0          0          86         57.75      -161       43817.48  
2701.2     0          0          100        66.83      -130       43815.34  
2701.3     0          0          93         62.27      -190       43813.48  
2701.4     0          0          99         66.55      -130       43811.36  
2701.5     0          0          100        67.36      -130       43809.36  
2701.6     0          0          78         53.14      -190       43807.35  
2701.7     0          0          98         65.7       -190       43805.35  
2701.8     0          0          91         61.47      -190       43803.35  
2701.9     0          0          96         64.56      -190       43801.48  
2702       0          0          109        72.87      -190       43799.47  
2702.1     0          0          103        68.99      -190       43797.36  
2702.2     0          0          94         63.14      -190       43795.36  
2702.3     0          0          111        74.46      -190       43793.47  
2702.4     0          0          104        69.55      -190       43791.47  
2702.5     0          0          103        68.84      -190       43789.47  
2702.6     0          0          102        68.2       -190       43787.47  
2702.7     0          0          91         61.37      -190       43785.47  
2702.8     0          0          102        68.08      -190       43783.47  
2702.9     0          0          94         62.91      -190       43781.47  
2703       0          0          91         61.22      -190       43779.47  
2703.1     0          0          109        73         -190       43777.59  
2703.2     0          0          89         59.76      -190       43775.59  
2703.3     0          0          95         64.13      -190       43773.59  
2703.4     0          0          97         65.09      -190       43771.47  
2703.5     0          0          88         59.34      -190       43769.47  
2703.6     0          0          91         61.3       -190       43767.59  
2703.7     0          0          101        67.99      -190       43765.59  
2703.8     0          0          81         54.49      -190       43763.59  
2703.9     0          0          114        76.49      -130       43761.59  
2704       0          0          98         65.71      -190       43759.59  
2704.1     0          0          97         65.2       -190       43757.58  
2704.2     0          0          104        69.59      -130       43755.58  
2704.3     0          0          98         65.7       -190       43753.34  
2704.4     0          0          94         62.95      -190       43751.33  
2704.5     0          0          98         65.61      -130       43749.33  
2704.6     0          0          91         61.5       -190       43747.32  
2704.7     0          0          98         65.61      -190       43745.34  
2704.8     0          0          102        68.64      -190       43743.34  
2704.9     0          0          100        66.9       -190       43741.34  
2705       0          0          99         66.28      -190       43739.34  
2705.1     0          0          101        67.7       -190       43737.33  
2705.2     0          0          94         63.31      -190       43735.46  
2705.3     0          0          106        70.8       -190       43733.46  
2705.4     0          0          101        67.69      -190       43731.45  
2705.5     0          0          99         66.77      -190       43729.34  
2705.6     0          0          109        73.2       -190       43727.46  
2705.7     0          0          95         63.68      -190       43725.34  
2705.8     0          0          93         62.8       -130       43723.45  
2705.9     0          0          100        67.06      -190       43721.46  
2706       0          0          87         58.69      -190       43719.46  
2706.1     0          0          104        69.66      -190       43717.58  
2706.2     0          0          102        68.5       -190       43715.45  
2706.3     0          0          94         63.19      -190       43713.58  
2706.4     0          0          103        68.98      -160       43711.45  
2706.5     0          0          97         65         -190       43709.33  
2706.6     0          0          93         62.6       -190       43707.56  
2706.7     0          0          111        74.08      -190       43705.57  
2706.8     0          0          90         60.43      -160       43703.45  
2706.9     0          0          98         65.67      -130       43701.45  
2707       0          0          107        71.84      -190       43699.45  
2707.1     0          0          84         56.87      -190       43697.57  
2707.2     0          0          105        70.55      -190       43695.57  
2707.3     0          0          100        67.02      -130       43693.57  
2707.4     0          0          99         66.24      -190       43691.57  
2707.5     0          0          105        70.13      -190       43689.56  
2707.6     0          0          97         65.1       -190       43687.57  
2707.7     0          0          93         62.85      -190       43685.58  
2707.8     0          0          99         66.35      -130       43683.57  
2707.9     0          0          106        70.87      -190       43681.57  
2708       0          0          94         62.94      -190       43679.57  
2708.1     0          0          101        67.45      -130       43677.56  
2708.2     0          0          83         56.01      -190       43675.56  
2708.3     0          0          92         61.71      -190       43673.56  
2708.4     0          0          94         63.54      -190       43671.56  
2708.5     0          0          87         58.69      -190       43669.57  
2708.6     1          0          102        68.09      -131       43667.56  
2708.7     0          0          101        67.49      -190       43665.57  
2708.8     0          0          81         54.52      -190       43663.57  
2708.9     0          0          108        72.39      -190       43661.56  
2709       0          0          86         57.82      -190       43659.56  
2709.1     0          0          93         62.65      -190       43657.55  
2709.2     0          0          97         65.02      -190       43655.55  
2709.3     0          0          92         61.75      -130       43653.57  
2709.4     0          0          96         64.25      -190       43651.57  
2709.5     0          0          97         64.95      -190       43649.57  
2709.6     0          0          86         57.87      -190       43647.55  
2709.7     0          0          102        68.47      -190       43645.56  
2709.8     0          0          92         61.71      -190       43643.56  
2709.9     0          0          89         60.19      -130       43641.55  
2710       1          0          97         65.44      -190       43639.55  
2710.1     0          0          104        69.81      -189       43635.3   
2710.2     0          0          87         58.68      -190       43633.3   
