~Version
 VERS              .         2.0                           : CWLS LOG ASCII STANDARD - VERSION 2.0
 WRAP              .         NO                            : ONE LINE PER DEPTH STEP
 DLM               .         SPACE                         : DELIMITING CHARACTER(SPACE TAB OR COMMA)
~Well Information
#_______________________________________________________________________________
#
#PARAMETER_NAME    .UNIT     VALUE                         : DESCRIPTION
#_______________________________________________________________________________
STRT               .M        2659.6                        : First reference value
STOP               .M        2768.6                        : Last reference value
STEP               .M        0.2                           : Step increment
NULL               .         -9999                         : Missing value
COMP               .                                       : Company
WELL               .         616                           : Well name
FLD                .                                       : Field
LOC                .                                       : Location
CNTY               .                                       : County
STAT               .                                       : State
CTRY               .                                       : Country
SRVC               .                                       : Service Company
DATE               .                                       : Date
API                .                                       : API number
PROJECT_UPGRADE_TIME .         2021-03-18T21_24_50           : 
group              .         Good                          : 
~Parameter Information Block
#_______________________________________________________________________________
#
#PARAMETER_NAME    .UNIT     VALUE                         : DESCRIPTION
#_______________________________________________________________________________
SET                .         D1166_D                       : 
OTHER              .         Программное обеспечение станции MONITOR-386EX 25/12/99 15_08_10   BGF V52 22/08/01 16_56_30   3.2_BGF_N_3070031: 
OTHER_10           .         Тарировки_                    : 
OTHER_11           .         TM.GRD = 0.00403*TM$.UE + -1.19: 
OTHER_12           .         MN.ATM = (7.1e-006*TM.GRD + 0.02017)*(MN$.UE + -3.03*TM.GRD + -1833): 
OTHER_13           .         Id error                      : 
OTHER_2            .         Kedr.exe версия 3.4.2.51      : 
OTHER_3            .         KedrData.dll версия 3.4.2.24  : 
OTHER_4            .         Драйвер версия 2.1.1.8        : 
OTHER_5            .         Мнемоники версия 3.3 S        : 
OTHER_6            .         Прибор_ КСА-М1                : 
OTHER_7            .         Номер прибора_ 265            : 
OTHER_8            .         Режим_ КСА-М1                 : 
OTHER_9            .         Форма_ ТЕРМОМЕТР              : 
PROJECT_UPGRADE_TIME .         2021-03-18T21_24_49           : 
TLFamily_DEPT      .         Measured Depth                : 
TLFamily_GK        .         Gamma Ray                     : 
TLFamily_GK$       .                                       : 
TLFamily_LM        .         Casing Collar locator         : 
TLFamily_METKA     .                                       : 
TLFamily_MN        .                                       : 
TLFamily_MN$       .                                       : 
TLFamily_RCOR      .                                       : 
TLFamily_SPID      .         Spontaneous Potential         : 
TLFamily_STD       .                                       : 
TLFamily_TENS      .         Cable Tension                 : 
TLFamily_TIME      .         Time                          : 
TLFamily_TM        .         Temperature                   : 
TLFamily_TM$       .         Temperature                   : 
TLFamily_VGD       .         Gas Volume                    : 
group              .         prim                          : 
~Curve Information
#_______________________________________________________________________________
#
#LOGNAME           .UNIT     LOG_ID                        : DESCRIPTION
#_______________________________________________________________________________
DEPT               .M                                      : 1 Глубина, м -    0.0 см 
GK                 .MKR/H                                  : 15 Гамма-активность, мкр./ч -  110.0 см 
GK$                .UE                                     : 12 Гамма-активность, усл.ед. -  110.0 см 
LM                 .                                       : 10 Локатор муфт,  -   20.0 см 
METKA              .                                       : 3 Метки,  -    0.0 см 
MN                 .ATM                                    : 14 Давление, атм. -  160.0 см 
MN$                .UE                                     : 8 Давление, усл.ед. -  160.0 см 
RCOR               .CM/KM                                  : 5 Коррекция по ролику, см/км -    0.0 см 
SPID               .M/H                                    : 2 Скорость, м/час -    0.0 см 
STD                .                                       : 11 Приток,  -  170.0 см 
TENS               .T                                      : 6 Натяжение кабеля, т -    0.0 см 
TIME               .S                                      : 4 Время, сек -    0.0 см 
TM                 .GRD                                    : 13 Температура, °C -  180.0 см 
TM$                .UE                                     : 7 Температура, усл.ед. -  180.0 см 
VGD                .                                       : 9 Влагомер,  -  170.0 см 
~Ascii
# ...
2747.8     6.99       294        2662       0          363.832    19589      -1400      604        32373      0          22422.9    90.182     22673      6537      
2748       6.75       280        1510       0          364.695    19631      -1400      610        32373      0          22424.12   90.186     22674      6538      
2748.2     6.61       280        177        0          365.527    19671      -1400      607        32373      0          22425.34   90.19      22675      6538      
2748.4     6.95       324        1          0          363.634    19580      -1400      601        32374      0          22426.55   90.197     22677      6538      
2748.6     7.38       324        1          0          364.333    19614      -1400      610        32373      0          22427.71   90.2       22677      6538      
2748.8     8.16       385        1          0          364.77     19635      -1400      611        32374      0          22428.83   90.202     22678      6539      
2749       8.73       385        1          0          363.553    19576      -1400      603        32373      0          22430.07   90.206     22679      6539      
2749.2     8.9        383        1          0          363.272    19563      -1400      602        32373      0          22431.27   90.212     22680      6540      
2749.4     8.94       383        1          0          363.192    19559      -1400      604        32374      0          22432.39   90.215     22681      6540      
2749.6     8.89       376        1          0          364.955    19643      -1400      599        32374      0          22433.65   90.218     22682      6541      
2749.8     8.53       357        1          0          364.169    19606      -1400      594        32373      0          22434.81   90.225     22684      6539      
2750       8.36       351        1          2          364.448    19619      -1400      597        32373      0          22436.03   90.231     22685      6539      
2750.2     8.21       348        1          0          365.924    19690      -1400      594        32373      0          22437.26   90.231     22685      6539      
2750.4     8.16       348        1          0          363.788    19587      -1400      600        32373      0          22438.46   90.239     22687      6539      
2750.6     8.27       356        1          0          364.782    19635      -1400      599        32372      0          22439.61   90.247     22689      6539      
2750.8     8.31       356        1          0          365.902    19689      -1400      609        32373      0          22440.77   90.247     22689      6540      
2751       8.02       333        1          0          363.125    19555      -1400      605        32373      0          22442.04   90.251     22690      6540      
2751.2     7.86       333        1          0          364.768    19634      -1400      603        32373      0          22443.2    90.256     22691      6539      
2751.4     7.61       320        1          0          365.393    19664      -1400      607        32373      0          22444.38   90.259     22692      6540      
2751.6     7.53       320        1          0          364.012    19598      -1400      610        32373      0          22445.52   90.266     22694      6540      
2751.8     7.86       349        1          0          363.862    19591      -1400      602        32372      0          22446.74   90.271     22695      6540      
2752       8.06       349        1          0          362.957    19547      -1400      604        32373      0          22447.92   90.275     22696      6541      
2752.2     8.21       356        1          0          364.932    19642      -1400      613        32373      0          22449.11   90.279     22697      6541      
2752.4     8.29       356        1          0          364.124    19603      -1400      602        32373      0          22450.37   90.285     22699      6538      
2752.6     8.27       352        1          0          364.4      19616      -1400      600        32373      0          22451.47   90.288     22699      6540      
2752.8     8.24       352        1          0          365.976    19692      -1400      604        32373      0          22452.64   90.292     22700      6539      
2753       7.96       320        1          0          364.364    19615      -1400      608        32374      0          22453.83   90.298     22702      6539      
2753.2     7.64       320        1          0          365.262    19658      -1400      593        32373      0          22455.06   90.303     22703      6539      
2753.4     7.6        328        1          0          366.368    19711      -1400      599        32373      0          22456.28   90.307     22704      6540      
2753.6     7.81       338        1          0          363.609    19578      -1400      604        32373      0          22457.38   90.311     22705      6540      
2753.8     7.96       348        1          0          364.702    19631      -1400      603        32373      0          22458.61   90.317     22706      6540      
2754       8.11       350        1          0          365.87     19687      -1400      605        32373      0          22459.76   90.323     22708      6540      
2754.2     8.18       352        1          0          364.068    19600      -1400      602        32374      0          22460.96   90.327     22709      6540      
2754.4     8.28       356        1          0          364.972    19644      -1400      606        32373      0          22462.13   90.333     22711      6540      
2754.6     8.31       356        1          0          364.928    19642      -1400      591        32372      0          22463.36   90.335     22711      6540      
2754.8     8.31       355        1          0          365.116    19651      -1400      598        32373      0          22464.55   90.339     22712      6542      
2755       8.3        355        1          0          364.821    19637      -1400      604        32374      0          22465.69   90.347     22714      6541      
2755.2     8.37       359        1          0          365.051    19648      -1400      603        32372      0          22466.9    90.349     22714      6541      
2755.4     8.39       359        1          0          365.971    19692      -1400      603        32373      0          22468.08   90.355     22716      6541      
2755.6     8.64       377        1          0          364.539    19623      -1400      608        32372      0          22469.24   90.36      22717      6541      
2755.8     8.76       377        1          0          365.454    19667      -1400      610        32373      0          22470.43   90.364     22718      6542      
2756       8.81       378        1          0          366.698    19727      -1400      592        32373      0          22471.67   90.368     22719      6541      
2756.2     8.83       378        1          0          364.163    19605      -1400      600        32373      0          22472.83   90.37      22720      6541      
2756.4     8.42       343        1          0          365.316    19660      -1400      607        32373      0          22473.99   90.377     22721      6542      
2756.6     8.15       343        1          0          365.696    19679      -1400      607        32373      0          22475.2    90.38      22722      6542      
2756.8     7.57       286        1          0          364.553    19624      -1400      610        32372      0          22476.35   90.384     22723      6542      
2757       6.97       286        1          0          364.704    19631      -1400      612        32373      0          22477.52   90.389     22724      6542      
2757.2     6.68       273        1          0          364.582    19625      -1400      613        32373      0          22478.69   90.392     22725      6543      
2757.4     6.35       264        1          0          365.553    19672      -1400      596        32372      0          22479.95   90.395     22726      6543      
