~Version
 VERS              .         2.0                           : CWLS LOG ASCII STANDARD - VERSION 2.0
 WRAP              .         NO                            : ONE LINE PER DEPTH STEP
 DLM               .         SPACE                         : DELIMITING CHARACTER(SPACE TAB OR COMMA)
~Well Information
#_______________________________________________________________________________
#
#PARAMETER_NAME    .UNIT     VALUE                         : DESCRIPTION
#_______________________________________________________________________________
STRT               .M        2648.8                        : First reference value
STOP               .M        2753.600052                   : Last reference value
STEP               .M        0.2000001                     : Step increment
NULL               .         -9999                         : Missing value
COMP               .                                       : Company
WELL               .         616                           : Well name
FLD                .                                       : Field
LOC                .                                       : Location
CNTY               .                                       : County
STAT               .                                       : State
CTRY               .                                       : Country
SRVC               .                                       : Service Company
DATE               .                                       : Date
API                .                                       : API number
PROJECT_UPGRADE_TIME .         2021-03-18T21_24_50           : 
group              .         Good                          : 
~Parameter Information Block
#_______________________________________________________________________________
#
#PARAMETER_NAME    .UNIT     VALUE                         : DESCRIPTION
#_______________________________________________________________________________
SET                .         D7027_D                       : 
OTHER              .         Kedr.exe версия 2.1.2.32      : 
OTHER_10           .         TM.GRD = 0.00404*TM$.UE + 0.07: 
OTHER_11           .         MN.ATM = (6.33279e-006*TM.GRD + 0.02401)*(MN$.UE + 2.72*TM.GRD + -2018): 
OTHER_12           .         GK.MKR/H = GK$.UE / 43.5489 + 0: 
OTHER_13           .         RES.SM = 0.00476*CRES.UE - 1.51709: 
OTHER_14           .         PL.GSM3 = 0 + 0 * (PL.UE / 1) +  0 * (PL.UE / 1)^2: 
OTHER_15           .         Постоянная времени ГГП = 6 сек: 
OTHER_16           .         Постоянная времени ГК = 6 сек : 
OTHER_2            .         KedrData.dll версия 3.2.2.14  : 
OTHER_3            .         LasInf.dll версия 3.2.0.13    : 
OTHER_4            .         Драйвер версия 1.2.0.5        : 
OTHER_5            .         Прибор_ КСА-M1                : 
OTHER_6            .         Номер прибора_ 155+р204       : 
OTHER_7            .         Режим_ КСА-М1 + ГГП + Резистивиметр: 
OTHER_8            .         Форма_ 223\2                  : 
OTHER_9            .         Тарировки_                    : 
PROJECT_UPGRADE_TIME .         2021-03-18T21_24_50           : 
TLFamily_CRES      .                                       : 
TLFamily_DEPT      .         Measured Depth                : 
TLFamily_GK        .         Gamma Ray                     : 
TLFamily_GK$       .                                       : 
TLFamily_LM        .         Casing Collar locator         : 
TLFamily_METKA     .                                       : 
TLFamily_MN        .                                       : 
TLFamily_MN$       .                                       : 
TLFamily_PL        .                                       : 
TLFamily_PL_2      .                                       : 
TLFamily_RCOR      .                                       : 
TLFamily_RES       .         Mud Resistivity               : 
TLFamily_SPID      .         Spontaneous Potential         : 
TLFamily_STD       .                                       : 
TLFamily_TIME      .         Time                          : 
TLFamily_TM        .         Temperature                   : 
TLFamily_TM$       .         Temperature                   : 
TLFamily_VGD       .         Gas Volume                    : 
group              .         prim                          : 
~Curve Information
#_______________________________________________________________________________
#
#LOGNAME           .UNIT     LOG_ID                        : DESCRIPTION
#_______________________________________________________________________________
DEPT               .M                                      : 1 Глубина, м -    0.0 см 
CRES               .UE                                     : 9 Проводимость, усл.ед. -  222.0 см 
GK                 .MKR/H                                  : 16 Гамма-активность, мкр./ч -  106.0 см 
GK$                .UE                                     : 13 Гамма-активность, усл.ед. -  106.0 см 
LM                 .                                       : 11 Локатор муфт,  -   16.0 см 
METKA              .                                       : 3 Метки,  -    0.0 см 
MN                 .ATM                                    : 15 Давление, атм. -  160.0 см 
MN$                .UE                                     : 7 Давление, усл.ед. -  160.0 см 
PL                 .UE                                     : 10 Плотность, усл.ед. -  270.0 см 
PL_2               .GSM3                                   : 18 Плотность, г./см3 -  270.0 см 
RCOR               .CM/KM                                  : 5 Коррекция по ролику, см/км -    0.0 см 
RES                .SM                                     : 17 Проводимость,  -  222.0 см 
SPID               .M/H                                    : 2 Скорость, м/час -    0.0 см 
STD                .                                       : 12 Приток,  -  170.0 см 
TIME               .S                                      : 4 Время, сек -    0.0 см 
TM                 .GRD                                    : 14 Температура, °C -  180.0 см 
TM$                .UE                                     : 6 Температура, усл.ед. -  180.0 см 
VGD                .                                       : 8 Влагомер,  -  170.0 см 
~Ascii
# ...
2730.800041 1196       14.02      634        99         0          251.264    12214      14         0          0          4.1759     550        9715       18534.23   49.469     12228      6611      
2731.000041 1196       14.39      645        58         0          251.266    12214      14         0          0          4.1759     510        9703       18535.58   49.429     12217      6612      
2731.200041 1196       14.73      654        54         0          251.281    12215      14         0          0          4.1749     580        9689       18536.85   49.388     12207      6613      
2731.400041 1195       14.87      654        68         0          251.298    12216      14         0          0          4.1711     545        9679       18538.17   49.342     12196      6612      
2731.600041 1195       14.53      607        73         0          251.316    12217      14         0          0          4.1719     524        9668       18539.47   49.29      12183      6612      
2731.800042 1195       14.23      607        67         0          251.354    12219      14         0          0          4.1711     580        9655       18540.75   49.243     12171      6612      
2732.000042 1196       13.53      531        69         0          251.38     12220      14         0          0          4.1759     580        9650       18542.05   49.193     12159      6613      
2732.200042 1196       12.87      531        64         0          251.384    12220      14         0          0          4.1759     545        9643       18543.31   49.171     12154      6614      
2732.400042 1194       12.18      493        55         0          251.41     12222      14         0          0          4.1663     580        9634       18544.6    49.144     12147      6618      
2732.600042 1195       11.76      493        66         0          251.417    12222      14         0          0          4.1696     510        9623       18545.9    49.111     12139      6621      
2732.800042 1196       11.8       517        60         0          251.445    12223      14         0          0          4.1759     580        9611       18547.21   49.087     12133      6623      
2733.000042 1197       11.83      517        72         0          251.476    12225      14         0          0          4.182      545        9605       18548.48   49.079     12131      6623      
2733.200042 1198       11.66      496        66         0          251.488    12225      14         0          0          4.1854     580        9597       18549.81   49.071     12129      6624      
2733.400042 1199       11.52      496        79         0          251.513    12226      14         0          0          4.1901     580        9596       18551.18   49.072     12129      6620      
2733.600042 1199       10.83      437        81         0          251.538    12227      14         0          0          4.1901     580        9595       18552.44   49.075     12130      6617      
2733.800043 1200       10.43      436        90         0          251.564    12228      14         0          0          4.1968     580        9597       18553.71   49.08      12131      6619      
2734.000043 1202       10.19      433        109        0          251.582    12229      14         0          0          4.2044     580        9599       18555.01   49.089     12134      6620      
2734.200043 1204       10.06      433        108        0          251.615    12230      14         0          0          4.2139     533        9601       18556.33   49.094     12135      6621      
2734.400043 1204       9.61       399        82         0          251.642    12231      14         0          0          4.214      510        9606       18557.66   49.112     12139      6620      
2734.600043 1204       9.46       414        70         0          251.67     12232      14         0          0          4.214      510        9610       18558.98   49.133     12144      6620      
2734.800043 1206       9.66       429        71         0          251.677    12232      14         0          0          4.2219     510        9615       18560.27   49.16      12151      6619      
2735.000043 1206       9.88       460        59         0          251.71     12233      14         0          0          4.2235     580        9622       18561.56   49.187     12158      6619      
2735.200043 1208       10.22      460        61         0          251.743    12234      14         0          0          4.233      580        9628       18562.83   49.217     12165      6619      
2735.400043 1209       10.3       446        76         0          251.763    12235      14         0          0          4.2378     510        9636       18564.12   49.253     12174      6618      
2735.600043 1210       10.27      446        59         0          251.795    12236      14         0          0          4.2425     580        9644       18565.46   49.311     12188      6618      
2735.800044 1211       10.07      409        84         0          251.825    12237      14         0          0          4.2481     580        9655       18566.75   49.366     12202      6618      
2736.000044 1213       9.73       409        71         0          251.854    12238      14         0          0          4.2568     510        9666       18568.09   49.413     12214      6617      
2736.200044 1215       9.53       404        69         0          251.885    12239      14         0          0          4.2647     510        9676       18569.42   49.448     12222      6618      
2736.400044 1216       9.41       404        73         0          251.919    12240      14         0          0          4.2711     580        9686       18570.7    49.499     12235      6617      
2736.600044 1216       9.61       435        98         0          251.939    12241      14         0          0          4.2711     521        9697       18572.01   49.57      12252      6618      
2736.800044 1218       9.8        435        6690       0          251.985    12242      14         0          0          4.2822     580        9711       18573.28   49.633     12268      6616      
2737.000044 1221       9.49       383        4129       0          252.02     12243      14         0          0          4.2949     580        9724       18574.57   49.704     12286      6615      
2737.200044 1222       9.14       383        1022       0          252.028    12243      14         0          0          4.3004     580        9738       18575.85   49.786     12306      6612      
2737.400044 1225       9.13       400        264        0          252.076    12245      14         0          0          4.3139     568        9752       18577.18   49.848     12321      6612      
2737.600044 1225       9.16       400        120        0          252.096    12245      14         0          0          4.3139     568        9766       18578.49   49.914     12338      6610      
2737.800045 1229       10.11      488        100        0          252.141    12246      14         0          0          4.3329     580        9781       18579.82   49.992     12357      6608      
2738.000045 1229       10.66      488        72         0          252.169    12247      14         0          0          4.3349     557        9797       18581.08   50.087     12380      6607      
2738.200045 1232       10.78      473        72         0          252.202    12248      14         0          0          4.3472     510        9814       18582.39   50.178     12403      6607      
2738.400045 1235       10.82      473        60         0          252.247    12249      14         0          0          4.3615     557        9832       18583.71   50.274     12427      6610      
2738.600045 1234       11.05      492        134        0          252.284    12250      14         0          0          4.3581     580        9849       18585      50.396     12457      6609      
2738.800045 1236       11.15      486        91         0          252.317    12251      14         0          0          4.3663     522        9867       18586.29   50.499     12482      6610      
