~Version
 VERS              .         2.0                           : CWLS LOG ASCII STANDARD - VERSION 2.0
 WRAP              .         NO                            : ONE LINE PER DEPTH STEP
 DLM               .         SPACE                         : DELIMITING CHARACTER(SPACE TAB OR COMMA)
~Well Information
#_______________________________________________________________________________
#
#PARAMETER_NAME    .UNIT     VALUE                         : DESCRIPTION
#_______________________________________________________________________________
STRT               .M        2649.8                        : First reference value
STOP               .M        2761.600056                   : Last reference value
STEP               .M        0.2000001                     : Step increment
NULL               .         -9999                         : Missing value
COMP               .                                       : Company
WELL               .         616                           : Well name
FLD                .                                       : Field
LOC                .                                       : Location
CNTY               .                                       : County
STAT               .                                       : State
CTRY               .                                       : Country
SRVC               .                                       : Service Company
DATE               .                                       : Date
API                .                                       : API number
PROJECT_UPGRADE_TIME .         2021-03-18T21_24_50           : 
group              .         Good                          : 
~Parameter Information Block
#_______________________________________________________________________________
#
#PARAMETER_NAME    .UNIT     VALUE                         : DESCRIPTION
#_______________________________________________________________________________
SET                .         D8106_D                       : 
OTHER              .         Программное обеспечение станции MONITOR-386EX 25/12/99 15_08_10   BGF V52 22/08/01 16_56_30   4_SNGF_BGF_N_011645: 
OTHER_10           .         Тарировки_                    : 
OTHER_11           .         TM.GRD = 0.00412*TM$.UE + -2.13: 
OTHER_12           .         MN.ATM = (5.87652e-006*TM.GRD + 0.01993)*(MN$.UE + -2.72*TM.GRD + -1925): 
OTHER_13           .         GK.MKR/H = GK$.UE / 57.4657   : 
OTHER_2            .         Kedr.exe версия 3.4.2.51      : 
OTHER_3            .         KedrData.dll версия 3.4.2.24  : 
OTHER_4            .         Драйвер версия 2.1.0.2        : 
OTHER_5            .         Мнемоники версия 3.3 S        : 
OTHER_6            .         Прибор_ АКП4-90               : 
OTHER_7            .         Номер прибора_ 53             : 
OTHER_8            .         Режим_ АКП4_90                : 
OTHER_9            .         Форма_ ПК-53ое                : 
PROJECT_UPGRADE_TIME .         2021-03-18T21_24_50           : 
TLFamily_DEPT      .         Measured Depth                : 
TLFamily_GK        .         Gamma Ray                     : 
TLFamily_GK$       .                                       : 
TLFamily_LM        .         Casing Collar locator         : 
TLFamily_METKA     .                                       : 
TLFamily_METKA_1   .                                       : 
TLFamily_MN        .                                       : 
TLFamily_MN$       .                                       : 
TLFamily_RCOR      .                                       : 
TLFamily_SPID      .         Spontaneous Potential         : 
TLFamily_TENS      .         Cable Tension                 : 
TLFamily_TIME      .         Time                          : 
TLFamily_TM        .         Temperature                   : 
TLFamily_TM$       .         Temperature                   : 
group              .         prim                          : 
~Curve Information
#_______________________________________________________________________________
#
#LOGNAME           .UNIT     LOG_ID                        : DESCRIPTION
#_______________________________________________________________________________
DEPT               .M                                      : 1 Глубина, м -    0.0 см 
GK                 .MKR/H                                  : 13 Гамма-активность, мкр./ч -   65.0 см 
GK$                .UE                                     : 10 Гамма-активность, усл.ед. -   65.0 см 
LM                 .                                       : 9 Локатор муфт,  -   30.0 см 
METKA              .                                       : 3 Метки,  -    0.0 см 
METKA_1            .                                       : 14 Маркеры - 65 см 
MN                 .ATM                                    : 12 Давление, атм. -  140.0 см 
MN$                .UE                                     : 8 Давление, усл.ед. -  140.0 см 
RCOR               .CM/KM                                  : 5 Коррекция по ролику, см/км -    0.0 см 
SPID               .M/H                                    : 2 Скорость, м/час -    0.0 см 
TENS               .T                                      : 6 Натяжение кабеля, т -    0.0 см 
TIME               .S                                      : 4 Время, сек -    0.0 см 
TM                 .GRD                                    : 11 Температура, °C -  145.0 см 
TM$                .UE                                     : 7 Температура, усл.ед. -  145.0 см 
~Ascii
# ...
2753.800052 5.34       307        181        0          0          252.553    14597      -17        471        0.55       15136.8    59.548     14970     
2754.000052 5.88       338        126        0          0          252.581    14598      -17        469        0.55       15138.33   59.62      14988     
2754.200052 5.94       341        221        0          0          252.609    14600      -17        472        0.55       15139.85   59.7       15007     
2754.400052 6.19       356        274        0          0          252.633    14601      -17        470        0.55       15141.37   59.789     15029     
2754.600052 6.01       345        279        0          0          252.633    14601      -17        469        0.55       15142.89   59.864     15047     
2754.800053 5.99       344        328        0          0          252.673    14603      -17        466        0.55       15144.34   59.935     15064     
2755.000053 5.74       330        236        0          0          252.673    14603      -17        465        0.55       15145.87   60.017     15084     
2755.200053 5.37       309        283        0          0          252.696    14604      -17        475        0.55       15147.39   60.119     15109     
2755.400053 5.21       299        229        0          0          252.712    14605      -17        477        0.55       15148.92   60.196     15128     
2755.600053 5.46       314        247        0          0          252.732    14606      -17        474        0.55       15150.44   60.245     15140     
2755.800053 5.5        316        326        0          0          252.752    14607      -17        471        0.55       15151.96   60.312     15156     
2756.000053 5.86       337        284        0          0          252.752    14607      -17        469        0.55       15153.48   60.363     15168     
2756.200053 5.96       343        354        0          0          252.792    14609      -17        468        0.55       15154.93   60.392     15175     
2756.400053 6.02       346        439        0          0          252.792    14609      -17        471        0.55       15156.45   60.42      15182     
2756.600053 5.99       344        522        0          0          252.832    14611      -17        469        0.55       15157.97   60.445     15188     
2756.800054 5.99       344        409        0          0          252.812    14610      -17        468        0.55       15159.49   60.49      15199     
2757.000054 6.26       360        402        0          0          252.832    14611      -17        471        0.55       15161.01   60.543     15212     
2757.200054 6.56       377        311        0          0          252.852    14612      -17        470        0.55       15162.54   60.611     15228     
2757.400054 6.85       394        345        0          0          252.872    14613      -17        469        0.55       15164.06   60.688     15247     
2757.600054 6.35       365        273        0          0          252.872    14613      -17        472        0.55       15165.54   60.739     15259     
2757.800054 6.32       363        276        0          0          252.916    14615      -17        470        0.55       15167.09   60.777     15269     
2758.000054 5.54       318        518        0          0          252.912    14615      -17        470        0.55       15168.58   60.809     15276     
2758.200054 5.56       319        236        0          0          252.952    14617      -17        468        0.55       15170.08   60.859     15289     
2758.400054 5.57       320        173        0          0          252.952    14617      -17        473        0.55       15171.63   60.892     15297     
2758.600054 5.52       317        184        0          0          252.991    14619      -17        469        0.55       15173.2    60.924     15304     
2758.800054 5.36       308        385        0          0          253.007    14620      -17        469        0.55       15174.72   60.95      15311     
2759.000055 5.1        293        484        0          0          253.031    14621      -17        463        0.55       15176.25   60.971     15316     
2759.200055 5.01       288        1094       0          0          253.031    14621      -17        467        0.55       15177.72   60.989     15320     
2759.400055 4.99       287        848        0          0          253.058    14622      -17        466        0.55       15179.22   61.034     15331     
2759.600055 4.96       285        837        0          0          253.095    14624      -17        467        0.54       15180.76   61.11      15350     
2759.800055 4.83       277        155        2          0          253.091    14624      -17        465        0.55       15182.34   61.182     15367     
2760.000055 4.68       269        61         0          0          253.151    14627      -20        475        0.55       15184.04   61.26      15386     
2760.200055 4.84       278        37         0          0          253.171    14628      -20        474        0.53       15185.61   61.333     15404     
2760.400055 4.87       280        48         -9999      0          253.27     14633      -9999      -9999      -9999      -9999      61.485     15440     
2760.600055 5.42       312        -9999      -9999      0          253.31     14635      -9999      -9999      -9999      -9999      61.658     15483     
2760.800056 5.5        316        -9999      -9999      0          253.298    14634      -9999      -9999      -9999      -9999      61.784     15513     
2761.000056 -9999      -9999      -9999      -9999      0          253.337    14636      -9999      -9999      -9999      -9999      61.837     15526     
2761.200056 -9999      -9999      -9999      -9999      0          253.306    14635      -9999      -9999      -9999      -9999      61.849     15529     
2761.400056 -9999      -9999      -9999      -9999      0          253.31     14635      -9999      -9999      -9999      -9999      61.844     15528     
2761.600056 -9999      -9999      -9999      -9999      0          253.31     14635      -9999      -9999      -9999      -9999      61.835     15526     
