~Version
 VERS              .         2.0                           : CWLS LOG ASCII STANDARD - VERSION 2.0
 WRAP              .         NO                            : ONE LINE PER DEPTH STEP
 DLM               .         SPACE                         : DELIMITING CHARACTER(SPACE TAB OR COMMA)
~Well Information
#_______________________________________________________________________________
#
#PARAMETER_NAME    .UNIT     VALUE                         : DESCRIPTION
#_______________________________________________________________________________
STRT               .M        2658.35                       : First reference value
STOP               .M        2764.149788                   : Last reference value
STEP               .M        0.1999996                     : Step increment
NULL               .         -9999                         : Missing value
COMP               .                                       : Company
WELL               .         616                           : Well name
FLD                .                                       : Field
LOC                .                                       : Location
CNTY               .                                       : County
STAT               .                                       : State
CTRY               .                                       : Country
SRVC               .                                       : Service Company
DATE               .                                       : Date
API                .                                       : API number
PROJECT_UPGRADE_TIME .         2021-03-18T21_24_50           : 
group              .         Good                          : 
~Parameter Information Block
#_______________________________________________________________________________
#
#PARAMETER_NAME    .UNIT     VALUE                         : DESCRIPTION
#_______________________________________________________________________________
SET                .         D7019_D_2                     : 
NPR                .         155                           : Номер прибора
OTHER              .         Kedr.exe версия 2.1.2.32      : 
OTHER_10           .         TM.GRD = 0.00404*TM$.UE + 0.07: 
OTHER_11           .         MN.ATM = (6.33279e-006*TM.GRD + 0.02401)*(MN$.UE + 2.72*TM.GRD + -2018): 
OTHER_12           .         GK.MKR/H = GK$.UE / 43.5489 + 0: 
OTHER_13           .         RES.SM = 0.00476*CRES.UE - 1.51709: 
OTHER_14           .         PL.GSM3 = 0 + 0 * (PL.UE / 1) +  0 * (PL.UE / 1)^2: 
OTHER_15           .         Постоянная времени ГГП = 6 сек: 
OTHER_16           .         Постоянная времени ГК = 6 сек : 
OTHER_2            .         KedrData.dll версия 3.2.2.14  : 
OTHER_3            .         LasInf.dll версия 3.2.0.13    : 
OTHER_4            .         Драйвер версия 1.2.0.5        : 
OTHER_5            .         Прибор_ КСА-M1                : 
OTHER_6            .         Номер прибора_ 155+р204       : 
OTHER_7            .         Режим_ КСА-М1 + ГГП + Резистивиметр: 
OTHER_8            .         Форма_ 223\2                  : 
OTHER_9            .         Тарировки_                    : 
PR                 .         КСА-Т7 М1                     : Тип прибора
PROJECT_UPGRADE_TIME .         2021-03-18T21_24_50           : 
PRTY               .         ПП-223_2                      : Номер партии
SRV                .         ЦКРС                          : Заказчик
SRVC               .         Лузин  А.Б.                   : Начальник партии
TLFamily_DEPT      .         Measured Depth                : 
TLFamily_LM        .         Casing Collar locator         : 
TLFamily_MN        .                                       : 
TLFamily_SPID      .         Spontaneous Potential         : 
TLFamily_TM        .         Temperature                   : 
group              .         second                        : 
~Curve Information
#_______________________________________________________________________________
#
#LOGNAME           .UNIT     LOG_ID                        : DESCRIPTION
#_______________________________________________________________________________
DEPT               .M                                      : Depth curve 
LM                 .е.ацп                                  : Локация муфт 
MN                 .атм                                    : Манометрия, атм 
SPID               .м/ч                                    : Скорость записи,м/час 
TM                 .град.С                                 : Термометрия,град.С 
~Ascii
# ...
2744.749827 75.998     251.99     580        48.47     
2744.949827 72.002     252.01     580        48.54     
2745.149826 76.005     252.03     580        48.62     
2745.349826 86.988     252.06     580        48.72     
2745.549826 62.001     252.08     580        48.81     
2745.749825 64.01      252.13     580        48.89     
2745.949825 84.004     252.17     580        48.96     
2746.149824 95.617     252.19     580        49.06     
2746.349824 5381.014   252.2      580        49.14     
2746.549824 3388.748   252.23     579.99     49.22     
2746.749823 858.69     252.27     560.01     49.37     
2746.949823 231.948    252.29     579.977    49.45     
2747.149822 125.985    252.34     533.023    49.53     
2747.349822 95.994     252.37     580        49.61     
2747.549822 84.003     252.38     579.989    49.69     
2747.749821 91         252.42     556.977    49.78     
2747.949821 90.024     252.44     510.029    49.89     
2748.14982 139.002    252.49     568.006    50.03     
2748.34982 143.976    252.52     579.977    50.19     
2748.54982 95.987     252.56     533.023    50.32     
2748.749819 69.006     252.58     580        50.43     
2748.949819 81.99      252.63     580        50.57     
2749.149818 61.009     252.64     579.977    50.7      
2749.349818 79.994     252.69     533.023    50.8      
2749.549818 67.999     252.68     580        50.87     
2749.749817 64.997     252.72     579.965    50.93     
2749.949817 59.006     252.76     510.015    51.04     
2750.149816 72.028     252.8      540.02     51.18     
2750.349816 128.005    252.83     579.994    51.34     
2750.549816 138.981    252.86     568.006    51.48     
2750.749815 100.993    252.87     579.98     51.56     
2750.949815 87.011     252.92     539.997    51.72     
2751.149814 108.991    252.95     533.023    51.89     
2751.349814 90.996     253.04     579.975    52.03     
2751.549814 83.013     253.03     530.007    52.32     
2751.749813 108.988    253.05     544.989    52.47     
2751.949813 84         253.09     522.024    52.61     
2752.149812 84.999     253.14     570.005    52.72     
2752.349812 83.014     253.18     579.977    52.78     
2752.549812 111.985    253.2      533.023    52.92     
2752.749811 82.004     253.23     579.971    53.07     
2752.949811 91.021     253.23     522.017    53.25     
2753.14981 132.989    253.31     556.012    53.4      
2753.34981 110.989    253.33     580        53.58     
2753.54981 88.992     253.39     580        53.78     
2753.749809 71.999     253.41     579.965    53.91     
2753.949809 69.018     253.44     510.035    54.02     
2754.149808 105.987    253.45     579.965    54.14     
2754.349808 78.989     253.48     510.035    54.25     
2754.549808 55.996     253.51     580        54.4      
2754.749807 48         253.54     579.965    54.56     
2754.949807 48.013     253.6      510.035    54.75     
2755.149806 75         253.62     580        54.93     
2755.349806 74.01      253.66     580        55.07     
2755.549806 93.994     253.7      580        55.22     
2755.749805 81.021     253.73     579.965    55.42     
2755.949805 123.974    253.78     510.035    55.58     
2756.149804 72.072     253.8      580        55.73     
2756.349804 217.945    253.85     579.965    55.9      
2756.549804 107        253.88     510.035    56.11     
2756.749803 106.005    253.93     580        56.3      
2756.949803 115.99     253.95     579.995    56.52     
2757.149802 95.989     254.01     568.971    56.66     
2757.349802 76.476     254.04     510.023    56.82     
2757.549802 5068.06    254.07     557.011    56.97     
2757.749801 3172.072   254.1      579.994    57.15     
2757.949801 3316.765   254.13     568.006    57.3      
2758.1498  825.707    254.18     580        57.43     
2758.3498  234.94     254.2      579.983    57.64     
2758.5498  112.975    254.22     545.017    57.77     
2758.749799 62.003     254.22     580        57.87     
2758.949799 69         254.27     579.977    57.99     
2759.149798 69         254.31     534.003    58.15     
2759.349798 69.007     254.31     540.02     58.28     
2759.549798 82.985     254.35     579.983    58.42     
2759.749797 52.001     254.38     545.017    58.53     
2759.949797 53.988     254.38     580        58.61     
2760.149796 29         254.42     580        58.74     
2760.349796 28         254.44     579.98     58.83     
2760.549796 28         254.46     539.997    58.91     
2760.749795 28         254.46     533.023    59        
2760.949795 27         254.53     580        59.06     
2761.149794 27         254.55     580        59.29     
2761.349794 27         254.6      580        59.53     
2761.549794 26         254.59     -9999      59.6      
2761.749793 -9999      254.57     -9999      59.57     
2761.949793 -9999      254.54     -9999      59.52     
2762.149792 -9999      254.5      -9999      59.45     
2762.349792 -9999      254.49     -9999      59.38     
2762.549792 -9999      254.48     -9999      59.3      
2762.749791 -9999      254.47     -9999      59.22     
2762.949791 -9999      254.41     -9999      59.15     
2763.14979 -9999      -9999      -9999      59.07     
2763.34979 -9999      -9999      -9999      -9999     
2763.54979 -9999      -9999      -9999      -9999     
2763.749789 -9999      -9999      -9999      -9999     
2763.949789 -9999      -9999      -9999      -9999     
2764.149788 -9999      -9999      -9999      -9999     
