~Version
 VERS              .         2.0                           : CWLS LOG ASCII STANDARD - VERSION 2.0
 WRAP              .         NO                            : ONE LINE PER DEPTH STEP
 DLM               .         SPACE                         : DELIMITING CHARACTER(SPACE TAB OR COMMA)
~Well Information
#_______________________________________________________________________________
#
#PARAMETER_NAME    .UNIT     VALUE                         : DESCRIPTION
#_______________________________________________________________________________
STRT               .M        1549.2                        : First reference value
STOP               .M        2296.2                        : Last reference value
STEP               .M        0.2                           : Step increment
NULL               .         -9999                         : Missing value
COMP               .                                       : Company
WELL               .         616                           : Well name
FLD                .                                       : Field
LOC                .                                       : Location
CNTY               .                                       : County
STAT               .                                       : State
CTRY               .                                       : Country
SRVC               .                                       : Service Company
DATE               .                                       : Date
API                .                                       : API number
PROJECT_UPGRADE_TIME .         2021-03-18T21_24_50           : 
group              .         Good                          : 
~Parameter Information Block
#_______________________________________________________________________________
#
#PARAMETER_NAME    .UNIT     VALUE                         : DESCRIPTION
#_______________________________________________________________________________
SET                .         616_10                        : 
CONF               .         00                            : 
END                .         0                             : 
ERR                .         2                             : 
GS00               .M        2294.21                       : 
GS01               .M        1546.72                       : 
MM00               .M        2240.00                       : 
NOKG               .         0                             : 
NPR                .         980119                        : 
PART               .         Палагутин                     : 
PROJECT_UPGRADE_TIME .         2021-03-18T21_24_49           : 
PRZK               .         Якименко                      : 
TLFamily_AZIMUTH   .         True Dip Azimuth              : 
TLFamily_DEPTH     .         Measured Depth                : 
TLFamily_METKA     .                                       : 
TLFamily_ROLL      .                                       : 
TLFamily_SPEED     .         Spontaneous Potential         : 
TLFamily_ZENIT     .                                       : 
VPRG               .         310                           : 
WAY                .         UP                            : 
group              .         prim                          : 
~Curve Information
#_______________________________________________________________________________
#
#LOGNAME           .UNIT     LOG_ID                        : DESCRIPTION
#_______________________________________________________________________________
DEPTH              .M                                      :  
AZIMUTH            .DEG                                    :  
METKA              .                                       :  
ROLL               .DEG                                    :  
SPEED              .M/H                                    :  
ZENIT              .DEG                                    :  
~Ascii
# ...
1842       134.27     1          39.5       684        19.02     
1842.2     158.42     0          40.37      576        19.18     
1842.4     20.63      0          41.44      684        19.42     
1842.6     358.35     0          41.21      684        19.41     
1842.8     334.42     0          40.05      648        19.48     
1843       356.51     0          38.15      648        19.47     
1843.2     21.56      0          36.67      684        19.53     
1843.4     4.88       0          35.53      648        19.49     
1843.6     346.29     0          34.75      684        19.44     
1843.8     323.69     0          33.68      684        19.31     
1844       334.31     0          31.4       612        19.21     
1844.2     39.28      0          32.05      648        18.97     
1844.4     0.55       0          33.09      684        18.78     
1844.6     335.52     0          33.95      648        18.57     
1844.8     356.26     0          34.91      648        18.48     
1845       319.76     0          35.19      648        18.54     
1845.2     303.76     0          34.27      648        18.58     
1845.4     323.79     0          31.33      684        18.83     
1845.6     314.11     0          31.24      684        18.77     
1845.8     306.52     0          35.26      612        18.86     
1846       341.24     0          37.23      648        18.81     
1846.2     309.61     0          37.11      648        18.82     
1846.4     355.99     0          36.8       684        18.74     
1846.6     313.9      0          36.53      612        18.71     
1846.8     328.02     0          36.65      648        18.79     
1847       329.18     0          36.83      684        18.79     
1847.2     318.35     0          36.86      684        18.78     
1847.4     324.68     0          36.67      684        18.8      
1847.6     337.44     0          36.56      648        18.72     
1847.8     321.49     0          36.86      612        18.79     
1848       358.57     0          37.25      684        18.82     
1848.2     313.54     0          37.51      684        18.82     
1848.4     6.47       0          37.55      684        18.83     
1848.6     320.21     0          36.07      612        18.71     
1848.8     342.53     0          35.49      648        18.78     
1849       342.67     0          36.26      684        18.77     
1849.2     353.02     0          37.34      648        18.84     
1849.4     293.88     0          38.26      720        18.84     
1849.6     310        0          38.5       648        18.79     
1849.8     299.19     0          38.53      576        18.77     
1850       276.54     0          38.35      684        18.82     
1850.2     287.9      0          37.06      684        18.88     
1850.4     352.68     0          35.85      684        18.85     
1850.6     335.51     0          35.26      612        18.74     
1850.8     319.8      0          35.66      648        18.74     
1851       298.25     0          36.41      648        18.79     
1851.2     252.44     0          36.52      684        18.84     
1851.4     272.42     0          36.17      684        18.81     
1851.6     185.43     0          36.06      684        18.75     
1851.8     225.66     0          36.24      612        18.7      
1852       340.07     0          36.69      648        18.75     
1852.2     303.14     1          36.77      684        18.89     
1852.4     315.64     0          36.45      612        18.84     
1852.6     293.12     0          36.93      648        18.83     
1852.8     231        0          36.92      648        18.8      
1853       330.9      0          36.34      648        18.81     
1853.2     247.7      0          36.02      684        18.88     
1853.4     183.72     0          36.12      684        18.78     
1853.6     229.07     0          36.4       648        18.75     
1853.8     218.68     0          36.87      612        18.72     
1854       231.95     0          37.67      684        18.76     
1854.2     226.02     0          38.87      648        18.81     
1854.4     190.09     0          40.91      648        18.04     
1854.6     315.45     0          44.46      612        18.91     
1854.8     346.93     0          51.44      684        18.85     
1855       354.59     0          63.32      684        18.85     
1855.2     359.12     0          77.42      612        19.08     
1855.4     2.57       0          87.8       684        19.33     
1855.6     29.04      0          93.46      684        19.32     
1855.8     34.59      0          96.97      612        19.37     
1856       359.21     0          98.86      684        19.13     
1856.2     333.11     0          99.16      684        18.94     
1856.4     48.87      0          99.79      612        18.94     
1856.6     323.13     0          103.22     684        18.85     
1856.8     141.26     0          107.81     648        18.66     
1857       86.89      0          114.86     684        18.42     
1857.2     85.89      0          121.77     684        18.45     
1857.4     179.94     0          127.54     648        18.47     
1857.6     269.33     0          132.33     612        18.36     
1857.8     321.14     0          135.69     684        18.3      
1858       318.71     0          138.04     684        19.05     
1858.2     327        0          142.42     684        18.96     
1858.4     7.07       0          147.38     684        18.75     
1858.6     17.43      0          150.68     576        18.62     
1858.8     355.85     0          152.31     648        18.56     
1859       90.58      0          152.76     684        18.65     
1859.2     52.39      0          153.11     684        18.69     
1859.4     352.53     0          153.67     648        18.77     
1859.6     29.82      0          155.27     576        18.7      
1859.8     356.32     0          157.96     684        18.72     
1860       345.04     0          162.85     720        18.64     
1860.2     327.95     0          171.83     684        18.66     
1860.4     269.5      0          182.96     684        18.47     
1860.6     327.46     0          194.96     612        18.5      
1860.8     317.47     0          205.96     612        18.51     
1861       339.04     0          212.11     648        18.53     
1861.2     355.51     0          215.29     720        18.57     
1861.4     340.16     0          217.17     648        18.57     
1861.6     338.89     0          218.9      612        18.62     
1861.8     348.22     0          221.93     648        18.5      
1862       8.33       0          227.9      684        18.43     
1862.2     51.78      1          233.42     684        18.36     
1862.4     65.45      0          240.11     648        18.23     
1862.6     46.12      0          255.69     612        18.54     
1862.8     325.65     0          276.2      648        18.87     
1863       307.59     0          295.64     684        18.87     
1863.2     341.18     0          309.48     684        18.93     
1863.4     318.84     0          323.12     684        18.85     
1863.6     326.37     0          336.96     576        18.75     
1863.8     336.13     0          349.7      684        18.55     
1864       309.83     0          359.93     684        18.49     
1864.2     256.81     0          9.21       648        18.49     
1864.4     112.21     0          16.77      684        18.51     
1864.6     22.44      0          22.47      612        18.53     
1864.8     34.64      0          26.01      648        18.5      
1865       341.63     0          29.18      684        18.57     
1865.2     354.58     0          31.49      684        18.58     
1865.4     355.59     0          33.19      684        18.5      
1865.6     351.33     0          35.3       576        18.66     
1865.8     21.05      0          36.09      684        18.6      
1866       83.96      0          36.26      684        18.47     
1866.2     86.98      0          36.63      684        18.51     
