~Version
 VERS              .         2.0                           : CWLS LOG ASCII STANDARD - VERSION 2.0
 WRAP              .         NO                            : ONE LINE PER DEPTH STEP
 DLM               .         SPACE                         : DELIMITING CHARACTER(SPACE TAB OR COMMA)
~Well Information
#_______________________________________________________________________________
#
#PARAMETER_NAME    .UNIT     VALUE                         : DESCRIPTION
#_______________________________________________________________________________
STRT               .M        2658.4                        : First reference value
STOP               .M        2763.200052                   : Last reference value
STEP               .M        0.2000001                     : Step increment
NULL               .         -9999                         : Missing value
COMP               .                                       : Company
WELL               .         616                           : Well name
FLD                .                                       : Field
LOC                .                                       : Location
CNTY               .                                       : County
STAT               .                                       : State
CTRY               .                                       : Country
SRVC               .                                       : Service Company
DATE               .                                       : Date
API                .                                       : API number
PROJECT_UPGRADE_TIME .         2021-03-18T21_24_50           : 
group              .         Good                          : 
~Parameter Information Block
#_______________________________________________________________________________
#
#PARAMETER_NAME    .UNIT     VALUE                         : DESCRIPTION
#_______________________________________________________________________________
SET                .         D7027_D_2                     : 
NPR                .         155                           : Номер прибора
OTHER              .         Kedr.exe версия 2.1.2.32      : 
OTHER_10           .         TM.GRD = 0.00404*TM$.UE + 0.07: 
OTHER_11           .         MN.ATM = (6.33279e-006*TM.GRD + 0.02401)*(MN$.UE + 2.72*TM.GRD + -2018): 
OTHER_12           .         GK.MKR/H = GK$.UE / 43.5489 + 0: 
OTHER_13           .         RES.SM = 0.00476*CRES.UE - 1.51709: 
OTHER_14           .         PL.GSM3 = 0 + 0 * (PL.UE / 1) +  0 * (PL.UE / 1)^2: 
OTHER_15           .         Постоянная времени ГГП = 6 сек: 
OTHER_16           .         Постоянная времени ГК = 6 сек : 
OTHER_2            .         KedrData.dll версия 3.2.2.14  : 
OTHER_3            .         LasInf.dll версия 3.2.0.13    : 
OTHER_4            .         Драйвер версия 1.2.0.5        : 
OTHER_5            .         Прибор_ КСА-M1                : 
OTHER_6            .         Номер прибора_ 155+р204       : 
OTHER_7            .         Режим_ КСА-М1 + ГГП + Резистивиметр: 
OTHER_8            .         Форма_ 223\2                  : 
OTHER_9            .         Тарировки_                    : 
PR                 .         КСА-Т7 М1                     : Тип прибора
PROJECT_UPGRADE_TIME .         2021-03-18T21_24_50           : 
PRTY               .         ПП-223_2                      : Номер партии
SRV                .         ЦКРС                          : Заказчик
SRVC               .         Лузин  А.Б.                   : Начальник партии
TLFamily_DEPT      .         Measured Depth                : 
TLFamily_LM        .         Casing Collar locator         : 
TLFamily_MN        .                                       : 
TLFamily_SPID      .         Spontaneous Potential         : 
TLFamily_TM        .         Temperature                   : 
group              .         second                        : 
~Curve Information
#_______________________________________________________________________________
#
#LOGNAME           .UNIT     LOG_ID                        : DESCRIPTION
#_______________________________________________________________________________
DEPT               .M                                      : Depth curve 
LM                 .е.ацп                                  : Локация муфт 
MN                 .атм                                    : Манометрия, атм 
SPID               .м/ч                                    : Скорость записи,м/час 
TM                 .град.С                                 : Термометрия,град.С 
~Ascii
# ...
2716.000029 32.004     248.92     533        52.11     
2716.200029 24.004     248.93     579.977    52.09     
2716.400029 42.991     248.96     580        52.06     
2716.600029 43         248.96     545.017    52.04     
2716.800029 56.993     248.99     579.983    52.01     
2717.000029 61.998     249        580        52        
2717.200029 60.001     249.02     568.006    51.99     
2717.40003 42.009     249.04     579.994    51.97     
2717.60003 63.989     249.07     580        51.95     
2717.80003 50.007     249.09     520.029    51.93     
2718.00003 55.997     249.11     510.005    51.92     
2718.20003 98.979     249.13     579.966    51.9      
2718.40003 110.994    249.16     580        51.88     
2718.60003 74.018     249.18     580        51.88     
2718.80003 83.995     249.2      510.034    51.86     
2719.00003 88.998     249.2      579.966    51.85     
2719.20003 83.003     249.22     580        51.84     
2719.40003 93.995     249.25     580        51.82     
2719.600031 96.999     249.27     545.017    51.81     
2719.800031 81.008     249.29     579.983    51.79     
2720.000031 66.007     249.31     557.011    51.77     
2720.200031 54.006     249.33     510.023    51.76     
2720.400031 66.994     249.35     567.972    51.73     
2720.600031 65.001     249.39     579.994    51.71     
2720.800031 50.007     249.4      510.034    51.69     
2721.000031 51.999     249.42     579.966    51.68     
2721.200031 44.004     249.43     580        51.67     
2721.400032 44         249.46     510.034    51.66     
2721.600032 50.997     249.49     579.966    51.63     
2721.800032 43.004     249.51     580        51.61     
2722.000032 58.992     249.53     580        51.59     
2722.200032 212.926    249.55     580        51.58     
2722.400032 262.976    249.58     510.034    51.57     
2722.600032 155.052    249.6      579.966    51.56     
2722.800032 183.986    249.62     580        51.55     
2723.000032 74.053     249.62     560.01     51.54     
2723.200032 111.982    249.67     510.024    51.53     
2723.400033 337.891    249.67     510        51.52     
2723.600033 450.945    249.7      532.989    51.51     
2723.800033 450        249.71     579.977    51.48     
2724.000033 351.048    249.73     522.028    51.46     
2724.200033 1694.35    249.76     544.989    51.46     
2724.400033 659.501    249.78     579.983    51.46     
2724.600033 207.218    249.8      580        51.46     
2724.800033 272.968    249.83     533.023    51.44     
2725.000033 234.019    249.83     579.977    51.43     
2725.200033 222.006    249.85     569.005    51.41     
2725.400034 91.063     249.87     520.024    51.4      
2725.600034 80.005     249.9      579.971    51.39     
2725.800034 51.014     249.92     552.014    51.38     
2726.000034 88.982     249.94     522.014    51.37     
2726.200034 55.016     249.96     559.982    51.37     
2726.400034 40.007     249.99     579.99     51.36     
2726.600034 54.993     250.01     566.007    51.35     
2726.800034 68.993     250.03     579.993    51.34     
2727.000034 94.987     250.05     580        51.3      
2727.200034 75.01      250.06     580        51.29     
2727.400034 92.991     250.1      522.028    51.3      
2727.600035 50.021     250.1      522        51.3      
2727.800035 75.987     250.13     532.995    51.31     
2728.000035 45.015     250.15     533        51.32     
2728.200035 54.995     250.18     579.977    51.32     
2728.400035 65.995     250.2      580        51.31     
2728.600035 259.906    250.22     545.017    51.3      
2728.800035 776.75     250.24     510.017    51.27     
2729.000035 428.169    250.26     579.966    51.27     
2729.200035 457.986    250.27     534.022    51.27     
2729.400036 712.877    250.29     510.012    51.24     
2729.600036 824.946    250.32     579.966    51.21     
2729.800036 762.03     250.33     533.023    51.15     
2730.000036 702.029    250.36     579.977    51.16     
2730.200036 400.146    250.4      522.028    51.2      
2730.400036 664.872    250.42     579.972    51.23     
2730.600036 256.198    250.42     557.011    51.27     
2730.800036 121.065    250.47     579.989    51.3      
2731.000036 135.993    250.49     557.011    51.33     
2731.200036 120.008    250.53     579.989    51.39     
2731.400037 98.011     250.57     568.006    51.44     
2731.600037 80.009     250.59     579.994    51.51     
2731.800037 78.001     250.6      580        51.54     
2732.000037 72.003     250.63     533.023    51.56     
2732.200037 81.995     250.65     579.977    51.58     
2732.400037 141.971    250.68     580        51.6      
2732.600037 108.016    250.7      580        51.61     
2732.800037 147.981    250.72     510.034    51.61     
2733.000037 71.037     250.75     579.966    51.59     
2733.200037 46.012     250.77     510.034    51.58     
2733.400038 62.992     250.78     579.966    51.56     
2733.600038 151.957    250.81     450.063    51.55     
2733.800038 170.991    250.81     579.937    51.53     
2734.000038 69.049     250.83     510.034    51.51     
2734.200038 263.906    250.85     579.966    51.48     
2734.400038 153.054    250.87     580        51.45     
2734.600038 85.033     250.87     580        51.42     
2734.800038 52.016     250.91     580        51.39     
2735.000038 92.98      250.92     568.006    51.34     
2735.200038 4427.907   250.95     579.994    51.3      
2735.400038 6117.185   250.94     580        51.26     
2735.600039 1498.23    250.96     557.011    51.21     
2735.800039 243.605    250.97     520.018    51.16     
2736.000039 97.07      250.99     521.999    51.09     
2736.200039 78.009     251.01     579.972    51.02     
2736.400039 48.014     251.01     533.023    50.96     
2736.600039 40.004     251.01     579.977    50.89     
2736.800039 59.99      251.03     580        50.84     
2737.000039 56.002     251.05     545.017    50.76     
2737.200039 49.003     251.06     579.983    50.67     
2737.40004 55.997     251.07     580        50.62     
2737.60004 48.004     251.09     533.023    50.55     
2737.80004 57.995     251.11     579.977    50.49     
2738.00004 52.003     251.1      524.027    50.42     
2738.20004 70.991     251.11     579.973    50.36     
2738.40004 72         251.15     533.023    50.26     
2738.60004 68.002     251.15     537.998    50.18     
2738.80004 72.998     251.15     579.98     50.1      
2739.00004 61.006     251.16     580        50.02     
2739.20004 47.007     251.18     556.012    49.92     
2739.400041 63.992     251.19     579.988    49.84     
2739.600041 45.009     251.2      580        49.76     
2739.800041 50.997     251.22     568.006    49.68     
2740.000041 82.985     251.23     520.023    49.6      
2740.200041 82         251.24     579.971    49.53     
2740.400041 98.992     251.26     550.014    49.47     
2740.600041 58.02      251.27     510.019    49.43     
2740.800041 54.002     251.28     579.966    49.39     
2741.000041 67.993     251.3      545.017    49.34     
2741.200041 72.998     251.32     524.01     49.29     
2741.400042 67.003     251.35     579.973    49.24     
2741.600042 68.999     251.38     580        49.19     
2741.800042 64.002     251.38     545.017    49.17     
2742.000042 55.004     251.41     579.983    49.14     
2742.200042 65.995     251.42     510.034    49.11     
2742.400042 60.003     251.44     579.966    49.09     
2742.600042 71.994     251.48     545.017    49.08     
2742.800042 66.003     251.49     579.983    49.07     
2743.000042 78.994     251.51     580        49.07     
2743.200042 80.999     251.54     580        49.07     
2743.400042 89.996     251.56     580        49.08     
2743.600043 108.991    251.58     580        49.09     
2743.800043 108        251.61     533.023    49.09     
2744.000043 82.013     251.64     510.011    49.11     
2744.200043 70.006     251.67     510        49.13     
2744.400043 71         251.68     510        49.16     
2744.600043 59.006     251.71     579.966    49.19     
