~Version
 VERS              .         2.0                           : CWLS LOG ASCII STANDARD - VERSION 2.0
 WRAP              .         NO                            : ONE LINE PER DEPTH STEP
 DLM               .         SPACE                         : DELIMITING CHARACTER(SPACE TAB OR COMMA)
~Well Information
#_______________________________________________________________________________
#
#PARAMETER_NAME    .UNIT     VALUE                         : DESCRIPTION
#_______________________________________________________________________________
STRT               .M        1740.47                       : First reference value
STOP               .M        2787.78                       : Last reference value
STEP               .M        0                             : Step increment
NULL               .         -9999                         : Missing value
COMP               .                                       : Company
WELL               .         616                           : Well name
FLD                .                                       : Field
LOC                .                                       : Location
CNTY               .                                       : County
STAT               .                                       : State
CTRY               .                                       : Country
SRVC               .                                       : Service Company
DATE               .                                       : Date
API                .                                       : API number
PROJECT_UPGRADE_TIME .         2021-03-18T21_24_50           : 
group              .         Good                          : 
~Parameter Information Block
#_______________________________________________________________________________
#
#PARAMETER_NAME    .UNIT     VALUE                         : DESCRIPTION
#_______________________________________________________________________________
SET                .         D2664                         : 
NPR                .         980607                        : ЗАВ НОМЕР ПРИБОРА
NPRT               .         Мещеряков                     : НАЧ ПАРТИИ
PROJECT_UPGRADE_TIME .         2021-03-18T21_24_50           : 
TLFamily_AZIMUTH   .         True Dip Azimuth              : 
TLFamily_DEPTH     .         Measured Depth                : 
TLFamily_DRILL     .                                       : 
TLFamily_METKA     .                                       : 
TLFamily_ZENIT     .                                       : 
group              .         prim                          : 
~Curve Information
#_______________________________________________________________________________
#
#LOGNAME           .UNIT     LOG_ID                        : DESCRIPTION
#_______________________________________________________________________________
DEPTH              .M                                      : 1 ГЛУБИНА 
AZIMUTH            .ГРАД                                   : 4 АЗИМУТ 
DRILL              .ГРАД                                   : 2 ПОВОРОТ 
METKA              .                                       : 5 МАГН МЕТКА 
ZENIT              .ГРАД                                   : 3 ЗЕНИТ 
~Ascii
# ...
2641.99    80.93      357.81     0          1.28      
2642.18    80.79      1.1        0          1.28      
2642.37    80.63      4.37       0          1.28      
2642.56    80.49      7.55       0          1.28      
2642.75    80.4       10.6       0          1.28      
2642.94    80.26      13.62      0          1.29      
2643.13    80.13      16.54      0          1.29      
2643.32    79.97      19.43      0          1.3       
2643.51    79.87      22.21      0          1.3       
2643.7     79.68      25.03      0          1.31      
2643.89    79.46      27.82      0          1.31      
2644.08    79.21      30.59      0          1.32      
2644.27    78.92      33.35      0          1.33      
2644.46    78.66      36.04      0          1.34      
2644.64    78.45      38.63      0          1.35      
2644.83    78.29      41.12      0          1.36      
2645.02    78.04      43.61      0          1.37      
2645.21    77.8       46.02      0          1.38      
2645.4     77.45      48.48      0          1.39      
2645.59    77.19      50.79      0          1.4       
2645.78    76.9       53.04      0          1.41      
2645.98    76.63      55.26      0          1.42      
2646.17    76.31      57.53      0          1.43      
2646.36    76         59.77      0          1.43      
2646.55    75.65      62         0          1.44      
2646.74    75.38      64.08      0          1.45      
2646.93    75.01      66.19      0          1.46      
2647.12    74.63      68.24      0          1.46      
2647.31    74.21      70.26      0          1.47      
2647.5     73.88      72.15      0          1.48      
2647.69    73.58      73.93      0          1.49      
2647.88    73.25      75.65      0          1.5       
2648.07    72.93      77.31      0          1.51      
2648.26    72.61      78.92      0          1.51      
2648.45    72.25      80.54      0          1.52      
2648.64    71.92      82.13      0          1.53      
2648.83    71.56      83.7       0          1.53      
2649.02    71.26      85.18      0          1.54      
2649.21    70.84      86.78      0          1.54      
2649.4     70.48      88.3       0          1.54      
2649.59    70.09      89.82      0          1.55      
2649.78    69.72      91.32      0          1.55      
2649.97    69.37      92.77      0          1.55      
2650.16    69.03      94.18      0          1.55      
2650.35    68.63      95.64      0          1.55      
2650.54    68.19      97.11      0          1.55      
2650.73    67.79      98.58      0          1.55      
2650.92    67.39      100.08     0          1.55      
2651.11    67         101.61     0          1.55      
2651.3     66.55      103.27     0          1.54      
2651.49    66.19      104.88     0          1.54      
2651.68    65.81      106.51     0          1.54      
2651.87    65.44      108.08     0          1.53      
2652.06    65.06      109.66     0          1.53      
2652.25    64.65      111.29     0          1.53      
2652.44    64.19      113.02     0          1.52      
2652.63    63.78      114.79     0          1.52      
2652.82    63.28      116.69     0          1.51      
2653.01    62.87      118.56     0          1.51      
2653.2     62.4       120.52     0          1.5       
2653.39    61.91      122.55     0          1.49      
2653.58    61.4       124.63     0          1.48      
2653.77    60.85      126.74     0          1.48      
2653.96    60.26      128.93     0          1.47      
2654.15    59.65      131.19     0          1.46      
2654.34    59.08      133.45     0          1.45      
2654.54    58.48      135.78     0          1.44      
2654.73    57.9       138.15     0          1.44      
2654.92    57.42      140.44     0          1.43      
2655.11    56.99      142.71     0          1.42      
2655.3     56.54      145.02     0          1.41      
2655.49    56.11      147.38     0          1.4       
2655.68    55.67      149.85     0          1.39      
2655.87    55.23      152.41     0          1.38      
2656.06    54.83      155        0          1.38      
2656.25    54.43      157.66     0          1.37      
2656.44    54.07      160.33     0          1.36      
2656.63    53.69      163.06     0          1.36      
2656.82    53.36      165.8      0          1.35      
2657.01    53.03      168.57     0          1.34      
2657.2     52.67      171.41     0          1.34      
2657.39    52.33      174.31     0          1.33      
2657.58    51.95      177.31     0          1.33      
2657.78    51.61      180.35     0          1.32      
2657.97    51.37      183.38     0          1.32      
2658.16    51.16      186.42     0          1.31      
2658.35    50.98      189.48     0          1.31      
2658.54    50.85      192.54     0          1.3       
2658.73    50.74      195.65     0          1.29      
2658.92    50.67      198.77     0          1.28      
2659.11    50.64      201.92     0          1.28      
2659.3     50.62      205.13     0          1.27      
2659.49    50.66      208.39     0          1.26      
2659.68    50.73      211.67     0          1.25      
2659.87    50.84      214.99     0          1.25      
2660.06    50.93      218.41     0          1.24      
2660.25    51.05      221.91     0          1.23      
2660.44    51.12      225.55     0          1.23      
2660.63    51.2       229.29     0          1.22      
2660.82    51.27      233.15     0          1.22      
2661.01    51.31      237.11     0          1.21      
2661.2     51.37      241.14     0          1.21      
2661.39    51.42      245.25     0          1.2       
2661.58    51.48      249.45     0          1.2       
2661.77    51.49      253.77     0          1.19      
2661.96    51.51      258.2      0          1.19      
2662.15    51.59      262.75     0          1.18      
2662.34    51.65      267.42     0          1.18      
2662.53    51.74      272.23     0          1.18      
2662.72    51.85      277.14     0          1.17      
2662.91    51.92      282.2      0          1.17      
2663.1     51.98      287.4      0          1.16      
2663.29    52.04      292.71     0          1.16      
2663.48    52.11      298.19     0          1.15      
2663.67    52.18      303.81     0          1.15      
2663.86    52.22      309.56     0          1.15      
2664.05    52.36      315.39     0          1.14      
2664.24    52.51      321.24     0          1.14      
2664.43    52.7       327.07     0          1.14      
2664.62    52.8       332.85     0          1.14      
2664.81    52.89      338.53     0          1.14      
2665       53.02      344.07     0          1.13      
2665.19    53.14      349.49     0          1.13      
2665.38    53.32      354.75     0          1.13      
2665.57    53.51      359.82     0          1.13      
2665.76    53.69      4.76       0          1.13      
2665.95    53.93      9.43       0          1.13      
2666.14    54.27      13.83      0          1.13      
2666.33    54.5       18.1       0          1.12      
2666.52    54.75      22.17      0          1.12      
2666.71    54.99      26.15      0          1.12      
2666.9     55.27      29.95      0          1.11      
2667.09    55.63      33.56      0          1.11      
2667.28    55.96      37.09      0          1.11      
2667.47    56.29      40.53      0          1.11      
2667.66    56.67      43.8       0          1.1       
2667.85    57.02      46.96      0          1.1       
2668.04    57.44      49.94      0          1.1       
2668.23    57.78      52.85      0          1.1       
2668.42    58.09      55.69      0          1.1       
2668.61    58.47      58.4       0          1.1       
2668.8     58.87      61.02      0          1.1       
2668.99    59.29      63.51      0          1.09      
2669.18    59.66      65.94      0          1.09      
2669.38    60.02      68.25      0          1.09      
2669.57    60.37      70.5       0          1.09      
