~Version
 VERS              .         2.0                           : CWLS LOG ASCII STANDARD - VERSION 2.0
 WRAP              .         NO                            : ONE LINE PER DEPTH STEP
 DLM               .         SPACE                         : DELIMITING CHARACTER(SPACE TAB OR COMMA)
~Well Information
#_______________________________________________________________________________
#
#PARAMETER_NAME    .UNIT     VALUE                         : DESCRIPTION
#_______________________________________________________________________________
STRT               .M        2645.4                        : First reference value
STOP               .M        2753.4                        : Last reference value
STEP               .M        0.2                           : Step increment
NULL               .         -9999                         : Missing value
COMP               .                                       : Company
WELL               .         616                           : Well name
FLD                .                                       : Field
LOC                .                                       : Location
CNTY               .                                       : County
STAT               .                                       : State
CTRY               .                                       : Country
SRVC               .                                       : Service Company
DATE               .                                       : Date
API                .                                       : API number
PROJECT_UPGRADE_TIME .         2021-03-18T21_24_50           : 
group              .         Good                          : 
~Parameter Information Block
#_______________________________________________________________________________
#
#PARAMETER_NAME    .UNIT     VALUE                         : DESCRIPTION
#_______________________________________________________________________________
SET                .         D4410_D                       : 
OTHER              .         Запись производится в присутствии: 
OTHER_10           .         Максимальная температура      : 
OTHER_11           .         Тип промывочной жидкости      : 
OTHER_12           .         Сопротивление ПЖ (Ом*м) при 20°C: 
OTHER_13           .         Плотность ПЖ(г/см3)           : 
OTHER_14           .         Вязкость ПЖ(с)                : 
OTHER_15           .         Водоотдача ПЖ(см3/30мин)      : 
OTHER_16           .         Уровень ПЖ                    : 
OTHER_17           .         Нефть ПЖ (%)                  : 
OTHER_18           .         Барит ПЖ (%)                  : 
OTHER_19           .         Гематит ПЖ (%)                : 
OTHER_2            .         Заказчик ННСН  ЦДНГ-1         : 
OTHER_20           .         КМЦ ПЖ (%)                    : 
OTHER_21           .         Разгазирование ПЖ (да,нет)    : 
OTHER_22           .         Подъемник                     : 
OTHER_23           .         Лаборатория                   : 
OTHER_24           .         Тип кабеля                    : 
OTHER_25           .         Длина кабеля (м)              : 
OTHER_26           .         Цена последней метки          : 
OTHER_27           .         Цена контрольной метки        : 
OTHER_28           .         Диаметр долота (мм)           : 
OTHER_29           .         Глубина бурения (м)           : 
OTHER_3            .         Площадь                       : 
OTHER_30           .         Искусственный забой (м)       : 
OTHER_31           .         Диаметр колонны (мм)          : 
OTHER_32           .         Толщина колонны (мм)          : 
OTHER_33           .         Башмак колонны (м)            : 
OTHER_34           .         Диаметр НКТ (мм)              : 
OTHER_35           .         Толщина НКТ (мм)              : 
OTHER_36           .         Воронка НКТ (м)               : 
OTHER_37           .         Дата цементожа                : 
OTHER_38           .         Тип, количество(т) и плотность цемента: 
OTHER_39           .         Интервалы перфорации (м)      : 
OTHER_4            .         Категория                     : 
OTHER_40           .         Направление, диаметр (мм)     : 
OTHER_41           .         Направление, глубина (м)      : 
OTHER_42           .         Кондуктор, диаметр (мм)       : 
OTHER_43           .         Кондуктор, глубина (м)        : 
OTHER_44           .         Техническая колонна, диаметр (мм): 
OTHER_45           .         Техническая колонна, глубина (м): 
OTHER_46           .         Эксплуатационная колонна, диаметр (мм): 
OTHER_47           .         Эксплуатационная колонна, глубина (м): 
OTHER_48           .         Программа Кедр-02 версия 3.4  : 
OTHER_49           .         Операционная система Windows NT 5.1 build 2600 Service Pack 2: 
OTHER_5            .         Назначение исследований       : 
OTHER_50           .         Программное обеспечение станции MONITOR-386EX 25/12/99 15_08_10   BGF V54 20/09/05 15_32_17   3.3__BGF_9030071: 
OTHER_51           .         Kedr.exe версия 3.4.2.74      : 
OTHER_52           .         KedrData.dll версия 3.4.2.29  : 
OTHER_53           .         Мнемоники версия 3.18 S       : 
OTHER_54           .         Драйвер версия 2.1.1.4        : 
OTHER_55           .         LasInf.dll 4.3.0.35           : 
OTHER_56           .         Прибор_ КСА-Т4                : 
OTHER_57           .         Номер прибора_ 160            : 
OTHER_58           .         Режим_ КСА-Т4                 : 
OTHER_59           .         Форма_ С.А.Б.                 : 
OTHER_6            .         Альтитуда стола ротора        : 
OTHER_60           .         Тарировки_                    : 
OTHER_61           .         <_techsia_sc_> Дата тарировки температуры 25.05.2010: 
OTHER_62           .         Ручной ввод коэффициентов     : 
OTHER_63           .         TM.DEGC = 0.00402*RTM.E.ACP + -0.994: 
OTHER_64           .         <_techsia_sc_> Дата тарировки давления 25.05.2010: 
OTHER_65           .         Ручной ввод коэффициентов     : 
OTHER_66           .         MN.ATM = (2.27521e-006*TM.DEGC + 0.02078)*(RMN.E.ACP + 6.2*TM.DEGC + -1688): 
OTHER_67           .         <_techsia_sc_> Дата тарировки ГК 25.05.2010: 
OTHER_68           .         Ручной ввод коэффициентов     : 
OTHER_69           .         GR.UR/H = RGR.IMP/MIN / 45.5144: 
OTHER_7            .         Вид исследований 3  6         : 
OTHER_70           .         GK.FLT = 0.1*GR.UR/H[-1] + (1-0.1)*GR.UR/H[0]: 
OTHER_8            .         Начало бурения интервала каротажа: 
OTHER_9            .         Окончание бурения интервала каротажа: 
PROJECT_UPGRADE_TIME .         2021-03-18T21_24_50           : 
TLFamily_CCLC      .                                       : 
TLFamily_DEPT      .         Measured Depth                : 
TLFamily_GK        .         Gamma Ray                     : 
TLFamily_GR        .         Gamma Ray                     : 
TLFamily_METKA     .                                       : 
TLFamily_MN        .                                       : 
TLFamily_RCOR      .                                       : 
TLFamily_RGR       .                                       : 
TLFamily_RMN       .                                       : 
TLFamily_RTEN      .                                       : 
TLFamily_RTM       .                                       : 
TLFamily_SPEE      .         Cable Speed                   : 
TLFamily_TIME      .         Time                          : 
TLFamily_TM        .         Temperature                   : 
group              .         prim                          : 
~Curve Information
#_______________________________________________________________________________
#
#LOGNAME           .UNIT     LOG_ID                        : DESCRIPTION
#_______________________________________________________________________________
DEPT               .M                                      : 1 Глубина, м -    0.0 см 
CCLC               .E.ACP                                  : 9 Локатор муфт,  -   20.0 см 
GK                 .FLT                                    : 14 Гамма-активность фильтрованная, мкр./ч -  110.0 см 
GR                 .UR/H                                   : 13 Гамма-активность, мкр./ч -  110.0 см 
METKA              .CU                                     : 3 Метки,  -    0.0 см 
MN                 .ATM                                    : 12 Давление, атм. -  160.0 см 
RCOR               .CM/KM                                  : 5 Коррекция по ролику, см/км -    0.0 см 
RGR                .IMP/MIN                                : 10 Гамма-активность, усл.ед. -  110.0 см 
RMN                .E.ACP                                  : 8 Давление, усл.ед. -  160.0 см 
RTEN               .T                                      : 6 Натяжение кабеля, т -    0.0 см 
RTM                .E.ACP                                  : 7 Температура, усл.ед. -  170.0 см 
SPEE               .M/H                                    : 2 Скорость, м/час -    0.0 см 
TIME               .S                                      : 4 Время, сек -    0.0 см 
TM                 .DEGC                                   : 11 Температура, °C -  170.0 см 
~Ascii
# ...
2718.2     111        9.6        9.6        0          370.819    -1098      437        19008      0.2        16289      634        423.54     64.487    
2718.4     131        10.68      10.68      0          370.804    -1098      486        19008      0.2        16286      634        424.64     64.476    
2718.6     134        10.68      10.68      0          370.825    -1098      486        19009      0.2        16283      635        425.8      64.463    
2718.8     177        10.41      10.41      0          370.867    -1098      474        19011      0.2        16282      636        426.99     64.46     
2719       155        10.41      10.41      0          370.927    -1098      474        19013      0.2        16282      636        428.08     64.46     
2719.2     105        10.24      10.24      0          370.936    -1098      466        19014      0.2        16282      636        429.24     64.46     
2719.4     51         10.24      10.24      0          370.969    -1098      466        19016      0.2        16281      636        430.34     64.456    
2719.6     56         10.99      10.99      0          371.009    -1098      500        19017      0.2        16281      637        431.49     64.456    
2719.8     91         11.14      11.14      0          371.041    -1098      507        19019      0.2        16280      637        432.64     64.452    
2720       82         11.14      11.14      0          371.067    -1098      507        19020      0.2        16278      636        433.78     64.444    
2720.2     75         11.42      11.42      0          371.172    -1098      520        19025      0.2        16277      636        434.88     64.44     
2720.4     85         11.42      11.42      0          371.183    -1098      520        19026      0.2        16274      636        436.03     64.427    
2720.6     56         10.72      10.72      0          371.139    -1098      488        19024      0.2        16270      636        437.23     64.413    
2720.8     75         10.72      10.72      0          371.138    -1098      488        19024      0.2        16268      636        438.33     64.405    
2721       93         10.17      10.17      0          371.158    -1098      463        19025      0.2        16266      635        439.47     64.396    
2721.2     81         10.17      10.17      0          371.161    -1098      463        19025      0.2        16266      635        440.63     64.394    
2721.4     60         10.02      10.02      0          371.184    -1098      456        19026      0.2        16263      635        441.82     64.384    
2721.6     57         9.91       9.91       0          371.308    -1098      451        19032      0.2        16262      635        442.92     64.38     
2721.8     57         9.67       9.67       0          371.364    -1098      440        19035      0.2        16262      635        444.08     64.379    
2722       60         9.49       9.49       0          371.321    -1098      432        19033      0.2        16260      635        445.17     64.373    
2722.2     72         9.49       9.49       0          371.362    -1098      432        19035      0.2        16258      635        446.39     64.365    
2722.4     62         10         10         0          371.382    -1098      455        19036      0.2        16257      634        447.46     64.359    
2722.6     55         10         10         0          371.424    -1098      455        19038      0.2        16257      635        448.62     64.359    
2722.8     90         11.03      11.03      0          371.444    -1098      502        19039      0.2        16257      635        449.77     64.357    
2723       51         11.03      11.03      0          371.55     -1098      502        19044      0.2        16254      634        450.86     64.349    
2723.2     93         11.91      11.91      0          371.65     -1098      542        19049      0.2        16252      634        452.07     64.339    
2723.4     79         11.91      11.91      0          371.399    -1098      542        19037      0.2        16251      635        453.2      64.335    
2723.6     108        11.73      11.73      0          371.237    -1098      534        19029      0.2        16251      636        454.31     64.333    
2723.8     87         11.73      11.73      0          371.229    -1098      534        19029      0.2        16249      635        455.44     64.325    
2724       129        11.24      11.24      0          371.227    -1098      512        19029      0.2        16246      636        456.64     64.313    
2724.2     277        10.02      10.02      0          371.045    -1098      456        19020      0.2        16243      636        457.76     64.303    
2724.4     268        9.55       9.55       0          370.932    -1098      435        19015      0.2        16239      636        458.86     64.285    
2724.6     381        8.37       8.37       0          370.929    -1098      381        19015      0.2        16238      637        460        64.283    
2724.8     572        8.37       8.37       0          370.966    -1098      381        19017      0.2        16237      637        461.16     64.278    
2725       2594       8.02       8.02       0          370.91     -1098      365        19014      0.2        16235      636        462.32     64.271    
2725.2     731        8.02       8.02       0          370.868    -1098      365        19012      0.2        16233      637        463.44     64.262    
2725.4     319        8          8          0          370.882    -1098      364        19013      0.2        16230      637        464.56     64.251    
2725.6     487        8          8          0          370.975    -1098      364        19018      0.2        16228      636        465.71     64.241    
2725.8     404        8.57       8.57       0          371.184    -1098      390        19028      0.2        16223      636        466.82     64.221    
2726       298        8.57       8.57       2          371.134    -1095      390        19025      0.2        16219      637        467.84     64.206    
2726.2     94         8.81       8.81       0          371.253    -1095      401        19031      0.2        16217      636        469        64.198    
2726.4     120        8.81       8.81       0          371.311    -1095      401        19034      0.2        16215      635        470.09     64.19     
2726.6     82         8.81       8.81       0          371.399    -1095      401        19038      0.2        16213      636        471.23     64.182    
2726.8     59         8.11       8.11       0          371.622    -1095      369        19049      0.2        16212      635        472.44     64.178    
2727       67         8.11       8.11       0          371.655    -1095      369        19051      0.2        16211      636        473.54     64.174    
2727.2     152        8.5        8.5        0          371.64     -1095      387        19050      0.2        16209      635        474.64     64.167    
2727.4     226        8.5        8.5        0          371.659    -1095      387        19051      0.2        16205      636        475.78     64.151    
2727.6     141        8.61       8.61       0          371.868    -1095      392        19061      0.2        16203      636        476.94     64.142    
2727.8     172        8.61       8.61       0          372.098    -1095      392        19072      0.2        16203      636        478.08     64.142    
2728       164        9.34       9.34       0          372.037    -1095      425        19069      0.2        16202      636        479.23     64.136    
2728.2     126        9.34       9.34       0          372.167    -1095      425        19075      0.2        16200      637        480.32     64.13     
2728.4     207        9.68       9.68       0          372.013    -1095      441        19068      0.2        16201      637        481.48     64.134    
