~Version
 VERS              .         2.0                           : CWLS LOG ASCII STANDARD - VERSION 2.0
 WRAP              .         NO                            : ONE LINE PER DEPTH STEP
 DLM               .         SPACE                         : DELIMITING CHARACTER(SPACE TAB OR COMMA)
~Well Information
#_______________________________________________________________________________
#
#PARAMETER_NAME    .UNIT     VALUE                         : DESCRIPTION
#_______________________________________________________________________________
STRT               .M        2669.8                        : First reference value
STOP               .M        2775.8                        : Last reference value
STEP               .M        0.2                           : Step increment
NULL               .         -9999                         : Missing value
COMP               .                                       : Company
WELL               .         616                           : Well name
FLD                .                                       : Field
LOC                .                                       : Location
CNTY               .                                       : County
STAT               .                                       : State
CTRY               .                                       : Country
SRVC               .                                       : Service Company
DATE               .                                       : Date
API                .                                       : API number
PROJECT_UPGRADE_TIME .         2021-03-18T21_24_50           : 
group              .         Good                          : 
~Parameter Information Block
#_______________________________________________________________________________
#
#PARAMETER_NAME    .UNIT     VALUE                         : DESCRIPTION
#_______________________________________________________________________________
SET                .         D1812_D                       : 
OTHER              .         Программное обеспечение станции MONITOR-386EX 25/12/99 15_08_10   BGF V52 22/08/01 16_56_30   3.1_SNGF___BGF_N_092049: 
OTHER_10           .         Тарировки_                    : 
OTHER_11           .         TM.GRD = 0.00403*TM$.UE + -1.07: 
OTHER_12           .         MN.ATM = (9.34907e-006*TM.GRD + 0.02171)*(MN$.UE + -7.93*TM.GRD + -1787): 
OTHER_13           .         GK.MKR/H = LM. / 42.4676      : 
OTHER_14           .         GK.FLT = 0.1*GK.MKR/H[-1] + (1-0.1)*GK.MKR/H[0]: 
OTHER_2            .         Kedr.exe версия 3.4.2.51      : 
OTHER_3            .         KedrData.dll версия 3.4.2.24  : 
OTHER_4            .         Драйвер версия 2.1.1.3        : 
OTHER_5            .         Мнемоники версия 3.3 S        : 
OTHER_6            .         Прибор_ КСА-Т4                : 
OTHER_7            .         Номер прибора_ 03             : 
OTHER_8            .         Режим_ КСА-Т4                 : 
OTHER_9            .         Форма_ КВА.                   : 
PROJECT_UPGRADE_TIME .         2021-03-18T21_24_49           : 
TLFamily_DEPT      .         Measured Depth                : 
TLFamily_GK        .         Gamma Ray                     : 
TLFamily_GK$       .                                       : 
TLFamily_GK_2      .         Gamma Ray                     : 
TLFamily_LM        .         Casing Collar locator         : 
TLFamily_METKA     .                                       : 
TLFamily_MN        .                                       : 
TLFamily_MN$       .                                       : 
TLFamily_RCOR      .                                       : 
TLFamily_SPID      .         Spontaneous Potential         : 
TLFamily_TENS      .         Cable Tension                 : 
TLFamily_TIME      .         Time                          : 
TLFamily_TM        .         Temperature                   : 
TLFamily_TM$       .         Temperature                   : 
group              .         prim                          : 
~Curve Information
#_______________________________________________________________________________
#
#LOGNAME           .UNIT     LOG_ID                        : DESCRIPTION
#_______________________________________________________________________________
DEPT               .M                                      : 1 Глубина, м -    0.0 см 
GK                 .MKR/H                                  : 13 Гамма-активность, мкр./ч -  110.0 см 
GK$                .UE                                     : 10 Гамма-активность, усл.ед. -  110.0 см 
GK_2               .FLT                                    : 14 Гамма-активность фильтрованная, мкр./ч -  110.0 см 
LM                 .                                       : 9 Локатор муфт,  -   20.0 см 
METKA              .                                       : 3 Метки,  -    0.0 см 
MN                 .ATM                                    : 12 Давление, атм. -  160.0 см 
MN$                .UE                                     : 8 Давление, усл.ед. -  160.0 см 
RCOR               .CM/KM                                  : 5 Коррекция по ролику, см/км -    0.0 см 
SPID               .M/H                                    : 2 Скорость, м/час -    0.0 см 
TENS               .T                                      : 6 Натяжение кабеля, т -    0.0 см 
TIME               .S                                      : 4 Время, сек -    0.0 см 
TM                 .GRD                                    : 11 Температура, °C -  170.0 см 
TM$                .UE                                     : 7 Температура, усл.ед. -  170.0 см 
~Ascii
# ...
2742.6     16.91      718        16.9       97         0          252.199    13557      -647       532        0.05       7554.79    50.613     12824     
2742.8     15.38      653        15.94      85         0          252.222    13558      -647       540        0.05       7556.11    50.539     12806     
2743       14.62      621        14.65      85         0          252.25     13559      -647       534        0.05       7557.48    50.478     12791     
2743.2     12.93      549        13.55      64         0          252.275    13560      -647       542        0.05       7558.76    50.38      12767     
2743.4     12.93      549        12.95      140        0          252.308    13561      -647       535        0.07       7560.11    50.277     12741     
2743.6     12.29      522        12.53      97         0          252.314    13561      -647       534        0.07       7561.49    50.186     12719     
2743.8     12.29      522        12.3       82         0          252.341    13562      -647       533        0.07       7562.83    50.103     12698     
2744       11.42      485        11.53      73         0          252.383    13564      -647       532        0.07       7564.19    50.036     12681     
2744.2     11.42      485        11.42      73         0          252.412    13565      -647       534        0.05       7565.5     49.978     12667     
2744.4     11.21      476        11.23      89         0          252.42     13565      -647       543        0.05       7566.81    49.919     12652     
2744.6     11.21      476        11.21      93         0          252.446    13566      -647       537        0.05       7568.19    49.867     12639     
2744.8     10.03      426        10.14      124        0          252.47     13567      -647       538        0.05       7569.5     49.825     12629     
2745       10.03      426        10.03      94         0          252.495    13568      -647       529        0.05       7570.88    49.789     12620     
2745.2     10.01      425        10.01      80         0          252.521    13569      -647       529        0.05       7572.25    49.746     12610     
2745.4     10.04      426        10.03      98         0          252.545    13570      -647       523        0.05       7573.55    49.704     12599     
2745.6     10.17      432        10.17      71         0          252.565    13571      -647       537        0.05       7574.88    49.68      12593     
2745.8     10.18      433        10.18      66         0          252.593    13572      -647       535        0.05       7576.2     49.66      12588     
2746       10.24      435        10.24      100        0          252.616    13573      -647       535        0.05       7577.53    49.638     12583     
2746.2     10.71      455        10.6       211        0          252.616    13573      -647       527        0.05       7578.89    49.629     12580     
2746.4     10.71      455        10.71      126        0          252.661    13575      -647       538        0.05       7580.2     49.627     12580     
2746.6     10.95      465        10.9       108        0          252.676    13576      -647       522        0.07       7581.58    49.616     12577     
2746.8     10.95      465        10.95      100        0          252.706    13577      -647       528        0.05       7582.95    49.607     12575     
2747       10.6       450        10.67      137        0          252.728    13578      -647       526        0.05       7584.27    49.607     12575     
2747.2     10.6       450        10.6       145        0          252.75     13579      -647       537        0.07       7585.58    49.607     12575     
2747.4     9.87       419        9.92       129        0          252.768    13580      -647       528        0.07       7586.92    49.615     12577     
2747.6     9.87       419        9.87       127        0          252.78     13580      -647       541        0.07       7588.27    49.623     12579     
2747.8     9.54       405        9.55       123        0          252.792    13581      -647       532        0.07       7589.58    49.636     12582     
2748       9.54       405        9.54       104        0          252.814    13582      -647       544        0.07       7590.91    49.648     12585     
2748.2     10.27      436        10.23      3148       0          252.835    13583      -647       533        0.07       7592.28    49.661     12588     
2748.4     10.07      428        10.14      1161       0          252.856    13584      -647       534        0.07       7593.66    49.676     12592     
2748.6     9.94       422        9.94       318        0          252.884    13585      -647       533        0.07       7594.97    49.694     12597     
2748.8     10.77      457        10.46      103        0          252.898    13586      -647       541        0.07       7596.3     49.713     12601     
2749       10.97      466        10.96      106        0          252.94     13588      -647       535        0.07       7597.67    49.735     12607     
2749.2     12.67      538        12.05      68         0          252.937    13588      -647       536        0.07       7598.95    49.771     12616     
2749.4     12.67      538        12.65      74         0          252.956    13589      -647       531        0.07       7600.3     49.822     12628     
2749.6     11.33      481        11.51      65         0          252.953    13589      -647       536        0.07       7601.72    49.864     12639     
2749.8     11.33      481        11.33      78         0          252.973    13590      -647       531        0.07       7603       49.901     12648     
2750       11.04      469        11.08      65         2          252.992    13591      -647       541        0.07       7604.36    49.942     12658     
2750.2     11.04      469        11.04      87         0          253.01     13592      -654       536        0.04       7606.15    49.994     12671     
2750.4     11.18      475        11.17      69         0          253.029    13593      -654       534        0.05       7607.5     50.046     12684     
2750.6     11.18      475        11.18      77         0          253.048    13594      -654       538        0.05       7608.81    50.094     12696     
2750.8     11.18      475        11.18      75         0          253.066    13595      -654       544        0.05       7610.14    50.147     12709     
2751       11.19      475        11.19      71         0          253.061    13595      -654       539        0.05       7611.49    50.207     12724     
2751.2     11.23      477        11.23      55         0          253.097    13597      -654       531        0.05       7612.88    50.273     12740     
2751.4     11.09      471        11.11      77         0          253.118    13598      -654       531        0.05       7614.19    50.347     12759     
2751.6     11.09      471        11.09      79         0          253.135    13599      -654       536        0.05       7615.5     50.421     12777     
2751.8     11.26      478        11.24      93         0          253.15     13600      -654       541        0.05       7616.88    50.521     12802     
2752       11.26      478        11.26      77         0          253.146    13600      -654       544        0.05       7618.19    50.621     12827     
2752.2     11.91      506        11.87      67         0          253.157    13601      -654       534        0.05       7619.5     50.72      12851     
2752.4     11.83      502        11.86      53         0          253.173    13602      -654       543        0.05       7620.86    50.822     12876     
2752.6     11.49      488        11.5       79         0          253.188    13603      -654       533        0.05       7622.22    50.921     12901     
2752.8     11.02      468        11.19      64         0          253.204    13604      -654       539        0.05       7623.56    51.013     12924     
