~Version
 VERS              .         2.0                           : CWLS LOG ASCII STANDARD - VERSION 2.0
 WRAP              .         NO                            : ONE LINE PER DEPTH STEP
 DLM               .         SPACE                         : DELIMITING CHARACTER(SPACE TAB OR COMMA)
~Well Information
#_______________________________________________________________________________
#
#PARAMETER_NAME    .UNIT     VALUE                         : DESCRIPTION
#_______________________________________________________________________________
STRT               .M        3.8                           : First reference value
STOP               .M        216                           : Last reference value
STEP               .M        0.2                           : Step increment
NULL               .         -9999                         : Missing value
COMP               .                                       : Company
WELL               .         616                           : Well name
FLD                .                                       : Field
LOC                .                                       : Location
CNTY               .                                       : County
STAT               .                                       : State
CTRY               .                                       : Country
SRVC               .                                       : Service Company
DATE               .                                       : Date
API                .                                       : API number
PROJECT_UPGRADE_TIME .         2021-03-18T21_24_50           : 
group              .         Good                          : 
~Parameter Information Block
#_______________________________________________________________________________
#
#PARAMETER_NAME    .UNIT     VALUE                         : DESCRIPTION
#_______________________________________________________________________________
SET                .         D1350_D                       : 
OTHER              .         Программное обеспечение станции MONITOR-386EX 25/12/99 15_08_10   BGF V52 22/08/01 16_56_30   3.1_SNGF__BGF_								111238: 
OTHER_10           .         Тарировки_                    : 
OTHER_11           .         <_techsia_sc_> Постоянная времени фильтра  0.5 сек, kf=0.181269: 
OTHER_12           .         TM.GRD = 0.00428968*TM$.UE + -0.3284: 
OTHER_13           .         GK.MKR/H = GK$.UE / 40.16     : 
OTHER_14           .         NKT. = NKT$.UE / 1            : 
OTHER_2            .         Kedr.exe версия 3.3.2.43      : 
OTHER_3            .         KedrData.dll версия 3.3.2.22  : 
OTHER_4            .         Драйвер версия 2.1.1.3        : 
OTHER_5            .         Мнемоники версия 3.3 S        : 
OTHER_6            .         Прибор_ РК4-38                : 
OTHER_7            .         Номер прибора_ 35с            : 
OTHER_8            .         Режим_ РК4-38                 : 
OTHER_9            .         Форма_ 3                      : 
PROJECT_UPGRADE_TIME .         2021-03-18T21_24_49           : 
TLFamily_DEPT      .         Measured Depth                : 
TLFamily_GK        .         Gamma Ray                     : 
TLFamily_GK$       .                                       : 
TLFamily_LM        .         Casing Collar locator         : 
TLFamily_METKA     .                                       : 
TLFamily_NKT       .         Neutron Far                   : 
TLFamily_NKT$      .         Neutron Far                   : 
TLFamily_RCOR      .                                       : 
TLFamily_SPID      .         Spontaneous Potential         : 
TLFamily_TENS      .         Cable Tension                 : 
TLFamily_TIME      .         Time                          : 
TLFamily_TM        .         Temperature                   : 
TLFamily_TM$       .         Temperature                   : 
group              .         prim                          : 
~Curve Information
#_______________________________________________________________________________
#
#LOGNAME           .UNIT     LOG_ID                        : DESCRIPTION
#_______________________________________________________________________________
DEPT               .M                                      : 1 Глубина, м -    0.0 см 
GK                 .MKR/H                                  : 12 Гамма-активность, мкр./ч -   23.0 см 
GK$                .UE                                     : 10 Гамма-активность, усл.ед. -   23.0 см 
LM                 .                                       : 8 Локатор муфт,  -  180.0 см 
METKA              .                                       : 3 Метки,  -    0.0 см 
NKT                .                                       : 13 НКТ, прив. -  160.0 см 
NKT$               .UE                                     : 9 НКТ, усл.ед. -  160.0 см 
RCOR               .CM/KM                                  : 5 Коррекция по ролику, см/км -    0.0 см 
SPID               .M/H                                    : 2 Скорость, м/час -    0.0 см 
TENS               .T                                      : 6 Натяжение кабеля, т -    0.0 см 
TIME               .S                                      : 4 Время, сек -    0.0 см 
TM                 .GRD                                    : 11 Температура, °C -  193.0 см 
TM$                .UE                                     : 7 Температура, усл.ед. -  193.0 см 
~Ascii
# ...
15         1.84       71         42         0          0          0          7013       -327       0          3975.33    8.53       2065      
15.2       1.95       80         58         0          0          0          7013       -334       0          3973.11    8.53       2065      
15.4       1.84       77         31         0          0          0          7013       -323       0          3970.95    8.534      2066      
15.6       1.56       67         33         1          0          0          7013       -326       0          3968.79    8.534      2066      
15.8       1.53       62         42         0          0          0          7013       -322       0          3966.57    8.543      2068      
16         1.55       61         28         0          0          0          7013       -333       0          3964.31    8.547      2069      
16.2       1.65       61         31         0          0          0          7013       -321       0          3962.19    8.553      2071      
16.4       1.73       70         35         0          0          0          7013       -314       0          3959.92    8.56       2072      
16.6       1.66       71         36         1          0          0          7013       -318       0          3957.66    8.564      2073      
16.8       1.45       56         36         0          0          0          7013       -312       0          3955.5     8.573      2075      
17         1.59       62         36         0          0          0          7013       -325       0          3953.18    8.577      2076      
17.2       1.76       72         40         0          0          0          7013       -327       0          3950.95    8.581      2077      
17.4       1.65       65         28         0          0          0          7013       -325       0          3948.83    8.59       2079      
17.6       1.75       65         27         0          0          0          7013       -314       0          3946.64    8.607      2083      
17.8       1.87       70         30         0          0          0          7013       -320       0          3944.43    8.616      2085      
18         1.89       79         29         0          0          0          7013       -321       0          3942.12    8.631      2089      
18.2       1.81       71         28         0          0          0          7013       -321       0          3940.01    8.641      2091      
18.4       1.9        74         29         0          0          0          7013       -323       0          3937.69    8.653      2094      
18.6       2.02       79         30         0          0          0          7013       -327       0          3935.4     8.658      2095      
18.8       2.19       85         30         0          0          0          7013       -318       0          3933.36    8.658      2095      
19         2.4        96         44         0          0          0          7013       -331       0          3931.04    8.667      2097      
19.2       2.42       98         29         0          0          0          7013       -325       0          3928.83    8.674      2099      
19.4       2.29       99         35         0          0          0          7013       -323       0          3926.72    8.667      2097      
19.6       2.16       91         31         1          0          0          7013       -331       0          3924.46    8.671      2098      
19.8       2.06       84         26         0          0          0          7013       -320       0          3922.19    8.701      2105      
20         2.02       81         26         2          0          0          7013       -312       0          3920.08    8.676      2099      
20.2       2.08       79         27         2          0          0          7013       -323       0          3918.22    8.68       2100      
20.4       2.29       90         26         0          0          0          7013       -328       0          3917.98    8.68       2100      
20.6       2.3        90         27         0          0          0          7013       -329       0          3915.85    8.684      2101      
20.8       2.42       97         31         0          0          0          7013       -331       0          3913.74    8.689      2102      
21         2.24       100        27         0          0          0          7013       -327       0          3911.62    8.693      2103      
21.2       1.93       92         27         0          0          0          7013       -320       0          3909.51    8.696      2104      
21.4       1.72       73         29         0          0          0          7013       -312       0          3907.2     8.697      2104      
21.6       1.65       62         27         1          0          0          7013       -323       0          3904.88    8.701      2105      
21.8       1.86       69         28         0          0          0          7013       -344       0          3902.57    8.706      2106      
22         2.07       83         27         0          0          0          7013       -332       0          3900.46    8.706      2106      
22.2       2.08       83         32         0          0          0          7013       -332       0          3898.34    8.71       2107      
22.4       2.11       86         30         0          0          0          7013       -327       0          3896.22    8.71       2107      
22.6       2.03       86         26         0          0          0          7013       -329       0          3893.96    8.714      2108      
22.8       2.04       80         27         0          0          0          7013       -324       0          3891.77    8.716      2109      
23         2.25       79         28         0          0          0          7013       -328       0          3889.58    8.721      2110      
23.2       2.47       100        27         1          0          0          7013       -331       0          3887.37    8.724      2110      
23.4       2.42       100        31         0          0          0          7013       -325       0          3885.04    8.725      2111      
23.6       2.29       92         31         0          0          0          7013       -327       0          3883       8.727      2111      
23.8       2.28       94         31         0          0          0          7013       -320       0          3880.79    8.74       2114      
24         2.07       84         29         0          0          0          7013       -320       0          3878.6     8.74       2114      
24.2       2.01       82         35         0          0          0          7013       -320       0          3876.34    8.771      2121      
24.4       2.09       79         35         0          0          0          7013       -321       0          3874.04    8.779      2123      
24.6       1.93       88         58         0          0          0          7013       -325       0          3871.73    8.779      2123      
24.8       1.68       75         408        0          0          0          7013       -331       0          3869.61    8.779      2123      
25         1.61       57         6747       1          0          0          7013       -333       0          3867.4     8.779      2123      
25.2       1.93       69         6716       0          0          0          7013       -322       0          3865.24    8.74       2114      
25.4       2.29       93         25         0          0          0          7013       -323       0          3863.12    8.736      2113      
25.6       2.23       92         26         0          0          0          7013       -326       0          3860.93    8.791      2126      
25.8       2.04       79         27         0          0          0          7013       -331       0          3858.65    8.743      2115      
26         2.29       82         27         0          0          0          7013       -318       0          3856.46    8.74       2114      
