~Version
 VERS              .         2.0                           : CWLS LOG ASCII STANDARD - VERSION 2.0
 WRAP              .         NO                            : ONE LINE PER DEPTH STEP
 DLM               .         SPACE                         : DELIMITING CHARACTER(SPACE TAB OR COMMA)
~Well Information
#_______________________________________________________________________________
#
#PARAMETER_NAME    .UNIT     VALUE                         : DESCRIPTION
#_______________________________________________________________________________
STRT               .M        2649.6                        : First reference value
STOP               .M        2750.799949                   : Last reference value
STEP               .M        0.1999999                     : Step increment
NULL               .         -9999                         : Missing value
COMP               .                                       : Company
WELL               .         616                           : Well name
FLD                .                                       : Field
LOC                .                                       : Location
CNTY               .                                       : County
STAT               .                                       : State
CTRY               .                                       : Country
SRVC               .                                       : Service Company
DATE               .                                       : Date
API                .                                       : API number
PROJECT_UPGRADE_TIME .         2021-03-18T21_24_50           : 
group              .         Good                          : 
~Parameter Information Block
#_______________________________________________________________________________
#
#PARAMETER_NAME    .UNIT     VALUE                         : DESCRIPTION
#_______________________________________________________________________________
SET                .         D4415_D_2                     : 
COMM               .                                       : 
OTHER              .         Запись производится в присутствии: 
OTHER_10           .         Максимальная температура      : 
OTHER_11           .         Тип промывочной жидкости      : 
OTHER_12           .         Сопротивление ПЖ (Ом*м) при 20°C: 
OTHER_13           .         Плотность ПЖ(г/см3)           : 
OTHER_14           .         Вязкость ПЖ(с)                : 
OTHER_15           .         Водоотдача ПЖ(см3/30мин)      : 
OTHER_16           .         Уровень ПЖ                    : 
OTHER_17           .         Нефть ПЖ (%)                  : 
OTHER_18           .         Барит ПЖ (%)                  : 
OTHER_19           .         Гематит ПЖ (%)                : 
OTHER_2            .         Заказчик ННСН  ЦДНГ-1         : 
OTHER_20           .         КМЦ ПЖ (%)                    : 
OTHER_21           .         Разгазирование ПЖ (да,нет)    : 
OTHER_22           .         Подъемник                     : 
OTHER_23           .         Лаборатория                   : 
OTHER_24           .         Тип кабеля                    : 
OTHER_25           .         Длина кабеля (м)              : 
OTHER_26           .         Цена последней метки          : 
OTHER_27           .         Цена контрольной метки        : 
OTHER_28           .         Диаметр долота (мм)           : 
OTHER_29           .         Глубина бурения (м)           : 
OTHER_3            .         Площадь                       : 
OTHER_30           .         Искусственный забой (м)       : 
OTHER_31           .         Диаметр колонны (мм)          : 
OTHER_32           .         Толщина колонны (мм)          : 
OTHER_33           .         Башмак колонны (м)            : 
OTHER_34           .         Диаметр НКТ (мм)              : 
OTHER_35           .         Толщина НКТ (мм)              : 
OTHER_36           .         Воронка НКТ (м)               : 
OTHER_37           .         Дата цементожа                : 
OTHER_38           .         Тип, количество(т) и плотность цемента: 
OTHER_39           .         Интервалы перфорации (м)      : 
OTHER_4            .         Категория                     : 
OTHER_40           .         Направление, диаметр (мм)     : 
OTHER_41           .         Направление, глубина (м)      : 
OTHER_42           .         Кондуктор, диаметр (мм)       : 
OTHER_43           .         Кондуктор, глубина (м)        : 
OTHER_44           .         Техническая колонна, диаметр (мм): 
OTHER_45           .         Техническая колонна, глубина (м): 
OTHER_46           .         Эксплуатационная колонна, диаметр (мм): 
OTHER_47           .         Эксплуатационная колонна, глубина (м): 
OTHER_48           .         Программа Кедр-02 версия 3.4  : 
OTHER_49           .         Операционная система Windows NT 5.1 build 2600 Service Pack 2: 
OTHER_5            .         Назначение исследований       : 
OTHER_50           .         Программное обеспечение станции MONITOR-386EX 25/12/99 15_08_10   BGF V54 20/09/05 15_32_17   3.3__BGF_9030071: 
OTHER_51           .         Kedr.exe версия 3.4.2.74      : 
OTHER_52           .         KedrData.dll версия 3.4.2.29  : 
OTHER_53           .         Мнемоники версия 3.18 S       : 
OTHER_54           .         Драйвер версия 2.1.1.4        : 
OTHER_55           .         LasInf.dll 4.3.0.35           : 
OTHER_56           .         Прибор_ КСА-Т4                : 
OTHER_57           .         Номер прибора_ 160            : 
OTHER_58           .         Режим_ КСА-Т4                 : 
OTHER_59           .         Форма_ С.А.Б.                 : 
OTHER_6            .         Альтитуда стола ротора        : 
OTHER_60           .         Тарировки_                    : 
OTHER_61           .         <_techsia_sc_> Дата тарировки температуры 25.05.2010: 
OTHER_62           .         Ручной ввод коэффициентов     : 
OTHER_63           .         TM.DEGC = 0.00402*RTM.E.ACP + -0.994: 
OTHER_64           .         <_techsia_sc_> Дата тарировки давления 25.05.2010: 
OTHER_65           .         Ручной ввод коэффициентов     : 
OTHER_66           .         MN.ATM = (2.27521e-006*TM.DEGC + 0.02078)*(RMN.E.ACP + 6.2*TM.DEGC + -1688): 
OTHER_67           .         <_techsia_sc_> Дата тарировки ГК 25.05.2010: 
OTHER_68           .         Ручной ввод коэффициентов     : 
OTHER_69           .         GR.UR/H = RGR.IMP/MIN / 45.5144: 
OTHER_7            .         Вид исследований 3  6         : 
OTHER_70           .         GK.FLT = 0.1*GR.UR/H[-1] + (1-0.1)*GR.UR/H[0]: 
OTHER_8            .         Начало бурения интервала каротажа: 
OTHER_9            .         Окончание бурения интервала каротажа: 
PROJECT_UPGRADE_TIME .         2021-03-18T21_24_50           : 
PRTY               .         ПП-601-1                      : N партии
SRVC               .         Барковский                    : Начальник партии
TLFamily_DEPT      .         Measured Depth                : 
TLFamily_LM        .         Casing Collar locator         : 
TLFamily_MN        .                                       : 
TLFamily_TM        .         Temperature                   : 
group              .         second                        : 
~Curve Information
#_______________________________________________________________________________
#
#LOGNAME           .UNIT     LOG_ID                        : DESCRIPTION
#_______________________________________________________________________________
DEPT               .M                                      : Depth curve 
LM                 .е.ацп                                  : Локатор муфт,е.ацп 
MN                 .атм                                    : 12 Давление, атм. -  160.0 см 
TM                 .град.C                                 : Термограмма по стволу скважины,град.C 
~Ascii
2649.6000977 -9999      -9999      -9999     
2649.8     26         -9999      -9999     
2650       27         -9999      -9999     
2650.2     27.2       -9999      -9999     
2650.4     436.104    -9999      -9999     
2650.599999 648.054    -9999      -9999     
2650.799999 759.174    -9999      -9999     
2650.999999 1116.189   -9999      -9999     
2651.199999 1504.154   -9999      -9999     
2651.399999 1818.902   238.874    65.151    
2651.599999 1617.897   238.894    65.153    
2651.799999 1407.906   238.916    65.154    
2651.999999 1215.087   238.958    65.155    
2652.199999 1394.048   238.921    65.159    
2652.399999 1492.938   238.99     65.167    
2652.599998 1365.895   238.967    65.167    
2652.799998 1150.984   238.999    65.171    
2652.999998 1117.77    239.027    65.171    
2653.199998 648.211    239.024    65.175    
2653.399998 1079.099   239.073    65.175    
2653.599998 1281.701   239.087    65.175    
2653.799998 670.047    239.087    65.179    
2653.999998 766.024    239.13     65.179    
2654.199998 815.901    239.133    65.181    
2654.399998 613.039    239.151    65.183    
2654.599997 692.033    239.179    65.183    
2654.799997 759.966    239.192    65.183    
2654.999997 689.933    239.214    65.187    
2655.199997 553.021    239.235    65.187    
2655.399997 596.046    239.256    65.187    
2655.599997 690.008    239.277    65.187    
2655.799997 706.955    239.298    65.187    
2655.999997 615.885    239.298    65.187    
2656.199997 4468.462   239.319    65.187    
2656.399997 1323.697   239.34     65.186    
2656.599997 704        239.361    65.187    
2656.799996 702.974    239.395    65.187    
2656.999996 649.978    239.444    65.187    
2657.199996 605.001    239.444    65.187    
2657.399996 608.005    239.469    65.183    
2657.599996 618.022    239.486    65.183    
2657.799996 664.007    239.506    65.185    
2657.999996 678.977    239.528    65.185    
2658.199996 631.983    239.548    65.187    
2658.399996 596.933    239.569    65.183    
2658.599995 459.024    239.59     65.183    
2658.799995 507.999    239.607    65.183    
2658.999995 504.991    239.61     65.179    
2659.199995 485.932    239.631    65.175    
2659.399995 346.099    239.652    65.175    
2659.599995 547.991    239.672    65.171    
2659.799995 528.948    239.682    65.171    
2659.999995 422.033    239.714    65.171    
2660.199995 488.923    239.713    65.167    
2660.399995 332.04     239.713    65.167    
2660.599994 413.934    239.713    65.167    
2660.799994 279.118    239.733    65.163    
2660.999994 520.921    239.754    65.159    
2661.199994 359.058    239.789    65.159    
2661.399994 477.915    239.796    65.159    
2661.599994 305.07     239.816    65.159    
2661.799994 448.975    239.836    65.159    
2661.999994 398.013    239.854    65.151    
2662.199994 423.978    239.861    65.153    
2662.399994 379.021    239.892    65.151    
2662.599993 420.905    239.899    65.147    
2662.799993 226.052    239.94     65.147    
2662.999993 333.087    239.94     65.143    
2663.199993 509.846    239.981    65.143    
2663.399993 196.138    239.981    65.143    
2663.599993 477.935    240.002    65.143    
2663.799993 345.999    240.016    65.139    
2663.999993 343.053    240.064    65.139    
2664.199993 451.846    240.064    65.136    
2664.399993 138.08     240.077    65.135    
2664.599993 301.029    240.106    65.132    
2664.799992 360.895    240.109    65.131    
2664.999992 147.111    240.137    65.127    
2665.199992 373.96     240.146    65.123    
2665.399992 291.911    240.166    65.119    
2665.599992 112.709    240.187    65.119    
2665.799992 5643.397   240.207    65.115    
2665.999992 2369.179   240.207    65.111    
2666.199992 692.818    240.249    65.111    
2666.399992 322.023    240.248    65.11     
2666.599991 368.919    240.269    65.107    
2666.799991 202.99     240.289    65.103    
2666.999991 182.067    240.309    65.101    
2667.199991 318.935    240.319    65.095    
2667.399991 185.939    240.328    65.091    
2667.599991 61.046     240.349    65.087    
2667.799991 154.063    240.369    65.083    
2667.999991 281.949    240.389    65.079    
2668.199991 176.959    240.406    65.074    
2668.399991 93.061     240.43     65.067    
2668.59999 218.025    240.436    65.067    
2668.79999 269.912    240.471    65.063    
2668.99999 90.005     240.488    65.057    
2669.19999 101.019    240.511    65.052    
2669.39999 139.061    240.52     65.047    
2669.59999 262.928    240.53     65.043    
2669.79999 116.009    240.55     65.037    
2669.99999 135.041    240.571    65.03     
2670.19999 218.977    240.58     65.022    
2670.39999 172.945    240.61     65.018    
2670.599989 59.989     240.63     65.01     
2670.799989 37.019     240.65     65.003    
2670.999989 75.062     240.669    64.994    
2671.199989 202.005    240.689    64.989    
2671.399989 211.965    240.692    64.984    
2671.599989 139.95     240.719    64.978    
2671.799989 38.052     240.729    64.974    
2671.999989 145.023    240.749    64.966    
2672.199989 192.004    240.772    64.962    
2672.399989 201.008    240.789    64.955    
2672.599989 216.931    240.81     64.954    
2672.799988 76.044     240.83     64.95     
2672.999988 164.992    240.851    64.946    
2673.199988 148.028    240.862    64.939    
2673.399988 206.127    240.887    64.934    
2673.599988 464.982    240.893    64.93     
2673.799988 427.867    240.917    64.926    
2673.999988 157.056    240.93     64.919    
2674.199988 271.959    240.949    64.913    
2674.399988 188.987    240.969    64.902    
2674.599987 161.986    240.996    64.898    
2674.799987 133.972    241.01     64.897    
2674.999987 76.015     241.027    64.89     
2675.199987 106.059    241.049    64.884    
2675.399987 226.014    241.069    64.874    
2675.599987 257.239    241.08     64.866    
2675.799987 4820.664   241.089    64.865    
2675.999987 2095.359   241.108    64.856    
2676.199987 787.848    241.139    64.85     
2676.399987 476.912    241.148    64.846    
2676.599986 298.039    241.169    64.842    
2676.799986 376.956    241.189    64.838    
2676.999986 287.008    241.209    64.829    
2677.199986 303.119    241.229    64.824    
2677.399986 545.103    241.249    64.821    
2677.599986 754.955    241.255    64.815    
2677.799986 664.014    241.289    64.809    
2677.999986 692.891    241.289    64.805    
2678.199986 470.954    241.327    64.803    
2678.399986 376.961    241.33     64.805    
2678.599986 296.986    241.363    64.797    
2678.799985 268.001    241.371    64.797    
2678.999985 269.992    241.394    64.789    
2679.199985 254.03     241.41     64.781    
2679.399985 314.923    241.431    64.777    
2679.599985 157.978    241.452    64.773    
2679.799985 113.026    241.472    64.773    
2679.999985 165.993    241.493    64.769    
2680.199985 150.995    241.513    64.765    
2680.399985 140.03     241.531    64.765    
2680.599985 200.993    241.554    64.763    
2680.799984 186.987    241.574    64.757    
2680.999984 159.995    241.574    64.753    
2681.199984 148.969    241.609    64.753    
2681.399984 85.01      241.636    64.75     
2681.599984 104.983    241.635    64.746    
2681.799984 71.054     241.656    64.745    
2681.999984 181.974    241.669    64.74     
2682.199984 129.051    241.694    64.737    
2682.399984 233.005    241.718    64.733    
2682.599983 244.022    241.727    64.733    
2682.799983 289        241.751    64.725    
2682.999983 289.999    241.775    64.721    
2683.199983 286.982    241.781    64.719    
2683.399983 249.995    241.82     64.717    
2683.599983 238.999    241.834    64.721    
2683.799983 236.973    241.84     64.717    
2683.999983 180.995    241.861    64.715    
2684.199983 169.97     241.881    64.71     
2684.399983 109.078    241.902    64.709    
2684.599982 267.025    241.916    64.709    
2684.799982 317.989    241.943    64.705    
2684.999982 295.968    241.964    64.705    
2685.199982 232.502    241.985    64.705    
