~Version
#MNEM .UNIT                VALUE  : DESCRIPTION                    
 VERS .                      2.0  : CWLS LOG ASCII STANDARD - VERSION 2.0 
 WRAP .                       NO  : ONE LINE PER DEPTH STEP        
~Well
#MNEM .UNIT                      VALUE  : DESCRIPTION                    
 STRT  .FT                         30.0  : Start Depth                    
 STOP  .FT                        594.0  : Stop Depth                     
 STEP  .FT                          0.1  : Step                           
 NULL  .                        -999.25  : Null Value                     
 COMP  .                        KGS-OGS  : Company                        
 WELL  .                    CURRENT # 1  : Well                           
 FLD   .                                 : Field                          
 SEC   .                             17  : Section                        
 TOWN  .                             5S  : Township (e.g. 42S)            
 RANG  .                            13E  : Range  (e.g. 25E)              
 LOC   .                      5S-13E-17  : Location (Sec Town Range)      
 LOC1  .          1515' FSL & 1195' FEL  : Location 1 (quarter calls)     
 LOC2  .                         SWNESE  : Location 2 (footages)          
 PROV  .                                 : Province                       
 CTRY  .                             US  : Country                        
 STAT  .                       OKLAHOMA  : State                          
 CNTY  .                       PONTOTOC  : County                         
 API   .                   35-123-23588  : API-Number                     
 UWI   .                                 : Unique Well ID                 
 SRVC  .                                 : Service Company                
 LIC   .                                 : Licence Number                 
 DATE  .                     06/10/2008  : Date preferred format is MM/DD/YYYY 
 LATI  .                        N34.706  : Latitude                       
 LONG  .                        W96.638  : Longitude                      
 GDAT  .                          NAD27  : Geodetic Datum                 
 X     .                      244102.82  : X or East-West coordinate      
 Y     .                     4388921.03  : Y or North South coordinate    
 HZCS  .                            UTM  : Horizontal Co-ordinate System  
 UTM   .                           15.0  : UTM Location                   
 STUS  .                                 : Well Status                    
~Parameter
#MNEM .UNIT           VALUE  : DESCRIPTION                    
 EGL   .M                775  : Ground Level Elevation         
 EKB   .M                     : Kelly Bushing Elevation        
 EDF   .F                     : Derrick Floor Elevation        
 ERT   .F                     : Rotary Table Elevation         
 TDL   .F             3837.0  : Total Depth Logger             
 TDD   .               593.6  : Total Depth Driller            
 CSGL  .                8.62  : Casing Bottom Logger           
 CSGD  .                      : Casing Bottom Driller          
 CSGS  .IN                    : Casing Size                    
 CSGW  .LB                    : Casing Weight                  
 BS    .IN              3.00  : Bit Size                       
 DFT   .               WATER  : Mud type                       
 MSS   .                  NA  : Mud Sample Source              
 DFD   .gm/cc            9.0  : Mud Density                    
 DFV   .S                     : Mud Viscosity (Funnel)         
 DFL   .cc                    : Fluid Loss                     
 PH    .                      : PH                             
 RM    .                  NA  : Resistivity of Mud             
 MST   .                  NA  : Temperature of Mud             
 RMF   .                      : Resistivity of Mud Filtrate    
 MFT   .                      : Temperature of Mud Filtrate    
 RMC   .                  NA  : Resistivity of Mud Cake        
 MCST  .                      : Temperature of Mud Cake        
 BHT   .DEG-F          116.0  : Maximum Recorded Temperature   
 RMB   .OHM-M                 : Resitivity @ BHT               
 TIMC  .DATE              NA  : Date/Time Circulation Stopped  
 TIML  .DATE                  : Date/Time Logger Tagged Bottom 
 UNIT  .                 401  : Logging Unit Number            
 BASE  .                      : Home Base of Logging Unit      
 ENG   .             RUNNELS  : Recording Engineer             
 WIT   .                      : Witnessed By                   
~Curve
#MNEM    .UNIT           VALUE  : DESCRIPTION                    
 DEPT     .FT                    : 1  DEPTH                       
 GAMMA    .API-GR                : 2  GAMMA RAY                   
 CALIPER  .INCH                  : 3  SHORT ARM CALIPER           
 DEN(CDL) .G/CC                  : 5  COMPENSATED DENSITY         
 RES(DG)  .OHM-M                 : 6  DEEP GUARD RES              
 POR(NEU) .PERCENT               : 7  NEUTRON POROSITY            
 DELTAT   .USEC/FT               : 3  DELTA TRAVEL TIME           
 POTASIUM .PERCENT               : 3  POTASIUM                    
 URANIUM  .PPM                   : 4  URANIUM                     
 THORIUM  .PPM                   : 5  THORIUM                     
~ASCII
# ...
 511.2 440.88 2.9 2.22 13.0 35.56 110.9 3.79 44.5 15.1
 511.3 441.44 2.9 2.212 13.0 35.5 111.0 3.62 21.43 13.41
 511.4 449.04 2.9 2.202 12.84 36.06 111.2 2.31 24.67 11.56
 511.5 450.18 2.9 2.192 12.72 36.44 111.3 2.28 35.1 9.86
 511.6 452.4 2.9 2.19 12.62 36.82 111.4 2.84 63.75 13.32
 511.7 448.6 2.9 2.182 12.44 36.74 111.3 2.32 63.89 10.03
 511.8 445.18 2.9 2.18 12.4 37.18 111.3 1.44 48.64 2.24
 511.9 449.24 2.9 2.18 12.32 38.42 111.2 1.39 42.57 -0.99
 512.0 453.12 2.9 2.18 12.3 37.42 111.2 1.29 41.27 2.43
 512.1 456.84 2.9 2.18 12.3 37.66 111.1 2.11 48.64 7.85
 512.2 457.92 2.9 2.172 12.38 37.32 111.1 2.86 43.81 10.29
 512.3 469.76 2.9 2.17 12.48 37.36 111.1 2.3 39.18 5.38
 512.4 474.7 2.9 2.17 12.58 36.92 111.1 3.04 36.37 9.22
 512.5 468.48 2.9 2.17 12.6 36.56 111.2 3.08 40.39 10.91
 512.6 464.48 2.9 2.17 12.68 36.98 111.4 3.16 35.78 12.51
 512.7 455.18 2.9 2.178 12.7 37.26 111.4 3.6 40.88 12.0
 512.8 454.68 2.9 2.18 12.7 37.86 111.6 3.7 37.91 7.55
 512.9 454.7 2.9 2.18 12.7 36.8 111.7 3.5 40.26 9.65
 513.0 451.96 2.9 2.18 12.7 35.14 111.9 3.74 36.8 10.15
 513.1 459.38 2.9 2.18 12.78 34.4 111.9 3.49 29.12 7.45
 513.2 463.4 2.9 2.18 12.8 33.74 112.0 3.54 32.12 11.43
 513.3 461.18 2.9 2.18 12.96 33.6 112.1 3.97 35.99 12.77
 513.4 448.42 2.9 2.188 13.08 33.6 112.0 3.79 37.6 13.66
 513.5 440.04 2.9 2.19 13.18 33.76 111.9 3.42 38.15 14.2
 513.6 449.74 2.9 2.198 13.28 34.04 112.0 3.36 31.74 12.76
 513.7 454.9 2.9 2.2 13.3 33.46 111.8 3.15 38.73 15.86
 513.8 459.5 2.9 2.2 13.3 33.14 111.6 2.68 37.5 14.72
 513.9 461.54 2.9 2.208 13.3 32.62 111.4 2.94 38.18 10.1
 514.0 460.12 2.9 2.21 13.22 32.58 111.3 2.2 41.07 8.73
 514.1 460.02 2.9 2.21 13.04 32.68 111.1 1.87 42.59 4.82
 514.2 450.34 2.9 2.21 12.92 32.78 111.0 1.79 49.7 5.26
 514.3 448.62 2.9 2.21 12.74 33.12 111.0 1.58 55.23 3.33
 514.4 454.16 2.9 2.218 12.54 33.12 111.0 1.97 54.8 0.49
 514.5 461.18 2.9 2.22 12.34 32.94 110.9 2.0 51.75 1.11
 514.6 472.68 2.9 2.228 12.06 33.7 111.0 1.82 37.53 0.32
 514.7 474.24 2.9 2.23 11.84 33.9 111.1 2.08 47.87 -0.69
 514.8 487.76 2.9 2.23 11.72 33.9 111.3 3.0 47.17 1.68
 514.9 506.64 2.9 2.23 11.46 33.5 111.5 3.42 55.08 5.45
 515.0 518.26 2.9 2.23 11.24 34.04 111.7 3.29 47.47 6.03
 515.1 540.36 2.9 2.23 10.96 34.92 111.8 2.54 46.81 4.39
 515.2 554.76 2.9 2.23 10.74 34.46 111.9 2.8 47.51 7.55
 515.3 577.98 2.9 2.23 10.54 34.06 112.1 3.29 51.6 9.48
 515.4 581.52 2.9 2.23 10.34 34.0 112.2 2.52 58.36 10.66
 515.5 588.46 2.9 2.23 10.22 34.16 112.3 2.09 51.63 9.65
 515.6 605.42 2.9 2.23 10.28 34.84 112.3 1.52 57.01 5.25
 515.7 605.2 2.9 2.23 10.54 34.6 112.1 1.9 55.62 3.51
 515.8 601.48 2.9 2.23 10.84 34.1 111.9 1.39 63.83 2.66
 515.9 586.0 2.9 2.23 11.38 34.16 111.6 1.64 56.66 1.09
 516.0 563.5 2.9 2.23 11.98 34.52 111.4 0.97 68.29 1.67
 516.1 547.04 2.9 2.23 12.5 34.28 111.1 1.66 63.33 1.84
 516.2 530.98 2.9 2.23 12.76 33.64 110.8 1.2 62.64 0.78
 516.3 520.98 2.9 2.23 12.88 34.54 110.6 1.45 45.82 -0.92
 516.4 499.46 2.9 2.222 12.82 34.88 110.5 0.88 49.62 3.23
 516.5 490.5 2.9 2.22 12.72 35.06 110.4 2.08 51.13 7.45
 516.6 478.06 2.9 2.22 12.38 34.7 110.6 1.76 50.22 8.76
 516.7 458.4 2.9 2.22 11.98 34.36 110.8 2.3 43.42 6.01
 516.8 458.92 2.9 2.22 11.66 33.82 111.1 2.35 35.8 3.76
 516.9 457.38 2.9 2.212 11.52 34.02 111.3 2.71 39.43 4.28
 517.0 456.7 2.9 2.21 11.42 34.34 111.8 2.74 44.64 4.24
 517.1 459.74 2.9 2.202 11.48 35.12 112.2 3.07 45.88 5.18
 517.2 464.18 2.9 2.2 11.58 36.58 112.6 2.67 48.79 2.11
 517.3 467.5 2.9 2.192 11.76 37.3 112.8 3.05 43.52 1.01
 517.4 466.42 2.9 2.182 11.88 37.08 113.2 3.15 47.01 3.1
 517.5 473.68 2.9 2.18 11.98 37.72 113.3 3.88 41.1 3.35
 517.6 474.32 2.9 2.18 12.16 37.9 113.4 4.58 39.08 4.81
 517.7 482.72 2.9 2.18 12.36 38.54 113.5 4.93 38.87 6.17
 517.8 480.18 2.9 2.18 12.56 38.06 113.6 5.05 32.52 7.22
 517.9 469.24 2.9 2.18 12.68 38.38 113.5 5.44 35.6 6.22
 518.0 461.76 2.9 2.18 12.86 39.86 113.4 4.58 31.81 3.66
 518.1 455.78 2.9 2.188 13.14 39.88 113.2 3.87 41.52 2.15
 518.2 457.64 2.9 2.198 13.44 38.92 113.1 3.15 48.9 4.41
 518.3 456.4 2.9 2.208 13.82 37.26 112.8 2.45 51.72 3.89
 518.4 459.26 2.9 2.218 14.14 37.06 112.4 1.93 50.2 3.68
 518.5 453.38 2.9 2.228 14.36 36.46 111.9 1.6 44.33 -0.09
 518.6 449.38 2.9 2.238 14.48 35.74 111.2 1.21 48.76 0.97
 518.7 439.04 2.9 2.256 14.58 35.12 110.3 1.89 47.03 4.02
 518.8 425.48 2.9 2.268 14.68 34.44 109.3 2.36 46.22 5.9
 518.9 423.1 2.9 2.278 14.7 34.22 108.3 2.54 39.03 8.13
 519.0 423.2 2.9 2.28 14.62 33.56 107.4 2.04 37.85 5.95
 519.1 416.8 2.9 2.288 14.36 31.4 106.4 2.26 33.51 5.01
 519.2 432.64 2.9 2.29 14.06 30.82 105.6 2.68 38.41 4.25
 519.3 433.32 2.9 2.29 13.76 30.96 104.9 2.67 42.62 8.02
 519.4 444.48 2.9 2.29 13.3 30.6 104.3 2.61 43.71 7.4
 519.5 440.46 2.9 2.29 12.88 29.86 103.9 2.19 34.19 4.74
 519.6 443.1 2.9 2.282 12.48 29.7 103.9 1.63 34.93 1.06
 519.7 442.84 2.9 2.28 12.16 29.54 104.2 2.82 43.08 6.07
 519.8 456.26 2.9 2.272 12.02 29.5 104.5 2.89 55.03 7.14
 519.9 472.1 2.9 2.262 11.92 29.58 104.9 1.94 43.8 5.96
 520.0 480.24 2.9 2.26 11.9 30.48 105.4 1.9 40.14 1.84
 520.1 490.22 2.9 2.252 11.98 31.02 105.8 1.61 46.14 -0.34
 520.2 500.16 2.9 2.242 12.0 31.58 106.2 1.58 60.84 -1.52
 520.3 497.38 2.9 2.232 12.0 31.62 106.6 1.68 63.21 -2.82
 520.4 498.92 2.9 2.222 12.0 31.92 106.9 1.43 59.81 -7.73
 520.5 488.48 2.9 2.22 12.0 31.84 107.0 1.21 60.44 -9.01
 520.6 480.98 2.9 2.22 12.0 31.48 107.0 1.96 58.01 -6.62
 520.7 481.48 2.9 2.22 11.92 31.56 107.0 2.39 55.42 -4.22
 520.8 483.26 2.9 2.22 11.74 31.68 106.9 2.63 49.27 -4.28
 520.9 489.36 2.9 2.212 11.7 31.86 106.8 3.32 43.55 -2.84
 521.0 485.04 2.9 2.21 11.62 31.74 106.7 3.8 43.85 -1.39
 521.1 486.64 2.9 2.21 11.52 30.74 106.6 3.42 42.59 1.41
 521.2 486.04 2.9 2.21 11.42 30.18 106.7 3.43 47.4 3.4
 521.3 495.14 2.9 2.202 11.48 29.94 106.7 3.24 41.28 3.44
 521.4 490.46 2.9 2.2 11.66 29.98 106.9 2.73 43.37 -0.16
 521.5 492.7 2.9 2.2 11.86 29.76 107.0 3.05 42.71 3.12
 521.6 497.7 2.9 2.2 11.98 29.86 107.1 2.47 52.33 2.9
 521.7 504.14 2.9 2.2 12.16 30.62 107.2 1.91 50.25 1.52
 521.8 509.18 2.9 2.2 12.36 30.56 107.2 2.24 52.88 0.44
 521.9 505.7 2.9 2.2 12.48 30.66 107.3 2.36 50.35 3.63
 522.0 502.92 2.9 2.2 12.5 30.46 107.4 2.35 52.76 2.54
 522.1 509.22 2.9 2.2 12.58 30.4 107.2 2.34 49.18 2.53
 522.2 508.9 2.9 2.2 12.6 30.96 107.1 1.86 46.08 1.19
 522.3 504.4 2.9 2.208 12.6 30.94 106.9 2.38 52.77 2.6
 522.4 497.32 2.9 2.21 12.52 30.74 106.7 2.75 56.08 3.84
 522.5 500.2 2.9 2.21 12.34 30.54 106.4 1.72 51.13 3.9
 522.6 492.5 2.9 2.218 12.22 29.94 106.1 1.39 43.89 -0.36
 522.7 491.66 2.9 2.22 12.04 29.56 105.8 1.39 43.68 0.38
 522.8 493.04 2.9 2.22 11.84 28.7 105.4 1.12 49.87 1.42
 522.9 493.94 2.9 2.22 11.56 28.74 105.2 1.17 53.2 0.46
 523.0 497.78 2.9 2.22 11.34 28.48 105.0 0.24 58.1 -0.99
 523.1 492.38 2.9 2.22 11.14 28.16 104.8 -0.09 58.53 -0.16
 523.2 482.4 2.9 2.228 10.94 27.94 104.7 -0.01 57.76 -1.2
 523.3 477.58 2.9 2.23 10.82 27.58 104.7 0.17 52.38 3.05
 523.4 478.58 2.9 2.23 10.72 27.82 104.8 0.25 51.2 2.57
 523.5 480.68 2.9 2.222 10.78 27.98 104.8 0.61 46.49 4.8
 523.6 478.06 2.9 2.22 10.88 28.56 104.9 1.23 46.29 6.01
 523.7 485.06 2.9 2.22 11.06 29.1 105.1 1.89 42.91 6.02
 523.8 487.64 2.9 2.22 11.26 29.44 105.1 2.14 45.21 5.92
 523.9 489.48 2.9 2.22 11.54 29.58 105.2 2.77 48.06 10.33
 524.0 486.86 2.9 2.22 11.84 29.44 105.3 2.96 51.29 6.19
 524.1 479.06 2.9 2.22 11.98 29.24 105.2 2.9 45.49 4.88
 524.2 477.62 2.9 2.22 12.0 29.6 105.1 2.62 45.14 2.35
 524.3 478.42 2.9 2.22 12.0 29.94 104.8 1.96 47.18 2.41
 524.4 474.92 2.9 2.22 11.92 30.08 104.7 2.21 62.61 4.59
 524.5 479.36 2.9 2.22 11.82 29.94 104.5 2.5 58.76 5.81
 524.6 473.66 2.9 2.228 11.72 29.5 104.2 1.81 54.29 1.42
 524.7 473.9 2.9 2.23 11.54 28.68 103.8 1.66 42.09 3.52
 524.8 470.72 2.9 2.23 11.5 28.02 103.5 1.54 44.89 2.45
 524.9 466.76 2.9 2.23 11.5 27.58 103.2 2.13 42.41 4.12
 525.0 460.24 2.9 2.23 11.5 27.58 103.0 2.28 51.23 4.11
 525.1 457.52 2.9 2.23 11.5 27.52 102.8 1.77 48.34 4.19
 525.2 454.8 2.9 2.23 11.5 27.5 102.7 1.85 48.54 1.47
 525.3 453.56 2.9 2.23 11.5 26.86 102.5 2.44 40.13 2.99
