~Version
#MNEM .UNIT                VALUE  : DESCRIPTION                    
 VERS .                      2.0  : CWLS LOG ASCII STANDARD - VERSION 2.0 
 WRAP .                       NO  : ONE LINE PER DEPTH STEP        
~Well
#MNEM .UNIT                      VALUE  : DESCRIPTION                    
 STRT  .FT                         30.0  : Start Depth                    
 STOP  .FT                        594.0  : Stop Depth                     
 STEP  .FT                          0.1  : Step                           
 NULL  .                        -999.25  : Null Value                     
 COMP  .                        KGS-OGS  : Company                        
 WELL  .                    CURRENT # 1  : Well                           
 FLD   .                                 : Field                          
 SEC   .                             17  : Section                        
 TOWN  .                             5S  : Township (e.g. 42S)            
 RANG  .                            13E  : Range  (e.g. 25E)              
 LOC   .                      5S-13E-17  : Location (Sec Town Range)      
 LOC1  .          1515' FSL & 1195' FEL  : Location 1 (quarter calls)     
 LOC2  .                         SWNESE  : Location 2 (footages)          
 PROV  .                                 : Province                       
 CTRY  .                             US  : Country                        
 STAT  .                       OKLAHOMA  : State                          
 CNTY  .                       PONTOTOC  : County                         
 API   .                   35-123-23588  : API-Number                     
 UWI   .                                 : Unique Well ID                 
 SRVC  .                                 : Service Company                
 LIC   .                                 : Licence Number                 
 DATE  .                     06/10/2008  : Date preferred format is MM/DD/YYYY 
 LATI  .                        N34.706  : Latitude                       
 LONG  .                        W96.638  : Longitude                      
 GDAT  .                          NAD27  : Geodetic Datum                 
 X     .                      244102.82  : X or East-West coordinate      
 Y     .                     4388921.03  : Y or North South coordinate    
 HZCS  .                            UTM  : Horizontal Co-ordinate System  
 UTM   .                           15.0  : UTM Location                   
 STUS  .                                 : Well Status                    
~Parameter
#MNEM .UNIT           VALUE  : DESCRIPTION                    
 EGL   .M                775  : Ground Level Elevation         
 EKB   .M                     : Kelly Bushing Elevation        
 EDF   .F                     : Derrick Floor Elevation        
 ERT   .F                     : Rotary Table Elevation         
 TDL   .F             3837.0  : Total Depth Logger             
 TDD   .               593.6  : Total Depth Driller            
 CSGL  .                8.62  : Casing Bottom Logger           
 CSGD  .                      : Casing Bottom Driller          
 CSGS  .IN                    : Casing Size                    
 CSGW  .LB                    : Casing Weight                  
 BS    .IN              3.00  : Bit Size                       
 DFT   .               WATER  : Mud type                       
 MSS   .                  NA  : Mud Sample Source              
 DFD   .gm/cc            9.0  : Mud Density                    
 DFV   .S                     : Mud Viscosity (Funnel)         
 DFL   .cc                    : Fluid Loss                     
 PH    .                      : PH                             
 RM    .                  NA  : Resistivity of Mud             
 MST   .                  NA  : Temperature of Mud             
 RMF   .                      : Resistivity of Mud Filtrate    
 MFT   .                      : Temperature of Mud Filtrate    
 RMC   .                  NA  : Resistivity of Mud Cake        
 MCST  .                      : Temperature of Mud Cake        
 BHT   .DEG-F          116.0  : Maximum Recorded Temperature   
 RMB   .OHM-M                 : Resitivity @ BHT               
 TIMC  .DATE              NA  : Date/Time Circulation Stopped  
 TIML  .DATE                  : Date/Time Logger Tagged Bottom 
 UNIT  .                 401  : Logging Unit Number            
 BASE  .                      : Home Base of Logging Unit      
 ENG   .             RUNNELS  : Recording Engineer             
 WIT   .                      : Witnessed By                   
~Curve
#MNEM    .UNIT           VALUE  : DESCRIPTION                    
 DEPT     .FT                    : 1  DEPTH                       
 GAMMA    .API-GR                : 2  GAMMA RAY                   
 CALIPER  .INCH                  : 3  SHORT ARM CALIPER           
 DEN(CDL) .G/CC                  : 5  COMPENSATED DENSITY         
 RES(DG)  .OHM-M                 : 6  DEEP GUARD RES              
 POR(NEU) .PERCENT               : 7  NEUTRON POROSITY            
 DELTAT   .USEC/FT               : 3  DELTA TRAVEL TIME           
 POTASIUM .PERCENT               : 3  POTASIUM                    
 URANIUM  .PPM                   : 4  URANIUM                     
 THORIUM  .PPM                   : 5  THORIUM                     
~ASCII
 30.0 302.56 3.6 2.29 231.02 50.22 179.0 3.09 36.89 12.49
 30.1 303.1 3.68 2.298 243.36 50.2 177.9 2.58 29.05 9.35
 30.2 313.48 3.62 2.3 257.56 50.2 177.3 2.77 25.29 8.14
 30.3 320.74 3.6 2.3 276.24 48.84 176.5 2.28 22.43 8.2
 30.4 320.62 3.6 2.3 296.92 47.94 180.0 2.77 30.82 9.04
 30.5 317.26 3.6 2.3 322.06 47.8 184.2 3.15 28.9 9.12
 30.6 312.82 3.6 2.3 347.06 46.68 187.0 3.37 24.34 10.73
 30.7 309.82 3.6 2.3 340.48 47.2 186.3 3.37 21.89 11.75
 30.8 309.7 3.6 2.308 320.96 46.28 186.0 3.14 13.45 15.07
 30.9 306.44 3.68 2.31 310.08 46.4 181.1 3.48 20.64 14.57
 31.0 309.6 3.7 2.31 298.0 47.46 176.2 3.77 17.8 12.56
 31.1 313.96 3.7 2.31 274.44 47.7 176.2 3.19 24.84 10.96
 31.2 322.16 3.7 2.31 248.32 47.7 170.7 3.04 21.07 9.92
 31.3 328.4 3.7 2.302 241.34 47.7 165.2 2.31 25.35 5.62
 31.4 343.98 3.7 2.3 258.9 47.38 159.9 2.67 28.24 7.97
 31.5 357.68 3.7 2.3 305.72 47.86 155.7 2.89 33.37 6.71
 31.6 369.24 3.7 2.292 334.62 47.76 150.5 2.6 27.88 7.69
 31.7 387.66 3.7 2.29 321.12 48.9 145.2 3.06 25.96 12.66
 31.8 393.7 3.7 2.29 349.4 48.08 144.6 3.29 20.24 14.8
 31.9 394.84 3.7 2.29 398.48 49.0 144.2 2.75 13.87 14.52
 32.0 399.08 3.7 2.282 383.42 49.94 138.8 2.92 11.89 12.7
 32.1 394.66 3.7 2.28 343.26 49.38 138.5 3.11 19.05 13.09
 32.2 389.94 3.7 2.272 299.92 48.72 138.7 3.19 33.91 12.95
 32.3 384.78 3.7 2.27 260.08 47.32 138.8 2.96 29.81 10.51
 32.4 379.3 3.7 2.27 240.94 47.0 139.2 2.09 24.17 7.05
 32.5 369.16 3.7 2.262 214.18 48.68 139.4 2.37 22.95 7.36
 32.6 363.86 3.78 2.26 199.48 49.1 139.8 2.27 29.76 7.01
 32.7 361.42 3.8 2.26 241.7 49.34 140.1 2.3 27.62 9.2
 32.8 351.96 3.8 2.252 317.44 49.08 145.9 1.81 33.47 10.16
 32.9 344.98 3.8 2.25 398.48 50.12 151.3 1.41 31.88 11.79
 33.0 337.72 3.8 2.242 494.46 50.4 157.0 1.64 28.82 15.14
 33.1 328.52 3.8 2.232 603.36 50.4 157.2 1.74 23.0 14.44
 33.2 315.48 3.8 2.214 657.28 51.12 157.6 1.29 23.61 11.93
 33.3 304.3 3.8 2.202 655.12 51.86 157.9 2.24 31.96 12.99
 33.4 288.12 3.8 2.184 622.44 53.28 159.1 1.59 32.02 12.14
 33.5 269.48 3.8 2.164 576.34 53.6 160.1 0.55 30.14 6.81
 33.6 251.86 3.8 2.144 514.38 53.6 230.2 0.59 34.35 6.08
 33.7 231.68 3.8 2.124 429.62 53.6 232.8 0.78 40.86 2.92
 33.8 214.06 3.8 2.104 339.14 53.28 301.2 0.91 43.0 1.72
 33.9 197.58 3.8 2.092 275.88 53.52 366.6 0.87 36.7 2.34
 34.0 182.86 3.96 2.074 235.08 53.6 437.2 0.86 31.05 2.06
 34.1 172.24 4.0 2.062 212.58 53.44 507.4 1.63 37.27 3.2
 34.2 157.26 4.0 2.052 198.32 53.4 580.2 2.59 36.8 7.69
 34.3 151.28 4.16 2.042 169.38 53.4 652.6 2.95 31.77 8.19
 34.4 146.92 4.52 2.032 152.56 53.4 724.9 2.5 26.56 9.84
 34.5 142.32 5.0 2.038 144.4 53.4 665.7 2.44 23.45 9.1
 34.6 136.36 5.42 2.04 136.52 53.4 667.0 2.65 28.27 10.85
 34.7 134.38 5.58 2.048 121.38 53.4 606.5 1.84 28.18 12.89
 34.8 137.56 5.52 2.058 116.24 53.4 544.8 1.86 23.91 12.95
 34.9 134.72 4.7 2.068 113.16 53.48 481.8 1.41 16.89 12.27
 35.0 133.8 4.26 2.078 125.22 53.5 413.8 0.9 10.44 9.04
 35.1 135.48 4.44 2.088 130.64 52.94 413.8 0.83 14.71 7.44
 35.2 133.9 4.42 2.106 135.52 52.88 406.4 0.44 16.47 7.32
 35.3 136.76 4.24 2.118 145.88 52.9 335.9 0.12 21.53 4.22
 35.4 146.0 4.2 2.128 160.52 52.9 323.6 0.32 26.63 2.26
 35.5 149.78 4.2 2.138 164.24 52.74 313.6 0.25 27.24 2.01
 35.6 154.52 4.36 2.14 164.08 52.7 304.0 0.16 25.24 -1.11
 35.7 161.68 4.16 2.14 156.88 52.7 297.4 0.29 20.77 -0.82
 35.8 166.24 4.1 2.14 155.26 52.7 290.9 0.48 22.55 0.5
 35.9 167.96 4.18 2.14 155.78 52.7 290.2 0.88 19.61 4.08
 36.0 171.96 4.2 2.132 159.82 53.02 281.1 0.86 16.62 6.5
 36.1 172.5 3.88 2.122 172.0 53.1 279.2 1.15 8.64 8.82
 36.2 172.4 3.8 2.112 186.4 53.66 340.3 0.92 8.32 8.39
 36.3 171.44 3.8 2.11 202.98 53.8 401.0 1.2 5.71 9.9
 36.4 167.84 3.8 2.102 218.96 52.92 457.6 1.59 5.86 14.18
 36.5 162.28 3.8 2.092 215.78 51.74 509.8 1.34 5.07 13.16
 36.6 155.02 3.8 2.082 212.92 51.66 564.0 1.66 1.42 12.6
 36.7 149.18 3.8 2.072 206.76 51.7 636.2 1.79 4.04 15.8
 36.8 148.1 4.12 2.062 189.46 51.7 699.7 1.52 0.59 12.57
 36.9 143.06 4.84 2.052 172.22 51.7 700.5 1.4 -0.41 9.93
 37.0 139.08 5.48 2.042 151.06 51.7 701.2 1.78 1.06 12.21
 37.1 140.4 5.92 2.032 134.44 51.7 702.3 1.56 11.32 12.11
 37.2 141.3 6.0 2.03 131.56 51.7 708.1 1.66 16.09 14.09
 37.3 139.72 5.84 2.022 128.96 51.7 717.2 0.83 8.65 12.11
 37.4 141.62 4.84 2.02 115.74 51.7 725.3 0.97 5.17 9.1
 37.5 144.52 4.28 2.028 110.2 52.58 733.5 0.6 14.84 9.9
 37.6 144.14 4.44 2.038 101.28 52.24 733.0 0.98 17.4 12.34
 37.7 157.02 4.82 2.048 91.44 52.1 740.9 0.77 20.45 11.53
 37.8 163.98 5.06 2.066 83.82 52.1 749.5 0.51 14.22 9.21
 37.9 164.58 4.38 2.086 75.76 52.1 741.8 0.9 13.95 10.95
 38.0 172.18 4.2 2.098 63.38 52.1 733.2 1.71 11.35 13.62
 38.1 176.5 4.2 2.116 61.5 52.1 724.6 1.65 3.41 12.58
 38.2 175.02 4.04 2.128 55.7 52.1 683.5 1.98 2.73 13.91
 38.3 174.9 3.92 2.138 50.28 52.1 628.7 1.79 -2.54 14.11
 38.4 175.0 3.98 2.14 49.38 52.18 566.0 1.92 3.76 11.54
 38.5 176.68 4.16 2.148 47.48 52.12 497.9 2.06 5.44 10.75
 38.6 180.46 3.88 2.158 45.16 52.1 452.1 2.11 9.28 8.34
 38.7 182.58 3.8 2.168 43.26 53.46 405.6 1.51 9.28 6.03
 38.8 172.82 4.04 2.17 41.3 53.8 396.9 1.39 8.84 9.2
 38.9 167.34 4.26 2.178 39.86 53.8 396.0 1.79 10.28 8.34
 39.0 163.56 4.06 2.18 38.56 53.8 396.2 1.88 7.27 8.01
 39.1 153.36 3.84 2.172 36.78 53.56 428.9 1.6 9.27 8.74
 39.2 145.0 3.88 2.17 35.04 53.5 475.5 1.46 9.23 8.46
 39.3 141.1 3.82 2.17 32.86 53.58 529.4 0.96 16.68 9.13
 39.4 135.78 4.04 2.17 30.64 53.6 581.3 1.36 19.93 11.41
 39.5 134.6 4.42 2.17 28.52 53.6 626.9 1.37 17.24 7.78
 39.6 132.92 4.82 2.17 26.02 53.6 673.3 1.3 13.56 8.72
 39.7 128.5 4.9 2.178 24.06 53.6 683.6 1.38 13.98 9.94
 39.8 125.18 4.5 2.18 22.74 53.76 685.0 1.25 12.77 8.97
 39.9 120.84 4.24 2.188 22.02 53.8 686.8 1.15 12.82 9.05
 40.0 118.62 3.96 2.198 21.5 53.8 614.6 1.35 13.38 8.28
 40.1 117.26 3.82 2.2 20.92 53.8 632.7 1.56 15.35 10.49
 40.2 119.32 3.8 2.2 20.32 53.96 628.9 1.46 14.09 11.68
 40.3 122.62 3.72 2.2 19.48 54.0 629.2 1.27 2.78 10.79
 40.4 121.62 3.7 2.2 18.26 54.0 629.7 1.56 1.03 13.51
 40.5 122.56 3.7 2.192 17.12 54.0 629.8 2.02 1.0 17.98
 40.6 124.58 3.7 2.182 15.78 54.0 644.6 2.02 0.18 19.06
 40.7 122.6 3.7 2.164 14.54 54.0 661.3 1.82 -3.38 21.01
 40.8 124.08 3.7 2.136 13.42 54.0 607.7 1.56 -3.32 18.93
 40.9 123.24 3.7 2.114 12.64 54.0 628.2 1.62 5.21 20.05
 41.0 123.22 3.7 2.086 12.34 54.0 619.6 1.7 8.07 20.8
 41.1 121.62 3.7 2.056 12.62 54.0 632.7 1.65 5.81 19.51
 41.2 116.8 3.78 2.026 12.86 54.0 641.2 1.6 4.03 21.09
 41.3 114.02 3.8 2.004 13.06 54.0 632.7 1.68 1.02 22.43
 41.4 111.28 3.72 1.984 13.18 54.0 632.5 2.01 -2.1 20.5
 41.5 106.7 3.7 1.972 13.36 54.0 623.4 2.28 -3.38 19.54
 41.6 105.7 3.7 1.962 13.4 54.0 623.2 2.44 -0.87 23.15
 41.7 100.98 3.94 1.96 13.16 54.0 691.8 2.14 2.92 25.26
 41.8 100.44 4.32 1.968 12.62 54.0 760.8 2.01 -0.8 25.13
 41.9 95.88 4.8 1.986 12.26 54.0 768.9 2.09 -1.08 21.63
 42.0 95.74 5.3 1.998 11.88 54.0 769.5 2.45 -1.66 21.71
 42.1 100.72 5.72 2.016 11.4 54.0 770.4 2.23 0.26 21.48
 42.2 107.58 5.88 2.044 11.3 54.0 771.9 1.71 -0.62 18.8
 42.3 115.72 5.82 2.066 11.38 54.0 730.0 1.64 3.19 16.71
 42.4 117.08 5.24 2.086 11.48 53.2 679.5 1.72 12.8 17.24
 42.5 121.4 4.06 2.114 11.74 52.44 627.0 1.57 10.09 13.82
 42.6 131.22 3.72 2.144 11.72 51.82 589.1 1.32 4.47 18.25
 42.7 136.44 3.7 2.174 11.86 50.58 588.6 0.91 0.28 16.88
 42.8 141.84 3.7 2.204 11.98 48.86 588.7 0.7 0.17 17.93
 42.9 143.4 3.62 2.226 11.92 47.22 596.2 0.89 5.86 21.68
 43.0 149.82 3.6 2.246 11.82 45.7 603.7 0.91 6.21 19.17
 43.1 155.16 3.6 2.258 12.04 44.76 601.4 0.88 9.24 14.58
 43.2 155.06 3.52 2.276 12.26 43.48 581.3 0.92 5.98 13.67
 43.3 160.16 3.5 2.288 12.54 41.92 576.9 0.95 5.66 9.11
 43.4 161.18 3.5 2.298 13.0 41.6 573.6 1.13 8.17 10.6
 43.5 168.46 3.5 2.316 13.26 40.8 554.6 1.16 7.8 8.45
 43.6 176.38 3.5 2.328 13.62 41.08 506.5 1.46 1.55 7.57
 43.7 179.58 3.5 2.338 14.5 40.8 507.0 1.34 4.75 7.52
 43.8 178.64 3.5 2.356 16.06 40.62 438.8 1.6 2.62 10.05
 43.9 181.02 3.5 2.368 18.24 40.76 429.8 1.68 5.85 13.4
 44.0 183.06 3.42 2.378 21.18 40.56 430.0 2.03 -1.59 12.36
 44.1 180.04 3.4 2.38 25.4 39.94 438.0 1.53 -0.33 10.48
