~Version
#MNEM .UNIT                VALUE  : DESCRIPTION                    
 VERS .                      2.0  : CWLS LOG ASCII STANDARD - VERSION 2.0 
 WRAP .                       NO  : ONE LINE PER DEPTH STEP        
~Well
#MNEM .UNIT                      VALUE  : DESCRIPTION                    
 STRT  .FT                         30.0  : Start Depth                    
 STOP  .FT                        594.0  : Stop Depth                     
 STEP  .FT                          0.1  : Step                           
 NULL  .                        -999.25  : Null Value                     
 COMP  .                        KGS-OGS  : Company                        
 WELL  .                    CURRENT # 1  : Well                           
 FLD   .                                 : Field                          
 SEC   .                             17  : Section                        
 TOWN  .                             5S  : Township (e.g. 42S)            
 RANG  .                            13E  : Range  (e.g. 25E)              
 LOC   .                      5S-13E-17  : Location (Sec Town Range)      
 LOC1  .          1515' FSL & 1195' FEL  : Location 1 (quarter calls)     
 LOC2  .                         SWNESE  : Location 2 (footages)          
 PROV  .                                 : Province                       
 CTRY  .                             US  : Country                        
 STAT  .                       OKLAHOMA  : State                          
 CNTY  .                       PONTOTOC  : County                         
 API   .                   35-123-23588  : API-Number                     
 UWI   .                                 : Unique Well ID                 
 SRVC  .                                 : Service Company                
 LIC   .                                 : Licence Number                 
 DATE  .                     06/10/2008  : Date preferred format is MM/DD/YYYY 
 LATI  .                        N34.706  : Latitude                       
 LONG  .                        W96.638  : Longitude                      
 GDAT  .                          NAD27  : Geodetic Datum                 
 X     .                      244102.82  : X or East-West coordinate      
 Y     .                     4388921.03  : Y or North South coordinate    
 HZCS  .                            UTM  : Horizontal Co-ordinate System  
 UTM   .                           15.0  : UTM Location                   
 STUS  .                                 : Well Status                    
~Parameter
#MNEM .UNIT           VALUE  : DESCRIPTION                    
 EGL   .M                775  : Ground Level Elevation         
 EKB   .M                     : Kelly Bushing Elevation        
 EDF   .F                     : Derrick Floor Elevation        
 ERT   .F                     : Rotary Table Elevation         
 TDL   .F             3837.0  : Total Depth Logger             
 TDD   .               593.6  : Total Depth Driller            
 CSGL  .                8.62  : Casing Bottom Logger           
 CSGD  .                      : Casing Bottom Driller          
 CSGS  .IN                    : Casing Size                    
 CSGW  .LB                    : Casing Weight                  
 BS    .IN              3.00  : Bit Size                       
 DFT   .               WATER  : Mud type                       
 MSS   .                  NA  : Mud Sample Source              
 DFD   .gm/cc            9.0  : Mud Density                    
 DFV   .S                     : Mud Viscosity (Funnel)         
 DFL   .cc                    : Fluid Loss                     
 PH    .                      : PH                             
 RM    .                  NA  : Resistivity of Mud             
 MST   .                  NA  : Temperature of Mud             
 RMF   .                      : Resistivity of Mud Filtrate    
 MFT   .                      : Temperature of Mud Filtrate    
 RMC   .                  NA  : Resistivity of Mud Cake        
 MCST  .                      : Temperature of Mud Cake        
 BHT   .DEG-F          116.0  : Maximum Recorded Temperature   
 RMB   .OHM-M                 : Resitivity @ BHT               
 TIMC  .DATE              NA  : Date/Time Circulation Stopped  
 TIML  .DATE                  : Date/Time Logger Tagged Bottom 
 UNIT  .                 401  : Logging Unit Number            
 BASE  .                      : Home Base of Logging Unit      
 ENG   .             RUNNELS  : Recording Engineer             
 WIT   .                      : Witnessed By                   
~Curve
#MNEM    .UNIT           VALUE  : DESCRIPTION                    
 DEPT     .FT                    : 1  DEPTH                       
 GAMMA    .API-GR                : 2  GAMMA RAY                   
 CALIPER  .INCH                  : 3  SHORT ARM CALIPER           
 DEN(CDL) .G/CC                  : 5  COMPENSATED DENSITY         
 RES(DG)  .OHM-M                 : 6  DEEP GUARD RES              
 POR(NEU) .PERCENT               : 7  NEUTRON POROSITY            
 DELTAT   .USEC/FT               : 3  DELTA TRAVEL TIME           
 POTASIUM .PERCENT               : 3  POTASIUM                    
 URANIUM  .PPM                   : 4  URANIUM                     
 THORIUM  .PPM                   : 5  THORIUM                     
~ASCII
# ...
 219.5 132.32 3.2 2.39 2.52 29.72 117.6 3.22 0.22 11.18
 219.6 135.0 3.2 2.39 2.5 29.72 117.5 2.89 4.68 10.08
 219.7 138.14 3.2 2.39 2.42 30.18 117.4 3.34 3.63 11.71
 219.8 139.2 3.2 2.382 2.4 29.9 117.3 3.27 2.89 8.2
 219.9 146.02 3.2 2.38 2.4 30.2 117.2 3.12 -0.15 5.76
 220.0 150.02 3.2 2.38 2.4 30.94 117.2 2.74 2.25 6.74
 220.1 149.56 3.2 2.372 2.4 31.1 117.1 2.37 9.69 5.42
 220.2 153.7 3.2 2.37 2.4 31.18 117.1 2.32 11.9 7.3
 220.3 158.48 3.2 2.37 2.4 31.92 117.1 2.3 14.52 5.98
 220.4 156.76 3.2 2.37 2.4 32.9 117.1 2.22 8.87 5.63
 220.5 163.14 3.12 2.37 2.32 32.14 117.1 2.11 9.3 7.73
 220.6 164.58 3.1 2.362 2.3 31.98 117.2 2.46 7.19 10.3
 220.7 167.14 3.1 2.368 2.3 33.04 117.3 2.5 8.94 10.95
 220.8 170.2 3.1 2.37 2.3 33.78 117.4 2.41 7.33 13.1
 220.9 177.52 3.1 2.37 2.38 34.86 117.3 1.95 6.78 13.78
 221.0 173.44 3.1 2.37 2.4 35.1 117.1 2.1 8.75 13.8
 221.1 168.0 3.1 2.37 2.48 34.46 117.0 2.25 12.71 11.58
 221.2 164.6 3.1 2.37 2.5 34.38 116.9 1.96 11.25 10.48
 221.3 159.68 3.1 2.37 2.5 34.56 116.7 1.75 12.37 8.98
 221.4 153.24 3.1 2.378 2.5 33.88 116.6 2.28 11.48 9.65
 221.5 156.54 3.1 2.38 2.5 32.58 116.5 2.75 14.94 8.9
 221.6 152.02 3.1 2.388 2.5 32.38 116.3 3.0 7.28 7.3
 221.7 152.92 3.1 2.39 2.42 32.32 116.1 2.68 5.22 6.08
 221.8 149.82 3.1 2.39 2.4 31.5 115.9 3.01 1.68 9.9
 221.9 144.18 3.1 2.398 2.32 30.42 115.7 3.25 8.53 12.13
 222.0 136.68 3.1 2.4 2.3 29.24 115.3 3.47 3.86 12.29
 222.1 135.1 3.1 2.408 2.3 28.68 115.0 2.81 3.65 9.69
 222.2 134.38 3.1 2.41 2.3 28.6 114.9 2.65 1.85 9.67
 222.3 136.92 3.1 2.418 2.3 27.88 114.6 2.27 8.74 8.2
 222.4 138.24 3.1 2.428 2.3 27.22 114.2 2.53 8.66 12.49
 222.5 136.72 3.1 2.43 2.3 26.78 113.8 2.06 12.69 10.05
 222.6 133.26 3.1 2.43 2.3 26.7 113.3 2.23 7.75 7.78
 222.7 133.22 3.1 2.438 2.3 26.54 112.8 2.26 7.48 10.3
 222.8 130.68 3.1 2.44 2.3 26.02 112.4 2.73 3.41 12.71
 222.9 130.32 3.1 2.448 2.3 25.5 112.1 2.83 3.25 11.74
 223.0 127.44 3.1 2.45 2.3 25.0 111.8 3.24 -0.84 13.26
 223.1 125.98 3.1 2.45 2.3 24.82 111.4 3.38 -3.35 14.59
 223.2 124.44 3.1 2.458 2.3 24.4 111.1 2.95 -0.58 15.53
 223.3 123.46 3.1 2.46 2.22 23.98 110.8 2.9 -4.06 15.69
 223.4 122.66 3.1 2.46 2.2 24.06 110.6 2.49 -2.66 13.26
 223.5 120.42 3.1 2.46 2.2 23.94 110.4 2.02 -2.86 9.89
 223.6 122.94 3.1 2.46 2.2 24.06 110.4 2.31 6.43 8.78
 223.7 125.38 3.1 2.46 2.2 24.02 110.4 2.41 8.04 10.77
 223.8 125.48 3.1 2.46 2.2 24.08 110.4 2.18 8.9 5.27
 223.9 125.4 3.1 2.46 2.2 24.18 110.5 2.44 4.98 5.34
 224.0 124.36 3.1 2.46 2.2 23.96 110.6 2.11 4.72 6.17
 224.1 126.82 3.1 2.452 2.28 24.3 110.8 2.48 4.3 7.42
 224.2 128.14 3.1 2.45 2.3 24.64 110.9 2.94 7.6 9.51
 224.3 130.7 3.1 2.442 2.3 24.7 111.1 2.98 4.42 10.65
 224.4 134.66 3.1 2.44 2.3 24.54 111.4 2.94 2.65 8.42
 224.5 138.54 3.1 2.432 2.3 25.22 111.6 3.16 0.86 11.7
 224.6 138.26 3.1 2.43 2.3 24.92 111.9 3.09 3.87 10.59
 224.7 139.68 3.1 2.422 2.3 24.96 112.3 3.85 2.11 15.26
 224.8 141.78 3.1 2.412 2.38 25.16 112.6 3.58 3.96 15.11
 224.9 138.84 3.1 2.41 2.4 25.36 112.9 3.28 -8.01 12.97
 225.0 138.0 3.1 2.41 2.4 25.8 113.1 2.88 -3.94 12.6
 225.1 140.0 3.1 2.41 2.4 26.3 113.4 3.03 -1.63 14.01
 225.2 139.14 3.1 2.402 2.4 26.24 113.7 3.04 10.9 15.05
 225.3 142.16 3.1 2.4 2.48 26.28 113.9 3.66 8.63 16.19
 225.4 141.72 3.1 2.4 2.5 27.02 114.2 3.37 0.66 9.54
 225.5 143.08 3.1 2.4 2.5 28.08 114.3 3.85 -4.14 10.62
 225.6 139.42 3.1 2.392 2.5 28.46 114.4 4.12 0.03 12.89
 225.7 142.08 3.1 2.39 2.58 29.78 114.4 4.34 1.75 14.05
 225.8 139.0 3.1 2.39 2.6 30.34 114.5 3.82 4.9 11.35
 225.9 138.32 3.02 2.382 2.6 30.4 114.6 3.53 2.13 9.1
 226.0 141.76 3.0 2.38 2.6 30.32 114.8 3.03 11.48 7.97
 226.1 146.28 3.0 2.38 2.6 30.38 115.0 2.53 10.43 8.84
 226.2 148.88 3.0 2.38 2.6 30.4 115.4 2.56 11.56 8.05
 226.3 151.7 3.0 2.38 2.68 30.88 115.6 2.28 8.27 9.91
 226.4 156.62 3.0 2.38 2.7 31.48 116.0 2.11 5.74 7.78
 226.5 162.42 3.0 2.38 2.7 31.12 116.3 2.39 3.68 9.25
 226.6 164.32 3.0 2.38 2.7 30.6 116.6 2.53 3.29 9.53
 226.7 168.18 3.0 2.372 2.7 30.5 116.8 2.63 6.87 10.57
 226.8 171.42 3.0 2.362 2.78 30.18 117.0 3.17 4.12 11.9
 226.9 175.36 3.0 2.36 2.8 30.18 117.1 2.68 2.37 11.29
 227.0 173.56 3.0 2.36 2.8 30.52 117.0 3.04 2.31 11.97
 227.1 172.5 3.0 2.352 2.8 30.92 116.7 3.33 8.94 15.56
 227.2 168.72 3.0 2.35 2.88 31.08 116.5 2.88 2.61 14.04
 227.3 169.8 3.0 2.358 2.9 31.5 116.1 2.86 -1.71 13.99
 227.4 172.38 3.0 2.36 2.9 31.92 115.6 2.65 2.58 11.43
 227.5 169.86 3.0 2.36 2.9 31.2 115.2 2.56 9.66 13.88
 227.6 165.02 3.0 2.368 2.9 31.24 114.9 2.62 20.46 15.58
 227.7 161.04 3.0 2.37 2.98 30.98 114.5 2.13 9.14 11.93
 227.8 162.94 3.0 2.378 3.0 30.26 114.1 2.03 7.86 11.73
 227.9 166.0 3.0 2.388 3.0 29.38 113.9 2.3 2.07 13.01
 228.0 167.56 3.0 2.398 3.0 28.64 113.8 2.28 5.44 11.84
 228.1 170.84 3.0 2.408 3.08 27.94 113.5 2.47 8.98 13.37
 228.2 173.28 3.0 2.418 3.1 27.4 113.1 2.53 8.23 13.41
 228.3 179.06 3.0 2.428 3.1 26.82 112.6 2.93 11.38 9.9
 228.4 175.36 3.0 2.438 3.1 26.06 111.8 3.4 2.54 11.13
 228.5 171.78 3.0 2.456 3.1 24.78 110.7 3.43 3.8 8.97
 228.6 167.84 3.0 2.468 3.1 24.34 109.5 3.43 0.93 8.97
 228.7 163.64 3.0 2.478 3.18 23.82 107.9 3.26 6.02 8.92
 228.8 162.48 3.0 2.488 3.2 23.38 105.8 3.23 7.99 8.87
 228.9 156.64 3.0 2.498 3.2 23.22 103.3 2.71 10.02 5.22
 229.0 147.52 3.0 2.508 3.2 23.36 100.8 2.44 11.16 5.19
 229.1 137.84 3.0 2.51 3.2 23.16 98.2 1.95 9.21 4.07
 229.2 128.86 3.0 2.51 3.28 22.94 95.7 1.49 10.04 5.08
 229.3 125.1 3.0 2.51 3.3 22.58 93.5 1.67 8.71 6.57
 229.4 118.2 3.0 2.51 3.3 22.1 91.7 1.54 6.89 6.67
 229.5 116.28 3.0 2.51 3.38 21.84 90.2 1.41 2.72 6.5
 229.6 115.8 3.0 2.51 3.4 21.96 89.3 1.55 2.65 6.49
 229.7 121.46 3.0 2.502 3.48 21.92 89.1 1.04 5.89 6.17
 229.8 131.62 3.0 2.5 3.5 21.98 89.2 1.14 9.04 6.03
 229.9 139.16 3.0 2.492 3.58 21.92 89.7 1.31 15.11 5.79
 230.0 147.54 3.0 2.49 3.6 21.58 90.6 0.96 13.61 3.29
 230.1 157.7 3.0 2.482 3.6 21.18 91.7 1.3 13.75 4.12
 230.2 163.16 3.0 2.48 3.6 21.26 92.8 1.1 11.16 4.92
 230.3 168.4 3.0 2.472 3.52 21.62 93.8 1.37 9.83 4.91
 230.4 170.54 3.0 2.47 3.58 22.02 94.8 1.54 12.75 6.07
 230.5 170.08 3.0 2.47 3.6 22.42 95.6 1.75 10.73 9.19
 230.6 171.9 3.0 2.47 3.6 22.34 96.0 1.65 14.67 8.17
 230.7 171.76 3.0 2.47 3.68 22.14 96.3 1.74 7.8 9.01
 230.8 167.6 3.0 2.47 3.7 21.78 96.3 1.21 8.52 7.6
 230.9 159.48 3.0 2.478 3.7 21.14 96.0 1.81 8.88 10.2
 231.0 150.34 3.0 2.48 3.78 20.68 95.5 1.77 17.87 9.02
 231.1 140.74 3.0 2.488 3.72 20.68 95.1 1.7 11.12 7.95
 231.2 132.48 3.0 2.498 3.7 20.78 94.6 1.33 10.71 8.71
 231.3 130.5 2.92 2.5 3.7 20.32 93.9 1.31 9.33 9.78
 231.4 128.72 2.9 2.508 3.7 19.72 93.3 1.3 13.51 12.13
 231.5 126.3 2.9 2.51 3.78 19.12 92.7 1.71 9.46 12.69
 231.6 123.48 2.9 2.518 3.8 19.16 92.0 1.52 6.84 9.62
 231.7 117.54 2.9 2.52 3.88 18.96 91.5 1.4 6.48 14.92
 231.8 113.48 2.9 2.52 3.98 19.14 91.0 1.81 5.34 17.46
 231.9 112.16 2.9 2.512 4.08 19.6 90.7 2.21 0.06 15.96
 232.0 110.64 2.9 2.51 4.18 19.86 90.4 2.11 -0.15 13.68
 232.1 114.62 2.9 2.502 4.2 20.22 90.2 2.46 -1.38 14.1
 232.2 118.42 2.9 2.5 4.2 20.46 90.2 2.6 6.97 18.42
 232.3 122.14 2.9 2.484 4.2 20.82 90.3 2.67 5.09 20.47
 232.4 124.58 2.9 2.472 4.12 21.46 90.8 2.69 -0.65 17.54
 232.5 129.72 2.9 2.454 4.1 22.16 91.7 2.51 -6.5 16.27
 232.6 138.26 2.9 2.442 4.02 22.94 92.8 2.51 -3.13 15.06
 232.7 151.22 2.9 2.424 3.92 23.02 94.3 2.51 6.47 16.2
 232.8 165.76 2.9 2.412 3.82 23.4 95.9 2.49 7.35 12.71
 232.9 175.02 2.9 2.402 3.8 23.74 97.6 2.16 10.92 8.1
 233.0 178.68 2.9 2.392 3.8 24.12 99.3 1.53 11.14 4.28
 233.1 185.52 2.9 2.382 3.8 24.84 101.1 1.67 13.69 5.47
 233.2 187.82 2.9 2.38 3.88 25.4 102.8 1.71 18.14 5.17
 233.3 192.72 2.9 2.372 3.98 25.34 104.2 1.36 14.52 2.6
 233.4 196.22 2.9 2.37 4.0 25.3 105.2 1.51 16.35 2.36
 233.5 202.88 2.9 2.378 4.08 25.38 105.8 1.67 14.69 7.3
 233.6 208.08 2.9 2.38 4.18 25.16 106.2 1.92 23.58 6.4
 233.7 207.0 2.9 2.388 4.2 25.02 106.2 2.12 18.42 6.46
 233.8 201.78 2.9 2.398 4.2 25.16 105.8 2.33 14.15 8.34
 233.9 193.56 2.9 2.408 4.2 25.12 105.2 2.22 14.6 7.27
 234.0 190.12 2.9 2.418 4.2 24.94 104.2 2.61 10.38 9.96
 234.1 188.02 2.9 2.436 4.2 24.34 102.8 2.85 14.12 11.27
