~Version
#MNEM .UNIT                VALUE  : DESCRIPTION                    
 VERS .                      2.0  : CWLS LOG ASCII STANDARD - VERSION 2.0 
 WRAP .                       NO  : ONE LINE PER DEPTH STEP        
~Well
#MNEM .UNIT                      VALUE  : DESCRIPTION                    
 STRT  .FT                         30.0  : Start Depth                    
 STOP  .FT                        594.0  : Stop Depth                     
 STEP  .FT                          0.1  : Step                           
 NULL  .                        -999.25  : Null Value                     
 COMP  .                        KGS-OGS  : Company                        
 WELL  .                    CURRENT # 1  : Well                           
 FLD   .                                 : Field                          
 SEC   .                             17  : Section                        
 TOWN  .                             5S  : Township (e.g. 42S)            
 RANG  .                            13E  : Range  (e.g. 25E)              
 LOC   .                      5S-13E-17  : Location (Sec Town Range)      
 LOC1  .          1515' FSL & 1195' FEL  : Location 1 (quarter calls)     
 LOC2  .                         SWNESE  : Location 2 (footages)          
 PROV  .                                 : Province                       
 CTRY  .                             US  : Country                        
 STAT  .                       OKLAHOMA  : State                          
 CNTY  .                       PONTOTOC  : County                         
 API   .                   35-123-23588  : API-Number                     
 UWI   .                                 : Unique Well ID                 
 SRVC  .                                 : Service Company                
 LIC   .                                 : Licence Number                 
 DATE  .                     06/10/2008  : Date preferred format is MM/DD/YYYY 
 LATI  .                        N34.706  : Latitude                       
 LONG  .                        W96.638  : Longitude                      
 GDAT  .                          NAD27  : Geodetic Datum                 
 X     .                      244102.82  : X or East-West coordinate      
 Y     .                     4388921.03  : Y or North South coordinate    
 HZCS  .                            UTM  : Horizontal Co-ordinate System  
 UTM   .                           15.0  : UTM Location                   
 STUS  .                                 : Well Status                    
~Parameter
#MNEM .UNIT           VALUE  : DESCRIPTION                    
 EGL   .M                775  : Ground Level Elevation         
 EKB   .M                     : Kelly Bushing Elevation        
 EDF   .F                     : Derrick Floor Elevation        
 ERT   .F                     : Rotary Table Elevation         
 TDL   .F             3837.0  : Total Depth Logger             
 TDD   .               593.6  : Total Depth Driller            
 CSGL  .                8.62  : Casing Bottom Logger           
 CSGD  .                      : Casing Bottom Driller          
 CSGS  .IN                    : Casing Size                    
 CSGW  .LB                    : Casing Weight                  
 BS    .IN              3.00  : Bit Size                       
 DFT   .               WATER  : Mud type                       
 MSS   .                  NA  : Mud Sample Source              
 DFD   .gm/cc            9.0  : Mud Density                    
 DFV   .S                     : Mud Viscosity (Funnel)         
 DFL   .cc                    : Fluid Loss                     
 PH    .                      : PH                             
 RM    .                  NA  : Resistivity of Mud             
 MST   .                  NA  : Temperature of Mud             
 RMF   .                      : Resistivity of Mud Filtrate    
 MFT   .                      : Temperature of Mud Filtrate    
 RMC   .                  NA  : Resistivity of Mud Cake        
 MCST  .                      : Temperature of Mud Cake        
 BHT   .DEG-F          116.0  : Maximum Recorded Temperature   
 RMB   .OHM-M                 : Resitivity @ BHT               
 TIMC  .DATE              NA  : Date/Time Circulation Stopped  
 TIML  .DATE                  : Date/Time Logger Tagged Bottom 
 UNIT  .                 401  : Logging Unit Number            
 BASE  .                      : Home Base of Logging Unit      
 ENG   .             RUNNELS  : Recording Engineer             
 WIT   .                      : Witnessed By                   
~Curve
#MNEM    .UNIT           VALUE  : DESCRIPTION                    
 DEPT     .FT                    : 1  DEPTH                       
 GAMMA    .API-GR                : 2  GAMMA RAY                   
 CALIPER  .INCH                  : 3  SHORT ARM CALIPER           
 DEN(CDL) .G/CC                  : 5  COMPENSATED DENSITY         
 RES(DG)  .OHM-M                 : 6  DEEP GUARD RES              
 POR(NEU) .PERCENT               : 7  NEUTRON POROSITY            
 DELTAT   .USEC/FT               : 3  DELTA TRAVEL TIME           
 POTASIUM .PERCENT               : 3  POTASIUM                    
 URANIUM  .PPM                   : 4  URANIUM                     
 THORIUM  .PPM                   : 5  THORIUM                     
~ASCII
# ...
 539.6 591.64 2.9 2.13 12.58 49.1 121.6 2.87 53.17 7.27
 539.7 589.04 2.9 2.13 12.26 49.1 121.5 2.65 48.96 5.65
 539.8 593.88 2.9 2.122 12.04 49.1 121.4 3.61 46.73 1.1
 539.9 595.3 2.9 2.12 11.92 49.1 121.4 3.8 58.86 1.68
 540.0 597.7 2.9 2.12 11.9 49.5 121.4 4.17 56.55 0.87
 540.1 612.7 2.9 2.12 12.06 50.4 121.3 4.05 55.44 -0.77
 540.2 643.58 2.9 2.112 12.42 50.28 121.4 4.44 48.76 0.29
 540.3 655.44 2.9 2.118 12.9 51.0 121.5 4.61 49.62 0.27
 540.4 667.74 2.9 2.12 13.48 50.8 121.4 5.87 54.16 4.54
 540.5 680.26 2.9 2.12 14.24 51.02 121.3 5.33 55.11 5.01
 540.6 696.46 2.9 2.12 15.12 51.1 121.2 5.07 46.01 2.34
 540.7 702.22 2.9 2.12 15.78 49.9 121.1 4.92 49.54 3.9
 540.8 722.0 2.9 2.12 16.22 49.6 120.9 4.5 56.95 0.89
 540.9 731.84 2.9 2.12 16.3 49.36 120.8 4.32 71.43 0.53
 541.0 744.54 2.9 2.128 16.06 48.9 120.7 4.05 77.44 -1.37
 541.1 769.88 2.9 2.13 15.6 49.04 120.4 3.87 78.73 -1.96
 541.2 782.22 2.9 2.13 14.78 47.74 120.1 4.4 84.39 3.48
 541.3 795.34 2.9 2.13 13.88 48.12 119.9 4.81 70.73 5.13
 541.4 809.96 2.9 2.13 13.06 47.9 119.8 5.07 59.71 4.93
 541.5 816.9 2.9 2.138 12.5 47.0 119.7 5.31 60.55 9.33
 541.6 829.02 2.9 2.14 12.16 46.8 119.6 5.37 70.24 10.25
 541.7 835.48 2.9 2.14 12.1 46.4 119.6 5.25 78.37 12.59
 541.8 841.12 2.9 2.14 12.1 46.3 119.6 4.35 75.29 11.36
 541.9 838.22 2.9 2.14 12.18 45.9 119.7 3.63 74.54 9.76
 542.0 831.84 2.9 2.14 12.28 45.08 119.8 4.42 84.28 10.52
 542.1 825.78 2.9 2.14 12.38 44.34 119.9 3.47 79.78 11.19
 542.2 809.88 2.9 2.132 12.4 43.08 120.1 3.45 74.72 11.68
 542.3 800.76 2.9 2.13 12.4 43.44 120.2 3.29 68.34 11.98
 542.4 779.96 2.9 2.13 12.24 42.4 120.4 3.04 66.46 9.34
 542.5 770.06 2.9 2.13 12.04 41.38 120.5 4.02 65.25 8.98
 542.6 765.76 2.9 2.13 11.84 41.28 120.6 3.5 72.37 4.44
 542.7 758.6 2.9 2.13 11.56 41.14 120.6 3.26 62.13 5.85
 542.8 756.68 2.9 2.138 11.42 41.02 120.5 3.97 74.66 4.58
 542.9 754.28 2.9 2.14 11.24 42.2 120.5 3.44 57.1 0.63
 543.0 766.1 2.9 2.132 11.04 41.94 120.6 3.48 77.43 1.82
 543.1 769.52 2.9 2.13 10.92 42.84 120.6 2.72 77.02 4.58
 543.2 788.08 2.9 2.13 10.9 43.9 120.7 2.02 82.36 3.53
 543.3 800.46 2.9 2.13 10.9 45.54 120.6 3.27 88.61 3.77
 543.4 808.08 2.9 2.122 10.82 45.5 120.6 2.43 80.9 -0.48
 543.5 816.22 2.9 2.12 10.8 46.84 120.7 2.82 91.05 -1.38
 543.6 827.66 2.9 2.12 10.88 47.04 120.8 3.2 84.11 1.01
 543.7 842.18 2.9 2.112 10.98 48.12 121.1 2.23 90.6 -2.34
 543.8 848.24 2.9 2.11 11.08 48.88 121.3 2.8 87.23 -2.05
 543.9 859.72 2.9 2.11 11.26 48.44 121.5 2.77 94.3 -1.91
 544.0 872.48 2.9 2.102 11.46 48.3 121.8 1.78 97.57 1.85
 544.1 867.0 2.9 2.1 11.74 49.18 122.0 2.57 91.85 6.48
 544.2 871.0 2.9 2.1 11.96 49.4 122.4 2.57 89.97 10.49
 544.3 865.46 2.9 2.1 12.24 48.6 122.8 2.51 74.76 9.61
 544.4 860.02 2.9 2.1 12.54 47.52 123.0 2.89 73.54 10.1
 544.5 857.74 2.9 2.1 13.0 47.94 123.3 3.98 63.81 10.45
 544.6 857.72 2.9 2.108 13.34 47.06 123.4 4.99 76.28 14.49
 544.7 856.44 2.9 2.11 13.72 48.08 123.6 6.16 85.48 17.91
 544.8 848.1 2.9 2.118 14.04 48.4 123.6 5.95 77.09 12.75
 544.9 841.38 2.9 2.12 14.18 48.4 123.6 5.02 64.5 8.37
 545.0 819.0 2.9 2.12 14.12 49.44 123.6 5.44 58.37 7.44
 545.1 795.94 2.9 2.128 13.78 49.7 123.4 7.06 78.05 9.51
 545.2 777.02 2.9 2.138 13.22 49.7 123.2 5.77 84.32 9.32
 545.3 761.32 2.9 2.14 12.46 49.7 123.0 5.22 79.04 4.39
 545.4 741.18 2.9 2.148 11.66 50.02 122.8 4.3 73.51 0.34
 545.5 723.06 2.9 2.15 10.94 50.26 122.7 3.22 68.07 -0.37
 545.6 713.92 2.9 2.158 10.4 50.94 122.5 3.9 65.99 4.05
 545.7 708.5 2.9 2.16 10.22 50.78 122.4 3.63 67.06 6.51
 545.8 698.7 2.9 2.16 10.28 50.7 122.4 3.36 67.78 4.36
 545.9 690.5 2.9 2.16 10.7 50.7 122.4 4.11 67.05 3.07
 546.0 683.64 2.9 2.16 11.2 49.34 122.6 3.55 54.07 2.39
 546.1 690.7 2.9 2.16 11.7 49.0 122.8 3.66 55.71 2.77
 546.2 701.2 2.9 2.16 12.12 49.0 123.0 4.63 67.8 4.77
 546.3 708.98 2.9 2.16 12.52 47.8 123.2 4.07 68.99 -0.17
 546.4 724.16 2.9 2.16 12.76 46.38 123.4 3.68 67.76 -1.87
 546.5 743.04 2.9 2.16 12.72 45.38 123.6 2.61 70.14 -0.66
 546.6 753.3 2.9 2.16 12.54 45.2 123.8 3.85 74.96 2.78
 546.7 753.22 2.9 2.152 12.42 45.2 123.9 3.33 81.14 3.45
 546.8 753.12 2.9 2.15 12.24 46.48 123.9 3.63 69.11 2.7
 546.9 756.24 2.9 2.15 12.04 46.8 123.8 3.94 74.72 8.19
 547.0 762.76 2.9 2.15 11.92 46.0 123.7 3.85 69.82 9.32
 547.1 767.56 2.9 2.158 11.82 47.16 123.7 3.85 68.04 10.22
 547.2 755.6 2.9 2.16 11.8 47.5 123.6 4.65 65.9 11.98
 547.3 743.68 2.9 2.168 11.8 46.78 123.5 2.76 70.3 6.62
 547.4 736.14 2.9 2.17 11.88 47.32 123.4 2.93 74.97 11.85
 547.5 720.96 2.9 2.17 12.14 47.58 123.2 3.26 78.9 15.7
 547.6 701.42 2.9 2.178 12.36 47.68 123.1 2.77 77.62 12.18
 547.7 685.32 2.9 2.188 12.48 47.62 123.1 2.83 68.47 14.98
 547.8 675.18 2.9 2.19 12.42 46.56 123.1 2.94 53.75 13.4
 547.9 663.0 2.9 2.198 12.16 46.3 123.1 2.19 48.2 11.53
 548.0 649.04 2.9 2.208 11.78 45.66 123.1 2.87 59.36 12.24
 548.1 639.48 2.9 2.218 11.3 45.5 123.1 2.91 59.05 8.01
 548.2 630.68 2.9 2.22 10.72 44.62 123.2 2.42 63.74 2.27
 548.3 636.66 2.9 2.22 10.04 44.4 123.3 2.11 60.96 4.49
 548.4 640.28 2.9 2.22 9.42 44.08 123.5 3.04 62.13 3.8
 548.5 635.34 2.9 2.212 9.06 44.48 123.5 3.41 57.51 9.71
 548.6 634.56 2.9 2.202 8.92 45.08 123.6 3.58 52.66 8.18
 548.7 636.38 2.9 2.192 9.06 45.52 123.7 4.03 47.26 10.69
 548.8 643.84 2.9 2.19 9.34 46.16 123.7 4.27 52.48 9.88
 548.9 637.2 2.9 2.19 9.64 46.06 123.8 4.63 55.46 10.99
 549.0 628.38 2.9 2.19 9.86 45.04 124.0 5.17 59.36 9.34
 549.1 612.62 2.9 2.19 9.98 44.0 124.3 4.34 53.22 10.19
 549.2 606.38 2.9 2.19 10.08 43.32 124.6 3.65 48.95 4.32
 549.3 598.66 2.9 2.198 10.1 42.64 124.6 3.34 48.63 5.68
 549.4 586.1 2.9 2.208 10.26 41.06 124.4 2.88 52.55 5.74
 549.5 571.32 2.9 2.218 10.54 41.58 123.9 3.66 58.31 6.43
 549.6 560.62 2.9 2.236 10.68 40.36 123.2 4.12 58.4 9.12
 549.7 538.62 2.9 2.248 10.78 39.28 122.6 3.97 45.08 7.02
 549.8 521.84 2.9 2.266 10.64 38.38 121.9 4.29 35.56 3.2
 549.9 500.74 2.9 2.286 10.36 36.92 121.0 4.18 34.22 6.85
 550.0 485.16 2.9 2.306 9.98 36.04 119.5 4.66 38.41 7.43
 550.1 470.24 2.9 2.326 9.26 34.78 117.9 4.99 42.88 6.5
 550.2 463.52 2.9 2.346 8.3 34.1 116.4 4.44 39.57 9.66
 550.3 434.44 2.9 2.358 7.54 33.84 115.2 3.68 41.4 7.6
 550.4 414.92 2.9 2.36 7.0 33.88 114.4 3.68 34.36 9.19
 550.5 393.32 2.9 2.368 6.74 33.66 113.9 3.46 31.39 11.52
 550.6 379.34 2.9 2.37 6.62 32.24 113.5 3.81 23.55 12.48
 550.7 368.6 2.9 2.37 6.68 31.98 113.1 3.62 22.93 11.81
 550.8 363.78 2.9 2.362 6.78 31.92 113.0 3.58 21.15 14.36
 550.9 361.42 2.9 2.352 6.88 32.14 113.3 3.35 21.62 10.62
 551.0 364.36 2.9 2.35 6.9 32.04 113.7 3.36 24.15 10.34
 551.1 365.52 2.9 2.342 6.98 32.4 114.5 3.54 32.29 9.0
 551.2 368.0 2.9 2.332 7.0 33.22 115.5 4.41 35.77 11.54
 551.3 366.52 2.9 2.33 7.0 34.12 116.4 4.73 37.38 7.84
 551.4 380.48 2.9 2.322 7.0 34.94 117.2 4.75 25.44 9.58
 551.5 379.7 2.9 2.32 7.08 34.94 117.8 5.17 24.8 6.41
 551.6 381.0 2.9 2.312 7.18 35.22 118.4 5.25 22.06 7.54
 551.7 379.2 2.9 2.31 7.36 35.3 118.7 5.42 29.0 8.98
 551.8 381.96 2.9 2.31 7.48 34.98 119.0 5.19 30.99 10.05
 551.9 376.08 2.9 2.318 7.58 35.22 119.3 4.64 30.56 7.49
 552.0 367.36 2.9 2.336 7.6 34.98 119.4 4.83 30.22 8.4
 552.1 355.52 2.9 2.34 7.44 34.82 119.2 5.3 27.88 5.43
 552.2 349.64 2.9 2.348 7.24 34.72 118.7 4.48 29.75 7.65
 552.3 337.36 2.9 2.366 6.88 34.06 118.0 4.58 29.7 8.73
 552.4 324.82 2.9 2.37 6.56 33.02 117.3 4.47 27.97 10.77
 552.5 310.64 2.9 2.378 6.34 31.44 116.6 4.41 28.62 9.01
 552.6 298.58 2.9 2.388 6.14 31.02 116.0 4.08 20.82 7.91
 552.7 286.94 2.9 2.39 6.1 30.36 115.2 3.99 18.87 9.7
 552.8 280.2 2.9 2.398 6.18 29.64 114.7 3.64 18.87 12.36
 552.9 267.34 2.9 2.408 6.28 29.5 114.2 3.58 18.31 11.48
 553.0 262.08 2.9 2.418 6.3 28.62 113.9 3.6 12.07 12.96
 553.1 249.5 2.9 2.428 6.3 28.16 113.7 3.73 7.65 8.85
 553.2 243.78 2.9 2.438 6.14 27.62 113.7 3.83 8.93 11.31
 553.3 237.1 2.9 2.44 6.02 26.94 113.8 3.9 15.93 13.35
 553.4 233.2 2.9 2.44 5.84 26.96 113.9 3.18 13.69 10.39
 553.5 231.72 2.9 2.44 5.64 27.32 114.0 3.55 17.93 9.09
 553.6 225.1 2.9 2.44 5.6 27.8 114.2 4.09 24.14 10.44
 553.7 227.9 2.9 2.44 5.6 27.82 114.0 3.99 25.35 7.48
 553.8 225.32 2.9 2.44 5.76 27.64 113.8 4.01 20.17 8.88
