~Version
 VERS              .         2.0                           : CWLS LOG ASCII STANDARD - VERSION 2.0
 WRAP              .         NO                            : ONE LINE PER DEPTH STEP
 DLM               .         SPACE                         : DELIMITING CHARACTER(SPACE TAB OR COMMA)
~Well Information
#_______________________________________________________________________________
#
#PARAMETER_NAME    .UNIT     VALUE                         : DESCRIPTION
#_______________________________________________________________________________
STRT               .m        2469                          : First reference value
STOP               .m        2689.8                        : Last reference value
STEP               .m        0.2                           : Step increment
NULL               .         -9999                         : Missing value
COMP               .                                       : Company
WELL               .         101                           : Well name
FLD                .                                       : Field
LOC                .                                       : Location
PROV               .                                       : Province
SRVC               .                                       : Service Company
DATE               .         2021-05-13 14_16_41           : Date
UWI                .                                       : Unique Well ID
API                .                                       : API NUMBER
CNTY               .                                       : COUNTY
Cartographic_reference_system .         GCS_WGS_1984                  : GEOGCS["GCS_WGS_1984",DATUM["D_WGS_1984",SPHEROID["WGS_1984",6378137.0,298.257223563]],PRIMEM["Greenwich",0.0],UNIT["Degree",0.0174532925199433],AUTHORITY["EPSG",4326]]
CTRY               .                                       : COUNTRY
EREF               .m        137.7                         : 
HZCS               .GCS_WGS_1984 World_Mercator                : PROJCS["World_Mercator",GEOGCS["GCS_WGS_1984",DATUM["D_WGS_1984",SPHEROID["WGS_1984",6378137.0,298.257223563]],PRIMEM["Greenwich",0.0],UNIT["Degree",0.0174532925199433]],PROJECTION["Mercator"],PARAMETER["False_Easting",0.0],PARAMETER["False_Northing",0.0],PARAMETER["Central_Meridian",0.0],PARAMETER["Standard_Parallel_1",0.0],UNIT["Meter",1.0],AUTHORITY["ESRI",54004]]
LATI               .dega     2.1710182041                  : GCS_WGS_1984
LONG               .dega     2.0616605265                  : GCS_WGS_1984
ORIGINALWELLNAME   .         101                           : 
PROJECT_UPGRADE_TIME .         2014-05-27T11_38_46           : 
Pad                .         Пад1                          : 
STAT               .                                       : STATE
group              .         Pad1                          : 
Интер-р            .         Пузин                         : 
Куст               .         1                             : 
Статус             .         Не проверено                  : 
Тип                .         Разведка                      : 
~Parameter Information Block
#_______________________________________________________________________________
#
#PARAMETER_NAME    .UNIT     VALUE                         : DESCRIPTION
#_______________________________________________________________________________
SET                .         Gam                           : 
TLFamily_DEPT      .         Measured Depth                : 
TLFamily_GR_NORM   .         Gamma Ray                     : 
TLFamily_RHOB_NORM .         Bulk Density                  : 
TLFamily_RHOB_TL1  .         Bulk Density                  : 
TLFamily_SYNTH_Bulk_Density .         Bulk Density                  : 
TLFamily_SYNTH_Bulk_Density_MISFIT .                                       : 
TLFamily_TNPH_NORM .         Neutron Porosity              : 
~Curve Information
#_______________________________________________________________________________
#
#LOGNAME           .UNIT     LOG_ID                        : DESCRIPTION
#_______________________________________________________________________________
DEPT               .m                                      :  
GR_NORM            .gAPI                                   : Gamma Ray 
RHOB_NORM          .g/cm3                                  : Bulk Density 
RHOB_TL1           .g/cm3                                  :  
SYNTH_Bulk_Density .G/C3                                   : Bulk Density 
SYNTH_Bulk_Density_MISFIT .                                       : Synthetic Bulk Density Misfit 
TNPH_NORM          .v/v                                    : Thermal Neutron Porosity 
~Ascii
# ...
2488.2     78.82868957519531 2.5756     2.421329   2.46591    -0.10968   0.29776   
2488.4     82.45903015136719 2.5703     2.451909   2.48092    -0.08938   0.28746   
2488.6     80.86662292480469 2.5809     2.46127    2.48828    -0.09261   0.28026   
2488.8     77.18888854980469 2.59396    2.457514   2.48799    -0.10597   0.27717   
2489       76.34526824951172 2.56079    2.466714   2.49292    -0.06787   0.27099   
2489.2     75.62489318847656 2.57386    2.449096   2.48416    -0.0897    0.27923   
2489.4     74.7623291015625 2.53       2.448522   2.48347    -0.04653   0.2782    
2489.6     73.55853271484375 2.54297    2.436405   2.47806    -0.06491   0.28232   
2489.8     76.34526062011719 2.54763    2.462919   2.49175    -0.05588   0.27305   
2490       77.07512664794922 2.54882    2.483088   2.49522    -0.0536    0.26275   
2490.2     79.92823028564453 2.5161     2.497492   2.4986     -0.01751   0.2576    
2490.4     84.67706298828125 2.57221    2.489841   2.49858    -0.07363   0.2679    
2490.6     86.54437255859375 2.5427     2.468076   2.48524    -0.05746   0.28335   
2490.8     87.615478515625 2.5448     2.444759   2.46988    -0.07492   0.29776   
2491       90.15576171875 2.53511    2.414792   2.44934    -0.08577   0.3163    
2491.2     93.00885772705078 2.46712    2.378496   2.41257    -0.05455   0.33689   
2491.4     94.63919830322266 2.50779    2.366743   2.39299    -0.11479   0.3441    
2491.6     96.93303680419922 2.51473    2.386184   2.40747    -0.10726   0.33792   
2491.8     98.98043823242188 2.48522    2.403287   2.41879    -0.06643   0.33174   
2492       100.3738   2.47653    2.441391   2.44619    -0.03034   0.31218   
2492.2     99.06574999999999 2.54242    2.47082    2.46792    -0.07451   0.29261   
2492.4     94.60129000000001 2.57669    2.47542    2.48017    -0.09653   0.28644   
2492.6     91.36904   2.5586     2.482354   2.49079    -0.06781   0.27923   
2492.8     83.49223000000001 2.52954    2.495815   2.49843    -0.03111   0.26275   
2493       76.86660999999999 2.50331    2.516787   2.498      -0.00531   0.24113   
2493.2     72.80023   2.54663    2.551875   2.49316    -0.05346   0.21024   
2493.4     62.03241   2.52396    2.569473   2.4835     -0.04047   0.18244   
2493.6     53.05606   2.5777     2.578056   2.49841    -0.07929   0.16185   
2493.8     53.73858   2.56427    2.584431   2.51223    -0.05204   0.15773   
2494       68.03243000000001 2.55339    2.59153    2.50254    -0.05085   0.16905   
2494.2     80.45902   2.53475    2.565712   2.50147    -0.03328   0.20406   
2494.4     88.69602999999999 2.53283    2.515406   2.5009     -0.03193   0.25349   
2494.6     91.05624   2.5299     2.483504   2.49109    -0.03881   0.2782    
2494.8     91.52070000000001 2.52835    2.496023   2.49748    -0.03087   0.26996   
2495       90.64866000000001 2.51848    2.502252   2.49846    -0.02002   0.26481   
2495.2     92.06099   2.56765    2.514108   2.50013    -0.06752   0.25658   
2495.4     94.29796   2.56162    2.514129   2.49871    -0.0629    0.2576    
2495.6     94.7719    2.636      2.517938   2.49912    -0.13688   0.25452   
2495.8     88.66757   2.59908    2.544017   2.50214    -0.09694   0.22877   
2496       75.01824999999999 2.6137     2.575757   2.49648    -0.11723   0.19068   
2496.2     61.84284   2.56335    2.598587   2.51476    -0.04859   0.15567   
2496.4     48.25985   2.67484    2.600418   2.54792    -0.12692   0.13508   
2496.6     40.86642   2.68288    2.595991   2.55414    -0.12875   0.12581   
2496.8     40.22189   2.7241     2.597018   2.55437    -0.16973   0.12375   
2497       44.91384   2.69056    2.598638   2.55439    -0.13617   0.13096   
2497.2     50.29776   2.6222     2.580002   2.51121    -0.11099   0.15567   
2497.4     62.222     2.59269    2.535032   2.4792     -0.11348   0.20818   
2497.6     77.02773000000001 2.55019    2.507885   2.49778    -0.05241   0.24731   
2497.8     85.89031   2.53977    2.509703   2.50112    -0.03865   0.25555   
2498       86.98987   2.51016    2.49647    2.49865    -0.01151   0.26584   
2498.2     83.30265   2.42508    2.492321   2.49843    0.07335    0.26481   
2498.4     76.35478000000001 2.44555    2.490109   2.49604    0.05049    0.2576    
2498.6     76.08934000000001 2.5321     2.491204   2.49572    -0.03637   0.25658   
2498.8     79.20784999999999 2.53073    2.505651   2.49902    -0.03171   0.25143   
2499       81.92822   2.52552    2.504102   2.50052    -0.025     0.25555   
2499.2     82.61072   2.49655    2.489476   2.49843    0.00188    0.26584   
2499.4     85.51118   2.51208    2.50194    2.50003    -0.01205   0.26069   
2499.6     85.46380000000001 2.47635    2.49734    2.49877    0.02242    0.26378   
2499.8     85.53962   2.48083    2.476519   2.49153    0.0107     0.27717   
2500       81.62492   2.47772    2.461217   2.48804    0.01032    0.28129   
2500.2     79.27419999999999 2.48065    2.462974   2.48927    0.00862    0.27717   
2500.4     82.50645   2.49673    2.490917   2.49843    0.0017     0.26481   
2500.6     90.02306   2.52204    2.508565   2.4999     -0.02215   0.25966   
2500.8     89.07517   2.57094    2.496183   2.49846    -0.07248   0.2679    
2501       83.41639000000001 2.4811     2.472399   2.49132    0.01022    0.27717   
2501.2     79.0941    2.48101    2.456815   2.48746    0.00644    0.28026   
2501.4     74.60118   2.45826    2.461925   2.4894     0.03115    0.27099   
2501.6     69.26465   2.40278    2.471303   2.48273    0.07994    0.2576    
2501.8     61.41634   2.40827    2.468847   2.47484    0.06657    0.24525   
2502       61.42578   2.45625    2.480757   2.47596    0.01972    0.23907   
2502.2     64.25991   2.47498    2.493602   2.47728    0.0023     0.23701   
2502.4     63.77647   2.43258    2.495784   2.47691    0.04434    0.23495   
2502.6     60.64848   2.47224    2.485826   2.47567    0.00343    0.23495   
2502.8     53.08451   2.51418    2.485841   2.46583    -0.04835   0.22054   
2503       46.98969   2.4854     2.489563   2.46078    -0.02462   0.20612   
2503.2     44.63895   2.49152    2.491851   2.45899    -0.03253   0.19994   
2503.4     43.30246   2.48101    2.540087   2.48189    0.00088    0.17008   
2503.6     40.68635   2.51016    2.58378    2.54782    0.03766    0.13508   
2503.8     40.90433   2.57733    2.605807   2.56305    -0.01429   0.11757   
2504       39.52045   2.62038    2.611086   2.56409    -0.05629   0.11036   
2504.2     38.35457   2.65245    2.61099    2.56481    -0.08765   0.1083    
2504.4     39.11287   2.60237    2.599458   2.56454    -0.03784   0.11963   
2504.6     39.19823   2.49472    2.571227   2.54841    0.05369    0.14125   
2504.8     46.54416   2.47269    2.550335   2.4834     0.01071    0.17008   
2505       50.76221   2.41156    2.474569   2.46304    0.05148    0.22157   
2505.2     54.3357    2.40105    2.392347   2.44288    0.04184    0.26584   
2505.4     61.01817   2.4016     2.400307   2.45551    0.05391    0.27614   
2505.6     65.15092   2.37016    2.436455   2.47181    0.10165    0.2679    
2505.8     71.67224   2.41841    2.457128   2.48553    0.06712    0.26893   
2506       74.22204000000001 2.4536     2.45493    2.4867     0.0331     0.27408   
2506.2     76.56328000000001 2.47598    2.465405   2.49274    0.01676    0.27202   
2506.4     78.01352   2.54672    2.483489   2.49586    -0.05085   0.26378   
2506.6     80.35477   2.5543     2.499858   2.49896    -0.05535   0.25658   
2506.8     82.81921   2.48695    2.503989   2.50056    0.01361    0.25658   
2507       82.65810999999999 2.52698    2.489563   2.49843    -0.02855   0.26584   
2507.2     84.89507999999999 2.52406    2.494933   2.49872    -0.02534   0.26481   
2507.4     83.09408999999999 2.53447    2.496728   2.49887    -0.0356    0.26172   
2507.6     76.31686000000001 2.49307    2.477709   2.49421    0.00114    0.26481   
2507.8     72.60119   2.44025    2.465833   2.48732    0.04707    0.26584   
2508       70.35473   2.45506    2.464926   2.48192    0.02686    0.26275   
2508.2     69.84287   2.46045    2.469203   2.48291    0.02246    0.25966   
