~Version
 VERS              .         2.0                           : CWLS LOG ASCII STANDARD - VERSION 2.0
 WRAP              .         NO                            : ONE LINE PER DEPTH STEP
 DLM               .         SPACE                         : DELIMITING CHARACTER(SPACE TAB OR COMMA)
~Well Information
#_______________________________________________________________________________
#
#PARAMETER_NAME    .UNIT     VALUE                         : DESCRIPTION
#_______________________________________________________________________________
STRT               .m        2469                          : First reference value
STOP               .m        2689.8                        : Last reference value
STEP               .m        0.2                           : Step increment
NULL               .         -9999                         : Missing value
COMP               .                                       : Company
WELL               .         101                           : Well name
FLD                .                                       : Field
LOC                .                                       : Location
PROV               .                                       : Province
SRVC               .                                       : Service Company
DATE               .         2021-05-13 14_16_41           : Date
UWI                .                                       : Unique Well ID
API                .                                       : API NUMBER
CNTY               .                                       : COUNTY
Cartographic_reference_system .         GCS_WGS_1984                  : GEOGCS["GCS_WGS_1984",DATUM["D_WGS_1984",SPHEROID["WGS_1984",6378137.0,298.257223563]],PRIMEM["Greenwich",0.0],UNIT["Degree",0.0174532925199433],AUTHORITY["EPSG",4326]]
CTRY               .                                       : COUNTRY
EREF               .m        137.7                         : 
HZCS               .GCS_WGS_1984 World_Mercator                : PROJCS["World_Mercator",GEOGCS["GCS_WGS_1984",DATUM["D_WGS_1984",SPHEROID["WGS_1984",6378137.0,298.257223563]],PRIMEM["Greenwich",0.0],UNIT["Degree",0.0174532925199433]],PROJECTION["Mercator"],PARAMETER["False_Easting",0.0],PARAMETER["False_Northing",0.0],PARAMETER["Central_Meridian",0.0],PARAMETER["Standard_Parallel_1",0.0],UNIT["Meter",1.0],AUTHORITY["ESRI",54004]]
LATI               .dega     2.1710182041                  : GCS_WGS_1984
LONG               .dega     2.0616605265                  : GCS_WGS_1984
ORIGINALWELLNAME   .         101                           : 
PROJECT_UPGRADE_TIME .         2014-05-27T11_38_46           : 
Pad                .         Пад1                          : 
STAT               .                                       : STATE
group              .         Pad1                          : 
Интер-р            .         Пузин                         : 
Куст               .         1                             : 
Статус             .         Не проверено                  : 
Тип                .         Разведка                      : 
~Parameter Information Block
#_______________________________________________________________________________
#
#PARAMETER_NAME    .UNIT     VALUE                         : DESCRIPTION
#_______________________________________________________________________________
SET                .         Gam                           : 
TLFamily_DEPT      .         Measured Depth                : 
TLFamily_GR_NORM   .         Gamma Ray                     : 
TLFamily_RHOB_NORM .         Bulk Density                  : 
TLFamily_RHOB_TL1  .         Bulk Density                  : 
TLFamily_SYNTH_Bulk_Density .         Bulk Density                  : 
TLFamily_SYNTH_Bulk_Density_MISFIT .                                       : 
TLFamily_TNPH_NORM .         Neutron Porosity              : 
~Curve Information
#_______________________________________________________________________________
#
#LOGNAME           .UNIT     LOG_ID                        : DESCRIPTION
#_______________________________________________________________________________
DEPT               .m                                      :  
GR_NORM            .gAPI                                   : Gamma Ray 
RHOB_NORM          .g/cm3                                  : Bulk Density 
RHOB_TL1           .g/cm3                                  :  
SYNTH_Bulk_Density .G/C3                                   : Bulk Density 
SYNTH_Bulk_Density_MISFIT .                                       : Synthetic Bulk Density Misfit 
TNPH_NORM          .v/v                                    : Thermal Neutron Porosity 
~Ascii
# ...
2591.2     124.19384  2.21279    2.346341   2.32679    0.114      0.3791    
2591.4     126.1275   2.20402    2.346221   2.32415    0.12013    0.38013   
2591.6     128.85756  2.21188    2.350392   2.31842    0.10654    0.3791    
2591.8     144.96169  2.16472    2.37025    2.30571    0.14099    0.36675   
2592       157.43564  2.11985    2.354162   2.30239    0.18254    0.37293   
2592.2     162.32653  2.19735    2.356684   2.30541    0.10806    0.36469   
2592.4     150.96178  2.27758    2.383709   2.33702    0.05943    0.34924   
2592.6     130.62061  2.30628    2.409981   2.36129    0.05501    0.34101   
2592.8     118.56358  2.3262     2.408176   2.38743    0.06123    0.34204   
2593       118.49711  2.2445     2.370311   2.34946    0.10496    0.36366   
2593.2     120.07058  2.30381    2.316789   2.33531    0.0315     0.39043   
2593.4     119.03739  2.30564    2.312665   2.33961    0.03397    0.39146   
2593.6     112.67721  2.31962    2.358448   2.3525     0.03287    0.36572   
2593.8     106.97104  2.35874    2.417685   2.41908    0.06034    0.33071   
2594       108.35492  2.42006    2.459073   2.44898    0.02892    0.30497   
2594.2     110.80987  2.44226    2.462466   2.45095    0.00868    0.30291   
2594.4     109.8051   2.48074    2.447994   2.44074    -0.04      0.31321   
2594.6     110.65826  2.52022    2.440845   2.43685    -0.08337   0.31835   
2594.8     114.42128  2.55485    2.449255   2.43773    -0.11712   0.31321   
2595       122.44974  2.50148    2.44387    2.42475    -0.07673   0.3163    
2595.2     126.69614  2.48284    2.434469   2.41186    -0.07098   0.32247   
2595.4     127.21759  2.47407    2.415123   2.37961    -0.09446   0.33792   
2595.6     119.04692  2.427      2.417953   2.40132    -0.02569   0.33586   
2595.8     114.40233  2.39867    2.431802   2.42813    0.02946    0.32556   
2596       114.89519  2.43605    2.420996   2.41125    -0.0248    0.33277   
2596.2     113.73882  2.43093    2.42196    2.41276    -0.01817   0.33174   
2596.4     113.1132   2.41028    2.419904   2.41164    0.00136    0.33277   
2596.6     114.77198  2.45963    2.425731   2.41771    -0.04192   0.32968   
2596.8     113.80521  2.43477    2.411946   2.39991    -0.03486   0.33792   
2597       113.34069  2.46557    2.39357    2.37939    -0.08617   0.34821   
2597.2     112.38336  2.44016    2.42601    2.42124    -0.01892   0.32865   
2597.4     110.59197  2.41649    2.45834    2.44717    0.03067    0.306     
2597.6     110.6203   2.42718    2.4934     2.47921    0.05203    0.27614   
2597.8     111.98519  2.4408     2.515539   2.48654    0.04574    0.24937   
2598       108.57283  2.44473    2.53037    2.48974    0.045      0.23392   
2598.2     101.23618  2.51345    2.544306   2.49479    -0.01866   0.22466   
2598.4     83.95659999999999 2.57651    2.567833   2.5029     -0.0736    0.20303   
2598.6     64.03247   2.59296    2.570246   2.48281    -0.11015   0.1845    
2598.8     45.84291   2.64925    2.538447   2.47296    -0.17629   0.17626   
2599       56.25048   2.61169    2.546247   2.47179    -0.13991   0.19068   
2599.2     77.47338999999999 2.53968    2.553644   2.50022    -0.03946   0.21333   
2599.4     105.46327  2.49883    2.533739   2.49136    -0.00747   0.23392   
2599.6     116.10827  2.4981     2.51588    2.48626    -0.01184   0.2401    
2599.8     114.67721  2.54032    2.510048   2.48541    -0.05491   0.25246   
2600       112.0801   2.50788    2.506596   2.48486    -0.02302   0.26069   
2600.2     111.76722  2.50788    2.505136   2.48384    -0.02404   0.26275   
2600.4     108.43992  2.45616    2.500628   2.48467    0.02851    0.26996   
2600.6     98.0515    2.45049    2.504571   2.49243    0.04194    0.26687   
2600.8     85.34065   2.45168    2.510449   2.50107    0.0494     0.25452   
2601       83.8052    2.49362    2.509882   2.50088    0.00725    0.25349   
2601.2     101.24603  2.47754    2.505264   2.48997    0.01243    0.26687   
2601.4     126.89456  2.44117    2.475263   2.45881    0.01765    0.27717   
2601.6     132.65808  2.4684     2.468435   2.45199    -0.0164    0.27099   
2601.8     123.77675  2.48777    2.489064   2.47271    -0.01507   0.26378   
2602       117.86206  2.51757    2.504949   2.48368    -0.03388   0.25349   
2602.2     113.67255  2.50495    2.501662   2.4828     -0.02215   0.26481   
2602.4     111.47338  2.45826    2.504491   2.48384    0.02558    0.26378   
2602.6     108.80996  2.51729    2.519626   2.48856    -0.02873   0.24834   
2602.8     108.734    2.51583    2.520504   2.48856    -0.02727   0.24731   
2603       107.22697  2.49225    2.513947   2.48887    -0.00338   0.25658   
2603.2     104.3454   2.48513    2.502897   2.48777    0.00264    0.26893   
2603.4     100.19385  2.57888    2.484645   2.47691    -0.10198   0.28335   
2603.6     100.55389  2.55778    2.486203   2.47875    -0.07903   0.28232   
2603.8     100.6961   2.54681    2.494162   2.48476    -0.06205   0.27614   
2604       100.46859  2.55138    2.483422   2.47562    -0.07576   0.28438   
2604.2     99.57761000000001 2.5353     2.466701   2.46345    -0.07185   0.2957    
2604.4     98.69622   2.55467    2.472001   2.46792    -0.08675   0.29158   
2604.6     101.35974  2.51437    2.478374   2.47076    -0.04361   0.28849   
2604.8     108.23166  2.48677    2.480343   2.46672    -0.02005   0.28849   
2605       111.74823  2.47178    2.49382    2.47857    0.00679    0.27511   
2605.2     114.88582  2.48064    2.496144   2.48156    0.00092    0.26996   
2605.4     119.83352  2.39977    2.497264   2.47991    0.08013    0.26069   
2605.6     120.94268  2.46054    2.494913   2.47585    0.01531    0.26172   
2605.8     124.94258  2.43148    2.479717   2.46496    0.03348    0.27511   
2606       119.05639  2.48192    2.484925   2.47111    -0.01081   0.2782    
2606.2     117.69153  2.45616    2.497233   2.48054    0.02439    0.26481   
2606.4     118.79096  2.47059    2.502887   2.48189    0.01129    0.25452   
2606.6     119.57768  2.4398     2.507689   2.48236    0.04256    0.24422   
2606.8     120.71519  2.44272    2.501661   2.47861    0.03589    0.25143   
2607       126.21282  2.42042    2.488755   2.47237    0.05195    0.25657   
2607.2     127.86203  2.45186    2.4924     2.46982    0.01796    0.2401    
2607.4     125.0564   2.47973    2.500798   2.47546    -0.00427   0.23495   
2607.6     122.91424  2.5214     2.501415   2.47715    -0.04426   0.24422   
2607.8     121.70101  2.53338    2.504293   2.47858    -0.0548    0.24319   
2608       120.46868  2.51811    2.50919    2.4812     -0.03691   0.23804   
2608.2     118.04213  2.46017    2.507281   2.48346    0.02328    0.24937   
2608.4     115.12271  2.41915    2.500197   2.48241    0.06327    0.26481   
2608.6     111.34088  2.46219    2.499002   2.48318    0.02099    0.26996   
2608.8     114.33598  2.47937    2.494834   2.48093    0.00156    0.27202   
2609       115.71037  2.44939    2.497905   2.48199    0.0326     0.26687   
2609.2     112.81942  2.43386    2.504191   2.48328    0.04942    0.26275   
2609.4     109.56822  2.45798    2.500074   2.4844     0.02642    0.26996   
2609.6     108.20323  2.42271    2.481573   2.46748    0.04477    0.28746   
2609.8     107.21741  2.4313     2.465713   2.4553     0.024      0.29982   
2610       104.09897  2.45542    2.451976   2.44958    -0.00585   0.30806   
2610.2     101.52086  2.46886    2.428765   2.43897    -0.02989   0.32041   
2610.4     103.79552  2.45679    2.433457   2.43954    -0.01726   0.31938   
2610.6     103.26471  2.44574    2.436285   2.44101    -0.00472   0.31733   
2610.8     98.19374999999999 2.43733    2.434727   2.44572    0.0084     0.31424   
2611       98.94257   2.38615    2.4304     2.44251    0.05635    0.31733   
2611.2     103.00892  2.36678    2.423546   2.43391    0.06713    0.32453   
2611.4     107.83363  2.41265    2.392332   2.38976    -0.02289   0.34512   
2611.6     113.46388  2.41174    2.411681   2.39991    -0.01183   0.33792   
2611.8     118.40227  2.42197    2.426907   2.41509    -0.00688   0.32968   
