~Version
 VERS              .         2.0                           : CWLS LOG ASCII STANDARD - VERSION 2.0
 WRAP              .         NO                            : ONE LINE PER DEPTH STEP
 DLM               .         SPACE                         : DELIMITING CHARACTER(SPACE TAB OR COMMA)
~Well Information
#_______________________________________________________________________________
#
#PARAMETER_NAME    .UNIT     VALUE                         : DESCRIPTION
#_______________________________________________________________________________
STRT               .m        2469                          : First reference value
STOP               .m        2689.8                        : Last reference value
STEP               .m        0.2                           : Step increment
NULL               .         -9999                         : Missing value
COMP               .                                       : Company
WELL               .         101                           : Well name
FLD                .                                       : Field
LOC                .                                       : Location
PROV               .                                       : Province
SRVC               .                                       : Service Company
DATE               .         2021-05-13 14_16_41           : Date
UWI                .                                       : Unique Well ID
API                .                                       : API NUMBER
CNTY               .                                       : COUNTY
Cartographic_reference_system .         GCS_WGS_1984                  : GEOGCS["GCS_WGS_1984",DATUM["D_WGS_1984",SPHEROID["WGS_1984",6378137.0,298.257223563]],PRIMEM["Greenwich",0.0],UNIT["Degree",0.0174532925199433],AUTHORITY["EPSG",4326]]
CTRY               .                                       : COUNTRY
EREF               .m        137.7                         : 
HZCS               .GCS_WGS_1984 World_Mercator                : PROJCS["World_Mercator",GEOGCS["GCS_WGS_1984",DATUM["D_WGS_1984",SPHEROID["WGS_1984",6378137.0,298.257223563]],PRIMEM["Greenwich",0.0],UNIT["Degree",0.0174532925199433]],PROJECTION["Mercator"],PARAMETER["False_Easting",0.0],PARAMETER["False_Northing",0.0],PARAMETER["Central_Meridian",0.0],PARAMETER["Standard_Parallel_1",0.0],UNIT["Meter",1.0],AUTHORITY["ESRI",54004]]
LATI               .dega     2.1710182041                  : GCS_WGS_1984
LONG               .dega     2.0616605265                  : GCS_WGS_1984
ORIGINALWELLNAME   .         101                           : 
PROJECT_UPGRADE_TIME .         2014-05-27T11_38_46           : 
Pad                .         Пад1                          : 
STAT               .                                       : STATE
group              .         Pad1                          : 
Интер-р            .         Пузин                         : 
Куст               .         1                             : 
Статус             .         Не проверено                  : 
Тип                .         Разведка                      : 
~Parameter Information Block
#_______________________________________________________________________________
#
#PARAMETER_NAME    .UNIT     VALUE                         : DESCRIPTION
#_______________________________________________________________________________
SET                .         Gam                           : 
TLFamily_DEPT      .         Measured Depth                : 
TLFamily_GR_NORM   .         Gamma Ray                     : 
TLFamily_RHOB_NORM .         Bulk Density                  : 
TLFamily_RHOB_TL1  .         Bulk Density                  : 
TLFamily_SYNTH_Bulk_Density .         Bulk Density                  : 
TLFamily_SYNTH_Bulk_Density_MISFIT .                                       : 
TLFamily_TNPH_NORM .         Neutron Porosity              : 
~Curve Information
#_______________________________________________________________________________
#
#LOGNAME           .UNIT     LOG_ID                        : DESCRIPTION
#_______________________________________________________________________________
DEPT               .m                                      :  
GR_NORM            .gAPI                                   : Gamma Ray 
RHOB_NORM          .g/cm3                                  : Bulk Density 
RHOB_TL1           .g/cm3                                  :  
SYNTH_Bulk_Density .G/C3                                   : Bulk Density 
SYNTH_Bulk_Density_MISFIT .                                       : Synthetic Bulk Density Misfit 
TNPH_NORM          .v/v                                    : Thermal Neutron Porosity 
~Ascii
# ...
2632.8     22.00379   2.72958    2.54985    2.57028    -0.15931   0.11654   
2633       27.25495   2.63089    2.548149   2.56013    -0.07076   0.12993   
2633.2     30.13649   2.51181    2.519937   2.51785    0.00604    0.15258   
2633.4     32.12702   2.44144    2.467019   2.4559     0.01445    0.18347   
2633.6     33.34026   2.47014    2.466591   2.45411    -0.01603   0.18656   
2633.8     30.82849   2.55951    2.455481   2.45466    -0.10485   0.18553   
2634       35.83322   2.52972    2.474761   2.4543     -0.07543   0.18862   
2634.2     40.78097   2.50203    2.497508   2.46141    -0.04062   0.18862   
2634.4     40.52506   2.5512     2.50039    2.46141    -0.08978   0.18656   
2634.6     36.28819   2.62422    2.48552    2.45525    -0.16896   0.1845    
2634.8     31.09388   2.76257    2.468352   2.46139    -0.30118   0.18038   
2635       28.62002   2.90943    2.46876    2.46824    -0.44119   0.1742    
2635.2     33.70996   2.90861    2.504438   2.47818    -0.43043   0.16905   
2635.4     37.89932   2.89006    2.541636   2.50743    -0.38263   0.15773   
2635.6     34.05132   2.89106    2.559626   2.55103    -0.34003   0.13816   
2635.8     35.16973   2.80653    2.570998   2.55714    -0.24939   0.13302   
2636       39.37831   2.73123    2.573209   2.54796    -0.18327   0.14022   
2636.2     48.06083   2.69897    2.556241   2.48678    -0.21219   0.16905   
2636.4     59.25497   2.66662    2.524218   2.47546    -0.19116   0.21024   
2636.6     65.83341   2.57295    2.460126   2.4764     -0.09655   0.2576    
2636.8     74.15569000000001 2.62495    2.458688   2.48835    -0.13659   0.27202   
2637       82.49686   2.61663    2.480918   2.49716    -0.11947   0.27099   
2637.2     83.7384    2.61572    2.493062   2.49843    -0.11728   0.26481   
2637.4     75.22687000000001 2.58848    2.487493   2.49328    -0.0952    0.2576    
2637.6     68.85733   2.53539    2.477689   2.4823     -0.05309   0.25349   
2637.8     75.94717   2.47489    2.490881   2.49572    0.02083    0.25658   
2638       85.47315999999999 2.52232    2.487949   2.49792    -0.0244    0.26996   
2638.2     85.54895999999999 2.57422    2.457125   2.48041    -0.09381   0.28849   
2638.4     80.28837   2.53356    2.465454   2.48968    -0.04388   0.27717   
2638.6     73.13203   2.50514    2.489376   2.49142    -0.01372   0.25349   
2638.8     67.90924   2.47041    2.505518   2.4818     0.01139    0.23598   
2639       72.76224000000001 2.46529    2.511945   2.49195    0.02666    0.23907   
2639.2     71.96596   2.53904    2.503668   2.48952    -0.04952   0.24319   
2639.4     65.66303000000001 2.50377    2.488656   2.47845    -0.02531   0.24216   
2639.6     67.53032   2.45734    2.484974   2.48041    0.02306    0.24731   
2639.8     83.56802   2.50879    2.50212    2.50017    -0.00862   0.25863   
2640       92.57272   2.54617    2.492766   2.49565    -0.05052   0.27305   
2640.2     92.38323   2.55074    2.429873   2.45451    -0.09622   0.31115   
2640.4     90.7055    2.48448    2.362414   2.40189    -0.08259   0.34101   
2640.6     87.87151   2.43468    2.393565   2.44166    0.00698    0.3235    
2640.8     91.93776   2.44647    2.46869    2.47964    0.03317    0.28849   
2641       92.32638   2.43833    2.486586   2.49076    0.05242    0.27717   
2641.2     92.08944   2.27612    2.415256   2.44813    0.172      0.31835   
2641.4     92.59156   2.19204    2.299065   2.31882    0.12678    0.36881   
2641.6     85.87129   2.03605    2.227263   2.28741    0.25136    0.38425   
2641.8     73.60597   1.91843    2.261112   2.30354    0.38511    0.35233   
2642       73.60592   1.90711    2.386611   2.44241    0.5353     0.30497   
2642.2     72.67689   2.24815    2.431288   2.47437    0.22621    0.28335   
2642.4     67.60603999999999 2.46958    2.453945   2.47678    0.0072     0.26378   
2642.6     67.12251000000001 2.51702    2.468435   2.479      -0.03802   0.25555   
2642.8     67.94713   2.52332    2.478737   2.48091    -0.04241   0.25143   
2643       68.12727   2.55494    2.481157   2.48095    -0.07399   0.2504    
2643.2     71.7861    2.49646    2.451429   2.48471    -0.01175   0.27202   
2643.4     78.62958   2.51089    2.425013   2.46763    -0.04326   0.2957    
2643.6     83.67225999999999 2.53401    2.471167   2.49132    -0.0427    0.2782    
2643.8     85.35952   2.48823    2.476188   2.49167    0.00344    0.27717   
2644       80.09887000000001 2.50048    2.41444    2.4617     -0.03877   0.30291   
2644.2     75.60608000000001 2.44811    2.372521   2.42948    -0.01863   0.31424   
2644.4     76.26008   2.46776    2.387295   2.44519    -0.02257   0.30909   
2644.6     80.38318   2.4217     2.410931   2.4587     0.037      0.30497   
2644.8     83.53961   2.41028    2.454492   2.48092    0.07064    0.28746   
2645       81.82391   2.33625    2.481279   2.49711    0.16085    0.26996   
2645.2     75.41637   2.27466    2.464206   2.4904     0.21574    0.27099   
2645.4     69.16986   2.2307     2.422998   2.4693     0.2386     0.28129   
2645.6     61.88079   2.17404    2.392033   2.44629    0.27225    0.28129   
2645.8     57.38784   2.02088    2.339968   2.37537    0.35449    0.29261   
2646       56.60119   2.01229    2.304074   2.30107    0.28877    0.30394   
2646.2     63.19837   2.23335    2.40297    2.45221    0.21886    0.27923   
2646.4     73.15063000000001 2.48868    2.48766    2.49133    0.00265    0.25452   
2646.6     73.64381   2.47918    2.519936   2.49298    0.0138     0.23495   
2646.8     72.38316   2.49783    2.518987   2.4908     -0.00702   0.23392   
2647       70.00398   2.51464    2.518657   2.48562    -0.02902   0.23083   
2647.2     65.16034999999999 2.60155    2.508505   2.47912    -0.12243   0.2298    
2647.4     59.47333   2.59159    2.498783   2.47452    -0.11707   0.22569   
2647.6     59.10343   2.57697    2.503058   2.47439    -0.10258   0.2226    
2647.8     55.43521   2.53813    2.492577   2.46807    -0.07006   0.22157   
2648       49.43526   2.54644    2.453823   2.46091    -0.08553   0.22877   
2648.2     48.76232   2.56463    2.432395   2.45753    -0.1071    0.23701   
2648.4     52.43982   2.58354    2.445193   2.46241    -0.12113   0.23907   
2648.6     52.3358    2.50998    2.453601   2.46293    -0.04705   0.23495   
2648.8     59.72908   2.46529    2.482679   2.47286    0.00757    0.23495   
2649       74.77164   2.38506    2.532133   2.49475    0.10969    0.22774   
2649.2     77.72901   2.42253    2.544169   2.49969    0.07716    0.22157   
2649.4     75.23626   2.50706    2.542308   2.49567    -0.01138   0.22054   
2649.6     72.62963999999999 2.56472    2.541135   2.49305    -0.07167   0.21848   
2649.8     71.53955000000001 2.53776    2.539356   2.49112    -0.04664   0.21848   
2650       65.37842000000001 2.51144    2.519032   2.4798     -0.03164   0.22363   
2650.2     60.28848   2.50505    2.474823   2.47506    -0.02998   0.2401    
2650.4     61.1036    2.58391    2.463626   2.47449    -0.10942   0.24731   
2650.6     65.31189000000001 2.56463    2.474291   2.4772     -0.08743   0.24937   
2650.8     60.76225   2.53685    2.443187   2.47344    -0.06341   0.25658   
2651       49.34998   2.56097    2.432939   2.45848    -0.10249   0.23804   
2651.2     44.4116    2.46941    2.445652   2.45678    -0.01263   0.22157   
2651.4     44.16507   2.46959    2.477487   2.45875    -0.01083   0.20612   
2651.6     45.53001   2.4822     2.489548   2.45993    -0.02227   0.20303   
2651.8     49.72905   2.47032    2.494536   2.46412    -0.0062    0.20921   
2652       64.14615000000001 2.51281    2.53033    2.47987    -0.03294   0.21436   
2652.2     78.18393   2.53904    2.539612   2.49959    -0.03945   0.22569   
2652.4     84.84763   2.50121    2.524923   2.50186    0.00066    0.24319   
2652.6     90.14622   2.49344    2.524129   2.50108    0.00764    0.24731   
2652.8     91.28373999999999 2.46575    2.537243   2.50175    0.036      0.23598   
2653       94.35476   2.45689    2.527      2.49945    0.04257    0.24628   
2653.2     91.87146   2.46328    2.497808   2.49773    0.03444    0.26893   
