~Version
 VERS              .         2.0                           : CWLS LOG ASCII STANDARD - VERSION 2.0
 WRAP              .         NO                            : ONE LINE PER DEPTH STEP
 DLM               .         SPACE                         : DELIMITING CHARACTER(SPACE TAB OR COMMA)
~Well Information
#_______________________________________________________________________________
#
#PARAMETER_NAME    .UNIT     VALUE                         : DESCRIPTION
#_______________________________________________________________________________
STRT               .m        2469                          : First reference value
STOP               .m        2689.8                        : Last reference value
STEP               .m        0.2                           : Step increment
NULL               .         -9999                         : Missing value
COMP               .                                       : Company
WELL               .         101                           : Well name
FLD                .                                       : Field
LOC                .                                       : Location
PROV               .                                       : Province
SRVC               .                                       : Service Company
DATE               .         2021-05-13 14_16_41           : Date
UWI                .                                       : Unique Well ID
API                .                                       : API NUMBER
CNTY               .                                       : COUNTY
Cartographic_reference_system .         GCS_WGS_1984                  : GEOGCS["GCS_WGS_1984",DATUM["D_WGS_1984",SPHEROID["WGS_1984",6378137.0,298.257223563]],PRIMEM["Greenwich",0.0],UNIT["Degree",0.0174532925199433],AUTHORITY["EPSG",4326]]
CTRY               .                                       : COUNTRY
EREF               .m        137.7                         : 
HZCS               .GCS_WGS_1984 World_Mercator                : PROJCS["World_Mercator",GEOGCS["GCS_WGS_1984",DATUM["D_WGS_1984",SPHEROID["WGS_1984",6378137.0,298.257223563]],PRIMEM["Greenwich",0.0],UNIT["Degree",0.0174532925199433]],PROJECTION["Mercator"],PARAMETER["False_Easting",0.0],PARAMETER["False_Northing",0.0],PARAMETER["Central_Meridian",0.0],PARAMETER["Standard_Parallel_1",0.0],UNIT["Meter",1.0],AUTHORITY["ESRI",54004]]
LATI               .dega     2.1710182041                  : GCS_WGS_1984
LONG               .dega     2.0616605265                  : GCS_WGS_1984
ORIGINALWELLNAME   .         101                           : 
PROJECT_UPGRADE_TIME .         2014-05-27T11_38_46           : 
Pad                .         Пад1                          : 
STAT               .                                       : STATE
group              .         Pad1                          : 
Интер-р            .         Пузин                         : 
Куст               .         1                             : 
Статус             .         Не проверено                  : 
Тип                .         Разведка                      : 
~Parameter Information Block
#_______________________________________________________________________________
#
#PARAMETER_NAME    .UNIT     VALUE                         : DESCRIPTION
#_______________________________________________________________________________
SET                .         Gam                           : 
TLFamily_DEPT      .         Measured Depth                : 
TLFamily_GR_NORM   .         Gamma Ray                     : 
TLFamily_RHOB_NORM .         Bulk Density                  : 
TLFamily_RHOB_TL1  .         Bulk Density                  : 
TLFamily_SYNTH_Bulk_Density .         Bulk Density                  : 
TLFamily_SYNTH_Bulk_Density_MISFIT .                                       : 
TLFamily_TNPH_NORM .         Neutron Porosity              : 
~Curve Information
#_______________________________________________________________________________
#
#LOGNAME           .UNIT     LOG_ID                        : DESCRIPTION
#_______________________________________________________________________________
DEPT               .m                                      :  
GR_NORM            .gAPI                                   : Gamma Ray 
RHOB_NORM          .g/cm3                                  : Bulk Density 
RHOB_TL1           .g/cm3                                  :  
SYNTH_Bulk_Density .G/C3                                   : Bulk Density 
SYNTH_Bulk_Density_MISFIT .                                       : Synthetic Bulk Density Misfit 
TNPH_NORM          .v/v                                    : Thermal Neutron Porosity 
~Ascii
# ...
2612       114.97111  2.4398     2.437987   2.43246    -0.00734   0.32144   
2612.2     115.87153  2.4567     2.404857   2.38755    -0.06915   0.34307   
2612.4     117.12266  2.47333    2.360659   2.34914    -0.1242    0.36778   
2612.6     117.64409  2.47681    2.326601   2.34229    -0.13452   0.38425   
2612.8     118.336    2.45323    2.358076   2.34699    -0.10624   0.36984   
2613       117.17009  2.46803    2.376694   2.3654     -0.10263   0.35954   
2613.2     115.97577  2.44071    2.335191   2.34613    -0.09458   0.3791    
2613.4     114.91414  2.39904    2.346812   2.34951    -0.04953   0.37293   
2613.6     112.21286  2.37829    2.366233   2.35898    -0.01931   0.3616    
2613.8     114.96159  2.46401    2.398819   2.38428    -0.07974   0.34616   
2614       118.62029  2.43404    2.416255   2.39773    -0.03631   0.33689   
2614.2     117.25559  2.40809    2.372887   2.35652    -0.05157   0.3616    
2614.4     120.67728  2.44043    2.362749   2.34197    -0.09846   0.36881   
2614.6     125.3786   2.43111    2.387803   2.34997    -0.08115   0.35645   
2614.8     128.75308  2.43184    2.396273   2.35021    -0.08163   0.3513    
2615       134.09901  2.45524    2.399282   2.34287    -0.11237   0.34821   
2615.2     134.74341  2.46593    2.410223   2.35788    -0.10805   0.33895   
2615.4     127.07547  2.42207    2.399282   2.35839    -0.06368   0.34924   
2615.6     121.40722  2.43778    2.389368   2.36385    -0.07394   0.35439   
2615.8     118.29812  2.43842    2.409692   2.38958    -0.04885   0.34101   
2616       116.66778  2.37436    2.432489   2.42776    0.0534     0.32556   
2616.2     114.23176  2.41914    2.434786   2.42925    0.0101     0.3235    
2616.4     112.46856  2.44839    2.441655   2.43574    -0.01265   0.31835   
2616.6     108.33578  2.49764    2.464682   2.45406    -0.04359   0.30085   
2616.8     97.73882999999999 2.54937    2.47414    2.47149    -0.07787   0.28952   
2617       106.02313  2.53493    2.498172   2.48409    -0.05084   0.27305   
2617.2     118.29792  2.52232    2.501582   2.48251    -0.03981   0.2576    
2617.4     123.00883  2.52415    2.504046   2.47788    -0.04627   0.23804   
2617.6     122.67751  2.57413    2.514492   2.481      -0.09314   0.20921   
2617.8     133.58715  2.64295    2.483279   2.46524    -0.17771   0.19685   
2618       128.88564  2.60493    2.499002   2.47655    -0.12838   0.18862   
2618.2     103.45401  2.57898    2.57105    2.50512    -0.07386   0.16494   
2618.4     60.66818   2.64322    2.611795   2.5396     -0.10362   0.14022   
2618.6     37.48276   2.62449    2.588982   2.55466    -0.06983   0.12478   
2618.8     25.34033   2.60265    2.564418   2.56994    -0.03271   0.11551   
2619       21.76686   2.61133    2.560911   2.57028    -0.04105   0.10933   
2619.2     22.91384   2.71194    2.565255   2.57028    -0.14167   0.10933   
2619.4     28.54411   2.76604    2.580019   2.56852    -0.19752   0.11242   
2619.6     34.86646   2.68873    2.565457   2.55082    -0.13791   0.13611   
2619.8     44.73372   2.58145    2.536467   2.47382    -0.10763   0.17523   
2620       52.18396   2.49381    2.526768   2.46736    -0.02645   0.19582   
2620.2     53.82379   2.45698    2.530083   2.46862    0.01164    0.19686   
2620.4     53.71002   2.42572    2.516076   2.46792    0.0422     0.20509   
2620.6     51.67217   2.42435    2.482341   2.4652     0.04085    0.21951   
2620.8     49.78591   2.42993    2.474646   2.46296    0.03304    0.21951   
2621       49.10344   2.45405    2.475928   2.46276    0.00871    0.21745   
2621.2     47.70057   2.46758    2.482393   2.46162    -0.00596   0.21127   
2621.4     46.29786   2.45058    2.488718   2.46046    0.00988    0.20509   
2621.6     48.4778    2.46219    2.523272   2.46495    0.00277    0.19068   
2621.8     48.62001   2.50669    2.532347   2.4663     -0.04039   0.18553   
2622       47.04657   2.54617    2.507252   2.46167    -0.0845    0.19685   
2622.2     46.62947   2.55714    2.503766   2.46078    -0.09636   0.19788   
2622.4     45.7669    2.5681     2.482409   2.45948    -0.10862   0.20715   
2622.6     44.31679   2.51793    2.454276   2.45788    -0.06006   0.21745   
2622.8     48.02284   2.514      2.467045   2.46046    -0.05354   0.21951   
2623       48.87592   2.51464    2.48319    2.46342    -0.05122   0.21333   
2623.2     47.26459   2.52259    2.472214   2.46162    -0.06098   0.21539   
2623.4     46.60113   2.52195    2.467137   2.46001    -0.06194   0.21642   
2623.6     48.08912   2.54882    2.49982    2.46207    -0.08675   0.20303   
2623.8     44.75271   2.56189    2.531407   2.4702     -0.09169   0.17832   
2624       41.42568   2.55321    2.537048   2.48422    -0.06899   0.16802   
2624.2     38.80011   2.64944    2.52564    2.48173    -0.16771   0.16905   
2624.4     37.83332   2.66497    2.520006   2.47793    -0.18704   0.17008   
2624.6     39.37835   2.60055    2.497459   2.46094    -0.1396    0.18553   
2624.8     45.24557   2.52954    2.486326   2.45993    -0.0696    0.20406   
2625       47.9091    2.44363    2.483263   2.46162    0.01798    0.21127   
2625.2     48.82853   2.40361    2.472673   2.46181    0.0582     0.21848   
2625.4     48.79061   2.40215    2.474603   2.46181    0.05966    0.21745   
2625.6     47.9944    2.4609     2.466919   2.46046    -0.00044   0.21951   
2625.8     45.966     2.4589     2.450968   2.45772    -0.00117   0.2226    
2626       49.6911    2.44683    2.470057   2.46236    0.01553    0.22157   
2626.2     52.71477   2.4864     2.472257   2.46524    -0.02116   0.22671   
2626.4     53.9754    2.47982    2.464883   2.46421    -0.01561   0.23289   
2626.6     52.35466   2.46575    2.447047   2.46293    -0.00282   0.23804   
2626.8     52.46838   2.46292    2.419831   2.45651    -0.00641   0.2504    
2627       52.91382   2.47279    2.424373   2.4568     -0.01598   0.24937   
2627.2     48.74322   2.47516    2.422805   2.4562     -0.01896   0.24113   
2627.4     43.67222   2.39995    2.408078   2.45337    0.05341    0.23598   
2627.6     40.99916   2.41485    2.392679   2.45337    0.03852    0.23598   
2627.8     40.24084   2.40845    2.380155   2.45232    0.04387    0.23907   
2628       41.72898   2.43322    2.36774    2.44622    0.013      0.24731   
2628.2     42.53464   2.48284    2.339423   2.43666    -0.04618   0.25966   
2628.4     41.8238    2.4483     2.354541   2.44395    -0.00434   0.25246   
2628.6     41.85215   2.41704    2.384627   2.45203    0.03499    0.24113   
2628.8     38.52519   2.4005     2.369392   2.44979    0.04929    0.23907   
2629       38.85694   2.39931    2.376936   2.45087    0.05156    0.23701   
2629.2     39.80479   2.36504    2.398597   2.45367    0.08862    0.23083   
2629.4     40.13652   2.3983     2.387502   2.45284    0.05454    0.23598   
2629.6     39.25504   2.38204    2.37402    2.45035    0.06831    0.23907   
2629.8     37.77637   2.34073    2.364568   2.44889    0.10816    0.23907   
2630       35.2361    2.34932    2.356143   2.44548    0.09616    0.23598   
2630.2     35.02757   2.35764    2.365947   2.4465     0.08886    0.23186   
2630.4     36.32613   2.37975    2.398444   2.44906    0.0693     0.2226    
2630.6     37.78582   2.35472    2.444036   2.45434    0.09963    0.20715   
2630.8     38.19343   2.37336    2.464454   2.45569    0.08234    0.19891   
2631       38.12703   2.42673    2.503982   2.46514    0.03842    0.17935   
2631.2     33.75739   2.48577    2.523927   2.49698    0.01122    0.15876   
2631.4     29.47315   2.64331    2.544646   2.55239    -0.09092   0.13713   
2631.6     29.15076   2.66991    2.566715   2.56852    -0.10139   0.12272   
2631.8     30.20287   2.57377    2.573349   2.56852    -0.00525   0.12066   
2632       30.95163   2.60585    2.577255   2.56852    -0.03733   0.11963   
2632.2     26.42083   2.6541     2.574548   2.56994    -0.08416   0.11139   
2632.4     20.69591   2.758      2.561794   2.58513    -0.17287   0.10624   
2632.6     20.45877   2.76504    2.559183   2.58513    -0.17991   0.10727   
