~Version
 VERS              .         2.0                           : CWLS LOG ASCII STANDARD - VERSION 2.0
 WRAP              .         NO                            : ONE LINE PER DEPTH STEP
 DLM               .         SPACE                         : DELIMITING CHARACTER(SPACE TAB OR COMMA)
~Well Information
#_______________________________________________________________________________
#
#PARAMETER_NAME    .UNIT     VALUE                         : DESCRIPTION
#_______________________________________________________________________________
STRT               .m        2469                          : First reference value
STOP               .m        2689.8                        : Last reference value
STEP               .m        0.2                           : Step increment
NULL               .         -9999                         : Missing value
COMP               .                                       : Company
WELL               .         101                           : Well name
FLD                .                                       : Field
LOC                .                                       : Location
PROV               .                                       : Province
SRVC               .                                       : Service Company
DATE               .         2021-05-13 14_16_41           : Date
UWI                .                                       : Unique Well ID
API                .                                       : API NUMBER
CNTY               .                                       : COUNTY
Cartographic_reference_system .         GCS_WGS_1984                  : GEOGCS["GCS_WGS_1984",DATUM["D_WGS_1984",SPHEROID["WGS_1984",6378137.0,298.257223563]],PRIMEM["Greenwich",0.0],UNIT["Degree",0.0174532925199433],AUTHORITY["EPSG",4326]]
CTRY               .                                       : COUNTRY
EREF               .m        137.7                         : 
HZCS               .GCS_WGS_1984 World_Mercator                : PROJCS["World_Mercator",GEOGCS["GCS_WGS_1984",DATUM["D_WGS_1984",SPHEROID["WGS_1984",6378137.0,298.257223563]],PRIMEM["Greenwich",0.0],UNIT["Degree",0.0174532925199433]],PROJECTION["Mercator"],PARAMETER["False_Easting",0.0],PARAMETER["False_Northing",0.0],PARAMETER["Central_Meridian",0.0],PARAMETER["Standard_Parallel_1",0.0],UNIT["Meter",1.0],AUTHORITY["ESRI",54004]]
LATI               .dega     2.1710182041                  : GCS_WGS_1984
LONG               .dega     2.0616605265                  : GCS_WGS_1984
ORIGINALWELLNAME   .         101                           : 
PROJECT_UPGRADE_TIME .         2014-05-27T11_38_46           : 
Pad                .         Пад1                          : 
STAT               .                                       : STATE
group              .         Pad1                          : 
Интер-р            .         Пузин                         : 
Куст               .         1                             : 
Статус             .         Не проверено                  : 
Тип                .         Разведка                      : 
~Parameter Information Block
#_______________________________________________________________________________
#
#PARAMETER_NAME    .UNIT     VALUE                         : DESCRIPTION
#_______________________________________________________________________________
SET                .         Gam                           : 
TLFamily_DEPT      .         Measured Depth                : 
TLFamily_GR_NORM   .         Gamma Ray                     : 
TLFamily_RHOB_NORM .         Bulk Density                  : 
TLFamily_RHOB_TL1  .         Bulk Density                  : 
TLFamily_SYNTH_Bulk_Density .         Bulk Density                  : 
TLFamily_SYNTH_Bulk_Density_MISFIT .                                       : 
TLFamily_TNPH_NORM .         Neutron Porosity              : 
~Curve Information
#_______________________________________________________________________________
#
#LOGNAME           .UNIT     LOG_ID                        : DESCRIPTION
#_______________________________________________________________________________
DEPT               .m                                      :  
GR_NORM            .gAPI                                   : Gamma Ray 
RHOB_NORM          .g/cm3                                  : Bulk Density 
RHOB_TL1           .g/cm3                                  :  
SYNTH_Bulk_Density .G/C3                                   : Bulk Density 
SYNTH_Bulk_Density_MISFIT .                                       : Synthetic Bulk Density Misfit 
TNPH_NORM          .v/v                                    : Thermal Neutron Porosity 
~Ascii
# ...
2549.6     85.35957999999999 2.5607     2.52015    2.50135    -0.05936   0.24731   
2549.8     88.54434999999999 2.52488    2.533939   2.50187    -0.02301   0.23804   
2550       88.39269   2.54526    2.548129   2.50233    -0.04293   0.22466   
2550.2     83.28362   2.53648    2.560849   2.50285    -0.03364   0.21024   
2550.4     73.54906   2.60447    2.569271   2.49439    -0.11009   0.19583   
2550.6     65.21731   2.65657    2.567154   2.48313    -0.17344   0.18862   
2550.8     60.02291   2.66644    2.573535   2.48848    -0.17796   0.17626   
2551       54.22197   2.72821    2.577849   2.4989     -0.22931   0.16391   
2551.2     52.75291   2.76924    2.574814   2.49846    -0.27078   0.16391   
2551.4     61.2362    2.72273    2.576787   2.49149    -0.23124   0.17523   
2551.6     77.90921   2.62504    2.567355   2.50028    -0.12476   0.20097   
2551.8     91.62488   2.57733    2.557604   2.50275    -0.07459   0.21436   
2552       95.34059000000001 2.54251    2.549499   2.50069    -0.04182   0.2226    
2552.2     96.10839   2.51556    2.539321   2.49863    -0.01693   0.23392   
2552.4     95.85247   2.52232    2.541263   2.49884    -0.02348   0.23186   
2552.6     96.88574   2.53429    2.529322   2.49728    -0.03701   0.24422   
2552.8     104.32643  2.55092    2.497199   2.48453    -0.06639   0.27408   
2553       114.69613  2.54772    2.461094   2.44686    -0.10087   0.30394   
2553.2     120.3171   2.52762    2.431359   2.4195     -0.10812   0.32659   
2553.4     126.75309  2.54955    2.425835   2.39863    -0.15092   0.32968   
2553.6     131.51142  2.52533    2.425377   2.39497    -0.13037   0.32762   
2553.8     133.22708  2.58674    2.412436   2.36446    -0.22229   0.33792   
2554       132.61089  2.52287    2.401205   2.34679    -0.17607   0.34719   
2554.2     130.26024  2.50468    2.412752   2.36795    -0.13673   0.33895   
2554.4     126.05171  2.5236     2.431174   2.4126     -0.11099   0.32556   
2554.6     119.02791  2.55138    2.438331   2.4288     -0.12258   0.32144   
2554.8     112.41186  2.55622    2.438621   2.4337     -0.12252   0.32041   
2555       106.88566  2.57998    2.455458   2.44851    -0.13147   0.30703   
2555.2     100.48751  2.61023    2.474944   2.46916    -0.14108   0.29055   
2555.4     91.9662    2.57249    2.486167   2.49076    -0.08173   0.27717   
2555.6     93.36917   2.65784    2.486243   2.49024    -0.1676    0.2782    
2555.8     103.62491  2.6382     2.494797   2.48359    -0.15461   0.27614   
2556       103.9094   2.66506    2.478235   2.46657    -0.19849   0.28952   
2556.2     103.34071  2.61453    2.479363   2.47012    -0.1444    0.28849   
2556.4     106.56339  2.58528    2.492402   2.47889    -0.1064    0.2782    
2556.6     111.68201  2.55942    2.486534   2.47244    -0.08698   0.28232   
2556.8     119.50193  2.52789    2.472304   2.45519    -0.0727    0.29158   
2557       127.21754  2.47946    2.454286   2.43227    -0.04718   0.30291   
2557.2     134.35518  2.43596    2.43106    2.39881    -0.03714   0.31938   
2557.4     149.71058  2.4323     2.412664   2.40163    -0.03067   0.31115   
2557.6     170.50691  2.44327    2.367111   2.41554    -0.02773   0.29879   
2557.8     193.17979  2.35965    2.31548    2.38396    0.02431    0.32453   
2558       194.60174  2.36066    2.314205   2.35376    -0.00689   0.33792   
2558.2     185.07566  2.39858    2.331024   2.34061    -0.05797   0.3441    
2558.4     173.72962  2.41485    2.349425   2.33544    -0.07941   0.34924   
2558.6     174.54498  2.39328    2.352152   2.35941    -0.03387   0.33689   
2558.8     187.87178  2.36002    2.326152   2.38872    0.0287     0.32144   
2559       191.90983  2.42444    2.318596   2.37286    -0.05158   0.32968   
2559.2     197.43601  2.43047    2.308837   2.36124    -0.06923   0.33483   
2559.4     209.37908  2.4684     2.288288   2.36307    -0.10533   0.33277   
2559.6     208.9334   2.48083    2.293399   2.32878    -0.15205   0.35027   
2559.8     194.40283  2.49426    2.314666   2.32753    -0.16673   0.35233   
2560       187.17997  2.47763    2.327846   2.35609    -0.12154   0.33689   
2560.2     182.46898  2.42051    2.335876   2.34283    -0.07769   0.34307   
2560.4     174.98081  2.4153     2.346088   2.3297     -0.0856    0.35233   
2560.6     178.50704  2.37135    2.341945   2.33858    -0.03277   0.34719   
2560.8     188.53531  2.36815    2.323605   2.32659    -0.04156   0.35439   
2561       191.74876  2.31396    2.316295   2.30087    -0.01309   0.36778   
2561.2     201.90043  2.32903    2.301754   2.29398    -0.03505   0.38322   
2561.4     218.25118  2.35782    2.288794   2.29118    -0.06664   0.39146   
2561.6     226.13748  2.36248    2.285603   2.28557    -0.07692   0.40073   
2561.8     231.65405  2.32593    2.28416    2.28557    -0.04036   0.40176   
2562       235.7109   2.32099    2.27822    2.28826    -0.03273   0.38116   
2562.2     235.21801  2.32675    2.273286   2.29394    -0.03281   0.36675   
2562.4     230.22281  2.36111    2.272105   2.31873    -0.04238   0.35542   
2562.6     223.22744  2.37509    2.275686   2.32632    -0.04878   0.34822   
2562.8     211.5403   2.39428    2.290648   2.32482    -0.06946   0.35336   
2563       202.71556  2.37875    2.302192   2.32676    -0.05199   0.3513    
2563.2     196.27001  2.38981    2.311809   2.33326    -0.05654   0.34822   
2563.4     186.47851  2.42691    2.326403   2.32112    -0.10579   0.35645   
2563.6     174.29834  2.44382    2.350009   2.34226    -0.10156   0.34513   
2563.8     163.2178   2.47205    2.376398   2.37408    -0.09797   0.33071   
2564       163.99504  2.47397    2.379441   2.39544    -0.07854   0.31835   
2564.2     170.73439  2.40507    2.361148   2.37002    -0.03505   0.33174   
2564.4     181.24629  2.4069     2.334207   2.32187    -0.08503   0.35748   
2564.6     192.81994  2.38944    2.310517   2.29475    -0.09469   0.38322   
2564.8     216.89569  2.31176    2.288852   2.28803    -0.02374   0.40382   
2565       237.68249  2.2795     2.27939    2.28797    0.00847    0.38734   
2565.2     251.57837  2.28133    2.272226   2.2885     0.00717    0.37808   
2565.4     269.51208  2.27959    2.273322   2.28727    0.00768    0.38116   
2565.6     289.50312  2.31542    2.281106   2.2869     -0.02852   0.38631   
2565.8     340.09067  2.30125    2.308627   2.2863     -0.01495   0.39043   
2566       399.43666  2.26552    2.326502   2.29356    0.02804    0.36572   
2566.2     438.16677  2.24688    2.330982   2.3357     0.08882    0.33895   
2566.4     465.01068  2.30701    2.339667   2.36369    0.05668    0.32762   
2566.6     444.6682   2.32821    2.337438   2.3325     0.00428    0.34204   
2566.8     346.95383  2.33433    2.286904   2.30902    -0.02532   0.35748   
2567       317.91069  2.28334    2.278474   2.29206    0.00872    0.36675   
2567.2     330.69729  2.26333    2.290839   2.28902    0.02569    0.37396   
2567.4     350.96268  2.25483    2.311994   2.2869     0.03207    0.38631   
2567.6     346.13783  2.23801    2.312924   2.2863     0.04829    0.39146   
2567.8     327.47456  2.25629    2.287471   2.29054    0.03425    0.3719    
2568       324.20428  2.24075    2.27495    2.30704    0.06628    0.35851   
2568.2     321.36075  2.20137    2.263954   2.32425    0.12288    0.34719   
2568.4     322.8109   2.2021     2.257467   2.3357     0.1336     0.33895   
2568.6     325.92949  2.20685    2.258143   2.33978    0.13293    0.33792   
2568.8     331.98625  2.19552    2.275668   2.31415    0.11863    0.35439   
2569       329.95786  2.25373    2.283063   2.29356    0.03983    0.36469   
2569.2     323.9103   2.32501    2.273945   2.30902    -0.01599   0.35748   
2569.4     307.15211  2.31917    2.267824   2.30704    -0.01213   0.35954   
2569.6     285.07627  2.31405    2.241023   2.34742    0.03337    0.33483   
2569.8     269.21833  2.28426    2.237623   2.35558    0.07132    0.33071   
2570       265.3604   2.2297     2.26689    2.29167    0.06198    0.37087   
2570.2     264.91491  2.19963    2.276945   2.28699    0.08736    0.38837   
