~Version
 VERS              .         2.0                           : CWLS LOG ASCII STANDARD - VERSION 2.0
 WRAP              .         NO                            : ONE LINE PER DEPTH STEP
 DLM               .         SPACE                         : DELIMITING CHARACTER(SPACE TAB OR COMMA)
~Well Information
#_______________________________________________________________________________
#
#PARAMETER_NAME    .UNIT     VALUE                         : DESCRIPTION
#_______________________________________________________________________________
STRT               .m        2469                          : First reference value
STOP               .m        2689.8                        : Last reference value
STEP               .m        0.2                           : Step increment
NULL               .         -9999                         : Missing value
COMP               .                                       : Company
WELL               .         101                           : Well name
FLD                .                                       : Field
LOC                .                                       : Location
PROV               .                                       : Province
SRVC               .                                       : Service Company
DATE               .         2021-05-13 14_16_41           : Date
UWI                .                                       : Unique Well ID
API                .                                       : API NUMBER
CNTY               .                                       : COUNTY
Cartographic_reference_system .         GCS_WGS_1984                  : GEOGCS["GCS_WGS_1984",DATUM["D_WGS_1984",SPHEROID["WGS_1984",6378137.0,298.257223563]],PRIMEM["Greenwich",0.0],UNIT["Degree",0.0174532925199433],AUTHORITY["EPSG",4326]]
CTRY               .                                       : COUNTRY
EREF               .m        137.7                         : 
HZCS               .GCS_WGS_1984 World_Mercator                : PROJCS["World_Mercator",GEOGCS["GCS_WGS_1984",DATUM["D_WGS_1984",SPHEROID["WGS_1984",6378137.0,298.257223563]],PRIMEM["Greenwich",0.0],UNIT["Degree",0.0174532925199433]],PROJECTION["Mercator"],PARAMETER["False_Easting",0.0],PARAMETER["False_Northing",0.0],PARAMETER["Central_Meridian",0.0],PARAMETER["Standard_Parallel_1",0.0],UNIT["Meter",1.0],AUTHORITY["ESRI",54004]]
LATI               .dega     2.1710182041                  : GCS_WGS_1984
LONG               .dega     2.0616605265                  : GCS_WGS_1984
ORIGINALWELLNAME   .         101                           : 
PROJECT_UPGRADE_TIME .         2014-05-27T11_38_46           : 
Pad                .         Пад1                          : 
STAT               .                                       : STATE
group              .         Pad1                          : 
Интер-р            .         Пузин                         : 
Куст               .         1                             : 
Статус             .         Не проверено                  : 
Тип                .         Разведка                      : 
~Parameter Information Block
#_______________________________________________________________________________
#
#PARAMETER_NAME    .UNIT     VALUE                         : DESCRIPTION
#_______________________________________________________________________________
SET                .         Gam                           : 
TLFamily_DEPT      .         Measured Depth                : 
TLFamily_GR_NORM   .         Gamma Ray                     : 
TLFamily_RHOB_NORM .         Bulk Density                  : 
TLFamily_RHOB_TL1  .         Bulk Density                  : 
TLFamily_SYNTH_Bulk_Density .         Bulk Density                  : 
TLFamily_SYNTH_Bulk_Density_MISFIT .                                       : 
TLFamily_TNPH_NORM .         Neutron Porosity              : 
~Curve Information
#_______________________________________________________________________________
#
#LOGNAME           .UNIT     LOG_ID                        : DESCRIPTION
#_______________________________________________________________________________
DEPT               .m                                      :  
GR_NORM            .gAPI                                   : Gamma Ray 
RHOB_NORM          .g/cm3                                  : Bulk Density 
RHOB_TL1           .g/cm3                                  :  
SYNTH_Bulk_Density .G/C3                                   : Bulk Density 
SYNTH_Bulk_Density_MISFIT .                                       : Synthetic Bulk Density Misfit 
TNPH_NORM          .v/v                                    : Thermal Neutron Porosity 
~Ascii
# ...
2570.4     265.3604   2.22202    2.283188   2.28324    0.06122    0.40073   
2570.6     271.90093  2.21069    2.287155   2.28324    0.07255    0.40588   
2570.8     294.16612  2.20237    2.292124   2.28315    0.08078    0.40073   
2571       303.33204  2.20109    2.280548   2.28804    0.08695    0.37808   
2571.2     295.49342  2.18172    2.259494   2.31415    0.13243    0.35439   
2571.4     299.5027   2.18391    2.259934   2.31415    0.13024    0.35336   
2571.6     306.08084  2.19561    2.279416   2.28902    0.09341    0.37499   
2571.8     301.87233  2.18848    2.282181   2.28718    0.0987     0.38116   
2572       286.83924  2.18218    2.26128    2.30704    0.12486    0.35954   
2572.2     278.75393  2.19067    2.245589   2.33406    0.14338    0.34101   
2572.4     273.8249   2.19506    2.238854   2.35204    0.15697    0.33277   
2572.6     272.63991  2.18921    2.220276   2.37758    0.18837    0.31115   
2572.8     260.0903   2.21242    2.212925   2.394      0.18157    0.29879   
2573       252.08078  2.24377    2.227109   2.38256    0.13879    0.31012   
2573.2     249.53094  2.21736    2.229608   2.37902    0.16166    0.31115   
2573.4     245.9575   2.23756    2.239249   2.37577    0.13821    0.32041   
2573.6     243.37913  2.22165    2.243393   2.3724     0.15075    0.3235    
2573.8     231.85299  2.21946    2.252047   2.37629    0.15683    0.32041   
2574       205.22744  2.23025    2.28472    2.40297    0.17272    0.30394   
2574.2     182.99035  2.28544    2.336492   2.39528    0.10984    0.31424   
2574.4     158.82911  2.25593    2.382447   2.36648    0.11055    0.33483   
2574.6     153.31283  2.26963    2.395835   2.3806     0.11096    0.32865   
2574.8     168.86698  2.26479    2.370589   2.40634    0.14155    0.30703   
2575       174.5448   2.24633    2.355622   2.42827    0.18194    0.28644   
2575.2     174.2509   2.26927    2.355914   2.43374    0.16448    0.28232   
2575.4     170.5543   2.26433    2.366651   2.43129    0.16696    0.28335   
2575.6     168.29835  2.28078    2.373065   2.434      0.15322    0.28232   
2575.8     164.87643  2.25382    2.382802   2.42929    0.17547    0.28541   
2576       157.54944  2.31496    2.402801   2.42929    0.11433    0.28644   
2576.2     149.39783  2.33123    2.426431   2.43939    0.10816    0.27717   
2576.4     147.6442   2.3145     2.434732   2.45057    0.13607    0.25966   
2576.6     144.08011  2.288      2.442549   2.44879    0.16079    0.26893   
2576.8     131.3598   2.32584    2.469343   2.45341    0.12758    0.27408   
2577       122.99009  2.35992    2.48101    2.46534    0.10542    0.27717   
2577.2     121.34083  2.34914    2.485549   2.47138    0.12224    0.27408   
2577.4     120.9332   2.28837    2.483643   2.46728    0.17891    0.27717   
2577.6     126.08953  2.31003    2.467226   2.44753    0.1375     0.28952   
2577.8     128.11798  2.27356    2.468313   2.44941    0.17585    0.28438   
2578       126.75311  2.24076    2.475488   2.45881    0.21806    0.27717   
2578.2     127.99488  2.27301    2.476105   2.46227    0.18925    0.27305   
2578.4     132.9143   2.29175    2.474769   2.45737    0.16562    0.25555   
2578.6     139.66317  2.29367    2.457818   2.45371    0.16004    0.25555   
2578.8     150.63932  2.31322    2.426267   2.45215    0.13892    0.25555   
2579       143.21756  2.37299    2.446967   2.45118    0.07819    0.26069   
2579.2     125.11338  2.38204    2.481567   2.46767    0.08563    0.27202   
2579.4     109.9473   2.38423    2.495802   2.48146    0.09723    0.27408   
2579.6     108.95206  2.29541    2.50912    2.48661    0.19121    0.26069   
2579.8     106.01362  2.27146    2.511785   2.48807    0.21661    0.25966   
2580       102.3739   2.32154    2.517137   2.49219    0.17065    0.25555   
2580.2     102.6961   2.3146     2.533648   2.49314    0.17854    0.23701   
2580.4     104.2885   2.2838     2.522144   2.49098    0.20718    0.24937   
2580.6     104.53496  2.32903    2.519226   2.4908     0.16176    0.25246   
2580.8     101.89992  2.35206    2.528885   2.49311    0.14105    0.24319   
2581       102.0705   2.33543    2.531474   2.49368    0.15825    0.2401    
2581.2     102.47809  2.31505    2.529476   2.49368    0.17863    0.24216   
2581.4     104.6487   2.30747    2.519167   2.4908     0.18333    0.25246   
2581.6     108.66764  2.28334    2.495273   2.48025    0.1969     0.27511   
2581.8     111.03728  2.35005    2.481165   2.46582    0.11577    0.28746   
2582       105.40709  2.35672    2.473351   2.4625     0.10577    0.29364   
2582.2     103.85262  2.32565    2.43865    2.44137    0.11572    0.3163    
2582.4     108.516    2.322      2.431378   2.43252    0.11052    0.3235    
2582.6     110.66761  2.31743    2.429747   2.43048    0.11306    0.32556   
2582.8     105.07534  2.29257    2.429699   2.43569    0.14312    0.32247   
2583       103.80515  2.26315    2.454873   2.45116    0.18802    0.306     
2583.2     110.02321  2.287      2.470285   2.45735    0.17036    0.29673   
2583.4     117.2554   2.25885    2.454301   2.44176    0.18291    0.30909   
2583.6     116.42127  2.27046    2.421724   2.41088    0.14042    0.33277   
2583.8     114.56351  2.24423    2.37365    2.36681    0.12258    0.35954   
2584       121.83361  2.21809    2.359966   2.33819    0.1201     0.37087   
2584.2     122.59189  2.23061    2.352756   2.33252    0.10191    0.37499   
2584.4     122.0137   2.23143    2.373557   2.34131    0.10987    0.36366   
2584.6     112.16528  2.26378    2.382514   2.37446    0.11068    0.35336   
2584.8     98.27914   2.2954     2.380519   2.39841    0.10301    0.34204   
2585       99.02786   2.25976    2.371095   2.38895    0.12918    0.34719   
2585.2     103.37854  2.22102    2.356104   2.37154    0.15052    0.35851   
2585.4     107.663    2.26817    2.360542   2.36173    0.09356    0.36057   
2585.6     102.72444  2.29166    2.370502   2.37908    0.08742    0.3513    
2585.8     92.70558   2.34539    2.382231   2.41856    0.07316    0.33483   
2586       88.32640000000001 2.37701    2.399312   2.44562    0.06861    0.32144   
2586.2     86.98985999999999 2.35152    2.384081   2.43762    0.0861     0.32659   
2586.4     84.18416999999999 2.31268    2.337399   2.3964     0.08372    0.34204   
2586.6     87.44504000000001 2.26991    2.331313   2.38684    0.11693    0.34924   
2586.8     102.66769  2.26397    2.332914   2.35286    0.0889     0.36778   
2587       115.64396  2.24149    2.345778   2.34713    0.10564    0.37396   
2587.2     122.7245   2.271      2.403263   2.37246    0.10146    0.34616   
2587.4     123.23649  2.28133    2.444687   2.42426    0.14293    0.31527   
2587.6     113.84297  2.27695    2.463735   2.45069    0.17375    0.30188   
2587.8     99.26486   2.35983    2.446849   2.45187    0.09204    0.30806   
2588       91.35962000000001 2.34311    2.433571   2.45967    0.11656    0.30806   
2588.2     89.96625   2.28572    2.428588   2.45885    0.17313    0.30909   
2588.4     92.35483000000001 2.28946    2.407563   2.44273    0.15326    0.32247   
2588.6     97.60617000000001 2.24359    2.367623   2.38957    0.14598    0.34718   
2588.8     111.7578   2.24368    2.369728   2.3682     0.12452    0.35954   
2589       126.30754  2.21115    2.332052   2.31997    0.10883    0.38734   
2589.2     130.55404  2.23673    2.274111   2.30365    0.06692    0.41617   
2589.4     129.9853   2.21297    2.265711   2.30618    0.09321    0.41926   
2589.6     128.14651  2.22028    2.33804    2.31713    0.09684    0.38528   
2589.8     128.7532   2.20639    2.370349   2.3239     0.11751    0.36778   
2590       137.41664  2.20255    2.362174   2.30323    0.10067    0.37396   
2590.2     142.59192  2.18135    2.372761   2.30721    0.12585    0.36572   
2590.4     142.56359  2.21425    2.372774   2.30721    0.09296    0.36572   
2590.6     131.71988  2.22568    2.344703   2.30892    0.08325    0.38322   
2590.8     117.96639  2.24313    2.336171   2.34319    0.10006    0.38013   
2591       119.85264  2.20886    2.347496   2.34215    0.13329    0.37602   
