~Version
 VERS              .         2.0                           : CWLS LOG ASCII STANDARD - VERSION 2.0
 WRAP              .         NO                            : ONE LINE PER DEPTH STEP
 DLM               .         SPACE                         : DELIMITING CHARACTER(SPACE TAB OR COMMA)
~Well Information
#_______________________________________________________________________________
#
#PARAMETER_NAME    .UNIT     VALUE                         : DESCRIPTION
#_______________________________________________________________________________
STRT               .m        2469                          : First reference value
STOP               .m        2689.8                        : Last reference value
STEP               .m        0.2                           : Step increment
NULL               .         -9999                         : Missing value
COMP               .                                       : Company
WELL               .         101                           : Well name
FLD                .                                       : Field
LOC                .                                       : Location
PROV               .                                       : Province
SRVC               .                                       : Service Company
DATE               .         2021-05-13 14_16_41           : Date
UWI                .                                       : Unique Well ID
API                .                                       : API NUMBER
CNTY               .                                       : COUNTY
Cartographic_reference_system .         GCS_WGS_1984                  : GEOGCS["GCS_WGS_1984",DATUM["D_WGS_1984",SPHEROID["WGS_1984",6378137.0,298.257223563]],PRIMEM["Greenwich",0.0],UNIT["Degree",0.0174532925199433],AUTHORITY["EPSG",4326]]
CTRY               .                                       : COUNTRY
EREF               .m        137.7                         : 
HZCS               .GCS_WGS_1984 World_Mercator                : PROJCS["World_Mercator",GEOGCS["GCS_WGS_1984",DATUM["D_WGS_1984",SPHEROID["WGS_1984",6378137.0,298.257223563]],PRIMEM["Greenwich",0.0],UNIT["Degree",0.0174532925199433]],PROJECTION["Mercator"],PARAMETER["False_Easting",0.0],PARAMETER["False_Northing",0.0],PARAMETER["Central_Meridian",0.0],PARAMETER["Standard_Parallel_1",0.0],UNIT["Meter",1.0],AUTHORITY["ESRI",54004]]
LATI               .dega     2.1710182041                  : GCS_WGS_1984
LONG               .dega     2.0616605265                  : GCS_WGS_1984
ORIGINALWELLNAME   .         101                           : 
PROJECT_UPGRADE_TIME .         2014-05-27T11_38_46           : 
Pad                .         Пад1                          : 
STAT               .                                       : STATE
group              .         Pad1                          : 
Интер-р            .         Пузин                         : 
Куст               .         1                             : 
Статус             .         Не проверено                  : 
Тип                .         Разведка                      : 
~Parameter Information Block
#_______________________________________________________________________________
#
#PARAMETER_NAME    .UNIT     VALUE                         : DESCRIPTION
#_______________________________________________________________________________
SET                .         Gam                           : 
TLFamily_DEPT      .         Measured Depth                : 
TLFamily_GR_NORM   .         Gamma Ray                     : 
TLFamily_RHOB_NORM .         Bulk Density                  : 
TLFamily_RHOB_TL1  .         Bulk Density                  : 
TLFamily_SYNTH_Bulk_Density .         Bulk Density                  : 
TLFamily_SYNTH_Bulk_Density_MISFIT .                                       : 
TLFamily_TNPH_NORM .         Neutron Porosity              : 
~Curve Information
#_______________________________________________________________________________
#
#LOGNAME           .UNIT     LOG_ID                        : DESCRIPTION
#_______________________________________________________________________________
DEPT               .m                                      :  
GR_NORM            .gAPI                                   : Gamma Ray 
RHOB_NORM          .g/cm3                                  : Bulk Density 
RHOB_TL1           .g/cm3                                  :  
SYNTH_Bulk_Density .G/C3                                   : Bulk Density 
SYNTH_Bulk_Density_MISFIT .                                       : Synthetic Bulk Density Misfit 
TNPH_NORM          .v/v                                    : Thermal Neutron Porosity 
~Ascii
# ...
2674       51.87125   2.42271    2.474997   2.46486    0.04215    0.22363   
2674.2     56.71498   2.42143    2.461265   2.46618    0.04475    0.2401    
2674.4     66.27878   2.42298    2.436394   2.47335    0.05037    0.26996   
2674.6     73.151     2.40918    2.453687   2.48646    0.07727    0.27305   
2674.8     84.13676   2.50358    2.499939   2.4998     -0.00378   0.26069   
2675       88.53483   2.62165    2.513925   2.50081    -0.12085   0.25452   
2675.2     87.50174   2.62376    2.508767   2.50034    -0.12342   0.2576    
2675.4     87.18891000000001 2.6106     2.5112     2.50096    -0.10963   0.25555   
2675.6     86.40226   2.56819    2.514483   2.50116    -0.06703   0.25246   
2675.8     90.3169    2.48905    2.487182   2.49355    0.0045     0.27511   
2676       93.99464   2.49033    2.446016   2.46167    -0.02866   0.30394   
2676.2     96.8476    2.46675    2.430671   2.44492    -0.02183   0.31527   
2676.4     95.19835   2.45049    2.421887   2.44666    -0.00383   0.31835   
2676.6     90.04192999999999 2.41384    2.424759   2.45497    0.04113    0.31115   
2676.8     79.52066000000001 2.45862    2.434036   2.47354    0.01492    0.29261   
2677       67.91875   2.4238     2.438161   2.47611    0.05231    0.27202   
2677.2     59.36903   2.44729    2.432943   2.46943    0.02213    0.25863   
2677.4     55.53963   2.51884    2.44554    2.46265    -0.05619   0.24525   
2677.6     55.99446   2.52835    2.422471   2.45689    -0.07146   0.25657   
2677.8     56.47788   2.44793    2.424683   2.45856    0.01063    0.25658   
2678       54.29783   2.4663     2.421537   2.45613    -0.01017   0.25349   
2678.2     55.56795   2.45716    2.378289   2.43168    -0.02548   0.27408   
2678.4     57.83319   2.4695     2.407233   2.45859    -0.0109    0.26687   
2678.6     55.54898   2.46749    2.420362   2.45679    -0.0107    0.25658   
2678.8     54.421     2.44912    2.414966   2.45583    0.00671    0.25658   
2679       54.2125    2.47269    2.399251   2.44125    -0.03145   0.26275   
2679.2     56.91401   2.49152    2.374974   2.42237    -0.06915   0.2782    
2679.4     63.77641   2.46191    2.388478   2.43551    -0.0264    0.28643   
2679.6     67.90916   2.45451    2.411191   2.45669    0.00218    0.28438   
2679.8     69.34049   2.47132    2.405305   2.45118    -0.02014   0.28952   
2680       70.05139   2.50742    2.384174   2.43631    -0.07111   0.29982   
2680.2     69.05615   2.48366    2.340914   2.38108    -0.10258   0.31527   
2680.4     68.73381000000001 2.40434    2.342047   2.38315    -0.02119   0.31424   
2680.6     66.50639   2.3305     2.410107   2.45859    0.12809    0.28232   
2680.8     65.95659999999999 2.36266    2.450213   2.47372    0.11106    0.26275   
2681       67.36893999999999 2.42143    2.438302   2.47363    0.0522     0.27099   
2681.2     69.5016    2.42298    2.43308    2.47289    0.04991    0.27717   
2681.4     70.51573999999999 2.41969    2.461483   2.48286    0.06317    0.26481   
2681.6     67.51093   2.34265    2.459752   2.4781     0.13545    0.26069   
2681.8     52.37361   2.19799    2.368796   2.43361    0.23563    0.27099   
2682       39.17925   2.05122    2.200464   2.27122    0.22       0.29776   
2682.2     27.43513   1.93095    1.979812   1.99617    0.06521    0.3338    
2682.4     16.60129   1.77423    1.765111   1.75908    -0.01514   0.37395   
2682.6     18.12726   1.68101    1.837869   1.86232    0.18131    0.35233   
2682.8     38.61047   1.64985    2.212365   2.30109    0.65124    0.29261   
2683       56.47759   1.72506    2.44955    2.46312    0.73806    0.24525   
2683.2     56.28804   1.99082    2.474076   2.46691    0.47609    0.23289   
2683.4     47.34993   2.5807     2.461867   2.46006    -0.12064   0.22054   
2683.6     40.03244   2.6933     2.469051   2.45823    -0.23507   0.20097   
2683.8     42.27876   2.70372    2.497888   2.46102    -0.2427    0.19171   
2684       50.87594   2.62522    2.513718   2.46525    -0.15997   0.20097   
2684.2     58.76232   2.62951    2.492749   2.47429    -0.15522   0.22774   
2684.4     68.92335   2.58958    2.468307   2.48159    -0.10799   0.25863   
2684.6     76.43053999999999 2.53338    2.457364   2.48902    -0.04436   0.27614   
2684.8     82.02302   2.53301    2.490033   2.49817    -0.03484   0.26481   
2685       85.47324   2.51473    2.497354   2.49877    -0.01596   0.26378   
2685.2     86.07989999999999 2.53374    2.493633   2.49881    -0.03494   0.26687   
2685.4     86.07984999999999 2.57459    2.479163   2.49379    -0.0808    0.27614   
2685.6     83.75773   2.58062    2.4493     2.47747    -0.10315   0.29055   
2685.8     88.03252999999999 2.54581    2.439928   2.46705    -0.07876   0.30085   
2686       93.35003   2.54096    2.450301   2.46608    -0.07489   0.30085   
2686.2     95.51118   2.59881    2.432078   2.45026    -0.14855   0.31321   
2686.4     95.68188000000001 2.6265     2.389786   2.41774    -0.20876   0.33483   
2686.6     97.02784   2.59059    2.386405   2.40747    -0.18312   0.33792   
2686.8     98.90461999999999 2.62102    2.392728   2.40835    -0.21267   0.33689   
2687       96.99937   2.57998    2.399202   2.42046    -0.15953   0.33174   
2687.2     93.10357   2.60566    2.438919   2.45918    -0.14648   0.30703   
2687.4     86.36436   2.57605    2.477992   2.49148    -0.08458   0.27717   
2687.6     82.16526   2.55604    2.523253   2.50161    -0.05442   0.24216   
2687.8     81.62492   2.51254    2.537076   2.50144    -0.0111    0.23083   
2688       81.41637   2.46301    2.529088   2.50118    0.03817    0.23701   
2688.2     80.58223   2.46749    2.504946   2.49944    0.03195    0.25349   
2688.4     78.78142   2.50541    2.479972   2.49602    -0.0094    0.26687   
2688.6     81.02769000000001 2.55714    2.438319   2.47455    -0.08258   0.29261   
2688.8     77.65333   2.56545    2.408617   2.46132    -0.10413   0.30188   
2689       77.5301    2.50249    2.419328   2.46719    -0.0353    0.29673   
2689.2     77.02773000000001 2.51902    2.37075    2.43561    -0.08342   0.31732   
2689.4     76.03255   2.39557    2.348815   2.41803    0.02246    0.32453   
2689.6     77.43537000000001 2.36349    2.357255   2.42653    0.06304    0.3235    
2689.8     82.76235   2.46776    2.370068   2.43629    -0.03147   0.32659   
