~Version
 VERS              .         2.0                           : CWLS LOG ASCII STANDARD - VERSION 2.0
 WRAP              .         NO                            : ONE LINE PER DEPTH STEP
 DLM               .         SPACE                         : DELIMITING CHARACTER(SPACE TAB OR COMMA)
~Well Information
#_______________________________________________________________________________
#
#PARAMETER_NAME    .UNIT     VALUE                         : DESCRIPTION
#_______________________________________________________________________________
STRT               .m        2469                          : First reference value
STOP               .m        2689.8                        : Last reference value
STEP               .m        0.2                           : Step increment
NULL               .         -9999                         : Missing value
COMP               .                                       : Company
WELL               .         101                           : Well name
FLD                .                                       : Field
LOC                .                                       : Location
PROV               .                                       : Province
SRVC               .                                       : Service Company
DATE               .         2021-05-13 14_16_41           : Date
UWI                .                                       : Unique Well ID
API                .                                       : API NUMBER
CNTY               .                                       : COUNTY
Cartographic_reference_system .         GCS_WGS_1984                  : GEOGCS["GCS_WGS_1984",DATUM["D_WGS_1984",SPHEROID["WGS_1984",6378137.0,298.257223563]],PRIMEM["Greenwich",0.0],UNIT["Degree",0.0174532925199433],AUTHORITY["EPSG",4326]]
CTRY               .                                       : COUNTRY
EREF               .m        137.7                         : 
HZCS               .GCS_WGS_1984 World_Mercator                : PROJCS["World_Mercator",GEOGCS["GCS_WGS_1984",DATUM["D_WGS_1984",SPHEROID["WGS_1984",6378137.0,298.257223563]],PRIMEM["Greenwich",0.0],UNIT["Degree",0.0174532925199433]],PROJECTION["Mercator"],PARAMETER["False_Easting",0.0],PARAMETER["False_Northing",0.0],PARAMETER["Central_Meridian",0.0],PARAMETER["Standard_Parallel_1",0.0],UNIT["Meter",1.0],AUTHORITY["ESRI",54004]]
LATI               .dega     2.1710182041                  : GCS_WGS_1984
LONG               .dega     2.0616605265                  : GCS_WGS_1984
ORIGINALWELLNAME   .         101                           : 
PROJECT_UPGRADE_TIME .         2014-05-27T11_38_46           : 
Pad                .         Пад1                          : 
STAT               .                                       : STATE
group              .         Pad1                          : 
Интер-р            .         Пузин                         : 
Куст               .         1                             : 
Статус             .         Не проверено                  : 
Тип                .         Разведка                      : 
~Parameter Information Block
#_______________________________________________________________________________
#
#PARAMETER_NAME    .UNIT     VALUE                         : DESCRIPTION
#_______________________________________________________________________________
SET                .         Gam                           : 
TLFamily_DEPT      .         Measured Depth                : 
TLFamily_GR_NORM   .         Gamma Ray                     : 
TLFamily_RHOB_NORM .         Bulk Density                  : 
TLFamily_RHOB_TL1  .         Bulk Density                  : 
TLFamily_SYNTH_Bulk_Density .         Bulk Density                  : 
TLFamily_SYNTH_Bulk_Density_MISFIT .                                       : 
TLFamily_TNPH_NORM .         Neutron Porosity              : 
~Curve Information
#_______________________________________________________________________________
#
#LOGNAME           .UNIT     LOG_ID                        : DESCRIPTION
#_______________________________________________________________________________
DEPT               .m                                      :  
GR_NORM            .gAPI                                   : Gamma Ray 
RHOB_NORM          .g/cm3                                  : Bulk Density 
RHOB_TL1           .g/cm3                                  :  
SYNTH_Bulk_Density .G/C3                                   : Bulk Density 
SYNTH_Bulk_Density_MISFIT .                                       : Synthetic Bulk Density Misfit 
TNPH_NORM          .v/v                                    : Thermal Neutron Porosity 
~Ascii
# ...
2508.4     68.59168   2.48421    2.473074   2.48133    -0.00288   0.25555   
2508.6     67.42581   2.497      2.469414   2.479      -0.018     0.25555   
2508.8     67.91869   2.50157    2.470981   2.48013    -0.02145   0.25555   
2509       67.48267   2.45369    2.47541    2.48023    0.02654    0.25246   
2509.2     66.69593999999999 2.42298    2.46105    2.47708    0.0541     0.25863   
2509.4     68.52533   2.40589    2.482329   2.4816     0.07571    0.2504    
2509.6     70.50637   2.43002    2.503548   2.4863     0.05629    0.24113   
2509.8     71.16043000000001 2.42572    2.49664    2.48787    0.06215    0.24628   
2510       71.99454   2.44793    2.491783   2.489      0.04107    0.2504    
2510.2     72.06089   2.42737    2.488424   2.48882    0.06145    0.25246   
2510.4     72.84761   2.43386    2.477852   2.48997    0.05612    0.25966   
2510.6     70.95187   2.3952     2.480002   2.48625    0.09105    0.25555   
2510.8     67.58696   2.41594    2.483286   2.48041    0.06446    0.24834   
2511       66.73385   2.37372    2.469141   2.47769    0.10397    0.25452   
2511.2     67.91869   2.44053    2.459093   2.47809    0.03757    0.26172   
2511.4     74.01351   2.42819    2.479116   2.49128    0.06309    0.26069   
2511.6     82.83816   2.48951    2.478175   2.49609    0.00658    0.27305   
2511.8     88.68651   2.47461    2.454417   2.47425    -0.00036   0.29364   
2512       86.81925   2.47927    2.43517    2.467      -0.01227   0.30188   
2512.2     83.66284   2.44345    2.462178   2.48508    0.04163    0.28335   
2512.4     79.19835   2.44976    2.475607   2.49564    0.04588    0.26996   
2512.6     70.61064   2.47553    2.489963   2.48555    0.01002    0.24937   
2512.8     60.51586   2.52049    2.48152    2.47567    -0.04482   0.23701   
2513       58.04188   2.44208    2.474634   2.4706     0.02852    0.23598   
2513.2     57.89968   2.46356    2.467997   2.47008    0.00652    0.23907   
2513.4     54.45892   2.38962    2.424661   2.45777    0.06814    0.25246   
2513.6     51.7954    2.34028    2.404253   2.45312    0.11285    0.25555   
2513.8     50.91388   2.3146     2.397128   2.45001    0.13541    0.25658   
2514       51.27406   2.32035    2.383731   2.43863    0.11827    0.26275   
2514.2     50.91387   2.374      2.379138   2.43707    0.06307    0.26378   
2514.4     49.18876   2.36714    2.316225   2.36136    -0.00579   0.28335   
2514.6     50.8286    2.34832    2.294411   2.31246    -0.03586   0.29467   
2514.8     57.02762   2.374      2.359735   2.39017    0.01618    0.28438   
2515       60.54426   2.39931    2.405401   2.46177    0.06245    0.27305   
2515.2     65.30257   2.48174    2.441396   2.47181    -0.00993   0.26584   
2515.4     71.09403   2.48796    2.457317   2.48383    -0.00412   0.2679    
2515.6     71.06555   2.51939    2.434326   2.47535    -0.04404   0.27923   
2515.8     62.41157   2.46063    2.413788   2.46495    0.00431    0.27305   
2516       57.35941   2.42929    2.41223    2.45558    0.0263     0.26378   
2516.2     57.56793   2.41503    2.42033    2.46018    0.04515    0.26069   
2516.4     60.22197   2.41275    2.420567   2.46578    0.05303    0.26584   
2516.6     62.52536   2.44071    2.428147   2.46933    0.02862    0.26687   
2516.8     72.42103   2.4154     2.499707   2.49001    0.07461    0.24628   
2517       75.53955000000001 2.51281    2.534711   2.49563    -0.01718   0.22671   
2517.2     70.02296   2.48896    2.5504     2.48686    -0.00211   0.20818   
2517.4     57.312     2.52506    2.55753    2.47647    -0.04859   0.1845    
2517.6     44.83805   2.57386    2.559208   2.50095    -0.07291   0.16082   
2517.8     38.40203   2.57441    2.561249   2.52901    -0.0454    0.1464    
2518       40.76215   2.54964    2.557748   2.51807    -0.03157   0.15361   
2518.2     41.49202   2.51181    2.526794   2.47358    -0.03823   0.1742    
2518.4     44.52522   2.4673     2.483235   2.45899    -0.00831   0.20406   
2518.6     49.36882   2.41549    2.416333   2.45299    0.0375     0.24525   
2518.8     51.86175   2.38277    2.414412   2.45519    0.07242    0.25143   
2519       56.34517   2.38926    2.419387   2.45346    0.0642     0.25863   
2519.2     60.4305    2.42362    2.387601   2.44497    0.02135    0.28026   
2519.4     65.35945   2.46593    2.395621   2.43987    -0.02606   0.28644   
2519.6     74.44954   2.50651    2.437206   2.47658    -0.02993   0.28335   
2519.8     84.86658   2.53155    2.46295    2.48424    -0.0473    0.28438   
2520       87.30267000000001 2.53228    2.451607   2.47441    -0.05787   0.29364   
2520.2     87.31214   2.5172     2.455313   2.47605    -0.04115   0.29158   
2520.4     84.45905   2.45213    2.454725   2.48037    0.02824    0.28849   
2520.6     79.56798000000001 2.41238    2.452254   2.48305    0.07067    0.28335   
2520.8     66.5064    2.42499    2.412446   2.45986    0.03487    0.28129   
2521       57.92815   2.36714    2.364563   2.4014     0.03425    0.28438   
2521.2     55.30251   2.35947    2.3637     2.41079    0.05132    0.27923   
2521.4     51.55843   2.36888    2.358785   2.42477    0.0559     0.27305   
2521.6     48.96126   2.32127    2.305993   2.34604    0.02477    0.28643   
2521.8     46.34519   2.36038    2.332656   2.42288    0.0625     0.27099   
2522       51.33093   2.36513    2.409277   2.45351    0.08838    0.25246   
2522.2     56.36413   2.41073    2.455578   2.46618    0.05545    0.24216   
2522.4     62.44948   2.44893    2.472505   2.47612    0.02718    0.24525   
2522.6     69.84282   2.49134    2.457338   2.4814     -0.00993   0.26584   
2522.8     70.59164   2.4344     2.44334    2.47914    0.04473    0.27408   
2523       66.07983   2.427      2.415337   2.46177    0.03476    0.27923   
2523.2     65.47318   2.42289    2.435503   2.4731     0.05021    0.26893   
2523.4     66.78126   2.40891    2.461339   2.47708    0.06817    0.25863   
2523.6     71.11308   2.47809    2.480452   2.48625    0.00817    0.25555   
2523.8     83.10357   2.54855    2.521664   2.5015     -0.04705   0.24422   
2524       90.70552000000001 2.57788    2.537087   2.50188    -0.076     0.23598   
2524.2     93.42592999999999 2.62915    2.538585   2.50128    -0.12786   0.23495   
2524.4     93.80507   2.617      2.538592   2.50086    -0.11613   0.23495   
2524.6     92.93302   2.57258    2.535425   2.50157    -0.07101   0.23804   
2524.8     90.26004   2.58638    2.528984   2.5016     -0.08478   0.24319   
2525       87.87139999999999 2.5639     2.519929   2.50108    -0.06282   0.24937   
2525.2     87.43537000000001 2.57605    2.51284    2.50096    -0.07509   0.25452   
2525.4     87.32162   2.48119    2.50284    2.49905    0.01786    0.26172   
2525.6     86.05145   2.549      2.49359    2.49881    -0.0502    0.26687   
2525.8     80.12727   2.51811    2.492995   2.49798    -0.02014   0.26069   
2526       71.83342   2.51601    2.48961    2.48896    -0.02706   0.25143   
2526.2     66.79071999999999 2.50404    2.490154   2.47909    -0.02495   0.24319   
2526.4     64.62013   2.4472     2.479773   2.47678    0.02959    0.24525   
2526.6     71.51112999999999 2.45944    2.490547   2.48849    0.02905    0.2504    
2526.8     79.00872   2.47361    2.502148   2.49871    0.0251     0.25349   
2527       77.66282   2.46045    2.505945   2.49843    0.03798    0.24937   
2527.2     77.35001   2.49819    2.51311    2.49888    0.00068    0.24422   
2527.4     76.78128   2.48622    2.512081   2.49773    0.01151    0.24422   
2527.6     72.59171000000001 2.46721    2.496717   2.49001    0.0228     0.24834   
2527.8     69.7955    2.42993    2.49663    2.48458    0.05466    0.24422   
2528       69.86183   2.39831    2.505339   2.48493    0.08663    0.23907   
2528.2     72.7718    2.40936    2.515121   2.49195    0.08259    0.23701   
2528.4     73.97559   2.46621    2.519052   2.49343    0.02723    0.23598   
2528.6     74.59175   2.48741    2.514103   2.49409    0.00668    0.2401    
2528.8     81.35003   2.48129    2.519409   2.50069    0.0194     0.24422   
