~Version
 VERS              .         2.0                           : CWLS LOG ASCII STANDARD - VERSION 2.0
 WRAP              .         NO                            : ONE LINE PER DEPTH STEP
 DLM               .         SPACE                         : DELIMITING CHARACTER(SPACE TAB OR COMMA)
~Well Information
#_______________________________________________________________________________
#
#PARAMETER_NAME    .UNIT     VALUE                         : DESCRIPTION
#_______________________________________________________________________________
STRT               .m        2469                          : First reference value
STOP               .m        2689.8                        : Last reference value
STEP               .m        0.2                           : Step increment
NULL               .         -9999                         : Missing value
COMP               .                                       : Company
WELL               .         101                           : Well name
FLD                .                                       : Field
LOC                .                                       : Location
PROV               .                                       : Province
SRVC               .                                       : Service Company
DATE               .         2021-05-13 14_16_41           : Date
UWI                .                                       : Unique Well ID
API                .                                       : API NUMBER
CNTY               .                                       : COUNTY
Cartographic_reference_system .         GCS_WGS_1984                  : GEOGCS["GCS_WGS_1984",DATUM["D_WGS_1984",SPHEROID["WGS_1984",6378137.0,298.257223563]],PRIMEM["Greenwich",0.0],UNIT["Degree",0.0174532925199433],AUTHORITY["EPSG",4326]]
CTRY               .                                       : COUNTRY
EREF               .m        137.7                         : 
HZCS               .GCS_WGS_1984 World_Mercator                : PROJCS["World_Mercator",GEOGCS["GCS_WGS_1984",DATUM["D_WGS_1984",SPHEROID["WGS_1984",6378137.0,298.257223563]],PRIMEM["Greenwich",0.0],UNIT["Degree",0.0174532925199433]],PROJECTION["Mercator"],PARAMETER["False_Easting",0.0],PARAMETER["False_Northing",0.0],PARAMETER["Central_Meridian",0.0],PARAMETER["Standard_Parallel_1",0.0],UNIT["Meter",1.0],AUTHORITY["ESRI",54004]]
LATI               .dega     2.1710182041                  : GCS_WGS_1984
LONG               .dega     2.0616605265                  : GCS_WGS_1984
ORIGINALWELLNAME   .         101                           : 
PROJECT_UPGRADE_TIME .         2014-05-27T11_38_46           : 
Pad                .         Пад1                          : 
STAT               .                                       : STATE
group              .         Pad1                          : 
Интер-р            .         Пузин                         : 
Куст               .         1                             : 
Статус             .         Не проверено                  : 
Тип                .         Разведка                      : 
~Parameter Information Block
#_______________________________________________________________________________
#
#PARAMETER_NAME    .UNIT     VALUE                         : DESCRIPTION
#_______________________________________________________________________________
SET                .         Gam                           : 
TLFamily_DEPT      .         Measured Depth                : 
TLFamily_GR_NORM   .         Gamma Ray                     : 
TLFamily_RHOB_NORM .         Bulk Density                  : 
TLFamily_RHOB_TL1  .         Bulk Density                  : 
TLFamily_SYNTH_Bulk_Density .         Bulk Density                  : 
TLFamily_SYNTH_Bulk_Density_MISFIT .                                       : 
TLFamily_TNPH_NORM .         Neutron Porosity              : 
~Curve Information
#_______________________________________________________________________________
#
#LOGNAME           .UNIT     LOG_ID                        : DESCRIPTION
#_______________________________________________________________________________
DEPT               .m                                      :  
GR_NORM            .gAPI                                   : Gamma Ray 
RHOB_NORM          .g/cm3                                  : Bulk Density 
RHOB_TL1           .g/cm3                                  :  
SYNTH_Bulk_Density .G/C3                                   : Bulk Density 
SYNTH_Bulk_Density_MISFIT .                                       : Synthetic Bulk Density Misfit 
TNPH_NORM          .v/v                                    : Thermal Neutron Porosity 
~Ascii
# ...
2653.4     91.18899999999999 2.4811     2.480551   2.48941    0.00831    0.28026   
2653.6     92.44958   2.4705     2.472699   2.4814     0.0109     0.28643   
2653.8     91.23633   2.47169    2.502818   2.49833    0.02664    0.26481   
2654       84.26000999999999 2.44674    2.525635   2.50187    0.05513    0.24216   
2654.2     77.06578   2.46968    2.540811   2.49904    0.02936    0.22363   
2654.4     74.04203   2.48978    2.5406     2.49429    0.00451    0.22054   
2654.6     73.76707   2.47973    2.538831   2.49365    0.01392    0.22157   
2654.8     74.38318   2.50322    2.538412   2.49437    -0.00885   0.2226    
2655       72.26931999999999 2.46347    2.543273   2.4919     0.02843    0.21642   
2655.2     62.48753   2.43788    2.543145   2.47966    0.04178    0.20303   
2655.4     57.51118   2.40279    2.529211   2.47348    0.07069    0.20406   
2655.6     56.3738    2.40626    2.50329    2.46926    0.06301    0.21745   
2655.8     66.49687   2.37473    2.496512   2.47936    0.10464    0.23907   
2656       66.10816   2.32556    2.478769   2.47805    0.15248    0.24834   
2656.2     58.17435   2.23509    2.469045   2.47098    0.23589    0.23907   
2656.4     42.24105   2.12268    2.397381   2.45337    0.33068    0.23701   
2656.6     32.21247   1.95407    2.302237   2.43782    0.48375    0.24731   
2656.8     28.07015   1.83673    2.143512   2.33777    0.50103    0.28644   
2657       16.2975    1.71821    1.873694   1.99307    0.27486    0.33483   
2657.2     -2.83015   1.6652     1.644511   1.83522    0.17002    0.35748   
2657.4     -11.5411   1.63002    1.558086   1.76481    0.1348     0.36778   
2657.6     -10.89673  1.63212    1.545048   1.7596     0.12748    0.3791    
2657.8     -2.33758   1.63358    1.6094     1.7596     0.12602    0.37705   
2658       8.032120000000001 1.64464    1.681771   1.75857    0.11393    0.38013   
2658.2     17.24561   1.65899    1.77039    1.75908    0.1001     0.37396   
2658.4     31.98478   1.68266    1.902193   1.77002    0.08736    0.37087   
2658.6     44.43032   1.76024    1.997244   1.81735    0.0571     0.37293   
2658.8     51.17927   1.83865    2.137065   2.00427    0.16562    0.34616   
2659       57.44464   2.08028    2.223879   2.18413    0.10385    0.33277   
2659.2     59.55858   2.00818    2.289502   2.30606    0.29789    0.31527   
2659.4     65.76716999999999 1.91726    2.411711   2.46003    0.54277    0.28026   
2659.6     77.03711   2.32419    2.489926   2.4969     0.17271    0.25863   
2659.8     82.80974999999999 2.55101    2.529341   2.50185    -0.04916   0.23804   
2660       85.54904999999999 2.5522     2.526891   2.5021     -0.0501    0.24216   
2660.2     84.53480999999999 2.51355    2.516495   2.50116    -0.01238   0.24937   
2660.4     80.86659   2.52917    2.527074   2.50056    -0.02861   0.23804   
2660.6     76.00396000000001 2.5034     2.524162   2.49701    -0.00639   0.23495   
2660.8     66.81917   2.44957    2.504382   2.47936    0.02979    0.23495   
2661       59.22681   2.4228     2.472977   2.47234    0.04955    0.23907   
2661.2     59.38809   2.44098    2.483432   2.47286    0.03188    0.23392   
2661.4     68.16513   2.46932    2.51118    2.4819     0.01258    0.23289   
2661.6     76.9991    2.52131    2.532746   2.49885    -0.02247   0.2298    
2661.8     73.40685999999999 2.56701    2.523995   2.49294    -0.07407   0.23186   
2662       59.34059   2.54261    2.463186   2.47136    -0.07125   0.24422   
2662.2     54.75288   2.51236    2.450961   2.46475    -0.04761   0.24113   
2662.4     54.47794   2.45917    2.449775   2.46475    0.00558    0.24113   
2662.6     56.43985   2.52369    2.462267   2.46627    -0.05742   0.23907   
2662.8     51.32145   2.53347    2.470652   2.4646     -0.06886   0.22466   
2663       43.18882   2.5459     2.464416   2.4583     -0.08759   0.21024   
2663.2     42.51588   2.5681     2.480601   2.45875    -0.10935   0.20097   
2663.4     47.43526   2.56271    2.481279   2.46162    -0.10109   0.21127   
2663.6     55.22671   2.45387    2.463683   2.46599    0.01212    0.23598   
2663.8     64.78122   2.49609    2.495155   2.47728    -0.01881   0.23701   
2664       80.33574   2.54041    2.530446   2.50024    -0.04017   0.23495   
2664.2     91.21726   2.59259    2.527096   2.50126    -0.09133   0.24525   
2664.4     98.08919   2.5999     2.516407   2.49467    -0.10524   0.25658   
2664.6     96.98029   2.53118    2.497658   2.49254    -0.03864   0.27202   
2664.8     86.38325   2.43751    2.471241   2.48896    0.05145    0.28129   
2665       80.02306   2.45424    2.482693   2.49677    0.04253    0.26687   
2665.2     77.43526   2.52442    2.478624   2.49586    -0.02855   0.26584   
2665.4     72.68649000000001 2.55741    2.468004   2.48847    -0.06894   0.26481   
2665.6     68.13669   2.45743    2.465811   2.47951    0.02208    0.25863   
2665.8     62.37365   2.41704    2.464179   2.47577    0.05873    0.24937   
2666       63.32153   2.47799    2.481305   2.47666    -0.00133   0.24216   
2666.2     65.78598   2.48001    2.513493   2.4802     0.00019    0.22775   
2666.4     68.63909   2.53822    2.521909   2.48459    -0.05363   0.22672   
2666.6     71.82397   2.53429    2.526962   2.49106    -0.04323   0.22774   
2666.8     78.31684   2.54261    2.527751   2.49923    -0.04338   0.23495   
2667       82.33575   2.58803    2.516504   2.50091    -0.08712   0.24731   
2667.2     82.24097   2.58967    2.513504   2.50091    -0.08876   0.24937   
2667.4     80.23144000000001 2.54891    2.528973   2.50024    -0.04867   0.23598   
2667.6     74.88549999999999 2.53731    2.533709   2.49475    -0.04256   0.22671   
2667.8     66.16513   2.496      2.528795   2.48137    -0.01463   0.21848   
2668       63.60587   2.54516    2.529045   2.47951    -0.06566   0.21436   
2668.2     60.45874   2.58291    2.524221   2.47826    -0.10465   0.2123    
2668.4     50.40206   2.57652    2.526193   2.46685    -0.10966   0.19274   
2668.6     41.58686   2.7071     2.545972   2.49287    -0.21423   0.16288   
2668.8     35.19816   2.77299    2.555475   2.55082    -0.22217   0.14331   
2669       37.92805   2.76203    2.56744    2.54842    -0.2136    0.14125   
2669.2     42.7528    2.70336    2.559183   2.50922    -0.19414   0.1567    
2669.4     51.46364   2.73488    2.553433   2.47671    -0.25816   0.17729   
2669.6     60.80965   2.57733    2.525159   2.47856    -0.09878   0.2123    
2669.8     70.85708   2.54571    2.522023   2.48805    -0.05766   0.2298    
2670       74.81913   2.5268     2.530802   2.49444    -0.03235   0.22877   
2670.2     75.12262   2.49554    2.516655   2.49482    -0.00073   0.23907   
2670.4     79.05623   2.52342    2.487485   2.49633    -0.02709   0.26275   
2670.6     84.62956   2.57422    2.46063    2.48218    -0.09204   0.28541   
2670.8     83.38796000000001 2.53539    2.454137   2.48092    -0.05447   0.28746   
2671       69.71965   2.46685    2.464918   2.48179    0.01494    0.26172   
2671.2     55.44475   2.35673    2.474891   2.46739    0.11066    0.23083   
2671.4     42.30751   2.32556    2.444291   2.45764    0.13208    0.21745   
2671.6     38.90442   2.33315    2.423687   2.45514    0.122      0.21848   
2671.8     40.41145   2.35618    2.422247   2.45602    0.09984    0.2226    
2672       41.49198   2.40562    2.42816    2.45655    0.05093    0.2226    
2672.2     40.11761   2.39776    2.400443   2.45457    0.05681    0.23083   
2672.4     38.81912   2.40388    2.363016   2.44954    0.04566    0.24216   
2672.6     40.58201   2.39584    2.387554   2.45337    0.05753    0.23701   
2672.8     38.54414   2.39739    2.406569   2.45349    0.05609    0.22466   
2673       38.76219   2.40927    2.410388   2.45405    0.04478    0.22363   
2673.2     41.70054   2.44857    2.419553   2.45645    0.00788    0.22671   
2673.4     44.22185   2.47407    2.433034   2.45645    -0.01762   0.22671   
2673.6     45.44468   2.50322    2.436929   2.45763    -0.04559   0.22774   
2673.8     49.03709   2.50267    2.465092   2.46166    -0.04101   0.2226    
