~Version
 VERS              .         2.0                           : CWLS LOG ASCII STANDARD - VERSION 2.0
 WRAP              .         NO                            : ONE LINE PER DEPTH STEP
 DLM               .         SPACE                         : DELIMITING CHARACTER(SPACE TAB OR COMMA)
~Well Information
#_______________________________________________________________________________
#
#PARAMETER_NAME    .UNIT     VALUE                         : DESCRIPTION
#_______________________________________________________________________________
STRT               .m        2469                          : First reference value
STOP               .m        2689.8                        : Last reference value
STEP               .m        0.2                           : Step increment
NULL               .         -9999                         : Missing value
COMP               .                                       : Company
WELL               .         101                           : Well name
FLD                .                                       : Field
LOC                .                                       : Location
PROV               .                                       : Province
SRVC               .                                       : Service Company
DATE               .         2021-05-13 14_16_41           : Date
UWI                .                                       : Unique Well ID
API                .                                       : API NUMBER
CNTY               .                                       : COUNTY
Cartographic_reference_system .         GCS_WGS_1984                  : GEOGCS["GCS_WGS_1984",DATUM["D_WGS_1984",SPHEROID["WGS_1984",6378137.0,298.257223563]],PRIMEM["Greenwich",0.0],UNIT["Degree",0.0174532925199433],AUTHORITY["EPSG",4326]]
CTRY               .                                       : COUNTRY
EREF               .m        137.7                         : 
HZCS               .GCS_WGS_1984 World_Mercator                : PROJCS["World_Mercator",GEOGCS["GCS_WGS_1984",DATUM["D_WGS_1984",SPHEROID["WGS_1984",6378137.0,298.257223563]],PRIMEM["Greenwich",0.0],UNIT["Degree",0.0174532925199433]],PROJECTION["Mercator"],PARAMETER["False_Easting",0.0],PARAMETER["False_Northing",0.0],PARAMETER["Central_Meridian",0.0],PARAMETER["Standard_Parallel_1",0.0],UNIT["Meter",1.0],AUTHORITY["ESRI",54004]]
LATI               .dega     2.1710182041                  : GCS_WGS_1984
LONG               .dega     2.0616605265                  : GCS_WGS_1984
ORIGINALWELLNAME   .         101                           : 
PROJECT_UPGRADE_TIME .         2014-05-27T11_38_46           : 
Pad                .         Пад1                          : 
STAT               .                                       : STATE
group              .         Pad1                          : 
Интер-р            .         Пузин                         : 
Куст               .         1                             : 
Статус             .         Не проверено                  : 
Тип                .         Разведка                      : 
~Parameter Information Block
#_______________________________________________________________________________
#
#PARAMETER_NAME    .UNIT     VALUE                         : DESCRIPTION
#_______________________________________________________________________________
SET                .         Gam                           : 
TLFamily_DEPT      .         Measured Depth                : 
TLFamily_GR_NORM   .         Gamma Ray                     : 
TLFamily_RHOB_NORM .         Bulk Density                  : 
TLFamily_RHOB_TL1  .         Bulk Density                  : 
TLFamily_SYNTH_Bulk_Density .         Bulk Density                  : 
TLFamily_SYNTH_Bulk_Density_MISFIT .                                       : 
TLFamily_TNPH_NORM .         Neutron Porosity              : 
~Curve Information
#_______________________________________________________________________________
#
#LOGNAME           .UNIT     LOG_ID                        : DESCRIPTION
#_______________________________________________________________________________
DEPT               .m                                      :  
GR_NORM            .gAPI                                   : Gamma Ray 
RHOB_NORM          .g/cm3                                  : Bulk Density 
RHOB_TL1           .g/cm3                                  :  
SYNTH_Bulk_Density .G/C3                                   : Bulk Density 
SYNTH_Bulk_Density_MISFIT .                                       : Synthetic Bulk Density Misfit 
TNPH_NORM          .v/v                                    : Thermal Neutron Porosity 
~Ascii
2469.0     74.34526062011719 -9999      2.412846   2.46184    -9999      0.29467   
2469.2     76.89502716064453 -9999      2.423792   2.46873    -9999      0.29364   
2469.4     78.76233673095703 -9999      2.438014   2.47417    -9999      0.28952   
2469.6     78.03249359130859 -9999      2.435851   2.47402    -9999      0.28952   
2469.8     74.62962341308594 -9999      2.404737   2.45682    -9999      0.29879   
2470       70.51586151123047 -9999      2.388585   2.44385    -9999      0.29879   
2470.2     67.56797790527344 -9999      2.39555    2.44261    -9999      0.29055   
2470.4     67.39736175537109 -9999      2.402033   2.44872    -9999      0.28746   
2470.6     69.35945129394531 -9999      2.414648   2.4592     -9999      0.28541   
2470.8     69.79547882080078 -9999      2.411772   2.45937    -9999      0.28746   
2471       68.94239044189453 -9999      2.42213    2.46831    -9999      0.28129   
2471.2     67.87129211425781 -9999      2.435817   2.47391    -9999      0.27305   
2471.4     67.64380645751953 -9999      2.43715    2.4746     -9999      0.27202   
2471.6     70.27887725830078 -9999      2.427137   2.47105    -9999      0.28129   
2471.8     73.435302734375 -9999      2.407233   2.45795    -9999      0.2957    
2472       74.16516876220703 -9999      2.427731   2.47136    -9999      0.28746   
2472.2     75.38791656494141 -9999      2.44019    2.47782    -9999      0.28335   
2472.4     76.23152923583984 -9999      2.432378   2.47506    -9999      0.28849   
2472.6     74.60118865966797 -9999      2.429199   2.4721     -9999      0.28746   
2472.8     74.39264678955078 -9999      2.445343   2.48268    -9999      0.27923   
2473       74.65805816650391 -9999      2.456219   2.48718    -9999      0.27408   
2473.2     72.8665771484375 -9999      2.456818   2.48718    -9999      0.27099   
2473.4     70.28836822509766 -9999      2.440182   2.47616    -9999      0.27511   
2473.6     73.97560119628906 -9999      2.437774   2.47877    -9999      0.28232   
2473.8     81.58701324462891 -9999      2.462982   2.48886    -9999      0.28026   
2474       82.65809631347656 -9999      2.456172   2.48197    -9999      0.28541   
2474.2     82.62017822265625 -9999      2.434534   2.47116    -9999      0.29673   
2474.4     81.0941162109375 -9999      2.410971   2.45868    -9999      0.306     
2474.6     77.29313659667969 -9999      2.379143   2.44101    -9999      0.31424   
2474.8     77.45427703857422 -9999      2.369943   2.43687    -9999      0.31835   
2475       77.37846374511719 -9999      2.396167   2.4535     -9999      0.30703   
2475.2     76.72441864013672 -9999      2.412188   2.46216    -9999      0.29879   
2475.4     75.21730041503906 -9999      2.433346   2.47457    -9999      0.28644   
2475.6     71.52060699462891 -9999      2.448521   2.48335    -9999      0.27305   
2475.8     70.36419677734375 -9999      2.434009   2.47402    -9999      0.2782    
2476       72.23150634765625 -9999      2.383476   2.43868    -9999      0.30394   
2476.2     73.59644317626953 -9999      2.384142   2.44054    -9999      0.306     
2476.4     76.62963104248047 -9999      2.409608   2.45932    -9999      0.29982   
2476.6     76.16517639160156 -9999      2.410249   2.46166    -9999      0.29879   
2476.8     76.99931335449219 -9999      2.394792   2.45094    -9999      0.30703   
2477       79.69125366210938 -9999      2.366156   2.42972    -9999      0.3235    
2477.2     77.96611785888672 -9999      2.388878   2.4447     -9999      0.31115   
2477.4     74.47798156738281 -9999      2.387639   2.44343    -9999      0.306     
2477.6     75.44479370117188 -9999      2.396104   2.44906    -9999      0.30394   
2477.8     78.03249359130859 -9999      2.412144   2.46163    -9999      0.30085   
2478       76.74337768554688 -9999      2.410002   2.45969    -9999      0.29982   
2478.2     76.66754913330078 -9999      2.395927   2.45059    -9999      0.306     
2478.4     77.25523376464844 -9999      2.351366   2.42532    -9999      0.32556   
2478.6     77.17939758300781 -9999      2.343213   2.41087    -9999      0.32865   
2478.8     77.62490081787109 -9999      2.337174   2.4017     -9999      0.33174   
2479       79.20784759521484 -9999      2.319726   2.37894    -9999      0.34101   
2479.2     77.44480133056641 -9999      2.341705   2.4115     -9999      0.32968   
2479.4     74.66754150390625 -9999      2.390778   2.44653    -9999      0.30497   
2479.6     75.10356140136719 -9999      2.406468   2.45758    -9999      0.29879   
2479.8     75.53009796142578 -9999      2.410277   2.45927    -9999      0.29776   
2480       74.39264678955078 -9999      2.403862   2.45634    -9999      0.29879   
2480.2     72.69596099853516 -9999      2.404443   2.45671    -9999      0.2957    
2480.4     71.0277099609375 -9999      2.39312    2.44713    -9999      0.29776   
2480.6     73.21730041503906 -9999      2.387482   2.44435    -9999      0.30394   
2480.8     78.07987213134766 -9999      2.389293   2.4447     -9999      0.31115   
2481       79.92823028564453 -9999      2.40271    2.45585    -9999      0.30806   
2481.2     78.58223724365234 -9999      2.413965   2.46163    -9999      0.30085   
2481.4     75.05618286132813 -9999      2.406296   2.45682    -9999      0.29879   
2481.6     74.84763336181641 -9999      2.396215   2.45073    -9999      0.30291   
2481.8     75.113037109375 -9999      2.401886   2.45413    -9999      0.30085   
2482       76.42109680175781 -9999      2.426574   2.47009    -9999      0.29158   
2482.2     76.66754150390625 -9999      2.439992   2.47761    -9999      0.28541   
2482.4     73.95664215087891 -9999      2.415963   2.46541    -9999      0.29261   
2482.6     74.89502716064453 -9999      2.34652    2.40549    -9999      0.3235    
2482.8     75.88081359863281 -9999      2.361078   2.42377    -9999      0.31938   
2483       76.80972290039063 -9999      2.414715   2.46362    -9999      0.29776   
2483.2     77.68177032470703 -9999      2.426321   2.47039    -9999      0.29364   
2483.4     76.37371063232422 -9999      2.408714   2.45919    -9999      0.29982   
2483.6     77.50167083740234 -9999      2.423591   2.46932    -9999      0.29467   
2483.8     77.98509216308594 -9999      2.441865   2.47918    -9999      0.28644   
2484       75.36897277832031 -9999      2.442201   2.48027    -9999      0.28232   
2484.2     75.67228698730469 -9999      2.445183   2.48256    -9999      0.28129   
2484.4     78.55380249023438 -9999      2.431152   2.47226    -9999      0.29261   
2484.6     77.68177032470703 -9999      2.410964   2.46163    -9999      0.30085   
2484.8     78.03249359130859 -9999      2.403103   2.45575    -9999      0.30497   
2485       76.22205352783203 -9999      2.434461   2.47578    -9999      0.28746   
2485.2     73.69123840332031 -9999      2.461247   2.48865    -9999      0.26996   
2485.4     72.18412017822266 -9999      2.448614   2.48279    -9999      0.27408   
2485.6     73.18885803222656 -9999      2.417697   2.46604    -9999      0.29055   
2485.8     77.36897277832031 -9999      2.438001   2.47747    -9999      0.28746   
2486       80.98036193847656 -9999      2.448168   2.47947    -9999      0.28746   
2486.2     80.61068725585938 -9999      2.433049   2.47099    -9999      0.29467   
2486.4     81.37847900390625 0.17943    2.41186    2.45893    2.2795     0.306     
2486.6     84.26949310302734 0.17943    2.420384   2.46053    2.2811     0.306     
2486.8     84.1177978515625 0.17944    2.426251   2.46469    2.28525    0.30291   
2487       80.84765625 2.3506     2.43578    2.4722     0.1216     0.29364   
2487.2     78.22206115722656 2.39319    2.438484   2.47675    0.08357    0.28849   
2487.4     73.22676849365234 2.43989    2.408756   2.45997    0.02008    0.29467   
2487.6     67.09403991699219 2.49125    2.388608   2.43566    -0.05559   0.29261   
2487.8     67.85236358642578 2.55394    2.364264   2.40796    -0.14597   0.30394   
2488       73.35948181152344 2.6148     2.380734   2.4392     -0.1756    0.30703   
