~Version
 VERS              .         2.0                           : CWLS LOG ASCII STANDARD - VERSION 2.0
 WRAP              .         NO                            : ONE LINE PER DEPTH STEP
 DLM               .         SPACE                         : DELIMITING CHARACTER(SPACE TAB OR COMMA)
~Well Information
#_______________________________________________________________________________
#
#PARAMETER_NAME    .UNIT     VALUE                         : DESCRIPTION
#_______________________________________________________________________________
STRT               .m        2469                          : First reference value
STOP               .m        2689.8                        : Last reference value
STEP               .m        0.2                           : Step increment
NULL               .         -9999                         : Missing value
COMP               .                                       : Company
WELL               .         101                           : Well name
FLD                .                                       : Field
LOC                .                                       : Location
PROV               .                                       : Province
SRVC               .                                       : Service Company
DATE               .         2021-05-13 14_16_41           : Date
UWI                .                                       : Unique Well ID
API                .                                       : API NUMBER
CNTY               .                                       : COUNTY
Cartographic_reference_system .         GCS_WGS_1984                  : GEOGCS["GCS_WGS_1984",DATUM["D_WGS_1984",SPHEROID["WGS_1984",6378137.0,298.257223563]],PRIMEM["Greenwich",0.0],UNIT["Degree",0.0174532925199433],AUTHORITY["EPSG",4326]]
CTRY               .                                       : COUNTRY
EREF               .m        137.7                         : 
HZCS               .GCS_WGS_1984 World_Mercator                : PROJCS["World_Mercator",GEOGCS["GCS_WGS_1984",DATUM["D_WGS_1984",SPHEROID["WGS_1984",6378137.0,298.257223563]],PRIMEM["Greenwich",0.0],UNIT["Degree",0.0174532925199433]],PROJECTION["Mercator"],PARAMETER["False_Easting",0.0],PARAMETER["False_Northing",0.0],PARAMETER["Central_Meridian",0.0],PARAMETER["Standard_Parallel_1",0.0],UNIT["Meter",1.0],AUTHORITY["ESRI",54004]]
LATI               .dega     2.1710182041                  : GCS_WGS_1984
LONG               .dega     2.0616605265                  : GCS_WGS_1984
ORIGINALWELLNAME   .         101                           : 
PROJECT_UPGRADE_TIME .         2014-05-27T11_38_46           : 
Pad                .         Пад1                          : 
STAT               .                                       : STATE
group              .         Pad1                          : 
Интер-р            .         Пузин                         : 
Куст               .         1                             : 
Статус             .         Не проверено                  : 
Тип                .         Разведка                      : 
~Parameter Information Block
#_______________________________________________________________________________
#
#PARAMETER_NAME    .UNIT     VALUE                         : DESCRIPTION
#_______________________________________________________________________________
SET                .         Gam                           : 
TLFamily_DEPT      .         Measured Depth                : 
TLFamily_GR_NORM   .         Gamma Ray                     : 
TLFamily_RHOB_NORM .         Bulk Density                  : 
TLFamily_RHOB_TL1  .         Bulk Density                  : 
TLFamily_SYNTH_Bulk_Density .         Bulk Density                  : 
TLFamily_SYNTH_Bulk_Density_MISFIT .                                       : 
TLFamily_TNPH_NORM .         Neutron Porosity              : 
~Curve Information
#_______________________________________________________________________________
#
#LOGNAME           .UNIT     LOG_ID                        : DESCRIPTION
#_______________________________________________________________________________
DEPT               .m                                      :  
GR_NORM            .gAPI                                   : Gamma Ray 
RHOB_NORM          .g/cm3                                  : Bulk Density 
RHOB_TL1           .g/cm3                                  :  
SYNTH_Bulk_Density .G/C3                                   : Bulk Density 
SYNTH_Bulk_Density_MISFIT .                                       : Synthetic Bulk Density Misfit 
TNPH_NORM          .v/v                                    : Thermal Neutron Porosity 
~Ascii
# ...
2529       88.15573999999999 2.54462    2.520173   2.50108    -0.04354   0.24937   
2529.2     90.39274   2.50532    2.520581   2.50108    -0.00424   0.2504    
2529.4     87.30268   2.48275    2.527104   2.50175    0.01901    0.24319   
2529.6     84.30739   2.5183     2.53084    2.50196    -0.01634   0.23804   
2529.8     80.26002   2.46666    2.523524   2.50016    0.03349    0.2401    
2530       79.85239   2.45661    2.525743   2.49999    0.04338    0.23804   
2530.2     79.56804   2.40653    2.523956   2.49999    0.09346    0.23907   
2530.4     73.75757   2.45085    2.507657   2.49271    0.04185    0.24319   
2530.6     61.04663   2.46447    2.48905    2.47597    0.0115     0.23392   
2530.8     50.11772   2.4419     2.476032   2.46355    0.02166    0.21951   
2531       47.78591   2.39876    2.465993   2.46046    0.0617     0.21951   
2531.2     50.63899   2.40004    2.461383   2.46294    0.0629     0.22774   
2531.4     55.36886   2.39776    2.470502   2.46681    0.06905    0.23289   
2531.6     60.77171   2.46292    2.456123   2.47449    0.01157    0.2504    
2531.8     62.43047   2.54955    2.430017   2.46933    -0.08022   0.26584   
2532       59.47316   2.49545    2.426543   2.46693    -0.02853   0.26172   
2532.2     57.70063   2.4769     2.454611   2.4669     -0.01      0.24525   
2532.4     52.62951   2.54937    2.454887   2.46293    -0.08644   0.23495   
2532.6     44.35466   2.51409    2.421708   2.45462    -0.05948   0.23186   
2532.8     44.72428   2.51492    2.408891   2.4536     -0.06131   0.23804   
2533       47.71953   2.44839    2.389911   2.44727    -0.00112   0.25246   
2533.2     50.89496   2.50952    2.376406   2.43707    -0.07246   0.26481   
2533.4     57.43524   2.49582    2.410181   2.45558    -0.04023   0.26481   
2533.6     67.35941   2.50212    2.459242   2.47683    -0.0253    0.26069   
2533.8     74.43044   2.5405     2.489058   2.49263    -0.04787   0.25555   
2534       69.13196000000001 2.43459    2.484081   2.48347    0.04888    0.2504    
2534.2     59.99442   2.41503    2.47176    2.47361    0.05858    0.24113   
2534.4     47.4826    2.40781    2.453667   2.45986    0.05205    0.22466   
2534.6     40.11769   2.45743    2.423075   2.45602    -0.00141   0.22157   
2534.8     39.53946   2.45716    2.391795   2.45243    -0.00473   0.23289   
2535       43.29298   2.42271    2.385293   2.44911    0.0264     0.24422   
2535.2     48.67689   2.40205    2.369066   2.43221    0.03016    0.26275   
2535.4     54.36411   2.38286    2.397525   2.44288    0.06002    0.26378   
2535.6     58.04192   2.36376    2.415418   2.45859    0.09483    0.26378   
2535.8     66.47786000000001 2.34064    2.416964   2.46224    0.1216     0.27923   
2536       68.67695999999999 2.36925    2.409631   2.45821    0.08897    0.28644   
2536.2     65.37838000000001 2.42198    2.412421   2.45774    0.03576    0.27923   
2536.4     60.95183   2.44071    2.407269   2.46258    0.02187    0.27305   
2536.6     55.24563   2.36331    2.397002   2.44352    0.08021    0.26584   
2536.8     48.12717   2.41466    2.394748   2.44869    0.03402    0.25143   
2537       44.25034   2.41731    2.380385   2.44622    0.0289     0.24834   
2537.2     42.29772   2.4101     2.382      2.44987    0.03978    0.24319   
2537.4     40.07971   2.42828    2.362819   2.44734    0.01906    0.24525   
2537.6     41.6343    2.38213    2.336358   2.43858    0.05645    0.25863   
2537.8     50.77165   2.35526    2.391304   2.44658    0.09131    0.25863   
2538       56.84753   2.38999    2.446727   2.46407    0.07408    0.24731   
2538.2     59.15089   2.37756    2.46037    2.47122    0.09366    0.24525   
2538.4     62.1177    2.35206    2.457035   2.47439    0.12232    0.25246   
2538.6     63.06562   2.39538    2.434852   2.46934    0.07396    0.26481   
2538.8     66.03243000000001 2.41512    2.450486   2.47372    0.0586     0.26275   
2539       69.32151   2.48074    2.457661   2.48078    0.0000400  0.26481   
2539.2     67.14140999999999 2.41595    2.452333   2.4755     0.05956    0.26378   
2539.4     63.08456   2.4217     2.474689   2.47612    0.05442    0.24525   
2539.6     68.03252000000001 2.38524    2.500698   2.4818     0.09656    0.23907   
2539.8     80.08934000000001 2.46557    2.508707   2.49934    0.03377    0.2504    
2540       88.98036999999999 2.49079    2.500465   2.49846    0.00767    0.26481   
2540.2     91.33105999999999 2.50632    2.488438   2.49343    -0.0129    0.27511   
2540.4     89.65339   2.48439    2.490909   2.49697    0.01258    0.27202   
2540.6     87.14158   2.4631     2.499671   2.49861    0.03551    0.26378   
2540.8     88.44015   2.47534    2.506988   2.49989    0.02455    0.25966   
2541       93.06571   2.49636    2.491812   2.49414    -0.00222   0.27408   
2541.2     95.83354   2.51628    2.472163   2.47336    -0.04292   0.28952   
2541.4     99.99466   2.44007    2.471618   2.46768    0.02761    0.29261   
2541.6     99.0752    2.47964    2.46622    2.46355    -0.01609   0.2957    
2541.8     95.15106   2.50614    2.43889    2.45662    -0.04952   0.30909   
2542       92.43067000000001 2.49874    2.437636   2.45969    -0.03905   0.30703   
2542.2     93.06576   2.50943    2.475108   2.48089    -0.02855   0.28541   
2542.4     95.63445   2.53731    2.481113   2.48193    -0.05538   0.28335   
2542.6     96.49704   2.50843    2.483394   2.48308    -0.02535   0.28232   
2542.8     97.81455   2.5787     2.499407   2.49177    -0.08694   0.27099   
2543       97.22689   2.58126    2.501702   2.49292    -0.08835   0.26893   
2543.2     96.70555   2.55284    2.493447   2.48896    -0.06388   0.27511   
2543.4     95.49229   2.4949     2.47334    2.47705    -0.01785   0.28849   
2543.6     97.61554   2.49819    2.463086   2.4652     -0.03299   0.29673   
2543.8     101.37856  2.52616    2.47266    2.46655    -0.0596    0.29261   
2544       102.83829  2.53191    2.481846   2.47193    -0.05998   0.28644   
2544.2     100.72454  2.51556    2.487632   2.48002    -0.03553   0.28129   
2544.4     101.17     2.49783    2.469565   2.46418    -0.03364   0.29467   
2544.6     101.60601  2.48704    2.45287    2.4519     -0.03514   0.306     
2544.8     102.45919  2.47462    2.477581   2.46803    -0.00659   0.28952   
2545       104.9141   2.53822    2.49946    2.48643    -0.05179   0.27202   
2545.2     105.36909  2.52022    2.50593    2.48725    -0.03297   0.26584   
2545.4     105.6061   2.52186    2.513928   2.48901    -0.03285   0.2576    
2545.6     105.06577  2.51117    2.525206   2.49116    -0.02001   0.24525   
2545.8     102.65822  2.48741    2.529373   2.49305    0.00564    0.24216   
2546       99.84302   2.49381    2.516475   2.49302    -0.00078   0.25658   
2546.2     97.87145   2.56728    2.506972   2.49304    -0.07424   0.26481   
2546.4     96.61076   2.54343    2.516143   2.49651    -0.04692   0.25658   
2546.6     94.6486    2.53703    2.517894   2.49912    -0.03791   0.25452   
2546.8     86.75296   2.51903    2.526665   2.50186    -0.01717   0.24319   
2547       84.85718   2.50843    2.526236   2.50205    -0.00637   0.24216   
2547.2     85.97568   2.57724    2.520784   2.50143    -0.07581   0.24731   
2547.4     89.15101   2.59561    2.519691   2.50108    -0.09453   0.2504    
2547.6     91.75769   2.62686    2.517701   2.50078    -0.12609   0.25349   
2547.8     95.70081   2.55741    2.518233   2.49804    -0.05937   0.25452   
2548       100.01361  2.50368    2.515389   2.49278    -0.0109    0.2576    
2548.2     102.15586  2.52305    2.525061   2.49259    -0.03046   0.24731   
2548.4     107.31219  2.50084    2.530376   2.49075    -0.01009   0.23598   
2548.6     106.64858  2.54681    2.533265   2.49085    -0.05596   0.23289   
2548.8     97.7672    2.55165    2.539756   2.49713    -0.05453   0.23289   
2549       90.60128   2.63491    2.540288   2.50198    -0.13293   0.23289   
2549.2     87.61548000000001 2.65117    2.532212   2.50187    -0.1493    0.23907   
2549.4     85.44484   2.61151    2.52024    2.50139    -0.11012   0.24731   
