~Version
 VERS              .         2.0                           : CWLS LOG ASCII STANDARD - VERSION 2.0
 WRAP              .         NO                            : ONE LINE PER DEPTH STEP
 DLM               .         SPACE                         : DELIMITING CHARACTER(SPACE TAB OR COMMA)
~Well Information
#_______________________________________________________________________________
#
#PARAMETER_NAME    .UNIT     VALUE                         : DESCRIPTION
#_______________________________________________________________________________
STRT               .m        2900                          : First reference value
STOP               .m        3129.8                        : Last reference value
STEP               .m        0.2                           : Step increment
NULL               .         -9999                         : Missing value
COMP               .                                       : Company
WELL               .         200                           : Well name
FLD                .                                       : Field
LOC                .                                       : Location
CNTY               .                                       : County
STAT               .                                       : State
CTRY               .                                       : Country
SRVC               .                                       : Service Company
DATE               .                                       : Date
API                .                                       : API number
Cartographic_reference_system .         GCS_WGS_1984                  : GEOGCS["GCS_WGS_1984",DATUM["D_WGS_1984",SPHEROID["WGS_1984",6378137.0,298.257223563]],PRIMEM["Greenwich",0.0],UNIT["Degree",0.0174532925199433],AUTHORITY["EPSG",4326]]
EREF               .m        139.76                        : 
HZCS               .GCS_WGS_1984 World_Mercator                : PROJCS["World_Mercator",GEOGCS["GCS_WGS_1984",DATUM["D_WGS_1984",SPHEROID["WGS_1984",6378137.0,298.257223563]],PRIMEM["Greenwich",0.0],UNIT["Degree",0.0174532925199433]],PROJECTION["Mercator"],PARAMETER["False_Easting",0.0],PARAMETER["False_Northing",0.0],PARAMETER["Central_Meridian",0.0],PARAMETER["Standard_Parallel_1",0.0],UNIT["Meter",1.0],AUTHORITY["ESRI",54004]]
LATI               .dega     2.1856221126                  : GCS_WGS_1984
LONG               .dega     2.052578559                   : GCS_WGS_1984
PROJECT_UPGRADE_TIME .         2014-05-27T11_38_46           : 
Pad                .         Pad2                          : 
group              .         Pad2                          : 
Интер-р            .         Зайцев                        : 
Куст               .         2                             : 
Статус             .         Не проверено                  : 
Тип                .         Разведка                      : 
~Parameter Information Block
#_______________________________________________________________________________
#
#PARAMETER_NAME    .UNIT     VALUE                         : DESCRIPTION
#_______________________________________________________________________________
SET                .         LQC                           : 
PROJECT_UPGRADE_TIME .         2014-05-27T11_38_46           : 
TLFamily_GR_NORM   .         Gamma Ray                     : 
TLFamily_MD        .         Measured Depth                : 
TLFamily_RHOB_NORM .         Bulk Density                  : 
TLFamily_TNPH_NORM .         Neutron Porosity              : 
~Curve Information
#_______________________________________________________________________________
#
#LOGNAME           .UNIT     LOG_ID                        : DESCRIPTION
#_______________________________________________________________________________
MD                 .m                                      :  
GR_NORM            .gAPI                                   : Normalised By Techlog 
RHOB_NORM          .g/cm3                                  : Normalized By Techlog 
TNPH_NORM          .v/v                                    : Normalised By Techlog 
~Ascii
# ...
3009.2     130.5297   2.350893   0.2989125 
3009.4     133.3285   2.369435   0.2955541 
3009.6     125.2084   2.407519   0.3001021 
3009.8     116.427    2.424158   0.3103462 
3010       110.4409   2.420267   0.3152491 
3010.2     105.9116   2.417181   0.3089388 
3010.4     108.6417   2.408195   0.3009872 
3010.6     111.696    2.403628   0.2921711 
3010.8     106.2167   2.404567   0.284358  
3011       101.5313   2.315066   0.2817182 
3011.2     106.3657   2.320434   0.2783439 
3011.4     112.3994   2.324017   0.2813702 
3011.6     111.8689   2.295609   0.2968849 
3011.8     110.5552   2.272664   0.3151438 
3012       114.5121   2.298293   0.3243491 
3012.2     113.3078   2.331034   0.3247472 
3012.4     108.5808   2.359841   0.3171276 
3012.6     105.5638   2.353711   0.3167868 
3012.8     107.0245   2.326069   0.3272843 
3013       113.9924   2.305002   0.333824  
3013.2     122.2749   2.26676    0.3325835 
3013.4     129.383    2.2194     0.3329306 
3013.6     134.107    2.287961   0.3427589 
3013.8     135.9573   2.34727    0.3526434 
3014       134.4478   2.386855   0.3377265 
3014.2     125.6665   2.378938   0.31564   
3014.4     114.1616   2.346749   0.3193007 
3014.6     109.3836   2.327008   0.3251666 
3014.8     113.7986   2.2626     0.3187269 
3015       122.9964   2.309565   0.3243206 
3015.2     124.7215   2.35143    0.3205867 
3015.4     113.7079   2.348505   0.294056  
3015.6     98.35348   2.367532   0.2843829 
3015.8     88.99476   2.306344   0.2876769 
3016       89.35149   2.299635   0.2918168 
3016.2     95.64066   2.338146   0.3111967 
3016.4     103.5766   2.288646   0.3393022 
3016.6     114.9523   2.250255   0.3613302 
3016.8     126.5976   2.232006   0.3722784 
3017       132.3591   2.276421   0.3589019 
3017.2     126.6463   2.314261   0.3500295 
3017.4     117.805    2.361219   0.3510106 
3017.6     111.1474   2.402957   0.3362139 
3017.8     107.2332   2.361494   0.3184101 
3018       104.3316   2.33251    0.3087148 
3018.2     104.8146   2.379609   0.3150867 
3018.4     118.3541   2.477723   0.3235402 
3018.6     138.6731   2.376388   0.3316509 
3018.8     149.9029   2.349149   0.3441118 
3019       148.8725   2.355858   0.3541605 
3019.2     144.371    2.301245   0.3572474 
3019.4     142.5584   2.289542   0.3448523 
3019.6     147.2219   2.254012   0.3307648 
3019.8     153.8897   2.24784    0.3393293 
3020       156.0768   2.25267    0.3522703 
3020.2     150.4544   2.296549   0.3442243 
3020.4     138.5227   2.392798   0.3386758 
3020.6     132.0123   2.411276   0.346035  
3020.8     138.2269   2.324459   0.3556544 
3021       143.4111   2.28474    0.353907  
3021.2     139.7075   2.208926   0.349436  
3021.4     146.5884   2.200435   0.3626094 
3021.6     171.7307   2.271054   0.3884732 
3021.8     193.4998   2.376925   0.4000908 
3022       187.3448   2.562368   0.3901367 
3022.2     157.6678   2.54895    0.3793294 
3022.4     129.7551   2.339941   0.3569727 
3022.6     127.4939   2.281654   0.3478769 
3022.8     128.9109   2.276018   0.3544264 
3023       131.0514   2.271322   0.3629696 
3023.2     129.1216   2.31681    0.3502526 
3023.4     123.5742   2.32129    0.3216678 
3023.6     120.0222   2.367935   0.2992426 
3023.8     115.2663   2.470586   0.2680846 
3024       102.7407   2.54479    0.2376968 
3024.2     99.90067   2.634022   0.2346108 
3024.4     115.569    2.752864   0.2540635 
3024.6     132.5538   2.614566   0.2725102 
3024.8     139.16     2.565186   0.2837297 
3025       137.1169   2.386855   0.2909931 
3025.2     130.2673   2.431136   0.309161  
3025.4     127.541    2.443177   0.3280992 
3025.6     125.9964   2.426439   0.3244625 
3025.8     119.9189   2.487896   0.306714  
3026       116.2541   2.502924   0.3049506 
3026.2     119.1507   2.569345   0.3175132 
3026.4     122.3028   2.655203   0.3350592 
3026.6     118.1451   2.504937   0.3234987 
3026.8     112.7036   2.408995   0.2964396 
3027       113.6267   2.428318   0.2897143 
3027.2     117.209    2.502924   0.2914893 
3027.4     118.5324   2.539284   0.2938755 
3027.6     119.6287   2.5727     0.3012587 
3027.8     118.2206   2.658847   0.3003912 
3028       113.6903   2.550828   0.3018771 
3028.2     97.03185   2.595511   0.2835923 
3028.4     73.58      2.522669   0.255958  
3028.6     72.55489   2.465889   0.2505798 
3028.8     97.481     2.471659   0.2705005 
3029       105.0441   2.448177   0.2966707 
3029.2     110.1597   2.415302   0.3089959 
3029.4     117.4491   2.436234   0.3133547 
3029.6     118.7374   2.456496   0.3040242 
3029.8     117.2458   2.445762   0.2941755 
3030       119.7668   2.433417   0.2973784 
3030.2     120.3829   2.34982    0.3187001 
3030.4     112.3874   2.366216   0.3172456 
3030.6     108.3015   2.403762   0.2961504 
3030.8     118.4591   2.429391   0.3012863 
3031       129.05     2.402017   0.3223938 
3031.2     129.3074   2.39504    0.3391268 
3031.4     129.3499   2.430315   0.3451846 
3031.6     129.2239   2.452873   0.3323158 
3031.8     125.0782   2.436771   0.317042  
3032       117.8212   2.412081   0.3047632 
3032.2     114.3839   2.505876   0.300484  
3032.4     113.4428   2.592381   0.3076977 
3032.6     110.7847   2.64261    0.3166038 
3032.8     113.5701   2.569077   0.3138596 
3033       115.4243   2.47072    0.3026125 
3033.2     113.263    2.480515   0.2985992 
3033.4     111.2257   2.48356    0.3033175 
3033.6     108.9573   2.452605   0.3029944 
3033.8     105.4913   2.488298   0.2981423 
3034       104.902    2.513391   0.300243  
3034.2     109.9987   2.454752   0.3021377 
3034.4     117.3682   2.49565    0.29739   
3034.6     120.0053   2.513256   0.2933928 
3034.8     121.5456   2.494605   0.2853574 
3035       119.9735   2.496081   0.2782261 
3035.2     120.1325   2.446969   0.2738131 
3035.4     124.7994   2.405021   0.285404  
3035.6     129.8688   2.405104   0.3043901 
3035.8     132.6105   2.423755   0.3163397 
3036       136.2902   2.406446   0.3289014 
3036.2     138.7416   2.434893   0.3295823 
3036.4     136.7876   2.459059   0.3160675 
3036.6     134.4627   2.493934   0.3099    
3036.8     136.0159   2.458509   0.3129359 
3037       136.9162   2.395845   0.3160461 
3037.2     133.7463   2.370082   0.3130127 
3037.4     130.6789   2.304391   0.3144001 
3037.6     129.3978   2.287693   0.3235406 
3037.8     124.6499   2.326472   0.3293449 
3038       117.9762   2.36136    0.3338802 
3038.2     118.4253   2.418791   0.319091  
3038.4     122.8675   2.422255   0.3166729 
3038.6     127.5803   2.406043   0.3364888 
3038.8     124.4512   2.37451    0.3364334 
3039       114.5827   2.374376   0.307261  
3039.2     107.746    2.453947   0.2863132 
3039.4     107.0383   2.432802   0.2949509 
3039.6     111.1107   2.457704   0.3093547 
3039.8     112.5436   2.410605   0.305503  
3040       110.0265   2.424963   0.2952375 
3040.2     113.4389   2.434758   0.2906227 
3040.4     119.2672   2.458198   0.2904437 
3040.6     121.1918   2.446433   0.2927092 
3040.8     126.3163   2.449116   0.2939185 
3041       122.3693   2.509365   0.2866952 
3041.2     104.3723   2.531371   0.2837511 
3041.4     94.85197   2.477015   0.2985125 
3041.6     114.8708   2.523589   0.3073628 
3041.8     124.4571   2.55539    0.3077528 
3042       125.8771   2.589339   0.3153669 
3042.2     122.8364   2.531103   0.3255655 
3042.4     120.5094   2.367125   0.3342757 
3042.6     121.6469   2.419193   0.3460332 
3042.8     123.3322   2.482796   0.3541605 
3043       123.9712   2.443749   0.3762506 
3043.2     123.3412   2.404567   0.3962087 
3043.4     122.1923   2.364596   0.3677511 
3043.6     120.1136   2.337475   0.3333581 
3043.8     122.2789   2.367935   0.3165119 
3044       129.5717   2.398797   0.3362755 
3044.2     128.8642   2.411276   0.363622  
3044.4     125.9594   2.492848   0.3487096 
3044.6     128.6098   2.454215   0.3323863 
3044.8     132.4803   2.451398   0.3204644 
3045       130.7542   2.450055   0.3095448 
3045.2     124.6628   2.414228   0.3016968 
3045.4     118.7499   2.409725   0.3038336 
