~Version
 VERS              .         2.0                           : CWLS LOG ASCII STANDARD - VERSION 2.0
 WRAP              .         NO                            : ONE LINE PER DEPTH STEP
 DLM               .         SPACE                         : DELIMITING CHARACTER(SPACE TAB OR COMMA)
~Well Information
#_______________________________________________________________________________
#
#PARAMETER_NAME    .UNIT     VALUE                         : DESCRIPTION
#_______________________________________________________________________________
STRT               .m        2900                          : First reference value
STOP               .m        3129.8                        : Last reference value
STEP               .m        0.2                           : Step increment
NULL               .         -9999                         : Missing value
COMP               .                                       : Company
WELL               .         200                           : Well name
FLD                .                                       : Field
LOC                .                                       : Location
CNTY               .                                       : County
STAT               .                                       : State
CTRY               .                                       : Country
SRVC               .                                       : Service Company
DATE               .                                       : Date
API                .                                       : API number
Cartographic_reference_system .         GCS_WGS_1984                  : GEOGCS["GCS_WGS_1984",DATUM["D_WGS_1984",SPHEROID["WGS_1984",6378137.0,298.257223563]],PRIMEM["Greenwich",0.0],UNIT["Degree",0.0174532925199433],AUTHORITY["EPSG",4326]]
EREF               .m        139.76                        : 
HZCS               .GCS_WGS_1984 World_Mercator                : PROJCS["World_Mercator",GEOGCS["GCS_WGS_1984",DATUM["D_WGS_1984",SPHEROID["WGS_1984",6378137.0,298.257223563]],PRIMEM["Greenwich",0.0],UNIT["Degree",0.0174532925199433]],PROJECTION["Mercator"],PARAMETER["False_Easting",0.0],PARAMETER["False_Northing",0.0],PARAMETER["Central_Meridian",0.0],PARAMETER["Standard_Parallel_1",0.0],UNIT["Meter",1.0],AUTHORITY["ESRI",54004]]
LATI               .dega     2.1856221126                  : GCS_WGS_1984
LONG               .dega     2.052578559                   : GCS_WGS_1984
PROJECT_UPGRADE_TIME .         2014-05-27T11_38_46           : 
Pad                .         Pad2                          : 
group              .         Pad2                          : 
Интер-р            .         Зайцев                        : 
Куст               .         2                             : 
Статус             .         Не проверено                  : 
Тип                .         Разведка                      : 
~Parameter Information Block
#_______________________________________________________________________________
#
#PARAMETER_NAME    .UNIT     VALUE                         : DESCRIPTION
#_______________________________________________________________________________
SET                .         LQC                           : 
PROJECT_UPGRADE_TIME .         2014-05-27T11_38_46           : 
TLFamily_GR_NORM   .         Gamma Ray                     : 
TLFamily_MD        .         Measured Depth                : 
TLFamily_RHOB_NORM .         Bulk Density                  : 
TLFamily_TNPH_NORM .         Neutron Porosity              : 
~Curve Information
#_______________________________________________________________________________
#
#LOGNAME           .UNIT     LOG_ID                        : DESCRIPTION
#_______________________________________________________________________________
MD                 .m                                      :  
GR_NORM            .gAPI                                   : Normalised By Techlog 
RHOB_NORM          .g/cm3                                  : Normalized By Techlog 
TNPH_NORM          .v/v                                    : Normalised By Techlog 
~Ascii
# ...
3045.6     119.0404   2.453545   0.3142657 
3045.8     119.2948   2.422011   0.3123612 
3046       115.0259   2.419998   0.3132474 
3046.2     108.2856   2.482662   0.3189616 
3046.4     108.2514   2.545392   0.3263384 
3046.6     119.3028   2.661664   0.3293842 
3046.8     126.1792   2.68045    0.2911136 
3047       140.2878   2.516343   0.2484621 
3047.2     159.6711   2.513256   0.2106591 
3047.4     147.1083   2.522356   0.1740268 
3047.6     103.3409   2.621141   0.1576992 
3047.8     65.51846   2.631741   0.1619659 
3048       49.8358    2.604502   0.1654954 
3048.2     43.98387   2.592559   0.1607495 
3048.4     40.51865   2.587254   0.1653771 
3048.6     43.43037   2.523052   0.170335  
3048.8     47.23925   2.518624   0.1686171 
3049       46.81394   2.543582   0.1656061 
3049.2     44.59003   2.536873   0.1612511 
3049.4     41.65199   2.526445   0.150306  
3049.6     36.55194   2.547742   0.1302287 
3049.8     32.02064   2.539691   0.1167291 
3050       27.40588   2.515269   0.1168281 
3050.2     21.2141    2.479308   0.1223406 
3050.4     19.17129   2.548297   0.1246975 
3050.6     25.47014   2.632681   0.1175608 
3050.8     29.48769   2.635633   0.1083983 
3051       25.93519   2.686489   0.09994528
3051.2     22.97594   2.763913   0.09966061
3051.4     28.00154   2.643428   0.1157269 
3051.6     35.01369   2.643013   0.1398767 
3051.8     38.40222   2.649588   0.1455694 
3052       34.89047   2.58679    0.1311426 
3052.2     28.67484   2.547339   0.1238452 
3052.4     30.03959   2.505608   0.137684  
3052.6     35.8017    2.464145   0.1617383 
3052.8     39.95836   2.451129   0.1853848 
3053       40.3002    2.405909   0.1999848 
3053.2     40.11338   2.423621   0.2031199 
3053.4     40.68007   2.451127   0.2003659 
3053.6     37.40554   2.477027   0.1895221 
3053.8     38.92392   2.450592   0.1832082 
3054       45.08489   2.463877   0.1750533 
3054.2     47.25216   2.468976   0.1611422 
3054.4     41.04636   2.507983   0.1444936 
3054.6     34.73644   2.514464   0.1311211 
3054.8     35.08424   2.513793   0.1258603 
3055       38.17566   2.537812   0.1310962 
3055.2     44.07132   2.533921   0.1406906 
3055.4     52.95349   2.548659   0.1487243 
3055.6     60.57279   2.544924   0.1605193 
3055.8     61.95006   2.58585    0.1735594 
3056       60.04811   2.643147   0.1848199 
3056.2     60.00638   2.562368   0.1942252 
3056.4     59.60608   2.518934   0.2021128 
3056.6     54.45653   2.509768   0.2125127 
3056.8     51.91264   2.528822   0.2172104 
3057       53.73013   2.495678   0.2112543 
3057.2     54.9355    2.468976   0.2042256 
3057.4     57.10807   2.49484    0.2073524 
3057.6     59.55424   2.493934   0.2117006 
3057.8     56.16869   2.509365   0.2105484 
3058       49.30814   2.457704   0.2075258 
3058.2     48.46051   2.463608   0.2060721 
3058.4     55.14568   2.539412   0.2085931 
3058.6     59.82353   2.606514   0.2103628 
3058.8     59.08918   2.558208   0.2046245 
3059       58.55854   2.554719   0.2019143 
3059.2     57.74072   2.561563   0.2025515 
3059.4     52.89303   2.600329   0.2026265 
3059.6     48.52808   2.628789   0.2013128 
3059.8     48.59367   2.49957    0.2024827 
3060       48.29556   2.46817    0.2039008 
3060.2     46.55061   2.475282   0.1997287 
3060.4     43.72229   2.457907   0.1744778 
3060.6     39.06999   2.49702    0.1449465 
3060.8     37.25151   2.540764   0.1395911 
3061       40.6172    2.554853   0.1544767 
3061.2     44.91695   2.517148   0.1842827 
3061.4     48.24104   2.504714   0.2127998 
3061.6     50.05243   2.419864   0.2192719 
3061.8     46.804     2.382561   0.2182527 
3062       43.87456   2.426976   0.2166053 
3062.2     45.07098   2.391685   0.2141038 
3062.4     44.99364   2.428474   0.2147786 
3062.6     44.23627   2.483333   0.2126224 
3062.8     46.48602   2.498765   0.2063023 
3063       47.17664   2.446298   0.2002695 
3063.2     42.18725   2.438516   0.1944733 
3063.4     31.8734    2.4211     0.1900427 
3063.6     24.65431   2.426976   0.1851644 
3063.8     26.28299   2.42711    0.1798741 
3064       38.2313    2.462401   0.1964089 
3064.2     38.75797   2.461193   0.2134533 
3064.4     32.93214   2.40926    0.2178061 
3064.6     28.94314   2.354248   0.2152711 
3064.8     29.0753    2.389941   0.2065763 
3065       32.36646   2.440529   0.1878676 
3065.2     34.25747   2.454081   0.1456007 
3065.4     32.65205   2.526239   0.1114301 
3065.6     29.74605   2.571492   0.09862539
3065.8     28.72949   2.646904   0.09105141
3066       29.57215   2.625435   0.08454476
3066.2     26.43999   2.580215   0.08334446
3066.4     20.3148    2.530722   0.08891348
3066.6     18.25981   2.499301   0.09328068
3066.8     18.32738   2.509231   0.1039755 
3067       22.35388   2.512451   0.1205424 
3067.2     25.70266   2.496752   0.14875   
3067.4     29.34576   2.463746   0.1876793 
3067.6     43.71159   2.433685   0.2244711 
3067.8     71.2422    2.419193   0.2358557 
3068       94.64695   2.496618   0.2346929 
3068.2     103.8805   2.49957    0.2454671 
3068.4     104.7361   2.537405   0.2598391 
3068.6     103.9769   2.461595   0.2613933 
3068.8     102.4406   2.444554   0.2634146 
3069       102.0332   2.490177   0.2626311 
3069.2     101.749    2.477966   0.2675661 
3069.4     105.2251   2.46264    0.2725211 
3069.6     108.7934   2.423353   0.2747109 
3069.8     106.5317   2.428854   0.2805759 
3070       103.4244   2.433954   0.2738756 
3070.2     103.7284   2.518221   0.2647318 
3070.4     105.4135   2.301005   0.2608001 
3070.6     108.4932   2.10708    0.2446657 
3070.8     112.5158   1.722776   0.2244684 
3071       113.8811   1.473193   0.2235974 
3071.2     108.3651   1.463666   0.2323414 
3071.4     94.77574   1.562895   0.2397672 
3071.6     80.85233   1.937069   0.2501416 
3071.8     74.91593   2.301245   0.2525806 
3072       73.54263   2.471659   0.2497873 
3072.2     72.27267   2.520234   0.2455876 
3072.4     69.83382   2.564384   0.2314594 
3072.6     69.57973   2.611211   0.2243712 
3072.8     68.748     2.615505   0.2293848 
3073       66.33926   2.733453   0.2264559 
3073.2     66.35616   2.603026   0.2169266 
3073.4     69.28137   2.553857   0.2184066 
3073.6     72.0004    2.457436   0.226762  
3073.8     73.26539   2.444957   0.2328286 
3074       75.97721   2.445359   0.2437751 
3074.2     83.02954   2.418657   0.2663864 
3074.4     92.00093   2.419478   0.2949986 
3074.6     93.01926   2.433685   0.2903166 
3074.8     92.68538   2.470049   0.2888781 
3075       93.01826   2.439992   0.2886014 
3075.2     92.89107   2.413826   0.2917213 
3075.4     89.48404   2.344711   0.3025237 
3075.6     85.57442   2.377596   0.291127  
3075.8     82.77316   2.471123   0.2691957 
3076       82.21569   2.44764    0.2608185 
3076.2     86.69333   2.397321   0.2598949 
3076.4     90.32376   2.387833   0.2584819 
3076.6     88.61416   2.410471   0.264116  
3076.8     80.02954   2.408458   0.2666478 
3077       66.86394   2.432611   0.2553783 
3077.2     58.05971   2.453947   0.2436341 
3077.4     58.66605   2.460582   0.24439   
3077.6     67.55755   2.406177   0.2576362 
3077.8     73.96893   2.398931   0.2704219 
3078       85.52772   2.40081    0.3002234 
3078.2     91.27332   2.36042    0.3173231 
3078.4     97.02879   2.387716   0.3164813 
3078.6     105.9831   2.461327   0.3227535 
3078.8     109.168    2.456094   0.3353661 
3079       103.3965   2.440931   0.3254379 
3079.2     97.64894   2.444151   0.3085524 
3079.4     100.1655   2.42688    0.3090195 
3079.6     93.35712   2.440663   0.2761896 
3079.8     76.9262    2.479442   0.2377521 
3080       60.47242   2.52909    0.2062729 
3080.2     52.59233   2.629326   0.1834617 
3080.4     53.07718   2.737191   0.1815472 
3080.6     60.0024    2.71923    0.1889046 
3080.8     67.75728   2.687428   0.1948481 
3081       66.85897   2.52587    0.1947606 
3081.2     62.22036   2.423219   0.1916184 
3081.4     61.0872    2.436691   0.1972674 
3081.6     62.12495   2.493934   0.2043443 
3081.8     61.33993   2.470988   0.2016082 
