~Version
 VERS              .         2.0                           : CWLS LOG ASCII STANDARD - VERSION 2.0
 WRAP              .         NO                            : ONE LINE PER DEPTH STEP
 DLM               .         SPACE                         : DELIMITING CHARACTER(SPACE TAB OR COMMA)
~Well Information
#_______________________________________________________________________________
#
#PARAMETER_NAME    .UNIT     VALUE                         : DESCRIPTION
#_______________________________________________________________________________
STRT               .m        2900                          : First reference value
STOP               .m        3129.8                        : Last reference value
STEP               .m        0.2                           : Step increment
NULL               .         -9999                         : Missing value
COMP               .                                       : Company
WELL               .         200                           : Well name
FLD                .                                       : Field
LOC                .                                       : Location
CNTY               .                                       : County
STAT               .                                       : State
CTRY               .                                       : Country
SRVC               .                                       : Service Company
DATE               .                                       : Date
API                .                                       : API number
Cartographic_reference_system .         GCS_WGS_1984                  : GEOGCS["GCS_WGS_1984",DATUM["D_WGS_1984",SPHEROID["WGS_1984",6378137.0,298.257223563]],PRIMEM["Greenwich",0.0],UNIT["Degree",0.0174532925199433],AUTHORITY["EPSG",4326]]
EREF               .m        139.76                        : 
HZCS               .GCS_WGS_1984 World_Mercator                : PROJCS["World_Mercator",GEOGCS["GCS_WGS_1984",DATUM["D_WGS_1984",SPHEROID["WGS_1984",6378137.0,298.257223563]],PRIMEM["Greenwich",0.0],UNIT["Degree",0.0174532925199433]],PROJECTION["Mercator"],PARAMETER["False_Easting",0.0],PARAMETER["False_Northing",0.0],PARAMETER["Central_Meridian",0.0],PARAMETER["Standard_Parallel_1",0.0],UNIT["Meter",1.0],AUTHORITY["ESRI",54004]]
LATI               .dega     2.1856221126                  : GCS_WGS_1984
LONG               .dega     2.052578559                   : GCS_WGS_1984
PROJECT_UPGRADE_TIME .         2014-05-27T11_38_46           : 
Pad                .         Pad2                          : 
group              .         Pad2                          : 
Интер-р            .         Зайцев                        : 
Куст               .         2                             : 
Статус             .         Не проверено                  : 
Тип                .         Разведка                      : 
~Parameter Information Block
#_______________________________________________________________________________
#
#PARAMETER_NAME    .UNIT     VALUE                         : DESCRIPTION
#_______________________________________________________________________________
SET                .         LQC                           : 
PROJECT_UPGRADE_TIME .         2014-05-27T11_38_46           : 
TLFamily_GR_NORM   .         Gamma Ray                     : 
TLFamily_MD        .         Measured Depth                : 
TLFamily_RHOB_NORM .         Bulk Density                  : 
TLFamily_TNPH_NORM .         Neutron Porosity              : 
~Curve Information
#_______________________________________________________________________________
#
#LOGNAME           .UNIT     LOG_ID                        : DESCRIPTION
#_______________________________________________________________________________
MD                 .m                                      :  
GR_NORM            .gAPI                                   : Normalised By Techlog 
RHOB_NORM          .g/cm3                                  : Normalized By Techlog 
TNPH_NORM          .v/v                                    : Normalised By Techlog 
~Ascii
# ...
3082       58.53072   2.49125    0.1937656 
3082.2     54.8719    2.539825   0.2016198 
3082.4     56.5463    2.502933   0.2223475 
3082.6     69.62147   2.473269   0.2389774 
3082.8     83.14977   2.417851   0.2458616 
3083       83.67246   2.356127   0.2330553 
3083.2     77.33163   2.224223   0.2245175 
3083.4     77.087     2.088855   0.2336199 
3083.6     80.75594   1.972359   0.2819805 
3083.8     76.3737    1.767996   0.3508103 
3084       54.14252   1.515998   0.4344516 
3084.2     21.25682   1.243201   0.5247352 
3084.4     1.662078   1.047265   0.5576147 
3084.6     -1.573559  0.9390047  0.5546867 
3084.8     5.979598   0.9029092  0.5415316 
3085       12.45359   0.8629221  0.5228139 
3085.2     21.41483   0.9441037  0.5032065 
3085.4     36.25401   1.104457   0.4732607 
3085.6     56.13589   1.377654   0.4047813 
3085.8     73.0736    1.710834   0.356612  
3086       78.32534   1.940692   0.3741989 
3086.2     75.0471    1.907011   0.3942507 
3086.4     76.46868   2.116383   0.3677534 
3086.6     81.62444   2.361897   0.324035  
3086.8     77.09215   2.449116   0.2670012 
3087       70.49494   2.510707   0.2216252 
3087.2     70.47507   2.59578    0.1993164 
3087.4     70.35844   2.614581   0.2004911 
3087.6     72.38297   2.536605   0.2106645 
3087.8     82.31208   2.481321   0.2147312 
3088       91.78707   2.458375   0.2199608 
3088.2     92.20641   2.496752   0.2239517 
3088.4     86.64466   2.519043   0.2306939 
3088.6     77.83445   2.554853   0.2505798 
3088.8     68.59      2.605173   0.2780557 
3089       66.98119   2.565454   0.2910699 
3089.2     69.70395   2.558074   0.2941433 
3089.4     68.88049   2.524477   0.2589429 
3089.6     65.87222   2.558879   0.2428791 
3089.8     66.5857    2.584777   0.2410791 
3090       68.83347   2.689709   0.2339174 
3090.2     67.23062   2.607185   0.2359949 
3090.4     66.10411   2.629795   0.2408661 
3090.6     62.01862   2.597122   0.2393781 
3090.8     51.15941   2.594304   0.2303102 
3091       41.99745   2.663275   0.2242748 
3091.2     38.80666   2.597122   0.2189131 
3091.4     39.27838   2.46955    0.2163364 
3091.6     41.9577    2.372631   0.2281068 
3091.8     48.69204   2.333449   0.254527  
3092       67.34489   2.349015   0.2746645 
3092.2     89.08021   2.417181   0.2784644 
3092.4     94.46099   2.434095   0.2690343 
3092.6     89.96461   2.456899   0.25461   
3092.8     85.86657   2.476758   0.2479052 
3093       80.29784   2.458509   0.233705  
3093.2     74.81458   2.453679   0.2122119 
3093.4     75.90318   2.453394   0.2178458 
3093.6     83.904     2.440394   0.2447094 
3093.8     93.23589   2.458241   0.2599377 
3094       92.66947   2.4938     0.2543173 
3094.2     81.02424   2.462132   0.2530545 
3094.4     68.54854   2.479954   0.2587954 
3094.6     65.23128   2.477295   0.2593719 
3094.8     63.14251   2.467097   0.2412834 
3095       58.10045   2.49702    0.2056705 
3095.2     55.34987   2.505742   0.1992673 
3095.4     54.83625   2.539592   0.2104911 
3095.6     51.1773    2.492592   0.2083504 
3095.8     50.90205   2.44764    0.1834768 
3096       53.38333   2.456094   0.167241  
3096.2     56.12397   2.515404   0.1634259 
3096.4     58.76698   2.572255   0.1746069 
3096.6     62.84639   2.594035   0.2031851 
3096.8     69.90666   2.638182   0.2215627 
3097       77.86823   2.591218   0.2285932 
3097.2     79.99774   2.469244   0.2426078 
3097.4     72.45731   2.533077   0.2716396 
3097.6     69.63438   2.565052   0.3003689 
3097.8     76.69865   2.560355   0.2733258 
3098       78.85598   2.459448   0.2166606 
3098.2     72.48434   2.414899   0.2007559 
3098.4     64.82686   2.474783   0.2173371 
3098.6     57.17332   2.565722   0.2259249 
3098.8     53.91595   2.594438   0.2194352 
3099       52.23957   2.443883   0.2187551 
3099.2     46.33597   2.412752   0.2270797 
3099.4     41.10246   2.368808   0.2251292 
3099.6     40.20282   2.380146   0.2140075 
3099.8     43.73146   2.382695   0.2055223 
3100       50.14384   2.381085   0.2056972 
3100.2     53.04149   2.412081   0.2079158 
3100.4     58.52697   2.44938    0.204745  
3100.6     65.01664   2.482662   0.2008514 
3100.8     69.09978   2.462937   0.2096953 
3101       73.59927   2.503595   0.2383893 
3101.2     80.98051   2.654418   0.2757354 
3101.4     90.57378   2.692595   0.2922878 
3101.6     101.8245   2.566796   0.2860348 
3101.8     108.9702   2.61148    0.2704781 
3102       104.7112   2.495947   0.255165  
3102.2     94.87749   2.520905   0.2431941 
3102.4     91.97184   2.5933     0.2365918 
3102.6     90.65126   2.612956   0.2393522 
3102.8     82.58933   2.564112   0.2445202 
3103       72.35515   2.534994   0.2540245 
3103.2     72.66221   2.522247   0.2613638 
3103.4     79.27235   2.485798   0.2592044 
3103.6     84.27168   2.489506   0.2667415 
3103.8     91.94507   2.541838   0.2852272 
3104       104.7191   2.509633   0.2972392 
3104.2     110.5164   2.473269   0.2907272 
3104.4     102.1438   2.550781   0.2714801 
3104.6     85.0557    2.700041   0.2563993 
3104.8     72.62346   2.70769    0.2566313 
3105       67.45818   2.552036   0.2565697 
3105.2     64.94509   2.468573   0.2546377 
3105.4     61.05184   2.44987    0.2588064 
3105.6     57.21903   2.499167   0.271242  
3105.8     53.81956   2.506413   0.2705058 
3106       52.73245   2.481455   0.2593586 
3106.2     59.79968   2.478637   0.2543128 
3106.4     70.13224   2.510295   0.2658275 
3106.6     78.04015   2.424024   0.2801252 
3106.8     81.10175   2.369947   0.2785313 
3107       78.49725   2.394101   0.277066  
3107.2     80.49062   2.436369   0.2907789 
3107.4     87.42992   2.393747   0.295872  
3107.6     87.2508    2.390612   0.2775943 
3107.8     79.96495   2.403225   0.2649647 
3108       73.31309   2.394235   0.2738381 
3108.2     71.74899   2.389404   0.2721345 
3108.4     70.79036   2.341114   0.259435  
3108.6     74.94674   2.305673   0.2610952 
3108.8     84.41476   2.233079   0.2735471 
3109       87.95732   2.127745   0.2783394 
3109.2     84.7099    1.935056   0.2855029 
3109.4     80.80962   1.555477   0.3111969 
3109.6     63.07394   1.308683   0.3604958 
3109.8     31.50789   1.091841   0.4489758 
3110       18.57581   1.054806   0.5374603 
3110.2     35.17665   1.475071   0.4472436 
3110.4     61.0458    2.239974   0.3129069 
3110.6     66.61253   2.497825   0.2386508 
3110.8     57.6185    2.457704   0.2226657 
3111       58.95702   2.455826   0.2232083 
3111.2     67.21173   2.475819   0.2321682 
3111.4     77.93109   2.506364   0.2575713 
3111.6     83.98946   2.497288   0.2671896 
3111.8     82.31606   2.519027   0.2547323 
3112       79.50685   2.523857   0.2539505 
3112.2     78.53998   2.542106   0.2573443 
3112.4     79.84158   2.59692    0.2624765 
3112.6     86.72414   2.596451   0.2784573 
3112.8     91.14116   2.561429   0.2895956 
3113       89.20244   2.558879   0.3000539 
3113.2     85.85564   2.538215   0.3141363 
3113.4     84.53959   2.533765   0.3258243 
3113.6     83.72115   2.511646   0.3148806 
3113.8     82.3717    2.484272   0.2830514 
3114       81.83113   2.505876   0.2715749 
3114.2     81.27664   2.559684   0.277738  
3114.4     84.00055   2.616903   0.2926849 
3114.6     86.86028   2.720571   0.3096599 
3114.8     85.49691   2.658712   0.3024438 
3115       86.59496   2.510573   0.294403  
3115.2     87.5658    2.539825   0.2989107 
3115.4     87.28638   2.498758   0.3117228 
3115.6     87.66021   2.452337   0.3242099 
3115.8     90.68504   2.442541   0.3218209 
3116       91.59329   2.490982   0.3159381 
3116.2     87.12758   2.524662   0.3014157 
3116.4     82.24464   2.505652   0.3101148 
3116.6     80.71123   2.522784   0.3215353 
3116.8     84.57178   2.622214   0.3204091 
3117       86.27995   2.564649   0.3200861 
3117.2     84.05305   2.509902   0.3344371 
3117.4     83.46745   2.537798   0.3418423 
3117.6     84.25478   2.553914   0.3447624 
3117.8     86.25411   2.549755   0.3607804 
3118       90.33725   2.551768   0.3657566 
3118.2     88.17991   2.561294   0.3509513 
