~Version
 VERS              .         2.0                           : CWLS LOG ASCII STANDARD - VERSION 2.0
 WRAP              .         NO                            : ONE LINE PER DEPTH STEP
 DLM               .         SPACE                         : DELIMITING CHARACTER(SPACE TAB OR COMMA)
~Well Information
#_______________________________________________________________________________
#
#PARAMETER_NAME    .UNIT     VALUE                         : DESCRIPTION
#_______________________________________________________________________________
STRT               .m        2900                          : First reference value
STOP               .m        3129.8                        : Last reference value
STEP               .m        0.2                           : Step increment
NULL               .         -9999                         : Missing value
COMP               .                                       : Company
WELL               .         200                           : Well name
FLD                .                                       : Field
LOC                .                                       : Location
CNTY               .                                       : County
STAT               .                                       : State
CTRY               .                                       : Country
SRVC               .                                       : Service Company
DATE               .                                       : Date
API                .                                       : API number
Cartographic_reference_system .         GCS_WGS_1984                  : GEOGCS["GCS_WGS_1984",DATUM["D_WGS_1984",SPHEROID["WGS_1984",6378137.0,298.257223563]],PRIMEM["Greenwich",0.0],UNIT["Degree",0.0174532925199433],AUTHORITY["EPSG",4326]]
EREF               .m        139.76                        : 
HZCS               .GCS_WGS_1984 World_Mercator                : PROJCS["World_Mercator",GEOGCS["GCS_WGS_1984",DATUM["D_WGS_1984",SPHEROID["WGS_1984",6378137.0,298.257223563]],PRIMEM["Greenwich",0.0],UNIT["Degree",0.0174532925199433]],PROJECTION["Mercator"],PARAMETER["False_Easting",0.0],PARAMETER["False_Northing",0.0],PARAMETER["Central_Meridian",0.0],PARAMETER["Standard_Parallel_1",0.0],UNIT["Meter",1.0],AUTHORITY["ESRI",54004]]
LATI               .dega     2.1856221126                  : GCS_WGS_1984
LONG               .dega     2.052578559                   : GCS_WGS_1984
PROJECT_UPGRADE_TIME .         2014-05-27T11_38_46           : 
Pad                .         Pad2                          : 
group              .         Pad2                          : 
Интер-р            .         Зайцев                        : 
Куст               .         2                             : 
Статус             .         Не проверено                  : 
Тип                .         Разведка                      : 
~Parameter Information Block
#_______________________________________________________________________________
#
#PARAMETER_NAME    .UNIT     VALUE                         : DESCRIPTION
#_______________________________________________________________________________
SET                .         LQC                           : 
PROJECT_UPGRADE_TIME .         2014-05-27T11_38_46           : 
TLFamily_GR_NORM   .         Gamma Ray                     : 
TLFamily_MD        .         Measured Depth                : 
TLFamily_RHOB_NORM .         Bulk Density                  : 
TLFamily_TNPH_NORM .         Neutron Porosity              : 
~Curve Information
#_______________________________________________________________________________
#
#LOGNAME           .UNIT     LOG_ID                        : DESCRIPTION
#_______________________________________________________________________________
MD                 .m                                      :  
GR_NORM            .gAPI                                   : Normalised By Techlog 
RHOB_NORM          .g/cm3                                  : Normalized By Techlog 
TNPH_NORM          .v/v                                    : Normalised By Techlog 
~Ascii
2900.0     87.16734   -9999      0.3196157 
2900.2     87.85696   -9999      0.3173267 
2900.4     88.19131   -9999      0.30339   
2900.6     90.53699   -9999      0.3064641 
2900.8     91.67676   -9999      0.3009061 
2901       93.30346   -9999      0.2750018 
2901.2     93.45251   -9999      0.2686888 
2901.4     86.66351   -9999      0.292372  
2901.6     80.67247   -9999      0.3030426 
2901.8     84.21205   -9999      0.2915571 
2902       89.42801   -9999      0.2766626 
2902.2     90.88876   -9999      0.2786804 
2902.4     89.12487   -9999      0.2990114 
2902.6     85.68771   -9999      0.3126825 
2902.8     87.31937   -9999      0.3047257 
2903       91.56149   -9999      0.3140854 
2903.2     90.96329   -9999      0.3300241 
2903.4     88.24677   -9999      0.3080918 
2903.6     90.63635   -9999      0.2729171 
2903.8     91.42535   -9999      0.2646104 
2904       88.66783   -9999      0.2857251 
2904.2     88.74931   -9999      0.3028445 
2904.4     91.42622   -9999      0.2974175 
2904.6     94.81886   -9999      0.2954882 
2904.8     98.19945   -9999      0.2958229 
2905       96.91657   -9999      0.2880811 
2905.2     90.32433   -9999      0.2824482 
2905.4     83.54439   -9999      0.2795904 
2905.6     81.71784   -9999      0.2809337 
2905.8     85.54958   -9999      0.2788785 
2906       89.75494   -9999      0.2689405 
2906.2     90.11069   -9999      0.2722415 
2906.4     86.40615   -9999      0.2883477 
2906.6     81.07989   -9999      0.2969518 
2906.8     78.58668   -9999      0.299281  
2907       81.56979   -9999      0.2865747 
2907.2     88.71254   -9999      0.2759496 
2907.4     90.77925   -9999      0.2802787 
2907.6     86.16965   -9999      0.2904469 
2907.8     82.8288    -9999      0.3004135 
2908       85.64      -9999      0.3170759 
2908.2     88.94408   -9999      0.3215487 
2908.4     89.9424    -9999      0.3052602 
2908.6     87.40383   -9999      0.2831059 
2908.8     85.87154   -9999      0.2681917 
2909       87.62642   -9999      0.2599395 
2909.2     88.50486   -9999      0.2616735 
2909.4     86.1729    -9999      0.2815214 
2909.6     84.88181   -9999      0.3032728 
2909.8     85.32201   -9999      0.3037985 
2910       86.04246   -9999      0.2842607 
2910.2     85.3409    -9999      0.2615298 
2910.4     81.72334   -9999      0.2439469 
2910.6     80.15872   -9999      0.2362323 
2910.8     81.78046   -9999      0.2453672 
2911       87.48233   -9999      0.2643856 
2911.2     92.70724   -9999      0.2788892 
2911.4     91.0389    -9999      0.2916321 
2911.6     88.62807   -9999      0.2948644 
2911.8     87.97223   -9999      0.2809061 
2912       87.16734   -9999      0.2651013 
2912.2     85.63902   -9999      0.262043  
2912.4     83.44862   -9999      0.2655947 
2912.6     82.66087   -9999      0.2632379 
2912.8     82.95004   -9999      0.26074   
2913       87.96329   -9999      0.2841161 
2913.2     87.71784   -9999      0.2895759 
2913.4     85.0142    -9999      0.2872881 
2913.6     84.93645   -9999      0.2896652 
2913.8     86.74104   -9999      0.2981155 
2914       87.27663   -9999      0.30284   
2914.2     84.86591   -9999      0.3081508 
2914.4     84.77861   -9999      0.3139428 
2914.6     85.63007   -9999      0.3081562 
2914.8     85.87054   -9999      0.2973614 
2915       85.61217   -9999      0.2819413 
2915.2     84.16733   -9999      0.2756176 
2915.4     87.62488   -9999      0.2860613 
2915.6     92.26603   -9999      0.2911288 
2915.8     91.325     -9999      0.2822608 
2916       90.03019   -9999      0.2764671 
2916.2     91.44125   -9999      0.2826516 
2916.4     89.84612   -9999      0.2822017 
2916.6     88.04974   -9999      0.2714152 
2916.8     87.07789   -9999      0.2756444 
2917       83.03152   -9999      0.2948716 
2917.2     82.70162   -9999      0.3019342 
2917.4     88.89617   -9999      0.2894531 
2917.6     90.04311   -9999      0.2728555 
2917.8     84.25677   -9999      0.266099  
2918       79.16999   -9999      0.2644792 
2918.2     81.35316   -9999      0.2629693 
2918.4     88.46187   -9999      0.2708153 
2918.6     92.92784   -9999      0.2778165 
2918.8     90.83311   -9999      0.2706825 
2919       86.36739   -9999      0.2595593 
2919.2     86.63371   -9999      0.2602742 
2919.4     89.6791    -9999      0.2654598 
2919.6     92.45781   -9999      0.2733606 
2919.8     92.02754   -9999      0.2855761 
2920       86.19846   -9999      0.2897625 
2920.2     82.13421   -9999      0.2873226 
2920.4     83.11676   -9999      0.2902893 
2920.6     82.28525   -9999      0.301563  
2920.8     81.68903   -9999      0.3078224 
2921       84.65425   -9999      0.2968536 
2921.2     85.13421   -9999      0.2754462 
2921.4     83.54659   -9999      0.2586674 
2921.6     83.84538   -9999      0.2576281 
2921.8     87.40085   -9999      0.2655493 
2922       90.46941   -9999      0.2700051 
2922.2     89.45385   -9999      0.2770499 
2922.4     88.28895   -9999      0.2889054 
2922.6     87.71287   -9999      0.2771159 
2922.8     86.48167   -9999      0.2567545 
2923       87.1236    -9999      0.2523959 
2923.2     89.71718   -9999      0.2496347 
2923.4     88.13055   -9999      0.2644596 
2923.6     84.37104   -9999      0.2850665 
2923.8     84.4108    -9999      0.2917561 
2924       88.29518   -9999      0.2869451 
2924.2     92.30081   -9999      0.2735891 
2924.4     92.6941    -9999      0.2627212 
2924.6     90.47041   -9999      0.2694036 
2924.8     92.79171   -9999      0.2869138 
2925       99.77547   -9999      0.2950679 
2925.2     103.4403   -9999      0.2933767 
2925.4     102.8272   -9999      0.3029691 
2925.6     103.9093   -9999      0.3137641 
2925.8     108.3343   -9999      0.3040046 
2926       108.9245   -9999      0.2865569 
2926.2     102.6284   -9999      0.2781485 
2926.4     100.5152   -9999      0.2851484 
2926.6     104.421    -9999      0.2904996 
2926.8     107.583    -9999      0.2860901 
2927       107.0573   -9999      0.2836672 
2927.2     105.5419   -9999      0.2768902 
2927.4     97.77074   -9999      0.2651306 
2927.6     91.27531   -9999      0.2605437 
2927.8     90.10373   -9999      0.2558522 
2928       84.86591   -9999      0.2517926 
2928.2     81.00337   -9999      0.2537479 
2928.4     80.79894   -9999      0.2563721 
2928.6     83.2571    -9999      0.249151  
2928.8     87.09678   -9999      0.2473037 
2929       94.13916   -9999      0.2555684 
2929.2     99.07093   -9999      0.2531785 
2929.4     99.15947   -9999      0.2436889 
2929.6     98.51446   -9999      0.2366625 
2929.8     98.94969   -9999      0.2416574 
2930       100.9778   -9999      0.25675   
2930.2     101.0723   -9999      0.2652423 
2930.4     100.1995   -9999      0.2504811 
2930.6     101.5492   -9999      0.2557532 
2930.8     103.791    -9999      0.2509145 
2931       104.7549   -9999      0.2480034 
2931.2     102.3959   -9999      0.2507761 
2931.4     99.70401   -9999      0.2533281 
2931.6     101.9706   -9999      0.2541834 
2931.8     104.2173   -9999      0.2592586 
2932       99.60256   -9999      0.2561771 
2932.2     94.69167   -9999      0.2440946 
2932.4     95.44795   -9999      0.2421034 
2932.6     98.70723   -9999      0.2421321 
2932.8     97.96096   -9999      0.2355818 
2933       95.68338   -9999      0.2326475 
2933.2     93.33923   2.587461   0.2384482 
2933.4     89.96329   2.666518   0.2463558 
2933.6     83.8732    2.54479    0.2468566 
2933.8     79.75329   2.464548   0.2395388 
2934       81.82417   2.498899   0.2410398 
2934.2     78.02921   2.488298   0.2379155 
2934.4     70.37761   2.457712   0.2159993 
2934.6     63.47043   2.433417   0.1882049 
2934.8     61.70164   2.402286   0.1733434 
2935       70.18093   2.40403    0.1702797 
2935.2     74.01663   2.419461   0.1767765 
2935.4     75.61539   2.471541   0.1986682 
2935.6     83.6357    2.536605   0.2320085 
2935.8     91.00204   2.61953    0.2448647 
2936       80.98747   2.644891   0.2345501 
2936.2     67.21571   2.475282   0.2275294 
