~Version
 VERS              .         2.0                           : CWLS LOG ASCII STANDARD - VERSION 2.0
 WRAP              .         NO                            : ONE LINE PER DEPTH STEP
 DLM               .         SPACE                         : DELIMITING CHARACTER(SPACE TAB OR COMMA)
~Well Information
#_______________________________________________________________________________
#
#PARAMETER_NAME    .UNIT     VALUE                         : DESCRIPTION
#_______________________________________________________________________________
STRT               .m        2900                          : First reference value
STOP               .m        3129.8                        : Last reference value
STEP               .m        0.2                           : Step increment
NULL               .         -9999                         : Missing value
COMP               .                                       : Company
WELL               .         200                           : Well name
FLD                .                                       : Field
LOC                .                                       : Location
CNTY               .                                       : County
STAT               .                                       : State
CTRY               .                                       : Country
SRVC               .                                       : Service Company
DATE               .                                       : Date
API                .                                       : API number
Cartographic_reference_system .         GCS_WGS_1984                  : GEOGCS["GCS_WGS_1984",DATUM["D_WGS_1984",SPHEROID["WGS_1984",6378137.0,298.257223563]],PRIMEM["Greenwich",0.0],UNIT["Degree",0.0174532925199433],AUTHORITY["EPSG",4326]]
EREF               .m        139.76                        : 
HZCS               .GCS_WGS_1984 World_Mercator                : PROJCS["World_Mercator",GEOGCS["GCS_WGS_1984",DATUM["D_WGS_1984",SPHEROID["WGS_1984",6378137.0,298.257223563]],PRIMEM["Greenwich",0.0],UNIT["Degree",0.0174532925199433]],PROJECTION["Mercator"],PARAMETER["False_Easting",0.0],PARAMETER["False_Northing",0.0],PARAMETER["Central_Meridian",0.0],PARAMETER["Standard_Parallel_1",0.0],UNIT["Meter",1.0],AUTHORITY["ESRI",54004]]
LATI               .dega     2.1856221126                  : GCS_WGS_1984
LONG               .dega     2.052578559                   : GCS_WGS_1984
PROJECT_UPGRADE_TIME .         2014-05-27T11_38_46           : 
Pad                .         Pad2                          : 
group              .         Pad2                          : 
Интер-р            .         Зайцев                        : 
Куст               .         2                             : 
Статус             .         Не проверено                  : 
Тип                .         Разведка                      : 
~Parameter Information Block
#_______________________________________________________________________________
#
#PARAMETER_NAME    .UNIT     VALUE                         : DESCRIPTION
#_______________________________________________________________________________
SET                .         LQC                           : 
PROJECT_UPGRADE_TIME .         2014-05-27T11_38_46           : 
TLFamily_GR_NORM   .         Gamma Ray                     : 
TLFamily_MD        .         Measured Depth                : 
TLFamily_RHOB_NORM .         Bulk Density                  : 
TLFamily_TNPH_NORM .         Neutron Porosity              : 
~Curve Information
#_______________________________________________________________________________
#
#LOGNAME           .UNIT     LOG_ID                        : DESCRIPTION
#_______________________________________________________________________________
MD                 .m                                      :  
GR_NORM            .gAPI                                   : Normalised By Techlog 
RHOB_NORM          .g/cm3                                  : Normalized By Techlog 
TNPH_NORM          .v/v                                    : Normalised By Techlog 
~Ascii
# ...
2972.8     109.8636   2.438247   0.2616664 
2973       105.9553   2.417583   0.2564207 
2973.2     99.75062   2.381756   0.2485763 
2973.4     98.41634   2.364027   0.2506524 
2973.6     100.5525   2.442407   0.2536872 
2973.8     101.0554   2.543314   0.2501122 
2974       100.9689   2.556732   0.247334  
2974.2     102.382    2.505876   0.2453431 
2974.4     103.4288   2.507832   0.2349868 
2974.6     104.0554   2.462535   0.2262818 
2974.8     104.5661   2.514062   0.2328144 
2975       104.2283   2.495275   0.2421357 
2975.2     105.1792   2.486017   0.244672  
2975.4     105.4864   2.546679   0.2430075 
2975.6     105.8778   2.505876   0.2478615 
2975.8     107.8215   2.455691   0.2583135 
2976       106.6589   2.478637   0.2690886 
2976.2     105.4595   2.477698   0.2705049 
2976.4     105.5576   2.490324   0.2675947 
2976.6     108.7079   2.514196   0.266879  
2976.8     109.7125   2.525199   0.2658786 
2977       108.5618   2.564112   0.2584831 
2977.2     104.5641   2.533384   0.2605133 
2977.4     100.4422   2.518306   0.269748  
2977.6     100.325    2.462669   0.267965  
2977.8     99.70789   2.44026    0.2651486 
2978       94.53864   2.45596    0.2615387 
2978.2     88.97687   2.457033   0.2570677 
2978.4     88.37733   2.482635   0.2567563 
2978.6     90.75559   2.485749   0.2528091 
2978.8     94.11731   2.514062   0.2538603 
2979       100.2197   2.519027   0.2690431 
2979.2     106.6936   2.556329   0.2844258 
2979.4     111.0624   2.507826   0.2778913 
2979.6     110.904    2.517416   0.2631612 
2979.8     104.8593   2.523589   0.2644596 
2980       97.39256   2.464548   0.2764092 
2980.2     94.7036    2.477564   0.287004  
2980.4     97.66071   2.478289   0.2818927 
2980.6     98.86423   2.523991   0.2676902 
2980.8     94.38361   2.51433    0.2466505 
2981       92.77779   2.550426   0.2279846 
2981.2     97.77116   2.583032   0.2274304 
2981.4     105.7704   2.637485   0.2452154 
2981.6     113.7162   2.670118   0.2652191 
2981.8     116.7857   2.537007   0.2575318 
2982       118.0656   2.441065   0.264764  
2982.2     122.6804   2.522247   0.2832844 
2982.4     131.1506   2.522001   0.2893661 
2982.6     138.7367   2.539825   0.291732  
2982.8     141.5538   2.574981   0.2971981 
2983       143.7698   2.564247   0.3095403 
2983.2     147.4356   2.549621   0.3248212 
2983.4     147.6564   2.495095   0.3215505 
2983.6     141.5032   2.512183   0.2978228 
2983.8     133.3468   2.5884     0.2855779 
2984       130.5754   2.564381   0.2962218 
2984.2     128.3057   2.540093   0.3056386 
2984.4     126.2829   2.46987    0.3103823 
2984.6     126.9702   2.472599   0.3227785 
2984.8     129.3074   2.457704   0.3252835 
2985       128.3803   2.44764    0.3141889 
2985.2     118.6509   2.460253   0.3088763 
2985.4     106.8645   2.435867   0.3064526 
2985.6     100.6847   2.439858   0.2924415 
2985.8     102.1037   2.451666   0.2783618 
2986       105.2607   2.410337   0.2820823 
2986.2     103.9927   2.408458   0.2799092 
2986.4     102.545    2.354157   0.2793655 
2986.6     107.6893   2.444957   0.2888861 
2986.8     115.2465   2.428049   0.3002511 
2987       127.6787   2.42295    0.3133376 
2987.2     156.9592   2.428989   0.3321891 
2987.4     189.1167   2.446137   0.3363492 
2987.6     202.7611   2.4412     0.3147003 
2987.8     191.3812   2.44348    0.2955748 
2988       178.9003   2.430733   0.3056815 
2988.2     180.8837   2.396516   0.3253986 
2988.4     187.8192   2.386422   0.3136019 
2988.6     191.0652   2.46173    0.2953936 
2988.8     201.6005   2.513256   0.2994122 
2989       219.7684   2.530432   0.309659  
2989.2     224.6584   2.367398   0.3202574 
2989.4     215.136    2.417018   0.3263679 
2989.6     204.2229   2.443615   0.3252309 
2989.8     194.262    2.416241   0.3275146 
2990       184.8774   2.442139   0.3354187 
2990.2     182.1546   2.539825   0.3356186 
2990.4     190.4452   2.561641   0.3311282 
2990.6     196.3289   2.537544   0.3282312 
2990.8     192.5816   2.380414   0.3319945 
2991       202.5197   2.299903   0.3456245 
2991.2     220.6488   2.254951   0.3489648 
2991.4     232.2491   2.361369   0.3355723 
2991.6     246.0718   2.365654   0.3404806 
2991.8     259.0665   2.382293   0.3625171 
2992       263.1585   2.377864   0.37268   
2992.2     256.0744   2.375046   0.3625037 
2992.4     245.1808   2.394015   0.3315358 
2992.6     236.1784   2.452471   0.3107951 
2992.8     227.8254   2.367935   0.3139623 
2993       219.2388   2.417583   0.3384351 
2993.2     207.5408   2.431136   0.3633248 
2993.4     190.5355   2.474615   0.3605008 
2993.6     176.7221   2.521307   0.3398755 
2993.8     171.2984   2.548815   0.3191044 
2994       169.6171   2.508023   0.3064025 
2994.2     170.8503   2.557537   0.309709  
2994.4     175.1465   2.562097   0.3234737 
2994.6     191.2361   2.344587   0.3540686 
2994.8     225.2894   2.274006   0.3959446 
2995       259.0068   2.276958   0.4038719 
2995.2     270.8757   2.248108   0.3686864 
2995.4     272.7473   2.286835   0.3380068 
2995.6     295.3486   2.282996   0.3372607 
2995.8     345.8736   2.260587   0.3638263 
2996       407.8669   2.315871   0.3833561 
2996.2     446.7556   2.291852   0.3567601 
2996.4     393.744    2.316743   0.2778854 
2996.6     282.5467   2.396113   0.2450923 
2996.8     221.6236   2.352369   0.2498391 
2997       229.3736   2.221808   0.2661178 
2997.2     247.1976   2.189738   0.2752294 
2997.4     266.7395   2.279185   0.2892244 
2997.6     316.9329   2.324727   0.3142514 
2997.8     360.33     2.344989   0.3382495 
2998       365.4576   2.31775    0.3435523 
2998.2     354.0757   2.241935   0.3610884 
2998.4     347.3994   2.226146   0.3877949 
2998.6     351.6063   2.247169   0.3896208 
2998.8     351.0418   2.264478   0.366218  
2999       340.8961   2.237508   0.3464964 
2999.2     325.3943   2.288229   0.3399772 
2999.4     301.8835   2.28867    0.3492209 
2999.6     277.7382   2.210939   0.370888  
2999.8     268.0148   2.221271   0.3701232 
3000       270.1373   2.257501   0.3436763 
3000.2     276.5915   2.241399   0.3468123 
3000.4     289.4235   2.253001   0.380601  
3000.6     297.6213   2.206108   0.4106481 
3000.8     295.8882   2.24945    0.4152913 
3001       297.9492   2.200741   0.3860413 
3001.2     307.0098   2.137406   0.3548539 
3001.4     316.025    2.106211   0.3531416 
3001.6     308.9942   2.132307   0.3640708 
3001.8     297.2725   2.139285   0.3813071 
3002       291.7196   2.141029   0.4045573 
3002.2     286.0247   2.18437    0.4170753 
3002.4     276.6277   2.204354   0.3972955 
3002.6     270.8975   2.21644    0.3729415 
3002.8     267.2745   2.196313   0.3829009 
3003       258.5855   2.176856   0.4128631 
3003.2     251.5501   2.148275   0.4202211 
3003.4     249.9431   2.181331   0.4074726 
3003.6     240.0857   2.253207   0.3996044 
3003.8     214.7233   2.279105   0.3858941 
3004       185.5263   2.341635   0.3800327 
3004.2     171.999    2.355456   0.3864153 
3004.4     175.8967   2.310234   0.3886743 
3004.6     182.6078   2.263808   0.3736438 
3004.8     181.3438   2.298293   0.3598149 
3005       179.4518   2.281923   0.3618924 
3005.2     185.9824   2.262734   0.3779275 
3005.4     194.174    2.223469   0.3924207 
3005.6     189.7078   2.225565   0.3823414 
3005.8     176.9904   2.219795   0.3624895 
3006       162.84     2.214025   0.3530164 
3006.2     149.2322   2.306076   0.3360675 
3006.4     138.4784   2.350611   0.3227777 
3006.6     128.58     2.274006   0.3264053 
3006.8     125.3415   2.271859   0.3306041 
3007       125.8851   2.330229   0.3313538 
3007.2     126.6681   2.327813   0.3197924 
3007.4     134.1887   2.356867   0.3026436 
3007.6     140.2451   2.332913   0.3029177 
3007.8     136.9361   2.329021   0.306872  
3008       132.9026   2.328216   0.2942379 
3008.2     139.0159   2.298159   0.2877581 
3008.4     153.5859   2.258689   0.3006752 
3008.6     163.4988   2.312785   0.3144968 
3008.8     151.149    2.323117   0.3132974 
3009       132.7088   2.311175   0.3079348 
