~Version
 VERS              .         2.0                           : CWLS LOG ASCII STANDARD - VERSION 2.0
 WRAP              .         NO                            : ONE LINE PER DEPTH STEP
 DLM               .         SPACE                         : DELIMITING CHARACTER(SPACE TAB OR COMMA)
~Well Information
#_______________________________________________________________________________
#
#PARAMETER_NAME    .UNIT     VALUE                         : DESCRIPTION
#_______________________________________________________________________________
STRT               .m        2900                          : First reference value
STOP               .m        3129.8                        : Last reference value
STEP               .m        0.2                           : Step increment
NULL               .         -9999                         : Missing value
COMP               .                                       : Company
WELL               .         200                           : Well name
FLD                .                                       : Field
LOC                .                                       : Location
CNTY               .                                       : County
STAT               .                                       : State
CTRY               .                                       : Country
SRVC               .                                       : Service Company
DATE               .                                       : Date
API                .                                       : API number
Cartographic_reference_system .         GCS_WGS_1984                  : GEOGCS["GCS_WGS_1984",DATUM["D_WGS_1984",SPHEROID["WGS_1984",6378137.0,298.257223563]],PRIMEM["Greenwich",0.0],UNIT["Degree",0.0174532925199433],AUTHORITY["EPSG",4326]]
EREF               .m        139.76                        : 
HZCS               .GCS_WGS_1984 World_Mercator                : PROJCS["World_Mercator",GEOGCS["GCS_WGS_1984",DATUM["D_WGS_1984",SPHEROID["WGS_1984",6378137.0,298.257223563]],PRIMEM["Greenwich",0.0],UNIT["Degree",0.0174532925199433]],PROJECTION["Mercator"],PARAMETER["False_Easting",0.0],PARAMETER["False_Northing",0.0],PARAMETER["Central_Meridian",0.0],PARAMETER["Standard_Parallel_1",0.0],UNIT["Meter",1.0],AUTHORITY["ESRI",54004]]
LATI               .dega     2.1856221126                  : GCS_WGS_1984
LONG               .dega     2.052578559                   : GCS_WGS_1984
PROJECT_UPGRADE_TIME .         2014-05-27T11_38_46           : 
Pad                .         Pad2                          : 
group              .         Pad2                          : 
Интер-р            .         Зайцев                        : 
Куст               .         2                             : 
Статус             .         Не проверено                  : 
Тип                .         Разведка                      : 
~Parameter Information Block
#_______________________________________________________________________________
#
#PARAMETER_NAME    .UNIT     VALUE                         : DESCRIPTION
#_______________________________________________________________________________
SET                .         LQC                           : 
PROJECT_UPGRADE_TIME .         2014-05-27T11_38_46           : 
TLFamily_GR_NORM   .         Gamma Ray                     : 
TLFamily_MD        .         Measured Depth                : 
TLFamily_RHOB_NORM .         Bulk Density                  : 
TLFamily_TNPH_NORM .         Neutron Porosity              : 
~Curve Information
#_______________________________________________________________________________
#
#LOGNAME           .UNIT     LOG_ID                        : DESCRIPTION
#_______________________________________________________________________________
MD                 .m                                      :  
GR_NORM            .gAPI                                   : Normalised By Techlog 
RHOB_NORM          .g/cm3                                  : Normalized By Techlog 
TNPH_NORM          .v/v                                    : Normalised By Techlog 
~Ascii
# ...
2936.4     68.10272   2.426141   0.2182825 
2936.6     84.1564    2.462535   0.2143841 
2936.8     94.41144   2.472733   0.2246237 
2937       90.41079   2.505474   0.2412049 
2937.2     83.67545   2.515269   0.2599431 
2937.4     78.96643   2.480264   0.2579404 
2937.6     80.88712   2.458777   0.2463925 
2937.8     87.2816    2.478369   0.2451458 
2938       85.22563   2.526809   0.2552338 
2938.2     77.39224   2.616981   0.2568009 
2938.4     77.09631   2.596957   0.2459899 
2938.6     83.46181   2.66153    0.2422919 
2938.8     94.74135   2.486822   0.2531607 
2939       101.6635   2.536873   0.2606927 
2939.2     95.86027   2.588266   0.2629452 
2939.4     87.76242   2.726618   0.2737178 
2939.6     81.17032   2.651869   0.2693394 
2939.8     71.17662   2.626508   0.2574363 
2940       62.5761    2.457302   0.2556005 
2940.2     61.86559   2.407519   0.2621634 
2940.4     66.96418   2.407091   0.2626125 
2940.6     71.96761   2.385647   0.2544717 
2940.8     71.67844   2.422011   0.2493982 
2941       68.42008   2.390209   0.2480373 
2941.2     65.84539   2.357871   0.2479989 
2941.4     63.24692   2.443684   0.2415178 
2941.6     67.21272   2.476624   0.2340093 
2941.8     81.19318   2.469781   0.2432637 
2942       94.0855    2.627984   0.2583385 
2942.2     102.3343   2.662067   0.2640589 
2942.4     108.3273   2.430183   0.2667323 
2942.6     107.7947   2.406848   0.2647773 
2942.8     96.74665   2.444286   0.2425355 
2943       81.68605   2.442944   0.2264487 
2943.2     70.0915    2.444554   0.2301612 
2943.4     62.79348   2.378603   0.2321818 
2943.6     56.91793   2.367532   0.2365117 
2943.8     55.33894   2.438516   0.2497373 
2944       58.76126   2.445627   0.2562922 
2944.2     62.10508   2.443615   0.2515391 
2944.4     62.42873   2.447768   0.2451038 
2944.6     64.94807   2.446969   0.2334837 
2944.8     70.80696   2.456765   0.2238714 
2945       71.38331   2.45918    0.2250226 
2945.2     65.26407   2.451263   0.231233  
2945.4     59.276     2.415056   0.236156  
2945.6     58.96994   2.397723   0.2363019 
2945.8     63.98616   2.382561   0.234742  
2946       67.91826   2.318555   0.2375344 
2946.2     67.34688   2.301245   0.2370426 
2946.4     66.13525   2.303128   0.2345369 
2946.6     71.99345   2.308357   0.2387829 
2946.8     86.03748   2.385916   0.2432414 
2947       97.32499   2.438918   0.2470262 
2947.2     101.5035   2.440663   0.2529206 
2947.4     97.17794   2.41081    0.2550701 
2947.6     83.91394   2.439052   0.2533062 
2947.8     70.77119   2.381219   0.2491064 
2948       64.90534   2.34566    0.2428247 
2948.2     67.14913   2.398931   0.2377878 
2948.4     69.90497   2.474917   0.2335759 
2948.6     64.76027   2.472196   0.2252216 
2948.8     60.48733   2.46334    0.2146714 
2949       64.19782   2.511646   0.2230397 
2949.2     71.21736   2.40242    0.2439143 
2949.4     73.37312   2.424908   0.250767  
2949.6     67.72549   2.402152   0.2406775 
2949.8     62.14482   2.447506   0.234393  
2950       59.54629   2.457704   0.2242409 
2950.2     56.09018   2.492055   0.2144555 
2950.4     52.27506   2.499582   0.2038907 
2950.6     50.66753   2.407117   0.1996163 
2950.8     52.90536   2.439723   0.2121726 
2951       56.91297   2.493263   0.2357594 
2951.2     61.21273   2.533921   0.2403482 
2951.4     65.92899   2.521474   0.2320426 
2951.6     69.95039   2.535263   0.2319059 
2951.8     75.62842   2.509499   0.2383331 
2952       86.58501   2.548279   0.2470137 
2952.2     98.28988   2.593499   0.2528929 
2952.4     104.2853   2.560809   0.2533783 
2952.6     105.7695   2.570553   0.2515499 
2952.8     104.1716   2.55794    0.25154   
2953       100.2952   2.519563   0.2579128 
2953.2     96.98515   2.514464   0.2588258 
2953.4     98.22506   2.544094   0.2511643 
2953.6     106.6072   2.662738   0.2551392 
2953.8     112.6519   2.661798   0.2627185 
2954       109.4969   2.48642    0.2566554 
2954.2     105.0014   2.451129   0.251955  
2954.4     104.7307   2.465801   0.2555092 
2954.6     104.1229   2.518087   0.2551686 
2954.8     104.2263   2.478905   0.2466701 
2955       102.9007   2.437845   0.2453422 
2955.2     99.33128   2.448043   0.2487575 
2955.4     97.55645   2.444371   0.2516392 
2955.6     95.7112    2.400407   0.2626498 
2955.8     86.87916   2.414899   0.2654279 
2956       72.32932   2.451532   0.2397351 
2956.2     61.32999   2.45663    0.2151623 
2956.4     58.32222   2.464462   0.2055396 
2956.6     61.96596   2.51178    0.2107608 
2956.8     73.20279   2.462669   0.2317095 
2957       85.99674   2.416644   0.2507431 
2957.2     86.90102   2.463474   0.2635583 
2957.4     77.72128   2.543873   0.2635711 
2957.6     68.61783   2.532445   0.2602063 
2957.8     66.45255   2.449921   0.2618868 
2958       73.24551   2.500777   0.2609239 
2958.2     85.43033   2.475551   0.2605366 
2958.4     96.11427   2.50133    0.2604387 
2958.6     100.8049   2.540362   0.2554783 
2958.8     94.37965   2.515135   0.2525976 
2959       78.04511   2.479845   0.2505218 
2959.2     64.09448   2.414094   0.2425837 
2959.4     61.34779   2.411212   0.2300679 
2959.6     65.84638   2.355724   0.221502  
2959.8     65.26705   2.369947   0.2148615 
2960       56.86129   2.383232   0.2089349 
2960.2     50.6417    2.386989   0.2105761 
2960.4     49.16158   2.408968   0.2173467 
2960.6     52.98187   2.408727   0.2224953 
2960.8     60.43268   2.454215   0.228363  
2961       63.11667   2.470183   0.2328795 
2961.2     57.67812   2.497691   0.2228103 
2961.4     53.43907   2.568898   0.2101588 
2961.6     50.90403   2.4938     0.1977404 
2961.8     46.45322   2.439187   0.1847093 
2962       44.60493   2.400944   0.1819088 
2962.2     46.962     2.369277   0.1935085 
2962.4     48.08278   2.341748   0.2143458 
2962.6     51.54298   2.29722    0.2359941 
2962.8     62.8593    2.303929   0.2516909 
2963       75.6155    2.340829   0.2533927 
2963.2     80.34058   2.395577   0.2431504 
2963.4     72.88741   2.375986   0.2374663 
2963.6     62.68242   2.356127   0.2432271 
2963.8     59.8275    2.388733   0.2484808 
2964       69.08388   2.408056   0.2413441 
2964.2     81.89274   2.40497    0.2308251 
2964.4     83.44249   2.38303    0.2315911 
2964.6     72.43665   2.416107   0.2420438 
2964.8     61.19087   2.417315   0.2327965 
2965       54.02725   2.511915   0.2098568 
2965.2     48.52411   2.627045   0.1993718 
2965.4     43.75282   2.543681   0.1946136 
2965.6     41.00474   2.541301   0.1892856 
2965.8     41.80069   2.608527   0.192982  
2966       47.07827   2.597793   0.2004891 
2966.2     55.03586   2.56948    0.2073821 
2966.4     66.18409   2.454098   0.2137215 
2966.6     79.65392   2.572029   0.2175771 
2966.8     80.10705   2.69038    0.218922  
2967       65.434     2.590949   0.2181947 
2967.2     51.3502    2.492995   0.2129044 
2967.4     46.61357   2.511265   0.2104175 
2967.6     50.30582   2.547205   0.2139753 
2967.8     56.39524   2.475416   0.2166133 
2968       62.08521   2.43865    0.220274  
2968.2     66.97822   2.471525   0.2259561 
2968.4     67.65685   2.493323   0.2286804 
2968.6     64.20279   2.454618   0.2362894 
2968.8     59.49461   2.482394   0.2403973 
2969       57.64931   2.477832   0.2260998 
2969.2     61.79604   2.503998   0.2152935 
2969.4     67.65431   2.57741    0.2182441 
2969.6     73.01596   2.552438   0.2265817 
2969.8     76.38165   2.581959   0.2407587 
2970       77.7788    2.555793   0.2577638 
2970.2     82.34985   2.525065   0.2662302 
2970.4     91.62904   2.432224   0.2738798 
2970.6     100.0835   2.461595   0.2740576 
2970.8     100.169    2.476624   0.2601787 
2971       92.61482   2.454618   0.2545323 
2971.2     81.44558   2.44442    0.2546519 
2971.4     67.71365   2.449909   0.2398221 
2971.6     58.93318   2.445493   0.2231405 
2971.8     57.77352   2.520771   0.2176673 
2972       64.65294   2.493665   0.2242837 
2972.2     83.49559   2.448445   0.2466496 
2972.4     103.0533   2.454041   0.2660251 
2972.6     110.0653   2.42711    0.2650959 
