~Version
 VERS              .         2.0                           : CWLS LOG ASCII STANDARD - VERSION 2.0
 WRAP              .         NO                            : ONE LINE PER DEPTH STEP
 DLM               .         SPACE                         : DELIMITING CHARACTER(SPACE TAB OR COMMA)
~Well Information
#_______________________________________________________________________________
#
#PARAMETER_NAME    .UNIT     VALUE                         : DESCRIPTION
#_______________________________________________________________________________
STRT               .m        2818.18003                    : First reference value
STOP               .m        2999.78003                    : Last reference value
STEP               .m        0.2                           : Step increment
NULL               .         -9999                         : Missing value
COMP               .                                       : Company
WELL               .         201                           : Well name
FLD                .                                       : Field
LOC                .                                       : Location
PROV               .                                       : Province
SRVC               .                                       : Service Company
DATE               .         2021-05-13 14_16_42           : Date
UWI                .                                       : Unique Well ID
API                .                                       : API NUMBER
CNTY               .                                       : COUNTY
Cartographic_reference_system .         GCS_WGS_1984                  : GEOGCS["GCS_WGS_1984",DATUM["D_WGS_1984",SPHEROID["WGS_1984",6378137.0,298.257223563]],PRIMEM["Greenwich",0.0],UNIT["Degree",0.0174532925199433],AUTHORITY["EPSG",4326]]
CTRY               .                                       : COUNTRY
EREF               .m        139.76                        : 
HZCS               .GCS_WGS_1984 World_Mercator                : PROJCS["World_Mercator",GEOGCS["GCS_WGS_1984",DATUM["D_WGS_1984",SPHEROID["WGS_1984",6378137.0,298.257223563]],PRIMEM["Greenwich",0.0],UNIT["Degree",0.0174532925199433]],PROJECTION["Mercator"],PARAMETER["False_Easting",0.0],PARAMETER["False_Northing",0.0],PARAMETER["Central_Meridian",0.0],PARAMETER["Standard_Parallel_1",0.0],UNIT["Meter",1.0],AUTHORITY["ESRI",54004]]
LATI               .dega     2.1856221126                  : GCS_WGS_1984
LONG               .dega     2.052578559                   : GCS_WGS_1984
ORIGINALWELLNAME   .         201                           : 
PROJECT_UPGRADE_TIME .         2014-05-27T11_38_46           : 
Pad                .         Pad2                          : 
STAT               .                                       : STATE
group              .         Pad2                          : 
Интер-р            .         Ярышев                        : 
Куст               .         2                             : 
Статус             .         Не проверено                  : 
Тип                .         Эксплуатация                  : 
~Parameter Information Block
#_______________________________________________________________________________
#
#PARAMETER_NAME    .UNIT     VALUE                         : DESCRIPTION
#_______________________________________________________________________________
SET                .         Gam                           : 
TLFamily_DEPT      .         Measured Depth                : 
TLFamily_GR_NORM   .         Gamma Ray                     : 
TLFamily_RHOB_NORM .         Bulk Density                  : 
TLFamily_RHOB_TL1  .         Bulk Density                  : 
TLFamily_SYNTH_Bulk_Density .         Bulk Density                  : 
TLFamily_SYNTH_Bulk_Density_MISFIT .                                       : 
TLFamily_TNPH_NORM .         Neutron Porosity              : 
~Curve Information
#_______________________________________________________________________________
#
#LOGNAME           .UNIT     LOG_ID                        : DESCRIPTION
#_______________________________________________________________________________
DEPT               .m                                      :  
GR_NORM            .gAPI                                   : Gamma Ray 
RHOB_NORM          .g/cm3                                  : Bulk Density 
RHOB_TL1           .g/cm3                                  :  
SYNTH_Bulk_Density .G/C3                                   : Bulk Density 
SYNTH_Bulk_Density_MISFIT .                                       : Synthetic Bulk Density Misfit 
TNPH_NORM          .v/v                                    : Thermal Neutron Porosity 
~Ascii
# ...
2921.18003 86.45153999999999 2.56297    2.499881   2.49872    -0.06425   0.263     
2921.38003 72.97926   2.55112    2.498856   2.4916     -0.05952   0.2476    
2921.58003 81.18671000000001 2.49875    2.511048   2.50024    0.00149    0.25      
2921.78003 115.5218   2.45673    2.505089   2.48465    0.02791    0.25787   
2921.98003 119.2037   2.48415    2.47938    2.4635     -0.02066   0.28434   
2922.18003 116.577    2.48359    2.464451   2.4503     -0.03329   0.30066   
2922.38003 117.4518   2.44825    2.458599   2.44309    -0.00516   0.30545   
2922.58003 116.6278   2.48584    2.46653    2.4521     -0.03374   0.2988    
2922.78003 113.5198   2.50479    2.462719   2.44898    -0.05581   0.30274   
2922.98003 111.77     2.48599    2.424944   2.41929    -0.06669   0.32906   
2923.18003 111.6691   2.4908     2.419517   2.41396    -0.07684   0.33235   
2923.38003 112.4623   2.53263    2.405516   2.3939     -0.13873   0.34101   
2923.58003 111.2157   2.45603    2.397631   2.3874     -0.06863   0.34468   
2923.78003 109.1499   2.49223    2.42445    2.42293    -0.0693    0.32807   
2923.98003 108.281    2.50522    2.443161   2.4385     -0.06672   0.31588   
2924.18003 106.7892   2.52676    2.454195   2.44815    -0.07861   0.30786   
2924.38003 108.4475   2.50447    2.473539   2.46071    -0.04376   0.29404   
2924.58003 111.7201   2.49979    2.481621   2.46669    -0.0331    0.28687   
2924.78003 117.2934   2.44908    2.472468   2.45683    0.00775    0.29297   
2924.98003 119.0617   2.46075    2.45414    2.43957    -0.02118   0.30876   
2925.18003 116.5592   2.44962    2.41643    2.4017     -0.04792   0.33622   
2925.38003 115.093    2.47777    2.405421   2.38793    -0.08985   0.34239   
2925.58003 115.2831   2.46477    2.429574   2.42429    -0.04048   0.32728   
2925.78003 116.3038   2.45518    2.447193   2.43581    -0.01937   0.31481   
2925.98003 119.2636   2.46296    2.463852   2.44715    -0.01581   0.30001   
2926.18003 126.0461   2.48848    2.469951   2.45209    -0.03639   0.28617   
2926.38003 130.6868   2.49372    2.46746    2.44901    -0.04471   0.27935   
2926.58003 130.7596   2.50653    2.457723   2.43283    -0.0737    0.29337   
2926.78003 128.3195   2.45873    2.434818   2.41206    -0.04667   0.32121   
2926.98003 128.1084   2.48404    2.430553   2.40725    -0.07679   0.32513   
2927.18003 129.3675   2.45409    2.444218   2.41541    -0.03868   0.3112    
2927.38003 129.6692   2.438      2.452726   2.42843    -0.00957   0.30146   
2927.58003 127.7993   2.45177    2.457021   2.43366    -0.01811   0.29913   
2927.78003 124.8294   2.4276     2.459748   2.4388     0.0112     0.29969   
2927.98003 123.4377   2.41919    2.448484   2.4278     0.0086     0.3118    
2928.18003 122.1301   2.4293     2.442995   2.42628    -0.00302   0.31715   
2928.38003 119.9519   2.44426    2.441141   2.42932    -0.01494   0.31918   
2928.58003 116.0566   2.45804    2.429495   2.42392    -0.03412   0.32751   
2928.78003 111.5938   2.45534    2.437402   2.43404    -0.0213    0.32097   
2928.98003 110.1132   2.4351     2.436722   2.43518    0.0000900  0.32086   
2929.18003 108.7139   2.46367    2.434262   2.43487    -0.0288    0.3218    
2929.38003 109.1031   2.50726    2.449414   2.4414     -0.06586   0.312     
2929.58003 112.0401   2.55231    2.464931   2.45186    -0.10045   0.30103   
2929.78003 113.8975   2.56374    2.470947   2.45547    -0.10827   0.29577   
2929.98003 114.081    2.53304    2.4547     2.44289    -0.09016   0.30906   
2930.18003 114.5781   2.53101    2.444074   2.43513    -0.09588   0.31704   
2930.38003 115.337    2.53273    2.465171   2.45108    -0.08166   0.3004    
2930.58003 115.114    2.53826    2.470535   2.45508    -0.08319   0.29577   
2930.78003 116.159    2.51863    2.456123   2.44392    -0.07471   0.30779   
2930.98003 117.0912   2.5048     2.43348    2.42707    -0.07773   0.32492   
2931.18003 117.5927   2.52884    2.401113   2.38196    -0.14687   0.34601   
2931.38003 118.2498   2.51746    2.372232   2.34946    -0.168     0.36251   
2931.58003 118.1137   2.5159     2.36963    2.34946    -0.16644   0.3638    
2931.78003 117.6085   2.55791    2.399929   2.38049    -0.17743   0.34672   
2931.98003 118.6355   2.52455    2.417934   2.40132    -0.12324   0.33579   
2932.18003 119.0777   2.52585    2.411263   2.38831    -0.13754   0.34023   
2932.38003 118.0197   2.5179     2.412114   2.39224    -0.12566   0.3394    
2932.58003 118.0517   2.479      2.417046   2.39899    -0.08      0.33624   
2932.78003 121.1896   2.46216    2.425846   2.40637    -0.05579   0.3306    
2932.98003 121.8999   2.4107     2.424863   2.40545    -0.00524   0.3313    
2933.18003 122.4546   2.41723    2.40709    2.37612    -0.04111   0.34362   
2933.38003 122.56     2.47788    2.415923   2.38771    -0.09017   0.33766   
2933.58003 119.9607   2.44825    2.421339   2.40293    -0.04531   0.33371   
2933.78003 118.2027   2.46593    2.420605   2.40485    -0.06108   0.33393   
2933.98003 119.8128   2.45814    2.412319   2.39032    -0.06782   0.33972   
2934.18003 121.7416   2.45424    2.418162   2.39586    -0.05838   0.33606   
2934.38003 122.3452   2.4406     2.424659   2.40061    -0.03999   0.33143   
2934.58003 122.4097   2.46802    2.414812   2.3835     -0.08451   0.33842   
2934.78003 120.9782   2.50347    2.415071   2.3906     -0.11288   0.3381    
2934.98003 118.2905   2.54536    2.437124   2.42746    -0.11789   0.32236   
2935.18003 114.9278   2.5842     2.453077   2.44041    -0.14379   0.31031   
2935.38003 114.0303   2.54996    2.474889   2.45912    -0.09084   0.29223   
2935.58003 116.9806   2.54759    2.505798   2.48415    -0.06344   0.25413   
2935.78003 121.1498   2.55566    2.516923   2.4822     -0.07346   0.21429   
2935.98003 121.5462   2.58585    2.521046   2.48434    -0.10151   0.19168   
2936.18003 114.3204   2.59507    2.54353    2.49488    -0.10019   0.17456   
2936.38003 88.3336    2.56189    2.596311   2.51669    -0.0452    0.15912   
2936.58003 63.48181   2.65406    2.605822   2.51929    -0.13477   0.14958   
2936.78003 58.07655   2.63956    2.597758   2.51852    -0.12104   0.15199   
2936.98003 64.20733   2.57183    2.577713   2.4896     -0.08223   0.17828   
2937.18003 73.226     2.59435    2.549613   2.49361    -0.10074   0.21254   
2937.38003 77.39816999999999 2.60363    2.524985   2.49923    -0.1044    0.23597   
2937.58003 75.20519   2.65028    2.505567   2.49402    -0.15626   0.24647   
2937.78003 71.86845   2.64805    2.497721   2.489      -0.15905   0.24668   
2937.98003 71.34099000000001 2.64853    2.506417   2.48863    -0.1599    0.24058   
2938.18003 72.00511   2.58755    2.519971   2.48989    -0.09766   0.23275   
2938.38003 71.97489   2.53192    2.529831   2.49106    -0.04087   0.22593   
2938.58003 71.63733999999999 2.50979    2.530962   2.4907     -0.01909   0.22469   
2938.78003 72.06892000000001 2.53421    2.528798   2.49126    -0.04295   0.22678   
2938.98003 72.45301000000001 2.56082    2.525271   2.49149    -0.06933   0.22974   
2939.18003 70.6343    2.55576    2.52837    2.48775    -0.06801   0.22517   
2939.38003 67.84566   2.533      2.529741   2.48336    -0.04964   0.22032   
2939.58003 64.23837   2.53622    2.519642   2.47903    -0.05719   0.22143   
2939.78003 59.66203   2.49941    2.508986   2.47482    -0.02459   0.22017   
2939.98003 55.5284    2.49931    2.510096   2.46945    -0.02985   0.21199   
2940.18003 53.12139   2.5627     2.523387   2.46747    -0.09523   0.19964   
2940.38003 51.4362    2.57238    2.539079   2.46861    -0.10377   0.18674   
2940.58003 44.48746   2.48837    2.541818   2.47664    -0.01173   0.17143   
2940.78003 37.4347    2.48523    2.545932   2.50735    0.02211    0.15411   
2940.98003 33.8232    2.61146    2.557268   2.55103    -0.06043   0.13917   
2941.18003 32.172     2.70625    2.574623   2.55839    -0.14786   0.1241    
2941.38003 30.83344   2.6079     2.576969   2.56852    -0.03938   0.11957   
2941.58003 33.0715    2.53706    2.567967   2.55839    0.02133    0.13056   
2941.78003 39.23446   2.45883    2.55062    2.50741    0.04858    0.15503   
