~Version
 VERS              .         2.0                           : CWLS LOG ASCII STANDARD - VERSION 2.0
 WRAP              .         NO                            : ONE LINE PER DEPTH STEP
 DLM               .         SPACE                         : DELIMITING CHARACTER(SPACE TAB OR COMMA)
~Well Information
#_______________________________________________________________________________
#
#PARAMETER_NAME    .UNIT     VALUE                         : DESCRIPTION
#_______________________________________________________________________________
STRT               .m        2818.18003                    : First reference value
STOP               .m        2999.78003                    : Last reference value
STEP               .m        0.2                           : Step increment
NULL               .         -9999                         : Missing value
COMP               .                                       : Company
WELL               .         201                           : Well name
FLD                .                                       : Field
LOC                .                                       : Location
PROV               .                                       : Province
SRVC               .                                       : Service Company
DATE               .         2021-05-13 14_16_42           : Date
UWI                .                                       : Unique Well ID
API                .                                       : API NUMBER
CNTY               .                                       : COUNTY
Cartographic_reference_system .         GCS_WGS_1984                  : GEOGCS["GCS_WGS_1984",DATUM["D_WGS_1984",SPHEROID["WGS_1984",6378137.0,298.257223563]],PRIMEM["Greenwich",0.0],UNIT["Degree",0.0174532925199433],AUTHORITY["EPSG",4326]]
CTRY               .                                       : COUNTRY
EREF               .m        139.76                        : 
HZCS               .GCS_WGS_1984 World_Mercator                : PROJCS["World_Mercator",GEOGCS["GCS_WGS_1984",DATUM["D_WGS_1984",SPHEROID["WGS_1984",6378137.0,298.257223563]],PRIMEM["Greenwich",0.0],UNIT["Degree",0.0174532925199433]],PROJECTION["Mercator"],PARAMETER["False_Easting",0.0],PARAMETER["False_Northing",0.0],PARAMETER["Central_Meridian",0.0],PARAMETER["Standard_Parallel_1",0.0],UNIT["Meter",1.0],AUTHORITY["ESRI",54004]]
LATI               .dega     2.1856221126                  : GCS_WGS_1984
LONG               .dega     2.052578559                   : GCS_WGS_1984
ORIGINALWELLNAME   .         201                           : 
PROJECT_UPGRADE_TIME .         2014-05-27T11_38_46           : 
Pad                .         Pad2                          : 
STAT               .                                       : STATE
group              .         Pad2                          : 
Интер-р            .         Ярышев                        : 
Куст               .         2                             : 
Статус             .         Не проверено                  : 
Тип                .         Эксплуатация                  : 
~Parameter Information Block
#_______________________________________________________________________________
#
#PARAMETER_NAME    .UNIT     VALUE                         : DESCRIPTION
#_______________________________________________________________________________
SET                .         Gam                           : 
TLFamily_DEPT      .         Measured Depth                : 
TLFamily_GR_NORM   .         Gamma Ray                     : 
TLFamily_RHOB_NORM .         Bulk Density                  : 
TLFamily_RHOB_TL1  .         Bulk Density                  : 
TLFamily_SYNTH_Bulk_Density .         Bulk Density                  : 
TLFamily_SYNTH_Bulk_Density_MISFIT .                                       : 
TLFamily_TNPH_NORM .         Neutron Porosity              : 
~Curve Information
#_______________________________________________________________________________
#
#LOGNAME           .UNIT     LOG_ID                        : DESCRIPTION
#_______________________________________________________________________________
DEPT               .m                                      :  
GR_NORM            .gAPI                                   : Gamma Ray 
RHOB_NORM          .g/cm3                                  : Bulk Density 
RHOB_TL1           .g/cm3                                  :  
SYNTH_Bulk_Density .G/C3                                   : Bulk Density 
SYNTH_Bulk_Density_MISFIT .                                       : Synthetic Bulk Density Misfit 
TNPH_NORM          .v/v                                    : Thermal Neutron Porosity 
~Ascii
# ...
2838.18003 90.65349999999999 2.45611    2.512637   2.50059    0.04448    0.25694   
2838.38003 88.46803   2.47995    2.512777   2.50081    0.02085    0.25535   
2838.58003 86.81384   2.50543    2.502115   2.49916    -0.00627   0.26178   
2838.78003 91.96841000000001 2.50118    2.504047   2.498      -0.00319   0.26438   
2838.98003 98.20394   2.42729    2.505307   2.49243    0.06513    0.2663    
2839.18003 95.09894   2.41544    2.514972   2.49832    0.08288    0.25718   
2839.38003 87.47696000000001 2.39598    2.527358   2.5016     0.10562    0.24309   
2839.58003 78.727     2.4085     2.525268   2.49938    0.09088    0.23722   
2839.78003 70.05853999999999 2.46511    2.512537   2.48494    0.01983    0.23486   
2839.98003 65.18868000000001 2.47598    2.504292   2.47906    0.00308    0.23237   
2840.18003 63.82082   2.49224    2.508621   2.47857    -0.01367   0.22753   
2840.38003 63.06953   2.48439    2.508811   2.47827    -0.00611   0.22616   
2840.58003 62.6554    2.48437    2.507568   2.47827    -0.0061    0.2262    
2840.78003 60.02156   2.43227    2.493711   2.47528    0.04302    0.22951   
2840.98003 58.3635    2.39896    2.487435   2.47257    0.0736     0.22988   
2841.18003 58.90703   2.39132    2.491407   2.47371    0.08239    0.22874   
2841.38003 59.9819    2.41523    2.469537   2.47361    0.05838    0.24224   
2841.58003 62.09159   2.42335    2.44597    2.47327    0.04992    0.25777   
2841.78003 66.06471999999999 2.45638    2.449398   2.47372    0.01734    0.26334   
2841.98003 71.34926   2.50702    2.498957   2.48822    -0.01879   0.24517   
2842.18003 80.52285000000001 2.56351    2.531436   2.50042    -0.0631    0.23436   
2842.38003 91.76148999999999 2.56082    2.529057   2.5014     -0.05942   0.24371   
2842.58003 99.34181   2.55264    2.518586   2.49345    -0.05918   0.25459   
2842.78003 105.0788   2.49607    2.512313   2.48935    -0.00671   0.25954   
2842.98003 106.3309   2.50828    2.512418   2.48837    -0.01991   0.25882   
2843.18003 102.0908   2.50531    2.512547   2.49109    -0.01422   0.26013   
2843.38003 98.93586999999999 2.53099    2.508515   2.49102    -0.03997   0.26373   
2843.58003 101.2594   2.54044    2.499181   2.48848    -0.05195   0.27213   
2843.78003 102.5036   2.50244    2.481824   2.47256    -0.02987   0.28635   
2843.98003 101.0969   2.50712    2.47049    2.46523    -0.04189   0.29399   
2844.18003 100.6462   2.50717    2.4662     2.46217    -0.045     0.29668   
2844.38003 99.83405999999999 2.52662    2.457193   2.45853    -0.0681    0.30207   
2844.58003 95.87053   2.47802    2.442893   2.45626    -0.02176   0.3075    
2844.78003 90.16515   2.41809    2.455572   2.47318    0.0551     0.29458   
2844.98003 87.08884   2.36545    2.477829   2.49141    0.12597    0.27804   
2845.18003 83.09278   2.35862    2.476258   2.49361    0.13499    0.2745    
2845.38003 76.51253   2.36181    2.47791    2.49434    0.13253    0.26497   
2845.58003 72.69573   2.42331    2.478479   2.49027    0.06696    0.25908   
2845.78003 68.64252   2.45475    2.484269   2.48248    0.02773    0.24951   
2845.98003 66.80216   2.42438    2.498376   2.47936    0.05499    0.23848   
2846.18003 64.88148   2.46591    2.486654   2.47719    0.01128    0.24195   
2846.38003 62.052     2.46652    2.480828   2.47596    0.00944    0.24016   
2846.58003 60.95683   2.44598    2.481076   2.47597    0.02999    0.23805   
2846.78003 62.82842   2.46251    2.4665     2.47577    0.01326    0.24902   
2846.98003 67.37466999999999 2.47514    2.461765   2.47739    0.00224    0.25943   
2847.18003 70.64048   2.49499    2.466901   2.48302    -0.01197   0.26217   
2847.38003 70.56184   2.49551    2.456091   2.48286    -0.01265   0.26766   
2847.58003 70.86525   2.48851    2.458986   2.48383    -0.00467   0.26667   
2847.78003 73.83071   2.44945    2.464663   2.4895     0.04005    0.26836   
2847.98003 77.47127   2.45366    2.454792   2.48833    0.03467    0.27902   
2848.18003 75.00927   2.45772    2.460335   2.48883    0.03112    0.27245   
2848.38003 71.95367   2.4591     2.467944   2.48631    0.02721    0.2637    
2848.58003 73.37842999999999 2.46639    2.491629   2.49175    0.02536    0.25252   
2848.78003 75.39865   2.48111    2.521156   2.49505    0.01394    0.23633   
2848.98003 74.38025   2.43001    2.520706   2.4937     0.06369    0.23537   
2849.18003 74.02941   2.41386    2.496783   2.49264    0.07878    0.25035   
2849.38003 74.76058999999999 2.41514    2.488802   2.49311    0.07797    0.25617   
2849.58003 74.18317999999999 2.42829    2.491248   2.49246    0.06417    0.2539    
2849.78003 70.73209   2.44217    2.466858   2.48302    0.04085    0.26234   
2849.98003 69.64645   2.49629    2.4317     2.47289    -0.0234    0.27807   
2850.18003 70.37194   2.54495    2.428398   2.47205    -0.0729    0.28086   
2850.38003 71.19477999999999 2.50202    2.457848   2.48518    -0.01683   0.26779   
2850.58003 69.45039   2.54598    2.456766   2.4814     -0.06457   0.26548   
2850.78003 64.22604   2.57168    2.432997   2.47       -0.10168   0.26782   
2850.98003 59.14688   2.55655    2.461694   2.47136    -0.08519   0.24459   
2851.18003 52.28256   2.593      2.494584   2.46624    -0.12676   0.21433   
2851.38003 45.78198   2.55901    2.52413    2.46355    -0.09546   0.18472   
2851.58003 43.38959   2.52368    2.542494   2.48422    -0.03946   0.16877   
2851.78003 43.29293   2.45668    2.549243   2.49287    0.03619    0.16431   
2851.98003 45.15644   2.42073    2.543746   2.47739    0.05665    0.17157   
2852.18003 48.22906   2.39971    2.5176     2.46376    0.06405    0.19347   
2852.38003 51.76561   2.39712    2.485816   2.46558    0.06846    0.21791   
2852.58003 55.00582   2.37994    2.480289   2.46764    0.08771    0.22721   
2852.78003 60.41569   2.45429    2.494146   2.47674    0.02246    0.22998   
2852.98003 64.1401    2.46225    2.481439   2.47693    0.01467    0.24352   
2853.18003 67.35021999999999 2.45485    2.467413   2.47878    0.02393    0.25647   
2853.38003 67.78946999999999 2.44598    2.480366   2.48041    0.03443    0.25028   
2853.58003 65.24934   2.48755    2.482456   2.47755    -0.00999   0.24488   
2853.78003 60.96108   2.4174     2.457462   2.47449    0.05709    0.2501    
2853.98003 56.452     2.43007    2.435085   2.4605     0.03043    0.25188   
2854.18003 51.83708   2.38599    2.424949   2.45603    0.07004    0.24685   
2854.38003 52.47158   2.38653    2.437683   2.46233    0.07579    0.24255   
2854.58003 56.89742   2.36944    2.457803   2.46749    0.09805    0.24214   
2854.78003 63.11654   2.44554    2.469195   2.47577    0.03024    0.24816   
2854.98003 68.90563   2.48491    2.470537   2.48199    -0.00293   0.25742   
2855.18003 72.70124   2.47873    2.472783   2.48863    0.0099     0.26224   
2855.38003 76.28362   2.50597    2.476343   2.49421    -0.01176   0.26554   
2855.58003 85.55855   2.44907    2.484857   2.49729    0.04821    0.27202   
2855.78003 89.98645999999999 2.37722    2.488838   2.49566    0.11844    0.27371   
2855.98003 83.55054   2.30893    2.494764   2.49843    0.1895     0.2635    
2856.18003 68.72866999999999 2.30758    2.477598   2.4823     0.17471    0.25333   
2856.38003 60.06764   2.36013    2.464357   2.47257    0.11243    0.24501   
2856.58003 59.32291   2.35883    2.468573   2.47226    0.11343    0.24149   
2856.78003 60.28013   2.42713    2.474638   2.47506    0.04794    0.24018   
2856.98003 61.24965   2.45634    2.482581   2.47597    0.01962    0.23778   
2857.18003 63.8732    2.48389    2.487123   2.47683    -0.00707   0.23996   
2857.38003 66.21999   2.48037    2.472551   2.47834    -0.00203   0.25185   
2857.58003 67.75406   2.49481    2.4435     2.47651    -0.0183    0.26917   
2857.78003 69.79222   2.50851    2.419457   2.46314    -0.04537   0.28399   
2857.98003 69.2705    2.50284    2.434144   2.4743     -0.02855   0.27627   
2858.18003 64.26128   2.45365    2.482752   2.477      0.02335    0.24302   
2858.38003 57.45799   2.45242    2.492116   2.47154    0.01912    0.22566   
2858.58003 51.86014   2.53346    2.469281   2.46476    -0.0687    0.22644   
