~Version
 VERS              .         2.0                           : CWLS LOG ASCII STANDARD - VERSION 2.0
 WRAP              .         NO                            : ONE LINE PER DEPTH STEP
 DLM               .         SPACE                         : DELIMITING CHARACTER(SPACE TAB OR COMMA)
~Well Information
#_______________________________________________________________________________
#
#PARAMETER_NAME    .UNIT     VALUE                         : DESCRIPTION
#_______________________________________________________________________________
STRT               .m        2818.18003                    : First reference value
STOP               .m        2999.78003                    : Last reference value
STEP               .m        0.2                           : Step increment
NULL               .         -9999                         : Missing value
COMP               .                                       : Company
WELL               .         201                           : Well name
FLD                .                                       : Field
LOC                .                                       : Location
PROV               .                                       : Province
SRVC               .                                       : Service Company
DATE               .         2021-05-13 14_16_42           : Date
UWI                .                                       : Unique Well ID
API                .                                       : API NUMBER
CNTY               .                                       : COUNTY
Cartographic_reference_system .         GCS_WGS_1984                  : GEOGCS["GCS_WGS_1984",DATUM["D_WGS_1984",SPHEROID["WGS_1984",6378137.0,298.257223563]],PRIMEM["Greenwich",0.0],UNIT["Degree",0.0174532925199433],AUTHORITY["EPSG",4326]]
CTRY               .                                       : COUNTRY
EREF               .m        139.76                        : 
HZCS               .GCS_WGS_1984 World_Mercator                : PROJCS["World_Mercator",GEOGCS["GCS_WGS_1984",DATUM["D_WGS_1984",SPHEROID["WGS_1984",6378137.0,298.257223563]],PRIMEM["Greenwich",0.0],UNIT["Degree",0.0174532925199433]],PROJECTION["Mercator"],PARAMETER["False_Easting",0.0],PARAMETER["False_Northing",0.0],PARAMETER["Central_Meridian",0.0],PARAMETER["Standard_Parallel_1",0.0],UNIT["Meter",1.0],AUTHORITY["ESRI",54004]]
LATI               .dega     2.1856221126                  : GCS_WGS_1984
LONG               .dega     2.052578559                   : GCS_WGS_1984
ORIGINALWELLNAME   .         201                           : 
PROJECT_UPGRADE_TIME .         2014-05-27T11_38_46           : 
Pad                .         Pad2                          : 
STAT               .                                       : STATE
group              .         Pad2                          : 
Интер-р            .         Ярышев                        : 
Куст               .         2                             : 
Статус             .         Не проверено                  : 
Тип                .         Эксплуатация                  : 
~Parameter Information Block
#_______________________________________________________________________________
#
#PARAMETER_NAME    .UNIT     VALUE                         : DESCRIPTION
#_______________________________________________________________________________
SET                .         Gam                           : 
TLFamily_DEPT      .         Measured Depth                : 
TLFamily_GR_NORM   .         Gamma Ray                     : 
TLFamily_RHOB_NORM .         Bulk Density                  : 
TLFamily_RHOB_TL1  .         Bulk Density                  : 
TLFamily_SYNTH_Bulk_Density .         Bulk Density                  : 
TLFamily_SYNTH_Bulk_Density_MISFIT .                                       : 
TLFamily_TNPH_NORM .         Neutron Porosity              : 
~Curve Information
#_______________________________________________________________________________
#
#LOGNAME           .UNIT     LOG_ID                        : DESCRIPTION
#_______________________________________________________________________________
DEPT               .m                                      :  
GR_NORM            .gAPI                                   : Gamma Ray 
RHOB_NORM          .g/cm3                                  : Bulk Density 
RHOB_TL1           .g/cm3                                  :  
SYNTH_Bulk_Density .G/C3                                   : Bulk Density 
SYNTH_Bulk_Density_MISFIT .                                       : Synthetic Bulk Density Misfit 
TNPH_NORM          .v/v                                    : Thermal Neutron Porosity 
~Ascii
2818.18003 55.74028015136719 -9999      2.287184   2.28387    -9999      0.30798   
2818.38003 55.84107971191406 -9999      2.318512   2.33094    -9999      0.29718   
2818.58003 54.64469146728516 -9999      2.292701   2.29235    -9999      0.3037    
2818.78003 53.03932952880859 -9999      2.252664   2.2374     -9999      0.31371   
2818.98003 51.62668991088867 -9999      2.224924   2.21198    -9999      0.3196    
2819.18003 51.0059700012207 -9999      2.213027   2.19917    -9999      0.32201   
2819.38003 51.42700958251953 -9999      2.245916   2.23201    -9999      0.31232   
2819.58003 51.37047958374023 -9999      2.286862   2.29434    -9999      0.29848   
2819.78003 50.73855972290039 -9999      2.298913   2.32424    -9999      0.29291   
2819.98003 51.02801132202148 -9999      2.285083   2.29381    -9999      0.29832   
2820.18003 52.44488143920898 -9999      2.262429   2.25853    -9999      0.30914   
2820.38003 53.95209884643555 -9999      2.256138   2.23741    -9999      0.31458   
2820.58003 52.76776123046875 -9999      2.259759   2.25091    -9999      0.31075   
2820.78003 50.0463981628418 -9999      2.295968   2.32153    -9999      0.29237   
2820.98003 47.75392913818359 -9999      2.310178   2.37274    -9999      0.28221   
2821.18003 45.89384078979492 1.9322     2.277681   2.32522    0.39302    0.28904   
2821.38003 40.57065963745117 1.95822    2.159191   2.1918     0.23358    0.314     
2821.58003 35.29835891723633 2.07375    2.08605    2.12172    0.04797    0.3228    
2821.78003 38.22356033325195 1.88284    2.118608   2.15597    0.27313    0.32048   
2821.98003 52.03512954711914 2.04314    2.25977    2.25231    0.20917    0.30911   
2822.18003 70.19203186035156 2.37732    2.409282   2.45725    0.07993    0.28926   
2822.38003 87.1871337890625 2.39839    2.469323   2.48513    0.08674    0.28332   
2822.58003 91.99128723144531 2.40032    2.43927    2.46036    0.06003    0.30567   
2822.78003 95.76238250732422 2.4569     2.415798   2.4427     -0.0142    0.3221    
2822.98003 99.80943298339844 2.48036    2.45248    2.45352    -0.02684   0.30502   
2823.18003 102.8053   2.46905    2.488199   2.47768    0.00864    0.28146   
2823.38003 103.5198   2.53986    2.507662   2.48891    -0.05095   0.26458   
2823.58003 101.4608   2.51926    2.517501   2.49219    -0.02707   0.2554    
2823.78003 100.5225   2.53563    2.518512   2.49262    -0.04301   0.25456   
2823.98003 100.3432   2.53063    2.507438   2.49078    -0.03985   0.26487   
2824.18003 101.3809   2.51046    2.485995   2.47657    -0.0339    0.28278   
2824.38003 101.7873   2.54856    2.454146   2.45263    -0.09593   0.3053    
2824.58003 100.3286   2.4922     2.425638   2.4396     -0.0526    0.32118   
2824.78003 99.29262   2.51449    2.418547   2.4362     -0.07829   0.32412   
2824.98003 99.02045   2.51012    2.428583   2.44176    -0.06836   0.31841   
2825.18003 97.61076   2.46241    2.431343   2.44374    -0.01867   0.31561   
2825.38003 95.29649000000001 2.48447    2.42957    2.44889    -0.03558   0.31436   
2825.58003 91.71232999999999 2.51773    2.449307   2.46739    -0.05034   0.29978   
2825.78003 89.27916999999999 2.54253    2.469018   2.48186    -0.06066   0.28571   
2825.98003 85.29121000000001 2.57275    2.477017   2.49254    -0.08021   0.27659   
2826.18003 80.18655   2.61034    2.485213   2.49688    -0.11346   0.26556   
2826.38003 77.96465000000001 2.54008    2.489491   2.49725    -0.04283   0.26012   
2826.58003 76.86091999999999 2.61538    2.493746   2.49702    -0.11836   0.25607   
2826.78003 76.09417999999999 2.62837    2.487706   2.49533    -0.13304   0.25868   
2826.98003 76.64781000000001 2.6268     2.492218   2.49642    -0.13038   0.25672   
2827.18003 77.17845   2.59839    2.494718   2.49751    -0.10088   0.25589   
2827.38003 79.57729   2.61404    2.495992   2.49845    -0.11559   0.25813   
2827.58003 81.26956   2.54356    2.487198   2.49762    -0.04594   0.26568   
2827.78003 85.88424999999999 2.55996    2.476324   2.49153    -0.06843   0.27767   
2827.98003 90.31934   2.57297    2.46398    2.47737    -0.0956    0.2898    
2828.18003 93.50388   2.53772    2.457048   2.46907    -0.06865   0.29703   
2828.38003 97.22282   2.52701    2.442345   2.45318    -0.07382   0.30903   
2828.58003 97.44073   2.50622    2.439779   2.4507     -0.05551   0.3107    
2828.78003 99.54738999999999 2.51816    2.461      2.46005    -0.05811   0.29943   
2828.98003 101.6859   2.54827    2.480182   2.47152    -0.07676   0.28729   
2829.18003 101.8588   2.51505    2.491272   2.4821     -0.03295   0.27877   
2829.38003 101.7473   2.51602    2.483469   2.47335    -0.04267   0.28484   
2829.58003 103.2081   2.55375    2.474738   2.46592    -0.08783   0.2919    
2829.78003 102.9257   2.5169     2.474414   2.46592    -0.05098   0.29203   
2829.98003 101.7116   2.51684    2.487398   2.47831    -0.03853   0.2818    
2830.18003 99.98394   2.52668    2.494685   2.48557    -0.04111   0.27551   
2830.38003 97.80891   2.49482    2.499141   2.49177    -0.00305   0.2712    
2830.58003 99.76682   2.49865    2.508611   2.49078    -0.00786   0.26377   
2830.78003 101.7015   2.53414    2.505146   2.48965    -0.04449   0.267     
2830.98003 100.7324   2.4678     2.487934   2.48002    0.01222    0.28106   
2831.18003 98.82161000000001 2.47944    2.485432   2.47968    0.00024    0.28214   
2831.38003 94.68095   2.57224    2.516035   2.49912    -0.07312   0.25613   
2831.58003 85.78416   2.59516    2.54445    2.50255    -0.09261   0.22721   
2831.78003 71.68111   2.59003    2.544582   2.49124    -0.09879   0.21471   
2831.98003 63.01898   2.56388    2.538327   2.47921    -0.08467   0.2072    
2832.18003 63.32441   2.5084     2.537766   2.47934    -0.02906   0.20806   
2832.38003 70.02334999999999 2.46194    2.530082   2.4863     0.02436    0.22315   
2832.58003 80.3342    2.49406    2.513834   2.49945    0.00539    0.24714   
2832.78003 89.39557000000001 2.49761    2.50074    2.49846    0.00085    0.26495   
2832.98003 92.5303    2.49176    2.493047   2.49565    0.0039     0.27282   
2833.18003 92.51402   2.50062    2.49207    2.4952     -0.00542   0.2735    
2833.38003 90.02030000000001 2.52358    2.499906   2.49846    -0.02513   0.26604   
2833.58003 86.17382000000001 2.52287    2.513252   2.50125    -0.02162   0.25319   
2833.78003 84.82771   2.50506    2.526447   2.50205    -0.00301   0.24197   
2833.98003 88.29846999999999 2.4969     2.525638   2.50138    0.00448    0.24502   
2834.18003 93.25484   2.50926    2.498045   2.49663    -0.01263   0.26969   
2834.38003 96.14843999999999 2.5121     2.474542   2.47609    -0.036     0.28817   
2834.58003 95.27991   2.50602    2.480815   2.48264    -0.02338   0.28331   
2834.78003 92.57795   2.53395    2.494076   2.49651    -0.03743   0.27212   
2834.98003 93.30989   2.50973    2.513409   2.49937    -0.01036   0.25777   
2835.18003 96.37117000000001 2.51714    2.515741   2.49651    -0.02063   0.25688   
2835.38003 96.10489   2.55665    2.504814   2.49472    -0.06193   0.26598   
2835.58003 94.31178   2.55688    2.494471   2.49442    -0.06247   0.27299   
2835.78003 91.45036   2.52627    2.495782   2.49748    -0.02879   0.27008   
2835.98003 91.55983999999999 2.52646    2.4851     2.49109    -0.03537   0.27756   
2836.18003 93.90136   2.55287    2.492734   2.49351    -0.05936   0.27399   
2836.38003 93.93779000000001 2.5485     2.517725   2.49921    -0.04929   0.25442   
2836.58003 90.93282000000001 2.54234    2.526571   2.50126    -0.04108   0.24559   
2836.78003 86.99733999999999 2.53673    2.526412   2.50172    -0.03501   0.24356   
2836.98003 87.87248   2.52277    2.522545   2.50108    -0.02169   0.24728   
2837.18003 90.08190999999999 2.48869    2.519283   2.50104    0.01236    0.25129   
2837.38003 89.56307   2.50281    2.520887   2.50108    -0.00173   0.24968   
2837.58003 88.59017   2.50095    2.533523   2.50187    0.00092    0.23843   
2837.78003 89.29258   2.4994     2.52942    2.50179    0.00239    0.24236   
2837.98003 90.53455   2.48813    2.512683   2.50059    0.01246    0.25683   
