~Version
 VERS              .         2.0                           : CWLS LOG ASCII STANDARD - VERSION 2.0
 WRAP              .         NO                            : ONE LINE PER DEPTH STEP
 DLM               .         SPACE                         : DELIMITING CHARACTER(SPACE TAB OR COMMA)
~Well Information
#_______________________________________________________________________________
#
#PARAMETER_NAME    .UNIT     VALUE                         : DESCRIPTION
#_______________________________________________________________________________
STRT               .m        2818.18003                    : First reference value
STOP               .m        2999.78003                    : Last reference value
STEP               .m        0.2                           : Step increment
NULL               .         -9999                         : Missing value
COMP               .                                       : Company
WELL               .         201                           : Well name
FLD                .                                       : Field
LOC                .                                       : Location
PROV               .                                       : Province
SRVC               .                                       : Service Company
DATE               .         2021-05-13 14_16_42           : Date
UWI                .                                       : Unique Well ID
API                .                                       : API NUMBER
CNTY               .                                       : COUNTY
Cartographic_reference_system .         GCS_WGS_1984                  : GEOGCS["GCS_WGS_1984",DATUM["D_WGS_1984",SPHEROID["WGS_1984",6378137.0,298.257223563]],PRIMEM["Greenwich",0.0],UNIT["Degree",0.0174532925199433],AUTHORITY["EPSG",4326]]
CTRY               .                                       : COUNTRY
EREF               .m        139.76                        : 
HZCS               .GCS_WGS_1984 World_Mercator                : PROJCS["World_Mercator",GEOGCS["GCS_WGS_1984",DATUM["D_WGS_1984",SPHEROID["WGS_1984",6378137.0,298.257223563]],PRIMEM["Greenwich",0.0],UNIT["Degree",0.0174532925199433]],PROJECTION["Mercator"],PARAMETER["False_Easting",0.0],PARAMETER["False_Northing",0.0],PARAMETER["Central_Meridian",0.0],PARAMETER["Standard_Parallel_1",0.0],UNIT["Meter",1.0],AUTHORITY["ESRI",54004]]
LATI               .dega     2.1856221126                  : GCS_WGS_1984
LONG               .dega     2.052578559                   : GCS_WGS_1984
ORIGINALWELLNAME   .         201                           : 
PROJECT_UPGRADE_TIME .         2014-05-27T11_38_46           : 
Pad                .         Pad2                          : 
STAT               .                                       : STATE
group              .         Pad2                          : 
Интер-р            .         Ярышев                        : 
Куст               .         2                             : 
Статус             .         Не проверено                  : 
Тип                .         Эксплуатация                  : 
~Parameter Information Block
#_______________________________________________________________________________
#
#PARAMETER_NAME    .UNIT     VALUE                         : DESCRIPTION
#_______________________________________________________________________________
SET                .         Gam                           : 
TLFamily_DEPT      .         Measured Depth                : 
TLFamily_GR_NORM   .         Gamma Ray                     : 
TLFamily_RHOB_NORM .         Bulk Density                  : 
TLFamily_RHOB_TL1  .         Bulk Density                  : 
TLFamily_SYNTH_Bulk_Density .         Bulk Density                  : 
TLFamily_SYNTH_Bulk_Density_MISFIT .                                       : 
TLFamily_TNPH_NORM .         Neutron Porosity              : 
~Curve Information
#_______________________________________________________________________________
#
#LOGNAME           .UNIT     LOG_ID                        : DESCRIPTION
#_______________________________________________________________________________
DEPT               .m                                      :  
GR_NORM            .gAPI                                   : Gamma Ray 
RHOB_NORM          .g/cm3                                  : Bulk Density 
RHOB_TL1           .g/cm3                                  :  
SYNTH_Bulk_Density .G/C3                                   : Bulk Density 
SYNTH_Bulk_Density_MISFIT .                                       : Synthetic Bulk Density Misfit 
TNPH_NORM          .v/v                                    : Thermal Neutron Porosity 
~Ascii
# ...
2941.98003 44.64717   2.46815    2.541759   2.47664    0.0085     0.17179   
2942.18003 47.44705   2.51157    2.563838   2.49543    -0.01614   0.16262   
2942.38003 47.63833   2.50338    2.588864   2.52988    0.02651    0.14393   
2942.58003 44.40936   2.54987    2.599757   2.55437    0.0045     0.12911   
2942.78003 39.12981   2.62548    2.605731   2.56454    -0.06094   0.11436   
2942.98003 34.41477   2.69918    2.609587   2.58201    -0.11717   0.10199   
2943.18003 32.06129   2.69535    2.611733   2.58306    -0.1123    0.09547   
2943.38003 34.152     2.60486    2.609403   2.58201    -0.02285   0.10163   
2943.58003 35.72742   2.52866    2.587208   2.56599    0.03733    0.12257   
2943.78003 38.25216   2.45385    2.561138   2.52901    0.07516    0.14616   
2943.98003 40.93171   2.45386    2.534582   2.48422    0.03036    0.16845   
2944.18003 44.95283   2.50588    2.510465   2.4622     -0.04368   0.19072   
2944.38003 48.66641   2.51815    2.506569   2.46292    -0.05523   0.20055   
2944.58003 49.17326   2.47348    2.500888   2.46387    -0.00961   0.20468   
2944.78003 46.6045    2.46827    2.484454   2.46001    -0.00825   0.20791   
2944.98003 44.31696   2.46436    2.474725   2.45854    -0.00582   0.2078    
2945.18003 45.14872   2.44335    2.469081   2.45948    0.01613    0.21234   
2945.38003 47.1809    2.42669    2.467921   2.46095    0.03427    0.21729   
2945.58003 46.63303   2.40747    2.474239   2.46032    0.05285    0.21305   
2945.78003 45.46737   2.37344    2.474278   2.45948    0.08604    0.21052   
2945.98003 44.22451   2.38033    2.4594     2.4583     0.07797    0.21488   
2946.18003 40.40769   2.41746    2.441714   2.45778    0.04032    0.21425   
2946.38003 38.17526   2.40778    2.442322   2.45434    0.04656    0.20881   
2946.58003 36.77814   2.42202    2.436071   2.45196    0.02994    0.20823   
2946.78003 35.49464   2.41962    2.41255    2.45042    0.0308     0.21496   
2946.98003 35.24096   2.38051    2.405229   2.44976    0.06925    0.21729   
2947.18003 35.45118   2.36731    2.401374   2.44926    0.08196    0.21933   
2947.38003 37.00337   2.4238     2.419669   2.45307    0.02927    0.21566   
2947.58003 37.51859   2.51562    2.434826   2.45307    -0.06255   0.21051   
2947.78003 35.87222   2.61443    2.438341   2.45127    -0.16316   0.20511   
2947.98003 34.21853   2.60336    2.45482    2.45223    -0.15113   0.19397   
2948.18003 32.84907   2.70459    2.498331   2.4769     -0.22769   0.17016   
2948.38003 29.64793   2.84736    2.521822   2.51785    -0.3295    0.15042   
2948.58003 26.90764   2.8736     2.538929   2.56013    -0.31348   0.13449   
2948.78003 25.2333    2.81302    2.563663   2.56994    -0.24308   0.11574   
2948.98003 22.61985   2.80855    2.57907    2.58513    -0.22342   0.09965   
2949.18003 20.94932   2.77615    2.576897   2.58513    -0.19101   0.09721   
2949.38003 19.48181   2.78463    2.557152   2.58513    -0.1995    0.10615   
2949.58003 17.95595   2.78527    2.531427   2.57028    -0.21499   0.11703   
2949.78003 17.67984   2.77801    2.543036   2.57028    -0.20774   0.10996   
2949.98003 19.35119   2.82165    2.597767   2.58513    -0.23652   0.07897   
2950.18003 22.16157   2.7991     2.630572   2.58513    -0.21397   0.05829   
2950.38003 23.49201   2.69069    2.630718   2.58513    -0.10556   0.06095   
2950.58003 25.29355   2.64489    2.612618   2.58479    -0.06009   0.08065   
2950.78003 29.79049   2.50111    2.573776   2.56852    0.06741    0.11946   
2950.98003 34.83463   2.42217    2.511222   2.47798    0.05581    0.16809   
2951.18003 43.80078   2.39437    2.459856   2.4583     0.06393    0.21373   
2951.38003 56.72833   2.44132    2.430701   2.45986    0.01854    0.25441   
2951.58003 70.76215000000001 2.53458    2.418012   2.46416    -0.07042   0.28632   
2951.78003 75.61663   2.45174    2.423941   2.46715    0.01541    0.29157   
2951.98003 71.50467999999999 2.4302     2.440053   2.4779     0.0477     0.2772    
2952.18003 55.60465   2.421      2.433084   2.46015    0.03915    0.25107   
2952.38003 49.63731   2.42263    2.466076   2.46236    0.03974    0.22339   
2952.58003 46.52079   2.44322    2.496089   2.46046    0.01724    0.20174   
2952.78003 46.2993    2.53081    2.525428   2.46408    -0.06673   0.18502   
2952.98003 45.62396   2.60134    2.548229   2.48287    -0.11846   0.16964   
2953.18003 39.07019   2.64591    2.55113    2.50741    -0.1385    0.15436   
2953.38003 31.55532   2.68803    2.546718   2.55239    -0.13564   0.14064   
2953.58003 27.88999   2.79924    2.545452   2.56013    -0.23911   0.133     
2953.78003 30.44527   2.79842    2.552794   2.55871    -0.23971   0.13444   
2953.98003 38.34266   2.73917    2.560578   2.52901    -0.21016   0.14672   
2954.18003 53.89052   2.69176    2.570915   2.49059    -0.20116   0.16883   
2954.38003 71.51141   2.65058    2.565583   2.49168    -0.15889   0.19725   
2954.58003 90.96213   2.60929    2.546598   2.50211    -0.10718   0.22662   
2954.78003 88.5949    2.55345    2.522352   2.50108    -0.05237   0.2479    
2954.98003 75.52967   2.55341    2.474412   2.49169    -0.06171   0.26555   
2955.18003 71.32056   2.55612    2.440948   2.47816    -0.07796   0.27646   
2955.38003 74.89449   2.53799    2.420637   2.46615    -0.07184   0.29197   
2955.58003 83.05891   2.50606    2.431214   2.46821    -0.03786   0.299     
2955.78003 89.17766   2.47637    2.444961   2.4681     -0.00827   0.29946   
2955.98003 88.84039   2.48554    2.451796   2.472      -0.01353   0.29529   
2956.18003 87.33515   2.55492    2.440782   2.46826    -0.08667   0.29956   
2956.38003 91.51303   2.5792     2.440928   2.46312    -0.11608   0.30425   
2956.58003 96.61062   2.59867    2.425169   2.44444    -0.15424   0.31803   
2956.78003 101.5701   2.56458    2.416764   2.43051    -0.13407   0.3271    
2956.98003 105.5674   2.54812    2.420101   2.42476    -0.12336   0.32837   
2957.18003 102.9595   2.49504    2.431202   2.43917    -0.05587   0.32011   
2957.38003 102.532    2.52521    2.438556   2.44164    -0.08357   0.31546   
2957.58003 103.8896   2.50313    2.445575   2.44475    -0.05838   0.31204   
2957.78003 104.8422   2.45433    2.439685   2.44075    -0.01359   0.31629   
2957.98003 104.8428   2.39139    2.416822   2.42313    0.03174    0.32969   
2958.18003 102.3334   2.28899    2.413422   2.42382    0.13483    0.32955   
2958.38003 94.50689   2.16291    2.389378   2.41789    0.25498    0.33368   
2958.58003 87.39454000000001 2.06914    2.338477   2.39123    0.32209    0.34633   
2958.78003 83.97646   1.971      2.387059   2.4441     0.4731     0.32104   
2958.98003 84.09587000000001 1.91595    2.470717   2.49118    0.57523    0.27897   
2959.18003 84.24522   2.2947     2.506125   2.50067    0.20597    0.25656   
2959.38003 81.33108   2.55001    2.520545   2.50069    -0.04933   0.24337   
2959.58003 78.26336999999999 2.57456    2.535009   2.4995     -0.07506   0.22939   
2959.78003 75.08548999999999 2.59743    2.53367    2.49475    -0.10268   0.22697   
2959.98003 74.32599999999999 2.60238    2.523385   2.4938     -0.10859   0.23345   
2960.18003 77.82468   2.59262    2.512694   2.49874    -0.09389   0.24507   
2960.38003 80.12186   2.55125    2.494905   2.49815    -0.0531    0.25948   
2960.58003 79.93031000000001 2.58479    2.461836   2.48954    -0.09525   0.27869   
2960.78003 79.82608999999999 2.54596    2.432145   2.47167    -0.07429   0.29399   
2960.98003 83.20027   2.55189    2.432928   2.46999    -0.0819    0.29833   
2961.18003 86.59032000000001 2.51876    2.435314   2.46731    -0.05144   0.30152   
2961.38003 87.31717   2.45036    2.437527   2.46721    0.01685    0.30126   
2961.58003 86.63469000000001 2.38456    2.434939   2.467      0.08244    0.30177   
2961.78003 88.48887999999999 2.32141    2.435572   2.46475    0.14334    0.3037    
2961.98003 93.01978   2.20635    2.456282   2.46978    0.26343    0.29703   
2962.18003 90.60475   2.08151    2.457895   2.47425    0.39274    0.29369   
2962.38003 84.31659000000001 2.13632    2.457713   2.48213    0.34581    0.28666   
