~Version
 VERS              .         2.0                           : CWLS LOG ASCII STANDARD - VERSION 2.0
 WRAP              .         NO                            : ONE LINE PER DEPTH STEP
 DLM               .         SPACE                         : DELIMITING CHARACTER(SPACE TAB OR COMMA)
~Well Information
#_______________________________________________________________________________
#
#PARAMETER_NAME    .UNIT     VALUE                         : DESCRIPTION
#_______________________________________________________________________________
STRT               .m        2818.18003                    : First reference value
STOP               .m        2999.78003                    : Last reference value
STEP               .m        0.2                           : Step increment
NULL               .         -9999                         : Missing value
COMP               .                                       : Company
WELL               .         201                           : Well name
FLD                .                                       : Field
LOC                .                                       : Location
PROV               .                                       : Province
SRVC               .                                       : Service Company
DATE               .         2021-05-13 14_16_42           : Date
UWI                .                                       : Unique Well ID
API                .                                       : API NUMBER
CNTY               .                                       : COUNTY
Cartographic_reference_system .         GCS_WGS_1984                  : GEOGCS["GCS_WGS_1984",DATUM["D_WGS_1984",SPHEROID["WGS_1984",6378137.0,298.257223563]],PRIMEM["Greenwich",0.0],UNIT["Degree",0.0174532925199433],AUTHORITY["EPSG",4326]]
CTRY               .                                       : COUNTRY
EREF               .m        139.76                        : 
HZCS               .GCS_WGS_1984 World_Mercator                : PROJCS["World_Mercator",GEOGCS["GCS_WGS_1984",DATUM["D_WGS_1984",SPHEROID["WGS_1984",6378137.0,298.257223563]],PRIMEM["Greenwich",0.0],UNIT["Degree",0.0174532925199433]],PROJECTION["Mercator"],PARAMETER["False_Easting",0.0],PARAMETER["False_Northing",0.0],PARAMETER["Central_Meridian",0.0],PARAMETER["Standard_Parallel_1",0.0],UNIT["Meter",1.0],AUTHORITY["ESRI",54004]]
LATI               .dega     2.1856221126                  : GCS_WGS_1984
LONG               .dega     2.052578559                   : GCS_WGS_1984
ORIGINALWELLNAME   .         201                           : 
PROJECT_UPGRADE_TIME .         2014-05-27T11_38_46           : 
Pad                .         Pad2                          : 
STAT               .                                       : STATE
group              .         Pad2                          : 
Интер-р            .         Ярышев                        : 
Куст               .         2                             : 
Статус             .         Не проверено                  : 
Тип                .         Эксплуатация                  : 
~Parameter Information Block
#_______________________________________________________________________________
#
#PARAMETER_NAME    .UNIT     VALUE                         : DESCRIPTION
#_______________________________________________________________________________
SET                .         Gam                           : 
TLFamily_DEPT      .         Measured Depth                : 
TLFamily_GR_NORM   .         Gamma Ray                     : 
TLFamily_RHOB_NORM .         Bulk Density                  : 
TLFamily_RHOB_TL1  .         Bulk Density                  : 
TLFamily_SYNTH_Bulk_Density .         Bulk Density                  : 
TLFamily_SYNTH_Bulk_Density_MISFIT .                                       : 
TLFamily_TNPH_NORM .         Neutron Porosity              : 
~Curve Information
#_______________________________________________________________________________
#
#LOGNAME           .UNIT     LOG_ID                        : DESCRIPTION
#_______________________________________________________________________________
DEPT               .m                                      :  
GR_NORM            .gAPI                                   : Gamma Ray 
RHOB_NORM          .g/cm3                                  : Bulk Density 
RHOB_TL1           .g/cm3                                  :  
SYNTH_Bulk_Density .G/C3                                   : Bulk Density 
SYNTH_Bulk_Density_MISFIT .                                       : Synthetic Bulk Density Misfit 
TNPH_NORM          .v/v                                    : Thermal Neutron Porosity 
~Ascii
# ...
2982.98003 86.52161   2.58592    2.519496   2.50134    -0.08458   0.24873   
2983.18003 79.95675   2.51846    2.523809   2.50013    -0.01833   0.23958   
2983.38003 70.84068000000001 2.50889    2.525681   2.48863    -0.02026   0.2273    
2983.58003 64.50476   2.43053    2.530162   2.47987    0.04934    0.21503   
2983.78003 59.61272   2.39574    2.520396   2.47546    0.07972    0.21323   
2983.98003 55.42168   2.44133    2.484622   2.46797    0.02664    0.22577   
2984.18003 52.44921   2.49116    2.455392   2.46293    -0.02823   0.23434   
2984.38003 51.8009    2.4794     2.457549   2.46347    -0.01593   0.23198   
2984.58003 52.05351   2.48837    2.463858   2.46418    -0.02419   0.22948   
2984.78003 51.96033   2.50012    2.460382   2.46418    -0.03594   0.23096   
2984.98003 50.29395   2.48357    2.465008   2.46295    -0.02062   0.22528   
2985.18003 48.81688   2.47469    2.470599   2.46131    -0.01337   0.21947   
2985.38003 50.00293   2.49028    2.4701     2.46295    -0.02733   0.2222    
2985.58003 53.70398   2.48818    2.484321   2.46608    -0.0221    0.22256   
2985.78003 58.96776   2.51662    2.513772   2.47523    -0.0414    0.21611   
2985.98003 62.03074   2.47238    2.521215   2.47864    0.00626    0.21683   
2986.18003 65.40816   2.49675    2.513022   2.4802     -0.01655   0.22744   
2986.38003 69.68501999999999 2.43858    2.497762   2.48458    0.046      0.24338   
2986.58003 73.39704   2.4046     2.494656   2.49193    0.08733    0.25074   
2986.78003 74.71962000000001 2.36561    2.489548   2.49311    0.1275     0.25567   
2986.98003 75.68965   2.37604    2.494559   2.49485    0.11881    0.254     
2987.18003 74.03945   2.44534    2.502878   2.49264    0.0473     0.2466    
2987.38003 68.50679   2.38838    2.48513    2.4816     0.09322    0.24881   
2987.58003 65.71117   2.39998    2.468666   2.47751    0.07754    0.25301   
2987.78003 69.36237   2.45367    2.48108    2.48329    0.02962    0.25244   
2987.98003 75.98351   2.4735     2.479177   2.49365    0.02015    0.2635    
2988.18003 86.57084999999999 2.55564    2.479445   2.49254    -0.0631    0.27649   
2988.38003 97.94888   2.54634    2.490305   2.48488    -0.06147   0.27809   
2988.58003 104.4102   2.56682    2.497649   2.48518    -0.08164   0.27368   
2988.78003 104.3085   2.556      2.499969   2.48656    -0.06944   0.27161   
2988.98003 100.5704   2.61936    2.511603   2.4908     -0.12856   0.26112   
2989.18003 101.9892   2.58923    2.51596    2.49189    -0.09733   0.25682   
2989.38003 104.7738   2.5288     2.505693   2.48792    -0.04088   0.26622   
2989.58003 105.068    2.49115    2.492656   2.48036    -0.01079   0.27804   
2989.78003 101.1259   2.47996    2.49314    2.48242    0.00246    0.27708   
2989.98003 93.22190000000001 2.46527    2.496862   2.4965     0.03122    0.27054   
2990.18003 84.09206   2.44186    2.504943   2.50067    0.05881    0.25723   
2990.38003 74.17376   2.41354    2.497066   2.49264    0.0791     0.25038   
2990.58003 66.17565999999999 2.4522     2.46842    2.47786    0.02566    0.25394   
2990.78003 61.75829   2.45137    2.446634   2.47352    0.02215    0.25683   
2990.98003 58.97495   2.49157    2.432391   2.46934    -0.02222   0.25811   
2991.18003 58.0827    2.50449    2.433963   2.46644    -0.03806   0.25564   
2991.38003 60.92133   2.53001    2.455367   2.47445    -0.05556   0.25105   
2991.58003 65.11995   2.53652    2.468611   2.47702    -0.05949   0.25201   
2991.78003 70.81229999999999 2.48584    2.482847   2.48537    -0.00048   0.25374   
2991.98003 73.50857000000001 2.45275    2.48541    2.49144    0.03869    0.25635   
2992.18003 78.81158000000001 2.49354    2.50961    2.49858    0.00505    0.24832   
2992.38003 83.72958   2.54862    2.522566   2.5015     -0.04712   0.24409   
2992.58003 86.01839   2.49534    2.509761   2.50116    0.00582    0.25562   
2992.78003 85.30495000000001 2.45656    2.483344   2.49638    0.03982    0.2727    
2992.98003 85.88200000000001 2.42773    2.467806   2.486      0.05827    0.28276   
2993.18003 83.65579   2.34797    2.455364   2.48092    0.13294    0.28713   
2993.38003 80.53631   2.32253    2.43512    2.47259    0.15005    0.29353   
2993.58003 79.76427   2.39158    2.41331    2.4613     0.06972    0.30294   
2993.78003 79.85615   2.3864     2.41826    2.46405    0.07764    0.30075   
2993.98003 78.5408    2.3776     2.424194   2.46763    0.09003    0.29596   
2994.18003 76.45867   2.38534    2.42424    2.47022    0.08488    0.29275   
2994.38003 75.59872   2.33825    2.430466   2.47238    0.13413    0.28843   
2994.58003 78.09923000000001 2.27747    2.444226   2.47918    0.20171    0.28541   
2994.78003 80.31892999999999 2.16418    2.445683   2.47869    0.31451    0.28784   
2994.98003 81.66753   2.09209    2.446734   2.47818    0.38609    0.28915   
2995.18003 83.89908   1.952      2.431759   2.46761    0.51561    0.29986   
2995.38003 84.87287999999999 1.80471    2.379986   2.43932    0.63461    0.32543   
2995.58003 85.93088   1.70924    2.319879   2.3769     0.66766    0.35146   
2995.78003 84.54604999999999 1.66307    2.279571   2.30596    0.64289    0.36422   
2995.98003 82.55994   1.68902    2.306166   2.37399    0.68497    0.35146   
2996.18003 80.71977   1.97619    2.384367   2.44368    0.46749    0.31739   
2996.38003 82.23260000000001 2.30194    2.458884   2.48493    0.18299    0.28337   
2996.58003 86.09941999999999 2.25969    2.509597   2.50116    0.24147    0.25581   
2996.78003 90.26936000000001 2.16885    2.53592    2.50188    0.33303    0.23694   
2996.98003 89.57767   2.08972    2.539897   2.50198    0.41226    0.23299   
2997.18003 86.26882000000001 1.99082    2.53565    2.50214    0.51132    0.23533   
2997.38003 85.32402999999999 1.85333    2.536813   2.50214    0.6488     0.23375   
2997.58003 86.72797   1.75255    2.532545   2.50214    0.74959    0.23827   
2997.78003 87.65219999999999 1.71005    2.534695   2.50187    0.79182    0.23693   
2997.98003 88.55455000000001 1.70363    2.536536   2.50187    0.79824    0.23572   
2998.18003 87.37635   1.70142    2.529202   2.50194    0.80053    0.24149   
2998.38003 83.29351   1.69904    2.507968   2.50079    0.80174    0.25433   
2998.58003 79.29416999999999 1.70278    2.491115   2.4977     0.79492    0.26083   
2998.78003 79.33851   1.7021     2.510026   2.49906    0.79696    0.24865   
2998.98003 81.21294   1.70145    2.539359   2.5013     0.79985    0.22861   
2999.18003 83.93886000000001 1.70486    2.558012   2.50285    0.79799    0.21336   
2999.38003 85.72659   1.70117    2.567145   2.50324    0.80207    0.204     
2999.58003 86.38314   1.70098    2.561417   2.50313    0.80215    0.21044   
2999.78003 86.64173   1.70447    2.5364     2.50214    0.79767    0.23489   
