~Version
 VERS              .         2.0                           : CWLS LOG ASCII STANDARD - VERSION 2.0
 WRAP              .         NO                            : ONE LINE PER DEPTH STEP
 DLM               .         SPACE                         : DELIMITING CHARACTER(SPACE TAB OR COMMA)
~Well Information
#_______________________________________________________________________________
#
#PARAMETER_NAME    .UNIT     VALUE                         : DESCRIPTION
#_______________________________________________________________________________
STRT               .m        2818.18003                    : First reference value
STOP               .m        2999.78003                    : Last reference value
STEP               .m        0.2                           : Step increment
NULL               .         -9999                         : Missing value
COMP               .                                       : Company
WELL               .         201                           : Well name
FLD                .                                       : Field
LOC                .                                       : Location
PROV               .                                       : Province
SRVC               .                                       : Service Company
DATE               .         2021-05-13 14_16_42           : Date
UWI                .                                       : Unique Well ID
API                .                                       : API NUMBER
CNTY               .                                       : COUNTY
Cartographic_reference_system .         GCS_WGS_1984                  : GEOGCS["GCS_WGS_1984",DATUM["D_WGS_1984",SPHEROID["WGS_1984",6378137.0,298.257223563]],PRIMEM["Greenwich",0.0],UNIT["Degree",0.0174532925199433],AUTHORITY["EPSG",4326]]
CTRY               .                                       : COUNTRY
EREF               .m        139.76                        : 
HZCS               .GCS_WGS_1984 World_Mercator                : PROJCS["World_Mercator",GEOGCS["GCS_WGS_1984",DATUM["D_WGS_1984",SPHEROID["WGS_1984",6378137.0,298.257223563]],PRIMEM["Greenwich",0.0],UNIT["Degree",0.0174532925199433]],PROJECTION["Mercator"],PARAMETER["False_Easting",0.0],PARAMETER["False_Northing",0.0],PARAMETER["Central_Meridian",0.0],PARAMETER["Standard_Parallel_1",0.0],UNIT["Meter",1.0],AUTHORITY["ESRI",54004]]
LATI               .dega     2.1856221126                  : GCS_WGS_1984
LONG               .dega     2.052578559                   : GCS_WGS_1984
ORIGINALWELLNAME   .         201                           : 
PROJECT_UPGRADE_TIME .         2014-05-27T11_38_46           : 
Pad                .         Pad2                          : 
STAT               .                                       : STATE
group              .         Pad2                          : 
Интер-р            .         Ярышев                        : 
Куст               .         2                             : 
Статус             .         Не проверено                  : 
Тип                .         Эксплуатация                  : 
~Parameter Information Block
#_______________________________________________________________________________
#
#PARAMETER_NAME    .UNIT     VALUE                         : DESCRIPTION
#_______________________________________________________________________________
SET                .         Gam                           : 
TLFamily_DEPT      .         Measured Depth                : 
TLFamily_GR_NORM   .         Gamma Ray                     : 
TLFamily_RHOB_NORM .         Bulk Density                  : 
TLFamily_RHOB_TL1  .         Bulk Density                  : 
TLFamily_SYNTH_Bulk_Density .         Bulk Density                  : 
TLFamily_SYNTH_Bulk_Density_MISFIT .                                       : 
TLFamily_TNPH_NORM .         Neutron Porosity              : 
~Curve Information
#_______________________________________________________________________________
#
#LOGNAME           .UNIT     LOG_ID                        : DESCRIPTION
#_______________________________________________________________________________
DEPT               .m                                      :  
GR_NORM            .gAPI                                   : Gamma Ray 
RHOB_NORM          .g/cm3                                  : Bulk Density 
RHOB_TL1           .g/cm3                                  :  
SYNTH_Bulk_Density .G/C3                                   : Bulk Density 
SYNTH_Bulk_Density_MISFIT .                                       : Synthetic Bulk Density Misfit 
TNPH_NORM          .v/v                                    : Thermal Neutron Porosity 
~Ascii
# ...
2858.78003 46.73892   2.61097    2.429473   2.45539    -0.15559   0.23386   
2858.98003 43.1694    2.6135     2.4018     2.45337    -0.16013   0.23738   
2859.18003 42.93361   2.5889     2.422666   2.4551     -0.1338    0.22823   
2859.38003 43.78735   2.50701    2.439583   2.45655    -0.05047   0.22287   
2859.58003 44.83333   2.50956    2.441727   2.45678    -0.05278   0.22426   
2859.78003 47.48227   2.47683    2.439559   2.45841    -0.01842   0.23106   
2859.98003 53.22125   2.41184    2.442724   2.46262    0.05078    0.24182   
2860.18003 61.62639   2.3918     2.463701   2.47449    0.08268    0.24824   
2860.38003 63.05722   2.33683    2.457144   2.47495    0.13811    0.25413   
2860.58003 62.99102   2.36606    2.448349   2.47448    0.10841    0.2583    
2860.78003 62.86198   2.36391    2.454999   2.47495    0.11103    0.25483   
2860.98003 61.00441   2.352      2.459373   2.47449    0.12249    0.24924   
2861.18003 60.06527   2.42968    2.450129   2.47203    0.04235    0.25196   
2861.38003 61.71827   2.44392    2.450193   2.47374    0.02982    0.25505   
2861.58003 65.17822   2.49726    2.467048   2.47702    -0.02024   0.25292   
2861.78003 68.95337000000001 2.49949    2.476892   2.48221    -0.01728   0.25408   
2861.98003 71.44076   2.48231    2.499115   2.48884    0.00653    0.24521   
2862.18003 72.80636   2.4527     2.513162   2.49195    0.03925    0.23834   
2862.38003 73.47832   2.4703     2.509605   2.49264    0.02234    0.24156   
2862.58003 71.2657    2.45493    2.499993   2.48837    0.03343    0.24442   
2862.78003 72.8642    2.45574    2.501927   2.49146    0.03572    0.24555   
2862.98003 77.96529   2.46175    2.496704   2.49816    0.03641    0.25567   
2863.18003 83.92717   2.48037    2.494925   2.49843    0.01806    0.2638    
2863.38003 92.42558   2.48055    2.491198   2.49466    0.0141     0.27405   
2863.58003 95.71759   2.47049    2.493916   2.49207    0.02157    0.27423   
2863.78003 91.99415999999999 2.46162    2.505742   2.498      0.03638    0.26311   
2863.98003 86.67958   2.48176    2.504243   2.50016    0.0184     0.26016   
2864.18003 84.89878   2.56796    2.497688   2.49872    -0.06924   0.26298   
2864.38003 90.94450000000001 2.59062    2.505323   2.49833    -0.09229   0.26274   
2864.58003 98.77293   2.59433    2.498947   2.48953    -0.1048    0.2717    
2864.78003 105.4206   2.6079     2.496908   2.48374    -0.12416   0.27428   
2864.98003 108.9127   2.55266    2.50092    2.48525    -0.06742   0.26944   
2865.18003 111.0449   2.49561    2.502444   2.48402    -0.01158   0.26645   
2865.38003 111.0543   2.51931    2.505615   2.48402    -0.03528   0.26288   
2865.58003 109.3308   2.56083    2.512615   2.48759    -0.07324   0.25636   
2865.78003 107.3667   2.52126    2.510779   2.48807    -0.03319   0.25997   
2865.98003 107.1049   2.54266    2.494843   2.48111    -0.06155   0.27592   
2866.18003 105.9534   2.48637    2.4947     2.48156    -0.00481   0.27621   
2866.38003 104.2367   2.58773    2.504053   2.4882     -0.09953   0.26787   
2866.58003 101.2396   2.61817    2.5017     2.48912    -0.12905   0.26998   
2866.78003 100.137    2.62378    2.494069   2.48546    -0.13832   0.27605   
2866.98003 102.7148   2.60567    2.488411   2.47896    -0.12672   0.28127   
2867.18003 106.4023   2.60733    2.486278   2.47255    -0.13478   0.2835    
2867.38003 109.6764   2.54888    2.487462   2.47385    -0.07503   0.28211   
2867.58003 112.256    2.607      2.488438   2.47421    -0.1328    0.28022   
2867.78003 113.7866   2.57588    2.481348   2.46552    -0.11036   0.28633   
2867.98003 114.0941   2.50877    2.476476   2.46059    -0.04818   0.29076   
2868.18003 113.6889   2.49408    2.484101   2.46873    -0.02535   0.28372   
2868.38003 110.1003   2.54681    2.494365   2.4797     -0.06712   0.27543   
2868.58003 105.199    2.53705    2.486183   2.47336    -0.06368   0.2835    
2868.78003 100.7745   2.54196    2.463133   2.46005    -0.08191   0.29881   
2868.98003 98.09062   2.58412    2.454396   2.45854    -0.12557   0.30255   
2869.18003 94.15952   2.54238    2.484036   2.48793    -0.05445   0.2803    
2869.38003 93.27997000000001 2.54311    2.514329   2.49961    -0.0435    0.257     
2869.58003 97.19159000000001 2.52897    2.505255   2.49319    -0.03579   0.26603   
2869.78003 103.2261   2.48488    2.481009   2.47088    -0.014     0.2872    
2869.98003 108.7863   2.48932    2.464189   2.4539     -0.03543   0.30131   
2870.18003 113.9702   2.5257     2.466942   2.45208    -0.07362   0.29919   
2870.38003 115.3559   2.50384    2.459187   2.44481    -0.05903   0.30541   
2870.58003 114.0672   2.46201    2.440374   2.4333     -0.02871   0.3196    
2870.78003 110.3378   2.46416    2.424207   2.42265    -0.04151   0.32884   
2870.98003 104.5251   2.4801     2.431883   2.43787    -0.04223   0.32081   
2871.18003 100.209    2.52839    2.451701   2.45261    -0.07579   0.30579   
2871.38003 98.54199   2.6082     2.458921   2.46019    -0.14801   0.30006   
2871.58003 100.4286   2.59028    2.465056   2.46228    -0.12799   0.29732   
2871.78003 100.2703   2.63882    2.474288   2.46903    -0.16979   0.2909    
2871.98003 95.47994   2.61592    2.487916   2.48817    -0.12776   0.27847   
2872.18003 90.58641   2.59156    2.509408   2.4999     -0.09166   0.2594    
2872.38003 85.90040999999999 2.6795     2.524641   2.50184    -0.17766   0.24422   
2872.58003 81.35052   2.7195     2.527098   2.50104    -0.21846   0.23848   
2872.78003 78.6829    2.65437    2.527639   2.49938    -0.15499   0.23542   
2872.98003 80.72752   2.60127    2.529942   2.50056    -0.10072   0.23571   
2873.18003 88.70059000000001 2.51106    2.529894   2.50179    -0.00927   0.24165   
2873.38003 104.4317   2.54928    2.516593   2.49058    -0.05871   0.25535   
2873.58003 112.2377   2.51691    2.487794   2.47421    -0.0427    0.28086   
2873.78003 116.455    2.43458    2.450761   2.43802    0.00345    0.31204   
2873.98003 121.1915   2.43781    2.443963   2.4272     -0.01061   0.31664   
2874.18003 127.2231   2.47467    2.446828   2.42307    -0.0516    0.31064   
2874.38003 131.3968   2.482      2.45343    2.42787    -0.05413   0.29776   
2874.58003 133.1402   2.4483     2.456249   2.43151    -0.01679   0.29012   
2874.78003 132.2471   2.45921    2.453294   2.42904    -0.03017   0.2963    
2874.98003 131.2203   2.48532    2.448643   2.4209     -0.06441   0.30394   
2875.18003 128.0081   2.5106     2.459468   2.43705    -0.07355   0.29596   
2875.38003 124.8685   2.56298    2.471793   2.4533     -0.10967   0.28581   
2875.58003 124.6271   2.53706    2.470113   2.4515     -0.08557   0.28824   
2875.78003 121.3357   2.52502    2.46283    2.44382    -0.08119   0.29965   
2875.98003 116.432    2.5615     2.447984   2.43686    -0.12464   0.3142    
2876.18003 113.4075   2.60258    2.441067   2.43396    -0.16862   0.31898   
2876.38003 110.7003   2.57821    2.4413     2.43685    -0.14136   0.31806   
2876.58003 106.5538   2.54214    2.451897   2.44711    -0.09503   0.30932   
2876.78003 104.3609   2.59355    2.463808   2.45656    -0.13699   0.3002    
2876.98003 104.1509   2.64748    2.45917    2.45401    -0.19347   0.3033    
2877.18003 106.8568   2.60603    2.469549   2.45884    -0.14719   0.29687   
2877.38003 111.7367   2.5862     2.488139   2.47455    -0.11165   0.28076   
2877.58003 117.7829   2.50262    2.49013    2.47752    -0.0251    0.27363   
2877.78003 126.1193   2.47942    2.468473   2.4507     -0.02872   0.28792   
2877.98003 137.1643   2.47526    2.443308   2.4188     -0.05646   0.29918   
2878.18003 156.1559   2.41964    2.400737   2.40736    -0.01228   0.30712   
2878.38003 178.2472   2.37903    2.347215   2.39104    0.01201    0.3208    
2878.58003 194.4895   2.38485    2.312734   2.38494    0.0001000  0.32379   
2878.78003 194.1173   2.41392    2.313243   2.38593    -0.02799   0.32239   
2878.98003 185.7707   2.42257    2.330694   2.38926    -0.03331   0.32193   
2879.18003 180.2097   2.39622    2.342936   2.3923     -0.00392   0.31774   
2879.38003 179.9644   2.42802    2.343498   2.39294    -0.03508   0.31742   
