~Version
 VERS              .         2.0                           : CWLS LOG ASCII STANDARD - VERSION 2.0
 WRAP              .         NO                            : ONE LINE PER DEPTH STEP
 DLM               .         SPACE                         : DELIMITING CHARACTER(SPACE TAB OR COMMA)
~Well Information
#_______________________________________________________________________________
#
#PARAMETER_NAME    .UNIT     VALUE                         : DESCRIPTION
#_______________________________________________________________________________
STRT               .m        2818.18003                    : First reference value
STOP               .m        2999.78003                    : Last reference value
STEP               .m        0.2                           : Step increment
NULL               .         -9999                         : Missing value
COMP               .                                       : Company
WELL               .         201                           : Well name
FLD                .                                       : Field
LOC                .                                       : Location
PROV               .                                       : Province
SRVC               .                                       : Service Company
DATE               .         2021-05-13 14_16_42           : Date
UWI                .                                       : Unique Well ID
API                .                                       : API NUMBER
CNTY               .                                       : COUNTY
Cartographic_reference_system .         GCS_WGS_1984                  : GEOGCS["GCS_WGS_1984",DATUM["D_WGS_1984",SPHEROID["WGS_1984",6378137.0,298.257223563]],PRIMEM["Greenwich",0.0],UNIT["Degree",0.0174532925199433],AUTHORITY["EPSG",4326]]
CTRY               .                                       : COUNTRY
EREF               .m        139.76                        : 
HZCS               .GCS_WGS_1984 World_Mercator                : PROJCS["World_Mercator",GEOGCS["GCS_WGS_1984",DATUM["D_WGS_1984",SPHEROID["WGS_1984",6378137.0,298.257223563]],PRIMEM["Greenwich",0.0],UNIT["Degree",0.0174532925199433]],PROJECTION["Mercator"],PARAMETER["False_Easting",0.0],PARAMETER["False_Northing",0.0],PARAMETER["Central_Meridian",0.0],PARAMETER["Standard_Parallel_1",0.0],UNIT["Meter",1.0],AUTHORITY["ESRI",54004]]
LATI               .dega     2.1856221126                  : GCS_WGS_1984
LONG               .dega     2.052578559                   : GCS_WGS_1984
ORIGINALWELLNAME   .         201                           : 
PROJECT_UPGRADE_TIME .         2014-05-27T11_38_46           : 
Pad                .         Pad2                          : 
STAT               .                                       : STATE
group              .         Pad2                          : 
Интер-р            .         Ярышев                        : 
Куст               .         2                             : 
Статус             .         Не проверено                  : 
Тип                .         Эксплуатация                  : 
~Parameter Information Block
#_______________________________________________________________________________
#
#PARAMETER_NAME    .UNIT     VALUE                         : DESCRIPTION
#_______________________________________________________________________________
SET                .         Gam                           : 
TLFamily_DEPT      .         Measured Depth                : 
TLFamily_GR_NORM   .         Gamma Ray                     : 
TLFamily_RHOB_NORM .         Bulk Density                  : 
TLFamily_RHOB_TL1  .         Bulk Density                  : 
TLFamily_SYNTH_Bulk_Density .         Bulk Density                  : 
TLFamily_SYNTH_Bulk_Density_MISFIT .                                       : 
TLFamily_TNPH_NORM .         Neutron Porosity              : 
~Curve Information
#_______________________________________________________________________________
#
#LOGNAME           .UNIT     LOG_ID                        : DESCRIPTION
#_______________________________________________________________________________
DEPT               .m                                      :  
GR_NORM            .gAPI                                   : Gamma Ray 
RHOB_NORM          .g/cm3                                  : Bulk Density 
RHOB_TL1           .g/cm3                                  :  
SYNTH_Bulk_Density .G/C3                                   : Bulk Density 
SYNTH_Bulk_Density_MISFIT .                                       : Synthetic Bulk Density Misfit 
TNPH_NORM          .v/v                                    : Thermal Neutron Porosity 
~Ascii
# ...
2962.58003 78.82182   2.28042    2.479585   2.49602    0.2156     0.26715   
2962.78003 74.84582   2.39442    2.486799   2.49289    0.09847    0.25747   
2962.98003 73.33839999999999 2.41354    2.483742   2.49144    0.0779     0.25706   
2963.18003 76.43737   2.41652    2.480944   2.49434    0.07782    0.26312   
2963.38003 81.42443   2.48333    2.476844   2.49618    0.01285    0.27211   
2963.58003 85.62794   2.50144    2.440925   2.47078    -0.03066   0.29738   
2963.78003 90.38290000000001 2.49287    2.434649   2.46082    -0.03206   0.30639   
2963.98003 97.91109   2.48366    2.465337   2.46555    -0.01811   0.29549   
2964.18003 99.646     2.50497    2.470481   2.46657    -0.0384    0.29319   
2964.38003 98.35586000000001 2.52476    2.462904   2.46317    -0.06159   0.29738   
2964.58003 97.81547999999999 2.52666    2.466874   2.46733    -0.05932   0.29442   
2964.78003 98.16113   2.49865    2.471471   2.46941    -0.02923   0.2916    
2964.98003 97.52867000000001 2.53314    2.475276   2.47422    -0.05891   0.28861   
2965.18003 95.64439   2.53023    2.48652    2.48744    -0.04279   0.27957   
2965.38003 93.12582   2.5194     2.501764   2.49748    -0.02192   0.26683   
2965.58003 87.11288999999999 2.5298     2.52485    2.50158    -0.02822   0.24491   
2965.78003 75.13122   2.50903    2.539565   2.49549    -0.01354   0.22256   
2965.98003 64.55766   2.49759    2.538697   2.47987    -0.01772   0.2093    
2966.18003 61.43402   2.52382    2.532638   2.47856    -0.04526   0.2085    
2966.38003 61.87759   2.56001    2.522337   2.47864    -0.08137   0.21587   
2966.58003 63.27464   2.52128    2.526012   2.47934    -0.04193   0.21581   
2966.78003 66.09262   2.48519    2.528915   2.48137    -0.00382   0.21829   
2966.98003 69.54022999999999 2.46225    2.527426   2.4863     0.02405    0.22431   
2967.18003 71.46014   2.47685    2.522377   2.49002    0.01316    0.23039   
2967.38003 74.61312   2.4131     2.503613   2.49338    0.08028    0.24692   
2967.58003 78.09708000000001 2.34943    2.496939   2.49816    0.14873    0.25569   
2967.78003 83.16457   2.25091    2.489887   2.49843    0.24752    0.26621   
2967.98003 84.36429   2.13475    2.492927   2.49854    0.36379    0.26557   
2968.18003 81.84829000000001 2.01377    2.50909    2.5004     0.48663    0.25206   
2968.38003 73.33805   1.86112    2.486774   2.49166    0.63054    0.25531   
2968.58003 59.79111   1.75059    2.343175   2.3816     0.63101    0.29638   
2968.78003 42.03281   1.67725    2.040962   1.91994    0.24269    0.3536    
2968.98003 24.38438   1.62212    1.795      1.75891    0.13679    0.38654   
2969.18003 8.805110000000001 1.61486    1.641401   1.74717    0.13231    0.40288   
2969.38003 5.39475    1.6098     1.573033   1.74265    0.13286    0.43305   
2969.58003 7.1638     1.61506    1.574908   1.72086    0.1058     0.43935   
2969.78003 10.89824   1.63247    1.645086   1.75301    0.12054    0.40861   
2969.98003 19.81433   1.66754    1.830403   1.83415    0.16661    0.36003   
2970.18003 37.09291   1.77057    2.13603    2.17892    0.40836    0.31232   
2970.38003 55.45161   2.19724    2.3504     2.37411    0.17686    0.28462   
2970.58003 72.15864999999999 2.30598    2.465491   2.48651    0.18053    0.26533   
2970.78003 81.27544   2.26588    2.48473    2.49762    0.23174    0.2672    
2970.98003 83.48969   2.2111     2.442733   2.47436    0.26326    0.29368   
2971.18003 82.30856   2.08654    2.370656   2.43814    0.3516     0.32566   
2971.38003 78.05293   2.08792    2.348071   2.41458    0.32666    0.32818   
2971.58003 74.48156   2.27716    2.412917   2.46184    0.18468    0.29486   
2971.78003 75.84618   2.44619    2.479798   2.49246    0.04628    0.26295   
2971.98003 79.5043    2.47115    2.520953   2.4999     0.02875    0.24119   
2972.18003 85.45399   2.53857    2.52505    2.50184    -0.03673   0.24356   
2972.38003 89.33495000000001 2.58614    2.508444   2.4999     -0.08624   0.25926   
2972.58003 90.0359    2.57351    2.495422   2.49819    -0.07533   0.26923   
2972.78003 94.77986   2.54569    2.48749    2.48946    -0.05622   0.27832   
2972.98003 97.20796   2.60807    2.488261   2.48533    -0.12274   0.27923   
2973.18003 96.62936000000001 2.57902    2.493248   2.48896    -0.09007   0.27522   
2973.38003 93.9064    2.55931    2.50286    2.49685    -0.06246   0.26645   
2973.58003 87.64757   2.48808    2.51193    2.50081    0.01273    0.25537   
2973.78003 77.20484   2.52816    2.520141   2.49858    -0.02958   0.2392    
2973.98003 70.47454999999999 2.52829    2.525076   2.48766    -0.04064   0.22721   
2974.18003 69.51708000000001 2.55019    2.531281   2.4863     -0.0639    0.22162   
2974.38003 71.89245   2.57503    2.529976   2.49106    -0.08397   0.22572   
2974.58003 70.50611000000001 2.55327    2.516062   2.48649    -0.06678   0.23324   
2974.78003 64.83481999999999 2.47761    2.499015   2.47728    -0.00034   0.23488   
2974.98003 63.02101   2.44711    2.495719   2.47662    0.02951    0.23369   
2975.18003 64.39369000000001 2.49398    2.492286   2.47728    -0.0167    0.23798   
2975.38003 65.77782000000001 2.47566    2.473085   2.4777     0.00203    0.25081   
2975.58003 65.83918   2.45671    2.466856   2.47722    0.02051    0.25417   
2975.78003 64.16867999999999 2.49069    2.475653   2.47643    -0.01425   0.24666   
2975.98003 61.04585   2.48109    2.476732   2.47588    -0.00522   0.2405    
2976.18003 59.54213   2.52203    2.441668   2.47004    -0.05199   0.25495   
2976.38003 61.93122   2.51377    2.417092   2.46656    -0.04721   0.27068   
2976.58003 67.8663    2.47162    2.426525   2.46847    -0.00315   0.27738   
2976.78003 77.11467   2.44384    2.464107   2.49231    0.04847    0.27352   
2976.98003 83.24813   2.41436    2.489009   2.49843    0.08407    0.26686   
2977.18003 81.5485    2.37385    2.487401   2.49775    0.1239     0.26589   
2977.38003 80.13942   2.48603    2.501083   2.49918    0.01315    0.25553   
2977.58003 80.82568000000001 2.49473    2.514244   2.49976    0.00503    0.24738   
2977.78003 81.71274   2.49765    2.512399   2.50058    0.00293    0.24961   
2977.98003 81.18697   2.53002    2.517817   2.50054    -0.02947   0.24521   
2978.18003 84.49402000000001 2.5545     2.53199    2.50196    -0.05254   0.23724   
2978.38003 87.94192   2.59379    2.52728    2.50152    -0.09227   0.24344   
2978.58003 89.45226   2.57191    2.523974   2.50108    -0.07083   0.24707   
2978.78003 89.36074000000001 2.54309    2.529435   2.50179    -0.0413    0.24238   
2978.98003 86.44474   2.58914    2.531358   2.50214    -0.087     0.2391    
2979.18003 81.91989   2.56744    2.53604    2.5018     -0.06564   0.23192   
2979.38003 75.83732000000001 2.55948    2.543829   2.49659    -0.0629    0.21997   
2979.58003 67.92234000000001 2.56465    2.545016   2.484      -0.08065   0.20957   
2979.78003 59.93855   2.50727    2.547299   2.47791    -0.02936   0.19609   
2979.98003 58.19404   2.53713    2.552744   2.47712    -0.06001   0.1894    
2980.18003 60.53864   2.60272    2.557252   2.48075    -0.12197   0.18981   
2980.38003 64.36677   2.64991    2.564377   2.48236    -0.16755   0.18978   
2980.58003 62.71489   2.70535    2.570068   2.48407    -0.22128   0.18289   
2980.78003 52.70157   2.70601    2.56071    2.48107    -0.22494   0.17439   
2980.98003 44.41663   2.71081    2.558471   2.50095    -0.20986   0.16049   
2981.18003 42.74866   2.68193    2.560166   2.50922    -0.17271   0.15603   
2981.38003 46.70798   2.66289    2.549342   2.48372    -0.17917   0.17105   
2981.58003 51.35919   2.71814    2.516392   2.46644    -0.2517    0.20038   
2981.78003 57.34616   2.59471    2.484778   2.47096    -0.12375   0.22938   
2981.98003 60.6437    2.56652    2.460173   2.47367    -0.09285   0.24817   
2982.18003 65.56820999999999 2.55324    2.452436   2.47469    -0.07854   0.26097   
2982.38003 74.07491   2.56335    2.483672   2.4919     -0.07145   0.25818   
2982.58003 83.07013000000001 2.52691    2.504565   2.50056    -0.02634   0.25645   
2982.78003 89.27378   2.56162    2.513766   2.50081    -0.06081   0.25516   
