~Version
 VERS              .         2.0                           : CWLS LOG ASCII STANDARD - VERSION 2.0
 WRAP              .         NO                            : ONE LINE PER DEPTH STEP
 DLM               .         SPACE                         : DELIMITING CHARACTER(SPACE TAB OR COMMA)
~Well Information
#_______________________________________________________________________________
#
#PARAMETER_NAME    .UNIT     VALUE                         : DESCRIPTION
#_______________________________________________________________________________
STRT               .m        2818.18003                    : First reference value
STOP               .m        2999.78003                    : Last reference value
STEP               .m        0.2                           : Step increment
NULL               .         -9999                         : Missing value
COMP               .                                       : Company
WELL               .         201                           : Well name
FLD                .                                       : Field
LOC                .                                       : Location
PROV               .                                       : Province
SRVC               .                                       : Service Company
DATE               .         2021-05-13 14_16_42           : Date
UWI                .                                       : Unique Well ID
API                .                                       : API NUMBER
CNTY               .                                       : COUNTY
Cartographic_reference_system .         GCS_WGS_1984                  : GEOGCS["GCS_WGS_1984",DATUM["D_WGS_1984",SPHEROID["WGS_1984",6378137.0,298.257223563]],PRIMEM["Greenwich",0.0],UNIT["Degree",0.0174532925199433],AUTHORITY["EPSG",4326]]
CTRY               .                                       : COUNTRY
EREF               .m        139.76                        : 
HZCS               .GCS_WGS_1984 World_Mercator                : PROJCS["World_Mercator",GEOGCS["GCS_WGS_1984",DATUM["D_WGS_1984",SPHEROID["WGS_1984",6378137.0,298.257223563]],PRIMEM["Greenwich",0.0],UNIT["Degree",0.0174532925199433]],PROJECTION["Mercator"],PARAMETER["False_Easting",0.0],PARAMETER["False_Northing",0.0],PARAMETER["Central_Meridian",0.0],PARAMETER["Standard_Parallel_1",0.0],UNIT["Meter",1.0],AUTHORITY["ESRI",54004]]
LATI               .dega     2.1856221126                  : GCS_WGS_1984
LONG               .dega     2.052578559                   : GCS_WGS_1984
ORIGINALWELLNAME   .         201                           : 
PROJECT_UPGRADE_TIME .         2014-05-27T11_38_46           : 
Pad                .         Pad2                          : 
STAT               .                                       : STATE
group              .         Pad2                          : 
Интер-р            .         Ярышев                        : 
Куст               .         2                             : 
Статус             .         Не проверено                  : 
Тип                .         Эксплуатация                  : 
~Parameter Information Block
#_______________________________________________________________________________
#
#PARAMETER_NAME    .UNIT     VALUE                         : DESCRIPTION
#_______________________________________________________________________________
SET                .         Gam                           : 
TLFamily_DEPT      .         Measured Depth                : 
TLFamily_GR_NORM   .         Gamma Ray                     : 
TLFamily_RHOB_NORM .         Bulk Density                  : 
TLFamily_RHOB_TL1  .         Bulk Density                  : 
TLFamily_SYNTH_Bulk_Density .         Bulk Density                  : 
TLFamily_SYNTH_Bulk_Density_MISFIT .                                       : 
TLFamily_TNPH_NORM .         Neutron Porosity              : 
~Curve Information
#_______________________________________________________________________________
#
#LOGNAME           .UNIT     LOG_ID                        : DESCRIPTION
#_______________________________________________________________________________
DEPT               .m                                      :  
GR_NORM            .gAPI                                   : Gamma Ray 
RHOB_NORM          .g/cm3                                  : Bulk Density 
RHOB_TL1           .g/cm3                                  :  
SYNTH_Bulk_Density .G/C3                                   : Bulk Density 
SYNTH_Bulk_Density_MISFIT .                                       : Synthetic Bulk Density Misfit 
TNPH_NORM          .v/v                                    : Thermal Neutron Porosity 
~Ascii
# ...
2900.38003 110.307    2.37986    2.450518   2.44199    0.06213    0.3116    
2900.58003 105.7868   2.35759    2.462853   2.45529    0.0977     0.30144   
2900.78003 103.9387   2.35287    2.472296   2.46346    0.11058    0.29396   
2900.98003 104.1694   2.35795    2.469456   2.46073    0.10279    0.29611   
2901.18003 105.5714   2.33363    2.461319   2.45362    0.11998    0.30244   
2901.38003 109.237    2.33208    2.459364   2.44855    0.11647    0.30498   
2901.58003 113.0196   2.31293    2.449851   2.43872    0.1258     0.31263   
2901.78003 112.352    2.34217    2.429378   2.42746    0.0853     0.32649   
2901.98003 108.6842   2.32456    2.417915   2.41557    0.09101    0.33167   
2902.18003 106.3877   2.27873    2.4306     2.43422    0.15549    0.32277   
2902.38003 112.3333   2.28212    2.443954   2.43638    0.15426    0.31672   
2902.58003 115.038    2.29426    2.451989   2.43926    0.145      0.31115   
2902.78003 112.0447   2.32395    2.460793   2.44811    0.12415    0.30429   
2902.98003 109.1886   2.32867    2.460859   2.44987    0.1212     0.30387   
2903.18003 109.2202   2.3489     2.457877   2.44782    0.09891    0.30606   
2903.38003 112.2516   2.3449     2.451295   2.44051    0.09561    0.31146   
2903.58003 117.2017   2.31681    2.444802   2.43394    0.11713    0.31661   
2903.78003 121.4156   2.27313    2.428018   2.41158    0.13845    0.32901   
2903.98003 123.5721   2.24337    2.407462   2.37559    0.13222    0.34351   
2904.18003 124.0276   2.28179    2.422611   2.39896    0.11716    0.3328    
2904.38003 123.92     2.31106    2.437483   2.42159    0.11054    0.32112   
2904.58003 118.4808   2.32829    2.43312    2.42551    0.09722    0.32529   
2904.78003 110.8488   2.32376    2.418162   2.41363    0.08986    0.33275   
2904.98003 105.7713   2.29377    2.40158    2.3997     0.10592    0.33867   
2905.18003 106.599    2.24219    2.40517    2.40359    0.1614     0.33739   
2905.38003 108.5208   2.24841    2.410866   2.40886    0.16045    0.3356    
2905.58003 108.1541   2.27752    2.411005   2.40894    0.13142    0.33528   
2905.78003 103.9607   2.32471    2.394448   2.39761    0.0729     0.34085   
2905.98003 98.08226000000001 2.39177    2.395088   2.4123     0.02052    0.33489   
2906.18003 93.70987   2.35054    2.396419   2.42823    0.0777     0.32943   
2906.38003 92.1322    2.32345    2.38958    2.42565    0.1022     0.33076   
2906.58003 95.02558999999999 2.30559    2.395446   2.42265    0.11706    0.3314    
2906.78003 101.3285   2.31675    2.408178   2.41849    0.10174    0.33145   
2906.98003 110.8192   2.29346    2.403249   2.39415    0.10069    0.34133   
2907.18003 120.2471   2.26295    2.402599   2.37698    0.11403    0.34601   
2907.38003 129.0359   2.24576    2.406174   2.35814    0.11239    0.34426   
2907.58003 130.5895   2.27801    2.401063   2.35141    0.07339    0.34775   
2907.78003 125.9101   2.28488    2.387254   2.34997    0.06508    0.3569    
2907.98003 118.0102   2.28186    2.347888   2.34443    0.06257    0.37463   
2908.18003 109.9918   2.29998    2.305261   2.34555    0.04557    0.38667   
2908.38003 99.39660000000001 2.33347    2.272311   2.33571    0.00224    0.38751   
2908.58003 96.76519   2.33571    2.293696   2.32838    -0.00733   0.37631   
2908.78003 101.7915   2.29027    2.320861   2.34872    0.05845    0.37177   
2908.98003 109.9392   2.25099    2.335334   2.34846    0.09746    0.37398   
2909.18003 116.8999   2.28505    2.319026   2.34319    0.05814    0.38702   
2909.38003 127.0052   2.24035    2.309309   2.31738    0.07703    0.39848   
2909.58003 137.0049   2.25115    2.333807   2.29995    0.0488     0.39084   
2909.78003 140.6844   2.20445    2.348196   2.29959    0.09514    0.38299   
2909.98003 138.6138   2.22343    2.38934    2.33292    0.10949    0.3543    
2910.18003 137.3502   2.19338    2.403981   2.34868    0.1553     0.34274   
2910.38003 140.0278   2.17831    2.385014   2.32622    0.14791    0.35714   
2910.58003 145.9621   2.17921    2.379992   2.32358    0.14436    0.35797   
2910.78003 150.8751   2.18136    2.36798    2.30612    0.12476    0.36518   
2910.98003 148.5493   2.22056    2.382041   2.33102    0.11046    0.35382   
2911.18003 143.4727   2.22274    2.401097   2.3524     0.12966    0.34      
2911.38003 141.9824   2.22388    2.395981   2.34376    0.11988    0.3465    
2911.58003 144.6034   2.20795    2.396867   2.34743    0.13948    0.34307   
2911.78003 147.319    2.22241    2.404357   2.37542    0.153      0.33041   
2911.98003 152.4019   2.18783    2.39077    2.35847    0.17064    0.33823   
2912.18003 161.5464   2.18187    2.356962   2.30541    0.12353    0.36546   
2912.38003 174.7416   2.14548    2.31451    2.29284    0.14736    0.40008   
2912.58003 178.7793   2.17315    2.305278   2.29206    0.11891    0.40772   
2912.78003 167.657    2.24177    2.318713   2.29543    0.05367    0.39958   
2912.98003 147.5876   2.36503    2.356721   2.30158    -0.06345   0.37628   
2913.18003 130.9146   2.33013    2.396875   2.34526    0.01513    0.35073   
2913.38003 119.9741   2.32879    2.412187   2.38766    0.05886    0.33984   
2913.58003 117.4082   2.39088    2.422095   2.40984    0.01896    0.33277   
2913.78003 114.4625   2.39592    2.454569   2.44289    0.04697    0.30916   
2913.98003 112.9111   2.42027    2.467851   2.45352    0.03325    0.29859   
2914.18003 115.606    2.43709    2.459115   2.44481    0.00772    0.30543   
2914.38003 120.8742   2.49562    2.460878   2.44311    -0.05251   0.30185   
2914.58003 123.8782   2.54597    2.460984   2.44183    -0.10414   0.29935   
2914.78003 125.385    2.52225    2.46619    2.44602    -0.07624   0.29182   
2914.98003 129.6347   2.52391    2.463693   2.4422     -0.08171   0.28757   
2915.18003 135.5382   2.47707    2.450821   2.42822    -0.04885   0.29206   
2915.38003 139.7727   2.46176    2.433368   2.40949    -0.05227   0.30724   
2915.58003 133.6039   2.41146    2.425568   2.39495    -0.0165    0.32575   
2915.78003 125.7735   2.43703    2.436153   2.41742    -0.01961   0.32147   
2915.98003 120.7221   2.4423     2.447942   2.42929    -0.01301   0.31347   
2916.18003 118.5017   2.46048    2.465324   2.44944    -0.01105   0.29905   
2916.38003 116.3459   2.42197    2.474699   2.46004    0.03807    0.29137   
2916.58003 117.4955   2.4592     2.470083   2.45381    -0.00538   0.29513   
2916.78003 121.5911   2.49512    2.467322   2.44892    -0.04621   0.29491   
2916.98003 121.6397   2.51797    2.468721   2.45016    -0.06781   0.2934    
2917.18003 117.3528   2.45779    2.455429   2.44281    -0.01498   0.30814   
2917.38003 114.2123   2.4667     2.4425     2.4345     -0.0322    0.31812   
2917.58003 115.4006   2.46394    2.460382   2.44686    -0.01708   0.30442   
2917.78003 116.2905   2.40042    2.479872   2.46471    0.06429    0.28632   
2917.98003 115.7405   2.44519    2.488596   2.47425    0.02906    0.27761   
2918.18003 115.7432   2.44421    2.483368   2.46871    0.0245     0.28315   
2918.38003 115.4422   2.44502    2.475414   2.46046    0.01544    0.29116   
2918.58003 116.8716   2.44623    2.461654   2.44746    0.00124    0.303     
2918.78003 116.5477   2.4466     2.441643   2.43321    -0.0134    0.31898   
2918.98003 114.8707   2.43392    2.419816   2.41125    -0.02267   0.33351   
2919.18003 113.1595   2.45447    2.410168   2.3957     -0.05877   0.33867   
2919.38003 111.9281   2.51656    2.417358   2.40951    -0.10705   0.33378   
2919.58003 114.2347   2.52535    2.444261   2.43513    -0.09022   0.31686   
2919.78003 118.8537   2.48428    2.460634   2.44505    -0.03922   0.30316   
2919.98003 121.6099   2.44251    2.46374    2.44468    0.00218    0.29854   
2920.18003 122.1303   2.47502    2.459343   2.44059    -0.03443   0.30247   
2920.38003 119.6269   2.47261    2.446454   2.43192    -0.04069   0.315     
2920.58003 114.8837   2.45936    2.440344   2.4333     -0.02606   0.31976   
2920.78003 107.8431   2.4967     2.440699   2.43928    -0.05742   0.31728   
2920.98003 97.89872   2.52098    2.465354   2.46555    -0.05543   0.29547   
