~Version
 VERS              .         2.0                           : CWLS LOG ASCII STANDARD - VERSION 2.0
 WRAP              .         NO                            : ONE LINE PER DEPTH STEP
 DLM               .         SPACE                         : DELIMITING CHARACTER(SPACE TAB OR COMMA)
~Well Information
#_______________________________________________________________________________
#
#PARAMETER_NAME    .UNIT     VALUE                         : DESCRIPTION
#_______________________________________________________________________________
STRT               .m        2818.18003                    : First reference value
STOP               .m        2999.78003                    : Last reference value
STEP               .m        0.2                           : Step increment
NULL               .         -9999                         : Missing value
COMP               .                                       : Company
WELL               .         201                           : Well name
FLD                .                                       : Field
LOC                .                                       : Location
PROV               .                                       : Province
SRVC               .                                       : Service Company
DATE               .         2021-05-13 14_16_42           : Date
UWI                .                                       : Unique Well ID
API                .                                       : API NUMBER
CNTY               .                                       : COUNTY
Cartographic_reference_system .         GCS_WGS_1984                  : GEOGCS["GCS_WGS_1984",DATUM["D_WGS_1984",SPHEROID["WGS_1984",6378137.0,298.257223563]],PRIMEM["Greenwich",0.0],UNIT["Degree",0.0174532925199433],AUTHORITY["EPSG",4326]]
CTRY               .                                       : COUNTRY
EREF               .m        139.76                        : 
HZCS               .GCS_WGS_1984 World_Mercator                : PROJCS["World_Mercator",GEOGCS["GCS_WGS_1984",DATUM["D_WGS_1984",SPHEROID["WGS_1984",6378137.0,298.257223563]],PRIMEM["Greenwich",0.0],UNIT["Degree",0.0174532925199433]],PROJECTION["Mercator"],PARAMETER["False_Easting",0.0],PARAMETER["False_Northing",0.0],PARAMETER["Central_Meridian",0.0],PARAMETER["Standard_Parallel_1",0.0],UNIT["Meter",1.0],AUTHORITY["ESRI",54004]]
LATI               .dega     2.1856221126                  : GCS_WGS_1984
LONG               .dega     2.052578559                   : GCS_WGS_1984
ORIGINALWELLNAME   .         201                           : 
PROJECT_UPGRADE_TIME .         2014-05-27T11_38_46           : 
Pad                .         Pad2                          : 
STAT               .                                       : STATE
group              .         Pad2                          : 
Интер-р            .         Ярышев                        : 
Куст               .         2                             : 
Статус             .         Не проверено                  : 
Тип                .         Эксплуатация                  : 
~Parameter Information Block
#_______________________________________________________________________________
#
#PARAMETER_NAME    .UNIT     VALUE                         : DESCRIPTION
#_______________________________________________________________________________
SET                .         Gam                           : 
TLFamily_DEPT      .         Measured Depth                : 
TLFamily_GR_NORM   .         Gamma Ray                     : 
TLFamily_RHOB_NORM .         Bulk Density                  : 
TLFamily_RHOB_TL1  .         Bulk Density                  : 
TLFamily_SYNTH_Bulk_Density .         Bulk Density                  : 
TLFamily_SYNTH_Bulk_Density_MISFIT .                                       : 
TLFamily_TNPH_NORM .         Neutron Porosity              : 
~Curve Information
#_______________________________________________________________________________
#
#LOGNAME           .UNIT     LOG_ID                        : DESCRIPTION
#_______________________________________________________________________________
DEPT               .m                                      :  
GR_NORM            .gAPI                                   : Gamma Ray 
RHOB_NORM          .g/cm3                                  : Bulk Density 
RHOB_TL1           .g/cm3                                  :  
SYNTH_Bulk_Density .G/C3                                   : Bulk Density 
SYNTH_Bulk_Density_MISFIT .                                       : Synthetic Bulk Density Misfit 
TNPH_NORM          .v/v                                    : Thermal Neutron Porosity 
~Ascii
# ...
2879.58003 181.709    2.38013    2.339381   2.38526    0.00513    0.32575   
2879.78003 189.5293   2.3647     2.323254   2.37286    0.00816    0.32911   
2879.98003 194.3897   2.4078     2.312685   2.38593    -0.02187   0.32236   
2880.18003 193.0316   2.40546    2.314828   2.3899     -0.01556   0.31871   
2880.38003 186.7304   2.40378    2.32808    2.39145    -0.01233   0.31552   
2880.58003 186.8103   2.44562    2.327731   2.3938     -0.05182   0.31406   
2880.78003 187.5127   2.43334    2.327207   2.35609    -0.07725   0.33714   
2880.98003 185.8291   2.42661    2.325708   2.30395    -0.12266   0.36279   
2881.18003 180.2339   2.44985    2.333864   2.30395    -0.14589   0.36249   
2881.38003 180.1792   2.35475    2.33863    2.33401    -0.02074   0.34869   
2881.58003 186.8139   2.36218    2.328698   2.37952    0.01733    0.32801   
2881.78003 190.9486   2.3642     2.319269   2.3899     0.0257     0.31886   
2881.98003 194.2512   2.37224    2.313533   2.38378    0.01154    0.32581   
2882.18003 208.5715   2.35161    2.29339    2.33492    -0.01669   0.34773   
2882.38003 222.4266   2.35614    2.278591   2.32331    -0.03283   0.35395   
2882.58003 230.4179   2.34419    2.26388    2.3463     0.00211    0.33832   
2882.78003 234.9781   2.35047    2.256419   2.35486    0.00439    0.33267   
2882.98003 236.1233   2.3202     2.265053   2.32161    0.00141    0.35001   
2883.18003 231.8955   2.35461    2.271769   2.31253    -0.04208   0.35771   
2883.38003 225.301    2.3525     2.274972   2.32058    -0.03192   0.35175   
2883.58003 216.5266   2.38406    2.282256   2.33588    -0.04818   0.34515   
2883.78003 206.0291   2.41963    2.297609   2.32527    -0.09436   0.35195   
2883.98003 197.7543   2.4429     2.30884    2.3001     -0.1428    0.3661    
2884.18003 189.2707   2.45858    2.321856   2.31914    -0.13944   0.35784   
2884.38003 181.1853   2.49021    2.338452   2.34691    -0.14329   0.34184   
2884.58003 171.4691   2.50156    2.358894   2.36561    -0.13595   0.33433   
2884.78003 162.834    2.47478    2.377728   2.37733    -0.09746   0.32938   
2884.98003 163.0339   2.44542    2.381171   2.39424    -0.05119   0.31945   
2885.18003 167.2259   2.43065    2.371404   2.39163    -0.03902   0.32169   
2885.38003 175.9937   2.36701    2.352034   2.38826    0.02125    0.32248   
2885.58003 193.8927   2.42035    2.314051   2.38396    -0.03639   0.32454   
2885.78003 210.5159   2.34775    2.289749   2.3396     -0.00816   0.34367   
2885.98003 227.6275   2.31672    2.276194   2.30292    -0.01379   0.36053   
2886.18003 241.351    2.33785    2.274933   2.28899    -0.04886   0.37807   
2886.38003 249.3888   2.30177    2.272742   2.2885     -0.01327   0.37826   
2886.58003 264.9492   2.28317    2.258875   2.30772    0.02454    0.35846   
2886.78003 292.4615   2.26636    2.25473    2.32033    0.05397    0.34955   
2886.98003 325.8716   2.21773    2.280993   2.29356    0.07584    0.36484   
2887.18003 348.7832   2.21112    2.291755   2.2944     0.08328    0.36204   
2887.38003 355.9487   2.26628    2.284498   2.32425    0.05797    0.34805   
2887.58003 349.3037   2.31144    2.275268   2.3325     0.02106    0.34213   
2887.78003 345.8839   2.33774    2.27212    2.33338    -0.00436   0.34092   
2887.98003 344.6792   2.31814    2.286001   2.30704    -0.0111    0.35803   
2888.18003 343.9911   2.28577    2.291268   2.29356    0.00779    0.36496   
2888.38003 349.4623   2.25872    2.301466   2.29054    0.03182    0.37369   
2888.58003 358.2245   2.223      2.316707   2.2869     0.0639     0.38677   
2888.78003 354.4674   2.18604    2.314802   2.2869     0.10086    0.38726   
2888.98003 347.7221   2.24545    2.302882   2.28804    0.04259    0.37685   
2889.18003 344.3584   2.2695     2.294592   2.29206    0.02256    0.36883   
2889.38003 339.3668   2.27728    2.280843   2.31274    0.03546    0.35558   
2889.58003 320.3887   2.27992    2.268239   2.3146     0.03468    0.35278   
2889.78003 302.3183   2.28844    2.271304   2.29206    0.00362    0.36637   
2889.98003 280.6513   2.28927    2.276997   2.2869     -0.00237   0.38395   
2890.18003 261.3377   2.31044    2.272055   2.28851    -0.02193   0.37957   
2890.38003 256.5988   2.26147    2.258536   2.3142     0.05274    0.35579   
2890.58003 268.3121   2.25306    2.256629   2.31342    0.06036    0.35555   
2890.78003 281.8062   2.26728    2.26545    2.29206    0.02478    0.36655   
2890.98003 290.8096   2.23008    2.268137   2.29206    0.06198    0.36731   
2891.18003 291.9734   2.25853    2.272351   2.29054    0.03202    0.37257   
2891.38003 289.6009   2.2665     2.262584   2.29904    0.03254    0.36039   
2891.58003 293.7366   2.23152    2.262172   2.30704    0.07551    0.35841   
2891.78003 297.5303   2.19058    2.271837   2.29158    0.101      0.36938   
2891.98003 295.1813   2.21024    2.273007   2.29054    0.0803     0.37204   
2892.18003 281.3805   2.21098    2.276625   2.28718    0.0762     0.38309   
2892.38003 269.8397   2.23579    2.285192   2.28324    0.04745    0.40295   
2892.58003 267.9232   2.24943    2.290349   2.28215    0.03272    0.4156    
2892.78003 265.4913   2.22401    2.28663    2.28324    0.05922    0.40832   
2892.98003 259.0386   2.20454    2.274328   2.28766    0.08312    0.38375   
2893.18003 253.1985   2.21679    2.270443   2.28989    0.0731     0.3751    
2893.38003 247.4323   2.20477    2.272757   2.28899    0.08422    0.3773    
2893.58003 245.5821   2.19368    2.273205   2.28899    0.09531    0.37718   
2893.78003 245.7005   2.20524    2.269287   2.29342    0.08818    0.36883   
2893.98003 238.9624   2.19489    2.265901   2.31625    0.12136    0.35544   
2894.18003 225.1974   2.21026    2.274686   2.32409    0.11383    0.35076   
2894.38003 194.4485   2.27618    2.312518   2.30039    0.02421    0.36933   
2894.58003 177.8889   2.27941    2.324105   2.29586    0.01645    0.38545   
2894.78003 175.5707   2.23965    2.329897   2.29614    0.05649    0.38042   
2894.98003 181.3178   2.23277    2.327327   2.30009    0.06733    0.37381   
2895.18003 184.461    2.24839    2.317452   2.29521    0.04682    0.38605   
2895.38003 180.7968   2.25891    2.326357   2.2965     0.03759    0.37687   
2895.58003 176.4444   2.25494    2.336366   2.30226    0.04732    0.36825   
2895.78003 176.7327   2.25854    2.333152   2.30074    0.0422     0.3733    
2895.98003 172.7985   2.25027    2.338254   2.30152    0.05125    0.37266   
2896.18003 166.1325   2.22648    2.348809   2.30282    0.07634    0.36894   
2896.38003 156.9567   2.28124    2.360971   2.30391    0.02266    0.36653   
2896.58003 147.7609   2.28036    2.380869   2.32961    0.04925    0.35571   
2896.78003 140.06     2.3087     2.398889   2.34376    0.03506    0.34536   
2896.98003 134.8113   2.33442    2.40183    2.34638    0.01197    0.34592   
2897.18003 128.8746   2.3549     2.387558   2.34361    -0.01128   0.35712   
2897.38003 125.171    2.35629    2.387665   2.34997    -0.00633   0.35649   
2897.58003 126.6084   2.33279    2.407736   2.36731    0.03451    0.34339   
2897.78003 131.2604   2.33279    2.394456   2.3416     0.00882    0.35241   
2897.98003 134.0935   2.33342    2.372945   2.31048    -0.02294   0.3669    
2898.18003 132.667    2.35196    2.381534   2.31856    -0.0334    0.36122   
2898.38003 128.5773   2.39635    2.396158   2.35021    -0.04614   0.35138   
2898.58003 121.4982   2.45979    2.422023   2.40145    -0.05834   0.33334   
2898.78003 118.1844   2.46633    2.443683   2.43259    -0.03374   0.31741   
2898.98003 127.5207   2.34832    2.434648   2.41113    0.06281    0.32186   
2899.18003 132.4066   2.26196    2.408983   2.35604    0.09408    0.34116   
2899.38003 123.1813   2.29087    2.397893   2.3672     0.07633    0.34968   
2899.58003 118.8472   2.30834    2.409832   2.38743    0.0791     0.34108   
2899.78003 120.5135   2.32029    2.417409   2.39478    0.07449    0.33646   
2899.98003 118.4772   2.33113    2.421356   2.40817    0.07704    0.33348   
2900.18003 114.4832   2.34362    2.438875   2.43246    0.08884    0.32073   
