~Version
 VERS              .         2.0                           : CWLS LOG ASCII STANDARD - VERSION 2.0
 WRAP              .         NO                            : ONE LINE PER DEPTH STEP
 DLM               .         SPACE                         : DELIMITING CHARACTER(SPACE TAB OR COMMA)
~Well Information
#_______________________________________________________________________________
#
#PARAMETER_NAME    .UNIT     VALUE                         : DESCRIPTION
#_______________________________________________________________________________
STRT               .m        3077                          : First reference value
STOP               .m        3244.80000250041              : Last reference value
STEP               .m        0.2                           : Step increment
NULL               .         -9999                         : Missing value
COMP               .                                       : Company
WELL               .         202                           : Well name
FLD                .                                       : Field
LOC                .                                       : Location
CNTY               .                                       : County
STAT               .                                       : State
CTRY               .                                       : Country
SRVC               .                                       : Service Company
DATE               .                                       : Date
API                .                                       : API number
Cartographic_reference_system .         GCS_WGS_1984                  : GEOGCS["GCS_WGS_1984",DATUM["D_WGS_1984",SPHEROID["WGS_1984",6378137.0,298.257223563]],PRIMEM["Greenwich",0.0],UNIT["Degree",0.0174532925199433],AUTHORITY["EPSG",4326]]
EREF               .m        139.76                        : 
HZCS               .GCS_WGS_1984 World_Mercator                : PROJCS["World_Mercator",GEOGCS["GCS_WGS_1984",DATUM["D_WGS_1984",SPHEROID["WGS_1984",6378137.0,298.257223563]],PRIMEM["Greenwich",0.0],UNIT["Degree",0.0174532925199433]],PROJECTION["Mercator"],PARAMETER["False_Easting",0.0],PARAMETER["False_Northing",0.0],PARAMETER["Central_Meridian",0.0],PARAMETER["Standard_Parallel_1",0.0],UNIT["Meter",1.0],AUTHORITY["ESRI",54004]]
LATI               .dega     2.1856221126                  : GCS_WGS_1984
LONG               .dega     2.052578559                   : GCS_WGS_1984
PROJECT_UPGRADE_TIME .         2014-05-27T11_38_46           : 
Pad                .         Pad2                          : 
group              .         Pad2                          : 
Интер-р            .         Старостина                    : 
Куст               .         2                             : 
Статус             .         Проверено                     : 
Тип                .         Нагнетательные                : 
~Parameter Information Block
#_______________________________________________________________________________
#
#PARAMETER_NAME    .UNIT     VALUE                         : DESCRIPTION
#_______________________________________________________________________________
SET                .         LQC                           : 
PROJECT_UPGRADE_TIME .         2014-05-27T11_38_46           : 
TLFamily_GR_NORM   .         Gamma Ray                     : 
TLFamily_MD        .         Measured Depth                : 
TLFamily_RHOB_NORM .         Bulk Density                  : 
TLFamily_TNPH_NORM .         Neutron Porosity              : 
~Curve Information
#_______________________________________________________________________________
#
#LOGNAME           .UNIT     LOG_ID                        : DESCRIPTION
#_______________________________________________________________________________
MD                 .m                                      :  
GR_NORM            .gAPI                                   : Normalised By Techlog 
RHOB_NORM          .g/cm3                                  : Normalized By Techlog 
TNPH_NORM          .v/v                                    : Normalised By Techlog 
~Ascii
# ...
3140.200000941753 256.5292   2.262429   0.3585106 
3140.400000944734 249.9387   2.236962   0.3717633 
3140.600000947714 257.07     2.233108   0.3878559 
3140.800000950694 264.5181   2.231181   0.3812295 
3141.000000953674 269.3933   2.224814   0.3736566 
3141.200000956655 273.5577   2.241988   0.37271   
3141.400000959635 276.7023   2.210907   0.3698701 
3141.600000962615 281.338    2.18678    0.3613505 
3141.800000965595 283.2155   2.184099   0.37271   
3142.000000968575 274.4771   2.205211   0.3954288 
3142.200000971556 261.1108   2.218447   0.3906958 
3142.400000974536 257.549    2.231935   0.3821762 
3142.600000977516 258.9784   2.227411   0.3812295 
3142.800000980496 251.7699   2.191136   0.385016  
3143.000000983477 247.1187   2.204038   0.3916424 
3143.200000986457 246.1761   2.177397   0.4030018 
3143.400000989437 242.877    2.159888   0.4181477 
3143.600000992417 240.1728   2.178319   0.4134146 
3143.800000995398 233.0183   2.183094   0.3973221 
3144.000000998378 222.2867   2.196414   0.3764964 
3144.200001001358 202.1135   2.203535   0.3783897 
3144.400001004338 179.7617   2.211159   0.3755498 
3144.600001007318 167.1293   2.252544   0.3670302 
3144.800001010299 170.722    2.256314   0.385016  
3145.000001013279 172.2363   2.297029   0.3906958 
3145.200001016259 173.4107   2.301134   0.3764964 
3145.400001019239 173.2639   2.27709    0.365137  
3145.60000102222 168.3423   2.269299   0.3556708 
3145.8000010252 166.1404   2.244502   0.3480978 
3146.00000102818 160.1448   2.24601    0.3528309 
3146.20000103116 151.8546   2.245926   0.3622971 
3146.400001034141 142.3282   2.273907   0.3480978 
3146.600001037121 131.2566   2.30482    0.3291655 
3146.800001040101 123.1363   2.331461   0.3159128 
3147.000001043081 120.9112   2.299375   0.3225391 
3147.200001046062 124.8902   2.297364   0.3291655 
3147.400001049042 131.8747   2.276253   0.3480978 
3147.600001052022 138.2951   2.292756   0.3537776 
3147.800001055002 142.9231   2.296275   0.3528309 
3148.000001057982 142.6604   2.284295   0.3471512 
3148.200001060963 143.1549   2.332801   0.3386316 
3148.400001063943 145.3569   2.324759   0.330112  
3148.600001066923 143.6185   2.388763   0.3215925 
3148.800001069903 134.2234   2.407613   0.3187526 
3149.000001072884 123.0436   2.376197   0.3026601 
3149.200001075864 121.4057   2.355923   0.3007669 
3149.400001078844 120.5017   2.328947   0.3054999 
3149.600001081824 114.6375   2.342938   0.2950871 
3149.800001084805 112.2656   2.350478   0.3007669 
3150.000001087785 111.4621   2.333555   0.2931939 
3150.200001090765 107.1586   2.357264   0.2789946 
3150.400001093745 106.5946   2.331628   0.2856209 
3150.600001096725 104.4698   2.32878    0.2884608 
3150.800001099706 104.2535   2.337241   0.2837277 
3151.000001102686 109.3683   2.348467   0.2922473 
3151.200001105666 110.5272   2.338749   0.2950871 
3151.400001108646 106.95     2.33632    0.2884608 
3151.600001111627 112.1729   2.353829   0.2950871 
3151.800001114607 118.3229   2.354583   0.3196992 
3152.000001117587 118.4388   2.340341   0.3272722 
3152.200001120567 113.4322   2.351232   0.317806  
3152.400001123548 109.5151   2.331209   0.3263256 
3152.600001126528 109.77     2.305742   0.345258  
3152.800001129508 113.015    2.285719   0.3641904 
3153.000001132488 116.0051   2.297532   0.3528309 
3153.200001135468 123.0359   2.30859    0.3499911 
3153.400001138449 127.4862   2.297448   0.3518843 
3153.600001141429 125.7169   2.300966   0.3698701 
3153.800001144409 120.6794   2.297448   0.3708167 
3154.000001147389 110.5272   2.270891   0.3490445 
3154.20000115037 105.0107   2.290913   0.3329519 
3154.40000115335 108.0703   2.272483   0.3329519 
3154.60000115633 117.1176   2.291248   0.3499911 
3154.80000115931 120.3317   2.302055   0.3499911 
3155.000001162291 115.1938   2.332047   0.337685  
3155.200001165271 105.3275   2.396554   0.3073932 
3155.400001168251 98.48977   2.410629   0.2894074 
3155.600001171231 96.34961   2.418755   0.2941405 
3155.800001174212 100.2745   2.382313   0.317806  
3156.000001177192 104.1994   2.327021   0.3395782 
3156.200001180172 109.0283   2.286138   0.3367384 
3156.400001183152 120.4863   2.262178   0.3443114 
3156.600001186132 128.9001   2.284044   0.3547242 
3156.800001189113 133.3581   2.306747   0.3528309 
3157.000001192093 132.9641   2.313365   0.345258  
3157.200001195073 125.4388   2.314538   0.3338985 
3157.400001198053 114.7534   2.334309   0.3225391 
3157.600001201034 104.269    2.356845   0.310233  
3157.800001204014 100.6531   2.351567   0.3111797 
3158.000001206994 103.4963   2.314454   0.3234857 
3158.200001209974 111.4312   2.291416   0.3310587 
3158.400001212955 121.707    2.295437   0.3244323 
3158.600001215935 129.2864   2.30859    0.3234857 
3158.800001218915 132.2996   2.295772   0.3320053 
3159.000001221895 140.304    2.247099   0.3613505 
3159.200001224875 144.8006   2.255225   0.3916424 
3159.400001227856 142.5677   2.263016   0.3746032 
3159.600001230836 140.2267   2.2946     0.3660836 
3159.800001233816 145.7664   2.27441    0.37271   
3160.000001236796 155.1692   2.286976   0.3679768 
3160.200001239777 157.0389   2.249361   0.3585106 
3160.400001242757 154.7983   2.273404   0.3518843 
3160.600001245737 151.3601   2.238218   0.3367384 
3160.800001248717 145.2951   2.232187   0.345258  
3161.000001251698 149.1118   2.198341   0.3594573 
3161.200001254678 152.465    2.225904   0.3480978 
3161.400001257658 155.2619   2.218112   0.3528309 
3161.600001260638 168.775    2.228584   0.3698701 
3161.800001263618 186.3521   2.181418   0.3433647 
3162.000001266599 189.6589   2.166339   0.3357918 
3162.200001269579 170.8224   2.192142   0.3320053 
3162.400001272559 144.5534   2.275331   0.3196992 
3162.600001275539 125.2533   2.340843   0.325379  
3162.80000127852 116.2909   2.374103   0.3291655 
3163.0000012815 118.9951   2.351818   0.3121263 
3163.20000128448 118.8792   2.330874   0.2960337 
3163.40000128746 117.2644   2.360698   0.2931939 
3163.600001290441 120.6949   2.381558   0.2950871 
3163.800001293421 122.3174   2.408618   0.2960337 
3164.000001296401 124.6739   2.457711   0.2988736 
3164.200001299381 126.2191   2.481922   0.3017135 
3164.400001302361 131.1021   2.524228   0.2960337 
3164.600001305342 135.6296   2.533192   0.2941405 
3164.800001308322 131.7665   2.456873   0.310233  
3165.000001311302 123.1132   2.439531   0.3206459 
3165.200001314282 116.5923   2.469691   0.310233  
3165.400001317263 115.132    2.465167   0.3083398 
3165.600001320243 115.611    2.448663   0.3159128 
3165.800001323223 116.8781   2.439448   0.3357918 
3166.000001326203 117.9675   2.459972   0.345258  
3166.200001329184 118.2611   2.46768    0.3443114 
3166.400001332164 118.1143   2.455532   0.3462046 
3166.600001335144 117.1794   2.449584   0.3556708 
3166.800001338124 116.8781   2.454443   0.3547242 
3167.000001341105 119.3737   2.443134   0.3490445 
3167.200001344085 121.7225   2.444977   0.3395782 
3167.400001347065 120.6021   2.453354   0.3405249 
3167.600001350045 116.4455   2.474047   0.3338985 
3167.800001353025 113.664    2.465502   0.3272722 
3168.000001356006 113.664    2.4273     0.3424181 
3168.200001358986 111.7479   2.423781   0.3575641 
3168.400001361966 113.2545   2.439196   0.3471512 
3168.600001364946 117.7589   2.45126    0.3282188 
3168.800001367927 121.2202   2.476895   0.3111797 
3169.000001370907 122.0779   2.527663   0.3121263 
3169.200001373887 122.3637   2.492142   0.3092864 
3169.400001376867 122.6496   2.511243   0.3130729 
3169.600001379848 116.2677   2.498426   0.3073932 
3169.800001382828 110.6276   2.483932   0.2742615 
3170.000001385808 98.56703   2.554136   0.243023  
3170.200001388788 80.9822    2.617303   0.2326102 
3170.400001391768 70.80679   2.609596   0.2496494 
3170.600001394749 82.34974   2.597532   0.2789946 
3170.800001397729 107.6144   2.55422    0.3187526 
3171.000001400709 123.1982   2.474717   0.3206459 
3171.200001403689 124.8207   2.496834   0.3121263 
3171.40000140667 123.8935   2.517862   0.3149661 
3171.60000140965 123.7235   2.45637    0.3386316 
