~Version
 VERS              .         2.0                           : CWLS LOG ASCII STANDARD - VERSION 2.0
 WRAP              .         NO                            : ONE LINE PER DEPTH STEP
 DLM               .         SPACE                         : DELIMITING CHARACTER(SPACE TAB OR COMMA)
~Well Information
#_______________________________________________________________________________
#
#PARAMETER_NAME    .UNIT     VALUE                         : DESCRIPTION
#_______________________________________________________________________________
STRT               .m        3077                          : First reference value
STOP               .m        3244.80000250041              : Last reference value
STEP               .m        0.2                           : Step increment
NULL               .         -9999                         : Missing value
COMP               .                                       : Company
WELL               .         202                           : Well name
FLD                .                                       : Field
LOC                .                                       : Location
CNTY               .                                       : County
STAT               .                                       : State
CTRY               .                                       : Country
SRVC               .                                       : Service Company
DATE               .                                       : Date
API                .                                       : API number
Cartographic_reference_system .         GCS_WGS_1984                  : GEOGCS["GCS_WGS_1984",DATUM["D_WGS_1984",SPHEROID["WGS_1984",6378137.0,298.257223563]],PRIMEM["Greenwich",0.0],UNIT["Degree",0.0174532925199433],AUTHORITY["EPSG",4326]]
EREF               .m        139.76                        : 
HZCS               .GCS_WGS_1984 World_Mercator                : PROJCS["World_Mercator",GEOGCS["GCS_WGS_1984",DATUM["D_WGS_1984",SPHEROID["WGS_1984",6378137.0,298.257223563]],PRIMEM["Greenwich",0.0],UNIT["Degree",0.0174532925199433]],PROJECTION["Mercator"],PARAMETER["False_Easting",0.0],PARAMETER["False_Northing",0.0],PARAMETER["Central_Meridian",0.0],PARAMETER["Standard_Parallel_1",0.0],UNIT["Meter",1.0],AUTHORITY["ESRI",54004]]
LATI               .dega     2.1856221126                  : GCS_WGS_1984
LONG               .dega     2.052578559                   : GCS_WGS_1984
PROJECT_UPGRADE_TIME .         2014-05-27T11_38_46           : 
Pad                .         Pad2                          : 
group              .         Pad2                          : 
Интер-р            .         Старостина                    : 
Куст               .         2                             : 
Статус             .         Проверено                     : 
Тип                .         Нагнетательные                : 
~Parameter Information Block
#_______________________________________________________________________________
#
#PARAMETER_NAME    .UNIT     VALUE                         : DESCRIPTION
#_______________________________________________________________________________
SET                .         LQC                           : 
PROJECT_UPGRADE_TIME .         2014-05-27T11_38_46           : 
TLFamily_GR_NORM   .         Gamma Ray                     : 
TLFamily_MD        .         Measured Depth                : 
TLFamily_RHOB_NORM .         Bulk Density                  : 
TLFamily_TNPH_NORM .         Neutron Porosity              : 
~Curve Information
#_______________________________________________________________________________
#
#LOGNAME           .UNIT     LOG_ID                        : DESCRIPTION
#_______________________________________________________________________________
MD                 .m                                      :  
GR_NORM            .gAPI                                   : Normalised By Techlog 
RHOB_NORM          .g/cm3                                  : Normalized By Techlog 
TNPH_NORM          .v/v                                    : Normalised By Techlog 
~Ascii
# ...
3171.80000141263 119.9686   2.451344   0.3556708 
3172.00000141561 115.5029   2.462151   0.3367384 
3172.200001418591 114.5062   2.445144   0.3443114 
3172.400001421571 114.738    2.515348   0.3547242 
3172.600001424551 113.27     2.504541   0.3282188 
3172.800001427531 113.4863   2.505211   0.3121263 
3173.000001430511 113.9962   2.521967   0.3121263 
3173.200001433492 113.8031   2.556566   0.3140195 
3173.400001436472 115.4797   2.521967   0.3064466 
3173.600001439452 115.6342   2.499599   0.3026601 
3173.800001442432 113.4322   2.513338   0.3064466 
3174.000001445413 113.5327   2.498258   0.3064466 
3174.200001448393 112.9146   2.496248   0.3045533 
3174.400001451373 111.6011   2.48343    0.3083398 
3174.600001454353 114.1585   2.467512   0.3348452 
3174.800001457334 115.3406   2.465502   0.3433647 
3175.000001460314 116.4223   2.475136   0.3357918 
3175.200001463294 123.6385   2.453103   0.3357918 
3175.400001466274 125.8869   2.506719   0.3367384 
3175.600001469254 125.5006   2.54668    0.337685  
3175.800001472235 125.5701   2.506384   0.325379  
3176.000001475215 125.686    2.484351   0.3083398 
3176.200001478195 125.9255   2.468099   0.2969804 
3176.400001481175 123.7853   2.487702   0.3064466 
3176.600001484156 123.1441   2.482257   0.3187526 
3176.800001487136 122.2015   2.467093   0.3187526 
3177.000001490116 118.6938   2.518783   0.3149661 
3177.200001493096 115.7192   2.473795   0.3083398 
3177.400001496077 111.9025   2.502698   0.2894074 
3177.600001499057 109.7468   2.490383   0.2894074 
3177.800001502037 109.8705   2.482089   0.2969804 
3178.000001505017 113.0305   2.506552   0.3045533 
3178.200001507998 113.2005   2.518197   0.3234857 
3178.400001510978 113.0536   2.454527   0.3196992 
3178.600001513958 113.664    2.440285   0.3140195 
3178.800001516938 111.9179   2.467931   0.3291655 
3179.000001519918 109.4146   2.456203   0.3272722 
3179.200001522899 105.1884   2.456035   0.3140195 
3179.400001525879 95.26022   2.489713   0.3017135 
3179.600001528859 97.80986   2.503285   0.2969804 
3179.800001531839 108.2634   2.507725   0.3159128 
3180.00000153482 111.0603   2.497001   0.3187526 
3180.2000015378 111.6243   2.521548   0.3064466 
3180.40000154078 113.5945   2.516018   0.3073932 
3180.60000154376 116.7236   2.46634    0.3405249 
3180.800001546741 119.5359   2.462318   0.3471512 
3181.000001549721 122.2092   2.495409   0.3480978 
3181.200001552701 122.7732   2.496834   0.3338985 
3181.400001555681 122.696    2.493818   0.3272722 
3181.600001558661 123.7622   2.515516   0.330112  
3181.800001561642 125.8946   2.513589   0.3263256 
3182.000001564622 125.2456   2.530679   0.3130729 
3182.200001567602 123.1132   2.526072   0.317806  
3182.400001570582 122.0701   2.531852   0.310233  
3182.600001573563 120.2622   2.548691   0.2818344 
3182.800001576543 119.5437   2.550031   0.2733149 
3183.000001579523 115.2247   2.577594   0.2591156 
3183.200001582503 112.5901   2.587312   0.2061048 
3183.400001585484 115.2865   2.592338   0.1805461 
3183.600001588464 112.4587   2.619146   0.1644536 
3183.800001591444 94.41805   2.616298   0.1512009 
3184.000001594424 66.20198   2.627021   0.1379482 
3184.200001597404 52.59614   2.601637   0.1370016 
3184.400001600385 52.99791   2.576337   0.1540407 
3184.600001603365 56.79147   2.480079   0.1767596 
3184.800001606345 57.40956   2.421938   0.1966386 
3185.000001609325 58.86209   2.437018   0.2117846 
3185.200001612306 59.80469   2.442631   0.2259839 
3185.400001615286 60.46141   2.450171   0.223144  
3185.600001618266 61.27266   2.409875   0.2203041 
3185.800001621246 61.28039   2.428305   0.2221974 
3186.000001624227 58.86982   2.392868   0.2212508 
3186.200001627207 58.22082   2.384826   0.2203041 
3186.400001630187 57.74179   2.440285   0.2203041 
3186.600001633167 56.93054   2.483262   0.2259839 
3186.800001636147 56.78374   2.428389   0.2240906 
3187.000001639128 55.30031   2.418587   0.2250372 
3187.200001642108 56.13474   2.473628   0.2184109 
3187.400001645088 60.10601   2.491891   0.2127312 
3187.600001648068 62.29252   2.502531   0.2089447 
3187.800001651049 64.45586   2.5094     0.2146244 
3188.000001654029 68.14898   2.503201   0.2136778 
3188.200001657009 68.713     2.474968   0.2127312 
3188.400001659989 67.57724   2.427468   0.2136778 
3188.60000166297 64.89626   2.442966   0.2165177 
3188.80000166595 61.91394   2.430316   0.2250372 
3189.00000166893 59.74287   2.431824   0.2203041 
3189.20000167191 58.13583   2.391612   0.2127312 
3189.400001674891 55.80252   2.471701   0.2184109 
3189.600001677871 53.83233   2.452768   0.2146244 
3189.800001680851 52.55751   2.428557   0.2089447 
3190.000001683831 55.3544    2.532857   0.2108379 
3190.200001686811 55.00672   2.534868   0.203265  
3190.400001689792 50.78049   2.485189   0.1966386 
3190.600001692772 44.03551   2.481587   0.1881191 
3190.800001695752 41.70993   2.494907   0.1805461 
3191.000001698732 39.32253   2.520877   0.16824   
3191.200001701713 38.6349    2.61236    0.1549874 
3191.400001704693 38.26404   2.61102    0.1455212 
3191.600001707673 39.08302   2.618811   0.1426813 
3191.800001710653 37.95499   2.612863   0.1379482 
3192.000001713634 36.08525   2.6798     0.1275354 
3192.200001716614 35.07312   2.621324   0.1228023 
3192.400001719594 32.73208   2.680805   0.1256421 
3192.600001722574 33.72876   2.588736   0.1379482 
3192.800001725554 35.83802   2.46835    0.1578272 
3193.000001728535 43.0002    2.38558    0.1862258 
3193.200001731515 45.90526   2.35852    0.2042116 
3193.400001734495 46.52335   2.37427    0.2117846 
3193.600001737475 48.43945   2.354918   0.2240906 
3193.800001740456 51.83897   2.374019   0.2212508 
3194.000001743436 53.01336   2.398397   0.2193575 
3194.200001746416 51.669     2.406021   0.2250372 
3194.400001749396 50.56415   2.429981   0.2250372 
3194.600001752377 48.98028   2.447155   0.223144  
3194.800001755357 51.02      2.380386   0.2240906 
3195.000001758337 51.27496   2.374019   0.2278771 
3195.200001761317 49.7529    2.389685   0.2259839 
3195.400001764297 50.23193   2.38114    0.2221974 
3195.600001767278 48.50126   2.358604   0.2136778 
3195.800001770258 50.10831   2.362458   0.2203041 
3196.000001773238 50.95819   2.359525   0.2212508 
3196.200001776218 49.68337   2.357264   0.2240906 
3196.400001779199 48.84893   2.373432   0.230717  
3196.600001782179 48.23857   2.366144   0.2363967 
3196.800001785159 46.93284   2.33456    0.243023  
3197.000001788139 46.0057    2.375946   0.243023  
3197.20000179112 45.45714   2.400324   0.2373433 
3197.4000017941 44.34456   2.390858   0.2212508 
3197.60000179708 41.38543   2.435007   0.1975853 
3197.80000180006 39.23755   2.49742    0.183386  
3198.000001803041 35.29718   2.525485   0.1597205 
3198.200001806021 31.6736    2.563436   0.1388948 
3198.400001809001 30.32924   2.5946     0.1228023 
3198.600001811981 30.92416   2.666312   0.1218557 
3198.800001814961 32.5003    2.628613   0.128482  
3199.000001817942 32.5003    2.637996   0.128482  
3199.200001820922 35.05767   2.553466   0.136055  
3199.400001823902 37.18238   2.587479   0.1464678 
3199.600001826882 35.2431    2.626351   0.1370016 
3199.800001829863 32.63937   2.680386   0.1199624 
3200.000001832843 32.2067    2.690691   0.1152293 
3200.200001835823 32.39986   2.643525   0.1133361 
3200.400001838803 30.99369   2.702      0.1180692 
3200.600001841784 29.52571   2.691445   0.128482  
3200.800001844764 29.67251   2.662207   0.1351083 
3201.000001847744 29.76522   2.742296   0.1436279 
3201.200001850724 30.36014   2.690356   0.1606671 
3201.400001853704 30.51467   2.567205   0.1635069 
3201.600001856685 28.53676   2.443804   0.1672934 
3201.800001859665 28.21226   2.397308   0.1814927 
3202.000001862645 29.29393   2.482257   0.195692  
3202.200001865625 29.41755   2.61789    0.2117846 
3202.400001868606 28.77627   2.616465   0.2004251 
3202.600001871586 27.38556   2.638163   0.1795995 
3202.800001874566 26.01029   2.632634   0.1578272 
3203.000001877546 26.80609   2.629032   0.1417347 
3203.200001880527 28.89217   2.58949    0.1322685 
