~Version
 VERS              .         2.0                           : CWLS LOG ASCII STANDARD - VERSION 2.0
 WRAP              .         NO                            : ONE LINE PER DEPTH STEP
 DLM               .         SPACE                         : DELIMITING CHARACTER(SPACE TAB OR COMMA)
~Well Information
#_______________________________________________________________________________
#
#PARAMETER_NAME    .UNIT     VALUE                         : DESCRIPTION
#_______________________________________________________________________________
STRT               .m        3077                          : First reference value
STOP               .m        3244.80000250041              : Last reference value
STEP               .m        0.2                           : Step increment
NULL               .         -9999                         : Missing value
COMP               .                                       : Company
WELL               .         202                           : Well name
FLD                .                                       : Field
LOC                .                                       : Location
CNTY               .                                       : County
STAT               .                                       : State
CTRY               .                                       : Country
SRVC               .                                       : Service Company
DATE               .                                       : Date
API                .                                       : API number
Cartographic_reference_system .         GCS_WGS_1984                  : GEOGCS["GCS_WGS_1984",DATUM["D_WGS_1984",SPHEROID["WGS_1984",6378137.0,298.257223563]],PRIMEM["Greenwich",0.0],UNIT["Degree",0.0174532925199433],AUTHORITY["EPSG",4326]]
EREF               .m        139.76                        : 
HZCS               .GCS_WGS_1984 World_Mercator                : PROJCS["World_Mercator",GEOGCS["GCS_WGS_1984",DATUM["D_WGS_1984",SPHEROID["WGS_1984",6378137.0,298.257223563]],PRIMEM["Greenwich",0.0],UNIT["Degree",0.0174532925199433]],PROJECTION["Mercator"],PARAMETER["False_Easting",0.0],PARAMETER["False_Northing",0.0],PARAMETER["Central_Meridian",0.0],PARAMETER["Standard_Parallel_1",0.0],UNIT["Meter",1.0],AUTHORITY["ESRI",54004]]
LATI               .dega     2.1856221126                  : GCS_WGS_1984
LONG               .dega     2.052578559                   : GCS_WGS_1984
PROJECT_UPGRADE_TIME .         2014-05-27T11_38_46           : 
Pad                .         Pad2                          : 
group              .         Pad2                          : 
Интер-р            .         Старостина                    : 
Куст               .         2                             : 
Статус             .         Проверено                     : 
Тип                .         Нагнетательные                : 
~Parameter Information Block
#_______________________________________________________________________________
#
#PARAMETER_NAME    .UNIT     VALUE                         : DESCRIPTION
#_______________________________________________________________________________
SET                .         LQC                           : 
PROJECT_UPGRADE_TIME .         2014-05-27T11_38_46           : 
TLFamily_GR_NORM   .         Gamma Ray                     : 
TLFamily_MD        .         Measured Depth                : 
TLFamily_RHOB_NORM .         Bulk Density                  : 
TLFamily_TNPH_NORM .         Neutron Porosity              : 
~Curve Information
#_______________________________________________________________________________
#
#LOGNAME           .UNIT     LOG_ID                        : DESCRIPTION
#_______________________________________________________________________________
MD                 .m                                      :  
GR_NORM            .gAPI                                   : Normalised By Techlog 
RHOB_NORM          .g/cm3                                  : Normalized By Techlog 
TNPH_NORM          .v/v                                    : Normalised By Techlog 
~Ascii
# ...
3203.400001883507 34.42413   2.584128   0.1351083 
3203.600001886487 39.64703   2.536124   0.1606671 
3203.800001889467 44.7077    2.550534   0.2089447 
3204.000001892447 51.03545   2.770445   0.2316636 
3204.200001895428 56.14247   2.730149   0.2354501 
3204.400001898408 58.85436   2.66916    0.2165177 
3204.600001901388 58.88527   2.633556   0.2061048 
3204.800001904368 64.10045   2.625094   0.2146244 
3205.000001907349 72.46793   2.586725   0.2354501 
3205.200001910329 80.72723   2.619314   0.2610088 
3205.400001913309 86.77685   2.645703   0.2856209 
3205.600001916289 90.50861   2.665725   0.2894074 
3205.80000191927 90.98763   2.679967   0.2780479 
3206.00000192225 90.09139   2.656091   0.2723683 
3206.20000192523 92.4247    2.581196   0.2591156 
3206.40000192821 92.75693   2.534198   0.2638487 
3206.60000193119 97.25358   2.449752   0.2865675 
3206.800001934171 101.8429   2.431992   0.2950871 
3207.000001937151 102.1674   2.274828   0.3045533 
3207.200001940131 94.24036   2.150505   0.3338985 
3207.400001943111 83.23052   2.085076   0.3821762 
3207.600001946092 80.88949   1.9791     0.3878559 
3207.800001949072 91.75253   1.954554   0.3746032 
3208.000001952052 97.21494   2.112974   0.3613505 
3208.200001955032 99.55598   2.388261   0.345258  
3208.400001958013 104.8021   2.501525   0.2998202 
3208.600001960993 104.3308   2.554471   0.270475  
3208.800001963973 100.1973   2.554639   0.2591156 
3209.000001966953 95.37611   2.553885   0.2591156 
3209.200001969934 90.42361   2.553885   0.270475  
3209.400001972914 85.50203   2.52649    0.2685817 
3209.600001975894 83.31551   2.51627    0.2666885 
3209.800001978874 81.6003    2.487116   0.2629021 
3210.000001981854 81.31443   2.517443   0.2638487 
3210.200001984835 81.81663   2.528082   0.2799412 
3210.400001987815 87.49538   2.487618   0.2988736 
3210.600001990795 98.39705   2.429646   0.317806  
3210.800001993775 106.5173   2.341514   0.3348452 
3211.000001996756 111.0062   2.270723   0.3433647 
3211.200001999736 110.8903   2.271896   0.3395782 
3211.400002002716 104.5239   2.295437   0.3073932 
3211.600002005696 96.47323   2.390271   0.2856209 
3211.800002008677 88.39935   2.426462   0.2666885 
3212.000002011657 74.92486   2.460475   0.2439696 
3212.200002014637 65.37527   2.460559   0.2345034 
3212.400002017617 59.37202   2.526407   0.230717  
3212.600002020597 56.6524    2.556985   0.2345034 
3212.800002023578 57.54864   2.526407   0.2581689 
3213.000002026558 63.93048   2.460978   0.2875142 
3213.200002029538 77.74492   2.444055   0.3017135 
3213.400002032518 89.79006   2.439783   0.3017135 
3213.600002035499 94.77347   2.459638   0.3064466 
3213.800002038479 98.2348    2.483346   0.3187526 
3214.000002041459 100.8617   2.507557   0.3140195 
3214.200002044439 101.6884   2.5409     0.3159128 
3214.40000204742 102.9091   2.599208   0.3225391 
3214.6000020504 104.0294   2.56486    0.3111797 
3214.80000205338 105.9842   2.551958   0.2988736 
3215.00000205636 102.7778   2.522804   0.2960337 
3215.20000205934 94.29444   2.533192   0.2818344 
3215.400002062321 83.76363   2.506552   0.2581689 
3215.600002065301 74.95576   2.478403   0.243023  
3215.800002068281 69.15339   2.441039   0.2335568 
3216.000002071261 68.23397   2.413728   0.2335568 
3216.200002074242 70.41276   2.285803   0.250596  
3216.400002077222 72.76926   2.125959   0.2629021 
3216.600002080202 75.32662   2.022747   0.2771013 
3216.800002083182 74.63126   1.906551   0.3225391 
3217.000002086163 67.16776   1.797475   0.4086815 
3217.200002089143 50.21647   1.735816   0.4730517 
3217.400002092123 30.68464   1.695855   0.4739983 
3217.600002095103 20.2311    1.694431   0.4853577 
3217.800002098083 18.57769   1.695017   0.5147029 
3218.000002101064 19.52028   1.689823   0.5175428 
3218.200002104044 28.58312   1.692588   0.4919841 
3218.400002107024 41.08411   1.70817    0.4361335 
3218.600002110004 55.91841   1.778458   0.3821762 
3218.800002112985 71.37853   1.918195   0.3291655 
3219.000002115965 85.20843   2.215348   0.3073932 
3219.200002118945 93.3982    2.188958   0.3054999 
3219.400002121925 94.4026    2.248942   0.3121263 
3219.600002124906 91.86069   2.41331    0.3291655 
3219.800002127886 93.21278   2.273237   0.3585106 
3220.000002130866 89.02517   2.185272   0.3897491 
3220.200002133846 82.3961    2.059357   0.3812295 
3220.400002136827 82.38837   2.215348   0.3329519 
3220.600002139807 85.18525   2.356007   0.3083398 
3220.800002142787 86.63005   2.437102   0.2818344 
3221.000002145767 84.49762   2.557655   0.2600622 
3221.200002148747 86.85411   2.516689   0.2487027 
3221.400002151728 90.40816   2.555561   0.2534358 
3221.600002154708 97.66306   2.569383   0.2657419 
3221.800002157688 104.4003   2.581112   0.2714216 
3222.000002160668 106.695    2.54601    0.2657419 
3222.200002163649 104.6321   2.584128   0.2600622 
3222.400002166629 102.5537   2.524312   0.2562757 
3222.600002169609 92.30881   2.538135   0.2458629 
3222.800002172589 86.56824   2.538471   0.2439696 
3223.00000217557 77.7681    2.519956   0.2392365 
3223.20000217855 76.51646   2.513924   0.2345034 
3223.40000218153 77.64448   2.553215   0.230717  
3223.60000218451 78.03079   2.589573   0.2326102 
3223.80000218749 80.6577    2.520458   0.2326102 
3224.000002190471 83.61683   2.498091   0.2458629 
3224.200002193451 80.54181   2.533695   0.2543825 
3224.400002196431 78.40938   2.518615   0.2572223 
3224.600002199411 78.1235    2.511914   0.2581689 
3224.800002202392 78.78796   2.534449   0.2553291 
3225.000002205372 81.23717   2.506971   0.2619554 
3225.200002208352 83.30006   2.519621   0.2789946 
3225.400002211332 89.30331   2.483178   0.3007669 
3225.600002214313 98.53612   2.510573   0.3263256 
3225.800002217293 97.9103    2.571562   0.3433647 
3226.000002220273 89.45784   2.519369   0.3149661 
3226.200002223253 84.86848   2.43174    0.2837277 
3226.400002226233 85.79562   2.441123   0.2657419 
3226.600002229214 90.37726   2.487618   0.2647953 
3226.800002232194 93.2514    2.467177   0.2856209 
3227.000002235174 95.42246   2.481922   0.290354  
3227.200002238154 97.71714   2.520375   0.2846743 
3227.400002241135 95.77787   2.546848   0.2789946 
3227.600002244115 89.12561   2.553718   0.2685817 
3227.800002247095 83.79453   2.55665    0.2581689 
3228.000002250075 82.23384   2.543162   0.2515426 
3228.200002253056 82.70514   2.539392   0.2562757 
3228.400002256036 85.35523   2.539308   0.2553291 
3228.600002259016 89.76689   2.601805   0.2496494 
3228.800002261996 91.18851   2.644614   0.243023  
3229.000002264977 88.11348   2.639336   0.2458629 
3229.200002267957 82.10249   2.601805   0.2468095 
3229.400002270937 75.86745   2.625597   0.2326102 
3229.600002273917 72.01208   2.569551   0.2098913 
3229.800002276897 68.41167   2.542073   0.1871724 
3230.000002279878 65.0276    2.588987   0.1748664 
3230.200002282858 57.67999   2.672679   0.1701333 
3230.400002285838 56.27381   2.634728   0.1691867 
3230.600002288818 58.38307   2.644363   0.175813  
3230.800002291799 65.76932   2.632048   0.1966386 
3231.000002294779 76.22286   2.650227   0.2316636 
3231.200002297759 84.61352   2.614455   0.2666885 
3231.400002300739 88.94791   2.609512   0.2884608 
3231.60000230372 87.02409   2.627608   0.2856209 
3231.8000023067 84.14221   2.622162   0.2960337 
3232.00000230968 83.47003   2.596359   0.3026601 
3232.20000231266 88.80884   2.602056   0.2771013 
3232.40000231564 92.06929   2.54978    0.250596  
3232.600002318621 78.50209   2.454443   0.2401832 
3232.800002321601 69.5706    2.411802   0.2392365 
3233.000002324581 66.3565    2.391612   0.2335568 
3233.200002327561 63.29693   2.397057   0.2316636 
3233.400002330542 63.2892    2.367233   0.2401832 
3233.600002333522 60.93271   2.407026   0.2411298 
3233.800002336502 59.20204   2.433751   0.2562757 
3234.000002339482 59.87422   2.402838   0.270475  
3234.200002342463 62.03756   2.369998   0.2629021 
3234.400002345443 60.80136   2.400827   0.2524892 
3234.600002348423 62.13027   2.436767   0.2458629 
3234.800002351403 66.57284   2.507557   0.243023  
