~Version
 VERS              .         2.0                           : CWLS LOG ASCII STANDARD - VERSION 2.0
 WRAP              .         NO                            : ONE LINE PER DEPTH STEP
 DLM               .         SPACE                         : DELIMITING CHARACTER(SPACE TAB OR COMMA)
~Well Information
#_______________________________________________________________________________
#
#PARAMETER_NAME    .UNIT     VALUE                         : DESCRIPTION
#_______________________________________________________________________________
STRT               .m        3077                          : First reference value
STOP               .m        3244.80000250041              : Last reference value
STEP               .m        0.2                           : Step increment
NULL               .         -9999                         : Missing value
COMP               .                                       : Company
WELL               .         202                           : Well name
FLD                .                                       : Field
LOC                .                                       : Location
CNTY               .                                       : County
STAT               .                                       : State
CTRY               .                                       : Country
SRVC               .                                       : Service Company
DATE               .                                       : Date
API                .                                       : API number
Cartographic_reference_system .         GCS_WGS_1984                  : GEOGCS["GCS_WGS_1984",DATUM["D_WGS_1984",SPHEROID["WGS_1984",6378137.0,298.257223563]],PRIMEM["Greenwich",0.0],UNIT["Degree",0.0174532925199433],AUTHORITY["EPSG",4326]]
EREF               .m        139.76                        : 
HZCS               .GCS_WGS_1984 World_Mercator                : PROJCS["World_Mercator",GEOGCS["GCS_WGS_1984",DATUM["D_WGS_1984",SPHEROID["WGS_1984",6378137.0,298.257223563]],PRIMEM["Greenwich",0.0],UNIT["Degree",0.0174532925199433]],PROJECTION["Mercator"],PARAMETER["False_Easting",0.0],PARAMETER["False_Northing",0.0],PARAMETER["Central_Meridian",0.0],PARAMETER["Standard_Parallel_1",0.0],UNIT["Meter",1.0],AUTHORITY["ESRI",54004]]
LATI               .dega     2.1856221126                  : GCS_WGS_1984
LONG               .dega     2.052578559                   : GCS_WGS_1984
PROJECT_UPGRADE_TIME .         2014-05-27T11_38_46           : 
Pad                .         Pad2                          : 
group              .         Pad2                          : 
Интер-р            .         Старостина                    : 
Куст               .         2                             : 
Статус             .         Проверено                     : 
Тип                .         Нагнетательные                : 
~Parameter Information Block
#_______________________________________________________________________________
#
#PARAMETER_NAME    .UNIT     VALUE                         : DESCRIPTION
#_______________________________________________________________________________
SET                .         LQC                           : 
PROJECT_UPGRADE_TIME .         2014-05-27T11_38_46           : 
TLFamily_GR_NORM   .         Gamma Ray                     : 
TLFamily_MD        .         Measured Depth                : 
TLFamily_RHOB_NORM .         Bulk Density                  : 
TLFamily_TNPH_NORM .         Neutron Porosity              : 
~Curve Information
#_______________________________________________________________________________
#
#LOGNAME           .UNIT     LOG_ID                        : DESCRIPTION
#_______________________________________________________________________________
MD                 .m                                      :  
GR_NORM            .gAPI                                   : Normalised By Techlog 
RHOB_NORM          .g/cm3                                  : Normalized By Techlog 
TNPH_NORM          .v/v                                    : Normalised By Techlog 
~Ascii
3077.0     93.32094   2.578515   0.2647953 
3077.20000000298 94.03947   2.563687   0.2591156 
3077.40000000596 95.4611    2.551204   0.2676351 
3077.600000008941 96.48869   2.514091   0.2827811 
3077.800000011921 96.62775   2.505882   0.2865675 
3078.000000014901 98.2039    2.53713    0.270475  
3078.200000017881 101.1167   2.515432   0.2666885 
3078.400000020862 101.1167   2.496415   0.2695284 
3078.600000023842 101.6807   2.508144   0.270475  
3078.800000026822 101.4798   2.502698   0.2742615 
3079.000000029802 98.53612   2.531517   0.2894074 
3079.200000032783 95.44564   2.564357   0.2780479 
3079.400000035763 95.53836   2.580526   0.2657419 
3079.600000038743 98.31207   2.564441   0.2742615 
3079.800000041723 99.74141   2.542743   0.2761547 
3080.000000044703 99.99638   2.57751    0.2723683 
3080.200000047684 102.7624   2.552796   0.2657419 
3080.400000050664 102.6619   2.544167   0.2581689 
3080.600000053644 102.237    2.541486   0.2629021 
3080.800000056624 99.33965   2.609679   0.2647953 
3081.000000059605 96.16418   2.614036   0.2610088 
3081.200000062585 96.30325   2.618979   0.2610088 
3081.400000065565 98.22707   2.599543   0.2515426 
3081.600000068545 97.72488   2.570975   0.2487027 
3081.800000071526 97.90257   2.596108   0.2572223 
3082.000000074506 96.28008   2.609093   0.2553291 
3082.200000077486 94.00857   2.560001   0.2553291 
3082.400000080466 91.97658   2.545089   0.2553291 
3082.600000083447 90.16093   2.510741   0.250596  
3082.800000086427 94.30217   2.542659   0.2553291 
3083.000000089407 98.62112   2.539476   0.2534358 
3083.200000092387 98.06482   2.518281   0.2420764 
3083.400000095367 97.7326    2.541403   0.2477561 
3083.600000098348 98.04165   2.55665    0.2572223 
3083.800000101328 98.45113   2.527831   0.2562757 
3084.000000104308 101.4025   2.462234   0.2657419 
3084.200000107288 100.599    2.48477    0.2799412 
3084.400000110269 97.98756   2.51183    0.2752081 
3084.600000113249 94.00084   2.519872   0.2695284 
3084.800000116229 92.22382   2.487954   0.2496494 
3085.000000119209 88.87065   2.548272   0.2392365 
3085.20000012219 86.12012   2.532606   0.2382899 
3085.40000012517 86.69958   2.515851   0.2515426 
3085.60000012815 88.30664   2.57374    0.2600622 
3085.80000013113 91.31985   2.503955   0.2581689 
3086.00000013411 95.12887   2.478738   0.2543825 
3086.200000137091 98.33524   2.467596   0.2543825 
3086.400000140071 99.56371   2.447825   0.2619554 
3086.600000143051 99.3242    2.433499   0.2837277 
3086.800000146031 99.58689   2.482592   0.2884608 
3087.000000149012 101.2171   2.526993   0.2676351 
3087.200000151992 103.5582   2.469858   0.2591156 
3087.400000154972 104.2458   2.459889   0.2572223 
3087.600000157952 103.6972   2.441961   0.2591156 
3087.800000160933 102.7855   2.476979   0.2666885 
3088.000000163913 98.04937   2.453103   0.2666885 
3088.200000166893 90.13002   2.454778   0.2553291 
3088.400000169873 79.88508   2.46081    0.2420764 
3088.600000172853 73.22509   2.476811   0.2316636 
3088.800000175834 66.37196   2.516773   0.223144  
3089.000000178814 63.52872   2.495661   0.2165177 
3089.200000181794 62.44705   2.488875   0.2079981 
3089.400000184774 62.90289   2.473377   0.2184109 
3089.600000187755 63.95366   2.450087   0.2468095 
3089.800000190735 63.39737   2.436515   0.2638487 
3090.000000193715 62.40069   2.392282   0.2676351 
3090.200000196695 62.12255   2.354415   0.270475  
3090.400000199676 64.01546   2.397225   0.2657419 
3090.600000202656 64.29361   2.382648   0.2524892 
3090.800000205636 66.21743   2.391695   0.2392365 
3091.000000208616 69.87193   2.398816   0.2468095 
3091.200000211596 76.06061   2.441039   0.2610088 
3091.400000214577 84.47444   2.453354   0.2676351 
3091.600000217557 92.20064   2.534198   0.2695284 
3091.800000220537 99.69505   2.553634   0.2619554 
3092.000000223517 103.7822   2.562011   0.2524892 
3092.200000226498 105.8683   2.531098   0.2572223 
3092.400000229478 108.4334   2.511662   0.2591156 
3092.600000232458 108.1707   2.476476   0.2629021 
3092.800000235438 106.0923   2.481419   0.270475  
3093.000000238419 104.7094   2.495075   0.2789946 
3093.200000241399 105.3893   2.463407   0.2827811 
3093.400000244379 106.6332   2.468853   0.2657419 
3093.600000247359 105.1111   2.496164   0.2515426 
3093.80000025034 103.4036   2.472874   0.2591156 
3094.00000025332 102.546    2.508479   0.2610088 
3094.2000002563 101.0471   2.549613   0.2600622 
3094.40000025928 96.6123    2.527998   0.2647953 
3094.60000026226 90.22273   2.52138    0.2610088 
3094.800000265241 82.427     2.483178   0.2477561 
3095.000000268221 74.96349   2.478738   0.250596  
3095.200000271201 72.25159   2.493818   0.2524892 
3095.400000274181 73.84319   2.444809   0.2591156 
3095.600000277162 76.02971   2.469774   0.2657419 
3095.800000280142 77.28135   2.468853   0.2610088 
3096.000000283122 75.98335   2.480833   0.2629021 
3096.200000286102 71.29354   2.436013   0.2543825 
3096.400000289083 66.40286   2.409875   0.2335568 
3096.600000292063 64.38633   2.430986   0.2250372 
3096.800000295043 65.5298    2.427468   0.2250372 
3097.000000298023 65.29029   2.44682    0.2259839 
3097.200000301003 63.17331   2.439112   0.2326102 
3097.400000303984 64.085     2.398146   0.2420764 
3097.600000306964 64.87308   2.379297   0.2439696 
3097.800000309944 60.31462   2.395884   0.2354501 
3098.000000312924 54.53542   2.454862   0.2288237 
3098.200000315905 50.82684   2.54844    0.230717  
3098.400000318885 48.04541   2.541654   0.2174643 
3098.600000321865 50.0774    2.526826   0.2098913 
3098.800000324845 55.48574   2.499431   0.2089447 
3099.000000327826 62.45478   2.451344   0.2240906 
3099.200000330806 67.54634   2.416577   0.2335568 
3099.400000333786 71.16992   2.417163   0.2363967 
3099.600000336766 71.53306   2.414231   0.2487027 
3099.800000339746 71.8112    2.42864    0.2581689 
3100.000000342727 74.57718   2.478822   0.2666885 
3100.200000345707 79.80782   2.492226   0.2780479 
3100.400000348687 84.08813   2.513086   0.2685817 
3100.600000351667 85.50203   2.539643   0.2619554 
3100.800000354648 92.05384   2.521883   0.2610088 
3101.000000357628 94.44124   2.497588   0.2562757 
3101.200000360608 89.5042    2.480246   0.2534358 
3101.400000363588 83.91816   2.45193    0.2515426 
3101.600000366569 81.68528   2.463659   0.2477561 
3101.800000369549 79.86963   2.505798   0.2477561 
3102.000000372529 74.63126   2.519369   0.2496494 
3102.200000375509 64.86535   2.461229   0.250596  
3102.400000378489 59.68879   2.486781   0.2392365 
3102.60000038147 58.20536   2.533695   0.2297703 
3102.80000038445 58.36761   2.525234   0.2288237 
3103.00000038743 59.95921   2.464161   0.2316636 
3103.20000039041 59.41838   2.447658   0.2221974 
3103.400000393391 57.20096   2.522804   0.2127312 
3103.600000396371 54.98354   2.530512   0.2070515 
3103.800000399351 55.30031   2.540565   0.2127312 
3104.000000402331 55.03762   2.512416   0.2259839 
3104.200000405312 56.86873   2.49298    0.2373433 
3104.400000408292 63.37419   2.464832   0.2553291 
3104.600000411272 71.18538   2.469355   0.2553291 
3104.800000414252 78.77251   2.49298    0.2468095 
3105.000000417233 84.11904   2.415488   0.2477561 
3105.200000420213 88.33754   2.39312    0.2487027 
3105.400000423193 87.4104    2.40468    0.2515426 
3105.600000426173 80.91267   2.438358   0.2420764 
3105.800000429153 74.59263   2.445731   0.2354501 
3106.000000432134 71.56396   2.471282   0.2354501 
3106.200000435114 68.69754   2.449584   0.2420764 
3106.400000438094 67.28365   2.416325   0.2468095 
3106.600000441074 68.47348   2.446317   0.2345034 
3106.800000444055 67.5927    2.525736   0.2278771 
3107.000000447035 66.05518   2.502949   0.2240906 
3107.200000450015 63.48236   2.561425   0.2165177 
3107.400000452995 62.60157   2.562263   0.2240906 
3107.600000455976 65.08941   2.615041   0.2335568 
3107.800000458956 69.42381   2.594097   0.2354501 
3108.000000461936 73.36417   2.556566   0.2326102 
3108.200000464916 70.55956   2.555142   0.2288237 
3108.400000467896 62.66338   2.504709   0.2240906 
