~Version
 VERS              .         2.0                           : CWLS LOG ASCII STANDARD - VERSION 2.0
 WRAP              .         NO                            : ONE LINE PER DEPTH STEP
 DLM               .         SPACE                         : DELIMITING CHARACTER(SPACE TAB OR COMMA)
~Well Information
#_______________________________________________________________________________
#
#PARAMETER_NAME    .UNIT     VALUE                         : DESCRIPTION
#_______________________________________________________________________________
STRT               .m        3077                          : First reference value
STOP               .m        3244.80000250041              : Last reference value
STEP               .m        0.2                           : Step increment
NULL               .         -9999                         : Missing value
COMP               .                                       : Company
WELL               .         202                           : Well name
FLD                .                                       : Field
LOC                .                                       : Location
CNTY               .                                       : County
STAT               .                                       : State
CTRY               .                                       : Country
SRVC               .                                       : Service Company
DATE               .                                       : Date
API                .                                       : API number
Cartographic_reference_system .         GCS_WGS_1984                  : GEOGCS["GCS_WGS_1984",DATUM["D_WGS_1984",SPHEROID["WGS_1984",6378137.0,298.257223563]],PRIMEM["Greenwich",0.0],UNIT["Degree",0.0174532925199433],AUTHORITY["EPSG",4326]]
EREF               .m        139.76                        : 
HZCS               .GCS_WGS_1984 World_Mercator                : PROJCS["World_Mercator",GEOGCS["GCS_WGS_1984",DATUM["D_WGS_1984",SPHEROID["WGS_1984",6378137.0,298.257223563]],PRIMEM["Greenwich",0.0],UNIT["Degree",0.0174532925199433]],PROJECTION["Mercator"],PARAMETER["False_Easting",0.0],PARAMETER["False_Northing",0.0],PARAMETER["Central_Meridian",0.0],PARAMETER["Standard_Parallel_1",0.0],UNIT["Meter",1.0],AUTHORITY["ESRI",54004]]
LATI               .dega     2.1856221126                  : GCS_WGS_1984
LONG               .dega     2.052578559                   : GCS_WGS_1984
PROJECT_UPGRADE_TIME .         2014-05-27T11_38_46           : 
Pad                .         Pad2                          : 
group              .         Pad2                          : 
Интер-р            .         Старостина                    : 
Куст               .         2                             : 
Статус             .         Проверено                     : 
Тип                .         Нагнетательные                : 
~Parameter Information Block
#_______________________________________________________________________________
#
#PARAMETER_NAME    .UNIT     VALUE                         : DESCRIPTION
#_______________________________________________________________________________
SET                .         LQC                           : 
PROJECT_UPGRADE_TIME .         2014-05-27T11_38_46           : 
TLFamily_GR_NORM   .         Gamma Ray                     : 
TLFamily_MD        .         Measured Depth                : 
TLFamily_RHOB_NORM .         Bulk Density                  : 
TLFamily_TNPH_NORM .         Neutron Porosity              : 
~Curve Information
#_______________________________________________________________________________
#
#LOGNAME           .UNIT     LOG_ID                        : DESCRIPTION
#_______________________________________________________________________________
MD                 .m                                      :  
GR_NORM            .gAPI                                   : Normalised By Techlog 
RHOB_NORM          .g/cm3                                  : Normalized By Techlog 
TNPH_NORM          .v/v                                    : Normalised By Techlog 
~Ascii
# ...
3108.600000470877 61.54309   2.439448   0.2269305 
3108.800000473857 67.45362   2.430986   0.2458629 
3109.000000476837 73.96681   2.432578   0.2496494 
3109.200000479817 78.25484   2.430819   0.250596  
3109.400000482798 84.9071    2.489964   0.2477561 
3109.600000485778 88.95564   2.49608    0.2487027 
3109.800000488758 88.37617   2.48921    0.2543825 
3110.000000491738 89.09471   2.505379   0.2496494 
3110.200000494719 90.98763   2.490216   0.2553291 
3110.400000497699 93.58363   2.504541   0.2591156 
3110.600000500679 96.41142   2.492059   0.2515426 
3110.800000503659 98.18072   2.523809   0.2487027 
3111.000000506639 96.51958   2.48167    0.2496494 
3111.20000050962 93.64544   2.489797   0.2524892 
3111.4000005126 89.63554   2.504625   0.2543825 
3111.60000051558 86.43689   2.468266   0.2524892 
3111.80000051856 85.50203   2.463156   0.2487027 
3112.000000521541 85.29342   2.527244   0.2449163 
3112.200000524521 85.47884   2.556063   0.2392365 
3112.400000527501 86.47552   2.516437   0.2401832 
3112.600000530481 82.01751   2.482424   0.2487027 
3112.800000533462 76.56281   2.551037   0.2468095 
3113.000000536442 74.69308   2.550115   0.2392365 
3113.200000539422 73.4028    2.529506   0.2382899 
3113.400000542402 74.56946   2.498509   0.2477561 
3113.600000545382 79.25925   2.550534   0.2468095 
3113.800000548363 86.34418   2.537549   0.2345034 
3114.000000551343 85.50203   2.572567   0.2240906 
3114.200000554323 77.72175   2.548775   0.2013717 
3114.400000557303 67.36091   2.543581   0.1843326 
3114.600000560284 60.71638   2.61345    0.1824393 
3114.800000563264 64.03865   2.627356   0.2004251 
3115.000000566244 71.36308   2.609261   0.2326102 
3115.200000569224 79.47559   2.606496   0.2487027 
3115.400000572205 86.48325   2.610266   0.250596  
3115.600000575185 93.20505   2.503955   0.2524892 
3115.800000578165 100.5913   2.512667   0.2524892 
3116.000000581145 104.4544   2.512332   0.2553291 
3116.200000584126 105.142    2.510741   0.2581689 
3116.400000587106 104.6166   2.506636   0.2543825 
3116.600000590086 106.8959   2.534365   0.2581689 
3116.800000593066 111.5779   2.568797   0.2647953 
3117.000000596046 110.9058   2.58329    0.2638487 
3117.200000599027 105.6365   2.563687   0.2742615 
3117.400000602007 105.057    2.558493   0.2685817 
3117.600000604987 104.6939   2.585804   0.2695284 
3117.800000607967 108.4566   2.577845   0.2723683 
3118.000000610948 109.9864   2.630456   0.2638487 
3118.200000613928 109.6541   2.618727   0.2610088 
3118.400000616908 107.0658   2.620403   0.2543825 
3118.600000619888 102.9014   2.545424   0.2477561 
3118.800000622869 104.5471   2.61102    0.2411298 
3119.000000625849 107.4831   2.542073   0.2524892 
3119.200000628829 111.1453   2.575667   0.2657419 
3119.400000631809 113.3318   2.563436   0.2638487 
3119.600000634789 114.174    2.524982   0.2572223 
3119.80000063777 113.1695   2.527244   0.2581689 
3120.00000064075 110.3727   2.531098   0.2496494 
3120.20000064373 106.216    2.555561   0.2401832 
3120.40000064671 104.354    2.531433   0.2487027 
3120.600000649691 104.5626   2.54467    0.2572223 
3120.800000652671 103.6045   2.608339   0.2619554 
3121.000000655651 96.98316   2.644195   0.2676351 
3121.200000658631 90.98763   2.599375   0.2733149 
3121.400000661612 91.62891   2.603145   0.2799412 
3121.600000664592 94.48759   2.6008     0.2941405 
3121.800000667572 96.42687   2.570473   0.290354  
3122.000000670552 99.84957   2.607669   0.2846743 
3122.200000673532 103.3495   2.611523   0.2875142 
3122.400000676513 103.2414   2.608842   0.2922473 
3122.600000679493 101.2171   2.614706   0.2865675 
3122.800000682473 99.47099   2.561425   0.2837277 
3123.000000685453 102.0284   2.514678   0.2931939 
3123.200000688434 113.7954   2.545172   0.290354  
3123.400000691414 118.6938   2.567708   0.2960337 
3123.600000694394 123.5227   2.54534    0.3017135 
3123.800000697374 130.0127   2.503285   0.3111797 
3124.000000700355 133.4894   2.520794   0.3187526 
3124.200000703335 133.7908   2.471115   0.3196992 
3124.400000706315 137.2985   2.488037   0.3140195 
3124.600000709295 135.6373   2.509651   0.2960337 
3124.800000712276 131.3956   2.488959   0.2789946 
3125.000000715256 126.9299   2.474382   0.2733149 
3125.200000718236 124.9674   2.503703   0.2723683 
3125.400000721216 118.4388   2.455616   0.2752081 
3125.600000724196 113.355    2.491807   0.2931939 
3125.800000727177 117.4808   2.499766   0.3130729 
3126.000000730157 125.0988   2.406021   0.310233  
3126.200000733137 120.8958   2.455868   0.2818344 
3126.400000736117 110.3804   2.50119    0.2638487 
3126.600000739098 106.2237   2.527496   0.2600622 
3126.800000742078 107.9157   2.537297   0.2647953 
3127.000000745058 109.5614   2.550283   0.2695284 
3127.200000748038 110.9444   2.47455    0.2771013 
3127.400000751019 111.1916   2.494321   0.2837277 
3127.600000753999 115.6033   2.462402   0.2789946 
3127.800000756979 128.1507   2.476225   0.2723683 
3128.000000759959 147.4121   2.399654   0.2846743 
3128.200000762939 166.6967   2.423111   0.2969804 
3128.40000076592 184.4824   2.375778   0.3007669 
3128.6000007689 182.0564   2.388428   0.310233  
3128.80000077188 168.8445   2.41842    0.3083398 
3129.00000077486 165.7077   2.415571   0.3054999 
3129.200000777841 167.6624   2.417917   0.3168594 
3129.400000780821 173.2485   2.398565   0.3414715 
3129.600000783801 184.127    2.384826   0.3575641 
3129.800000786781 193.8465   2.3705     0.3490445 
3130.000000789762 199.3939   2.374689   0.3414715 
3130.200000792742 198.0496   2.392784   0.3348452 
3130.400000795722 190.4779   2.441291   0.3320053 
3130.600000798702 182.9912   2.424117   0.3244323 
3130.800000801682 178.9813   2.422525   0.3282188 
3131.000000804663 173.1789   2.404848   0.3329519 
3131.200000807643 171.6801   2.381726   0.3329519 
3131.400000810623 179.2749   2.364887   0.3509377 
3131.600000813603 188.4073   2.357515   0.3622971 
3131.800000816584 191.4591   2.342184   0.3566174 
3132.000000819564 198.1577   2.342687   0.3490445 
3132.200000822544 208.7658   2.310684   0.3509377 
3132.400000825524 217.2646   2.305909   0.3689235 
3132.600000828505 221.3595   2.332131   0.3585106 
3132.800000831485 223.2833   2.358939   0.3528309 
3133.000000834465 222.4875   2.395884   0.3509377 
3133.200000837445 214.0505   2.351567   0.3556708 
3133.400000840425 209.1521   2.351483   0.3736566 
3133.600000843406 207.151    2.375275   0.3698701 
3133.800000846386 197.3001   2.411215   0.3490445 
3134.000000849366 190.3156   2.447741   0.337685  
3134.200000852346 180.2716   2.431908   0.3244323 
3134.400000855327 164.1934   2.441961   0.3159128 
3134.600000858307 156.2199   2.464999   0.3159128 
3134.800000861287 155.0146   2.464832   0.3121263 
3135.000000864267 160.4771   2.455784   0.3054999 
3135.200000867248 169.8567   2.435594   0.3225391 
3135.400000870228 180.4184   2.393203   0.3471512 
3135.600000873208 198.4436   2.353075   0.3660836 
3135.800000876188 217.8827   2.351651   0.3698701 
3136.000000879169 231.2259   2.360698   0.3604039 
3136.200000882149 236.5647   2.35098    0.3547242 
3136.400000885129 241.3163   2.311355   0.3433647 
3136.600000888109 263.5832   2.296107   0.3480978 
3136.800000891089 297.4626   2.295353   0.3575641 
3137.00000089407 323.0594   2.304569   0.3405249 
3137.20000089705 335.4523   2.321826   0.3282188 
3137.40000090003 337.9788   2.310433   0.3206459 
3137.60000090301 334.8806   2.304485   0.3187526 
3137.800000905991 335.2592   2.275079   0.3225391 
3138.000000908971 334.1002   2.287395   0.330112  
3138.200000911951 325.7636   2.282452   0.3386316 
3138.400000914931 328.97     2.212834   0.3329519 
3138.600000917912 342.3209   2.162904   0.3357918 
3138.800000920892 344.4688   2.200687   0.3310587 
3139.000000923872 337.5461   2.222301   0.3206459 
3139.200000926852 328.236    2.272483   0.330112  
3139.400000929832 321.4679   2.272985   0.3537776 
3139.600000932813 305.5905   2.275415   0.3604039 
3139.800000935793 284.243    2.253968   0.3443114 
3140.000000938773 268.3039   2.246177   0.345258  
