~Version
 VERS              .         2.0                           : CWLS LOG ASCII STANDARD - VERSION 2.0
 WRAP              .         NO                            : ONE LINE PER DEPTH STEP
 DLM               .         SPACE                         : DELIMITING CHARACTER(SPACE TAB OR COMMA)
~Well Information
#_______________________________________________________________________________
#
#PARAMETER_NAME    .UNIT     VALUE                         : DESCRIPTION
#_______________________________________________________________________________
STRT               .m        2891                          : First reference value
STOP               .m        3079.8                        : Last reference value
STEP               .m        0.2                           : Step increment
NULL               .         -9999                         : Missing value
COMP               .                                       : Company
WELL               .         301                           : Well name
FLD                .                                       : Field
LOC                .                                       : Location
PROV               .                                       : Province
SRVC               .                                       : Service Company
DATE               .         2021-05-13 14_16_42           : Date
UWI                .                                       : Unique Well ID
API                .                                       : API NUMBER
CNTY               .                                       : COUNTY
Cartographic_reference_system .         GCS_WGS_1984                  : GEOGCS["GCS_WGS_1984",DATUM["D_WGS_1984",SPHEROID["WGS_1984",6378137.0,298.257223563]],PRIMEM["Greenwich",0.0],UNIT["Degree",0.0174532925199433],AUTHORITY["EPSG",4326]]
CTRY               .                                       : COUNTRY
EREF               .m        138.34                        : 
HZCS               .GCS_WGS_1984 World_Mercator                : PROJCS["World_Mercator",GEOGCS["GCS_WGS_1984",DATUM["D_WGS_1984",SPHEROID["WGS_1984",6378137.0,298.257223563]],PRIMEM["Greenwich",0.0],UNIT["Degree",0.0174532925199433]],PROJECTION["Mercator"],PARAMETER["False_Easting",0.0],PARAMETER["False_Northing",0.0],PARAMETER["Central_Meridian",0.0],PARAMETER["Standard_Parallel_1",0.0],UNIT["Meter",1.0],AUTHORITY["ESRI",54004]]
LATI               .dega     2.2598774867                  : GCS_WGS_1984
LONG               .dega     1.9740478369                  : GCS_WGS_1984
ORIGINALWELLNAME   .         301                           : 
PROJECT_UPGRADE_TIME .         2014-05-27T11_38_46           : 
Pad                .         Pad3                          : 
STAT               .                                       : STATE
X                  .m        219750                        : 
Y                  .m        249950                        : 
group              .         Pad3                          : 
Интер-р            .         Пузин                         : 
Куст               .         3                             : 
Статус             .         Не проверено                  : 
Тип                .         Эксплуатация                  : 
~Parameter Information Block
#_______________________________________________________________________________
#
#PARAMETER_NAME    .UNIT     VALUE                         : DESCRIPTION
#_______________________________________________________________________________
SET                .         Gam                           : 
TLFamily_DEPT      .         Measured Depth                : 
TLFamily_GR_NORM   .         Gamma Ray                     : 
TLFamily_RHOB_NORM .         Bulk Density                  : 
TLFamily_RHOB_TL1  .         Bulk Density                  : 
TLFamily_SYNTH_Bulk_Density .         Bulk Density                  : 
TLFamily_SYNTH_Bulk_Density_MISFIT .                                       : 
TLFamily_TNPH_NORM .         Neutron Porosity              : 
~Curve Information
#_______________________________________________________________________________
#
#LOGNAME           .UNIT     LOG_ID                        : DESCRIPTION
#_______________________________________________________________________________
DEPT               .m                                      :  
GR_NORM            .gAPI                                   : Gamma Ray 
RHOB_NORM          .g/cm3                                  : Bulk Density 
RHOB_TL1           .g/cm3                                  :  
SYNTH_Bulk_Density .G/C3                                   : Bulk Density 
SYNTH_Bulk_Density_MISFIT .                                       : Synthetic Bulk Density Misfit 
TNPH_NORM          .v/v                                    : Thermal Neutron Porosity 
~Ascii
# ...
3034       42.34906   2.45103    2.533624   2.47641    0.02538    0.17201   
3034.2     42.01573   2.44508    2.528163   2.47358    0.02851    0.17452   
3034.4     48.96611   2.3788     2.522596   2.4659     0.0871     0.19205   
3034.6     52.70584   2.33835    2.428719   2.45651    0.11817    0.24703   
3034.8     55.27174   2.28797    2.420825   2.45776    0.16978    0.25581   
3035       45.36606   2.23411    2.2909     2.35762    0.12351    0.28333   
3035.2     50.21206   2.13126    2.319256   2.35279    0.22153    0.28458   
3035.4     62.34422   2.03229    2.123395   2.04549    0.0132     0.37467   
3035.6     88.08691   1.9853     2.007828   2.26684    0.28154    0.45463   
3035.8     94.19361000000001 2.17273    2.058957   2.27892    0.10619    0.44842   
3036       102.3045   2.40507    2.459535   2.4574     0.05233    0.30209   
3036.2     106.3727   2.41649    2.46047    2.45259    0.0361     0.30334   
3036.4     105.04686  2.43861    2.466855   2.45916    0.02056    0.29831   
3036.6     102.76714  2.37944    2.529378   2.49305    0.11362    0.24208   
3036.8     96.69781   2.33637    2.455372   2.46236    0.12599    0.30084   
3037       82.38200999999999 2.42127    2.447741   2.47732    0.05606    0.28958   
3037.2     67.70724   2.46069    2.542964   2.48345    0.02276    0.21079   
3037.4     62.97595   2.49574    2.478023   2.47634    -0.0194    0.2433    
3037.6     70.18221   2.53659    2.503298   2.48536    -0.05123   0.2408    
3037.8     73.74979   2.561      2.505502   2.49263    -0.06837   0.24455   
3038       67.54486   2.61467    2.476346   2.48023    -0.13445   0.25206   
3038.2     66.30559   2.61838    2.395317   2.44338    -0.175     0.28833   
3038.4     72.17858   2.59979    2.357149   2.40936    -0.19043   0.31459   
3038.6     74.95350999999999 2.50289    2.372056   2.42601    -0.07689   0.31334   
3038.8     82.36490999999999 2.42254    2.452386   2.48077    0.05823    0.28708   
3039       77.51036999999999 2.53378    2.410404   2.46163    -0.07214   0.30084   
3039.2     89.88605   2.61379    2.5018     2.49846    -0.11534   0.26457   
3039.4     101.36275  2.54939    2.466221   2.46115    -0.08823   0.29707   
3039.6     98.26340999999999 2.54256    2.505886   2.49243    -0.05014   0.26583   
3039.8     87.44168000000001 2.52695    2.475953   2.49065    -0.0363    0.27957   
3040       84.80074   2.4523     2.370051   2.42608    -0.02622   0.3296    
3040.2     71.94643000000001 2.43591    2.398385   2.45267    0.01677    0.29708   
3040.4     57.26062   2.46042    2.392047   2.45076    -0.00966   0.27204   
3040.6     52.26578   2.50292    2.479677   2.46486    -0.03806   0.22207   
3040.8     48.99842   2.53309    2.455542   2.46156    -0.07153   0.22704   
3041       54.00682   2.62628    2.488839   2.46633    -0.15996   0.22079   
3041.2     51.43424   2.6376     2.458434   2.46392    -0.17368   0.2308    
3041.4     55.43167   2.60528    2.482225   2.46797    -0.13731   0.22704   
3041.6     50.53074   2.56619    2.467555   2.46304    -0.10315   0.22454   
3041.8     56.92125   2.57603    2.534675   2.47168    -0.10435   0.19953   
3042       64.9552    2.51992    2.522434   2.48       -0.03992   0.22079   
3042.2     70.49348999999999 2.47269    2.510081   2.48639    0.0137     0.23705   
3042.4     75.57705   2.46049    2.579624   2.4975     0.03701    0.18704   
3042.6     72.08493   2.45884    2.54706    2.4919     0.03306    0.21327   
3042.8     80.45899   2.4763     2.495416   2.49844    0.02213    0.25956   
3043       91.76634   2.47025    2.482349   2.49037    0.02011    0.27957   
3043.2     88.44165   2.444      2.479583   2.49121    0.04721    0.27832   
3043.4     88.8028    2.46597    2.510848   2.50059    0.03462    0.25706   
3043.6     93.15727   2.48332    2.511114   2.49892    0.0156     0.25956   
3043.8     101.1079   2.45884    2.515867   2.49221    0.03337    0.25706   
3044       106.1505   2.46284    2.508196   2.4865     0.02366    0.26331   
3044.2     104.0566   2.47328    2.540909   2.49299    0.01971    0.22579   
3044.4     97.42529   2.43803    2.540627   2.49738    0.05935    0.23204   
3044.6     99.43176   2.40128    2.553046   2.49615    0.09486    0.21455   
3044.8     91.09969   2.43142    2.504704   2.49833    0.06692    0.26331   
3045       91.94582   2.41668    2.525361   2.50062    0.08394    0.24706   
3045.2     93.61243   2.38048    2.527336   2.49999    0.11951    0.24581   
3045.4     88.81959999999999 2.32687    2.536561   2.50188    0.17501    0.23581   
3045.6     92.59348   2.2441     2.502692   2.498      0.25389    0.2658    
3045.8     84.82638   2.10667    2.491372   2.49872    0.39205    0.26707   
3046       57.56226   1.97523    2.489927   2.47154    0.49631    0.22704   
3046.2     27.36661   1.86223    2.276613   2.44321    0.58098    0.2433    
3046.4     13.23643   1.794      2.081325   2.41136    0.61736    0.26336   
3046.6     8.42088    1.75267    1.730229   1.79304    0.04037    0.36082   
3046.8     12.0423    1.74133    1.705607   1.75857    0.01724    0.38338   
3047       11.3842    1.7386     1.655921   1.74717    0.00857    0.40464   
3047.2     18.52073   1.74172    1.823883   1.83415    0.09243    0.35837   
3047.4     26.33021   1.7589     1.63672    1.70907    -0.04983   0.46715   
3047.6     38.93261   1.77255    1.864151   1.78103    0.00848    0.40217   
3047.8     54.87859   1.81978    2.017982   1.87188    0.05209    0.39089   
3048       55.99821   1.85325    2.196665   2.10477    0.25152    0.33836   
3048.2     64.28001   2.03387    2.238724   2.22529    0.19142    0.34211   
3048.4     66.79173   2.36077    2.23117    2.21551    -0.14526   0.34957   
3048.6     64.77673   2.55671    2.454869   2.47514    -0.08157   0.25836   
3048.8     70.92937000000001 2.54617    2.541935   2.48929    -0.05688   0.21579   
3049       59.96389   2.51446    2.464887   2.47271    -0.04175   0.24455   
3049.2     48.87022   2.48499    2.435668   2.45848    -0.0265    0.2358    
3049.4     51.55817   2.41059    2.442873   2.46219    0.0516     0.23829   
3049.6     60.09637   2.33348    2.50057    2.47587    0.14238    0.2258    
3049.8     64.35692   2.25353    2.468339   2.47643    0.2229     0.25081   
3050       67.98929   2.15644    2.340772   2.37426    0.21783    0.31334   
3050.2     74.26260000000001 2.06081    2.475105   2.49021    0.42941    0.26331   
3050.4     76.84089   2.18564    2.379513   2.43714    0.2515     0.31335   
3050.6     71.18861   2.24764    2.299277   2.34454    0.0969     0.33459   
3050.8     76.85226   2.19527    2.459131   2.48953    0.29426    0.27582   
3051       84.18537999999999 2.05105    2.563025   2.50296    0.45191    0.20828   
3051.2     86.46735   1.90331    2.542264   2.50241    0.59909    0.22955   
3051.4     81.12891   -9999      2.482619   2.49736    -9999      0.2683    
3051.6     87.68626   -9999      2.528733   2.50178    -9999      0.24207   
3051.8     92.32187999999999 -9999      2.576308   2.50402    -9999      0.18827   
3052       74.18568   -9999      2.572506   2.49553    -9999      0.19328   
3052.2     73.32246000000001 -9999      2.51429    2.49273    -9999      0.2383    
3052.4     66.861     -9999      2.513346   2.48044    -9999      0.22953   
3052.6     66.63048000000001 -9999      2.559067   2.48307    -9999      0.19704   
3052.8     46.75918   -9999      2.422153   2.45539    -9999      0.23705   
3053       42.31487   -9999      2.320676   2.42805    -9999      0.26582   
3053.2     50.22915   -9999      2.346914   2.40856    -9999      0.27457   
3053.4     46.18783   -9999      2.388573   2.44793    -9999      0.24955   
3053.6     48.77492   -9999      2.440794   2.45803    -9999      0.23331   
3053.8     39.26368   -9999      2.407979   2.45395    -9999      0.22579   
3054       46.87883   -9999      2.459178   2.45877    -9999      0.22079   
3054.2     46.08398   -9999      2.455467   2.45846    -9999      0.22079   
3054.4     47.92346   -9999      2.458645   2.45986    -9999      0.22329   
