~Version
 VERS              .         2.0                           : CWLS LOG ASCII STANDARD - VERSION 2.0
 WRAP              .         NO                            : ONE LINE PER DEPTH STEP
 DLM               .         SPACE                         : DELIMITING CHARACTER(SPACE TAB OR COMMA)
~Well Information
#_______________________________________________________________________________
#
#PARAMETER_NAME    .UNIT     VALUE                         : DESCRIPTION
#_______________________________________________________________________________
STRT               .m        2891                          : First reference value
STOP               .m        3079.8                        : Last reference value
STEP               .m        0.2                           : Step increment
NULL               .         -9999                         : Missing value
COMP               .                                       : Company
WELL               .         301                           : Well name
FLD                .                                       : Field
LOC                .                                       : Location
PROV               .                                       : Province
SRVC               .                                       : Service Company
DATE               .         2021-05-13 14_16_42           : Date
UWI                .                                       : Unique Well ID
API                .                                       : API NUMBER
CNTY               .                                       : COUNTY
Cartographic_reference_system .         GCS_WGS_1984                  : GEOGCS["GCS_WGS_1984",DATUM["D_WGS_1984",SPHEROID["WGS_1984",6378137.0,298.257223563]],PRIMEM["Greenwich",0.0],UNIT["Degree",0.0174532925199433],AUTHORITY["EPSG",4326]]
CTRY               .                                       : COUNTRY
EREF               .m        138.34                        : 
HZCS               .GCS_WGS_1984 World_Mercator                : PROJCS["World_Mercator",GEOGCS["GCS_WGS_1984",DATUM["D_WGS_1984",SPHEROID["WGS_1984",6378137.0,298.257223563]],PRIMEM["Greenwich",0.0],UNIT["Degree",0.0174532925199433]],PROJECTION["Mercator"],PARAMETER["False_Easting",0.0],PARAMETER["False_Northing",0.0],PARAMETER["Central_Meridian",0.0],PARAMETER["Standard_Parallel_1",0.0],UNIT["Meter",1.0],AUTHORITY["ESRI",54004]]
LATI               .dega     2.2598774867                  : GCS_WGS_1984
LONG               .dega     1.9740478369                  : GCS_WGS_1984
ORIGINALWELLNAME   .         301                           : 
PROJECT_UPGRADE_TIME .         2014-05-27T11_38_46           : 
Pad                .         Pad3                          : 
STAT               .                                       : STATE
X                  .m        219750                        : 
Y                  .m        249950                        : 
group              .         Pad3                          : 
Интер-р            .         Пузин                         : 
Куст               .         3                             : 
Статус             .         Не проверено                  : 
Тип                .         Эксплуатация                  : 
~Parameter Information Block
#_______________________________________________________________________________
#
#PARAMETER_NAME    .UNIT     VALUE                         : DESCRIPTION
#_______________________________________________________________________________
SET                .         Gam                           : 
TLFamily_DEPT      .         Measured Depth                : 
TLFamily_GR_NORM   .         Gamma Ray                     : 
TLFamily_RHOB_NORM .         Bulk Density                  : 
TLFamily_RHOB_TL1  .         Bulk Density                  : 
TLFamily_SYNTH_Bulk_Density .         Bulk Density                  : 
TLFamily_SYNTH_Bulk_Density_MISFIT .                                       : 
TLFamily_TNPH_NORM .         Neutron Porosity              : 
~Curve Information
#_______________________________________________________________________________
#
#LOGNAME           .UNIT     LOG_ID                        : DESCRIPTION
#_______________________________________________________________________________
DEPT               .m                                      :  
GR_NORM            .gAPI                                   : Gamma Ray 
RHOB_NORM          .g/cm3                                  : Bulk Density 
RHOB_TL1           .g/cm3                                  :  
SYNTH_Bulk_Density .G/C3                                   : Bulk Density 
SYNTH_Bulk_Density_MISFIT .                                       : Synthetic Bulk Density Misfit 
TNPH_NORM          .v/v                                    : Thermal Neutron Porosity 
~Ascii
# ...
2992.4     107.81021  2.29754    2.435046   2.4366     0.13906    0.32085   
2992.6     128.23369  2.29949    2.437982   2.41417    0.11468    0.31835   
2992.8     133.3121   2.2991     2.347557   2.30436    0.00526    0.38213   
2993       137.0726   2.27431    2.340424   2.30055    0.02624    0.38713   
2993.2     151.6363   2.24962    2.342402   2.29822    0.04859    0.38588   
2993.4     164.30241  2.23585    2.295054   2.29262    0.05677    0.4184    
2993.6     181.13119  2.20651    2.304748   2.29141    0.0849     0.40715   
2993.8     178.3534   2.19635    2.330447   2.29854    0.10219    0.37463   
2994       169.1058   2.18776    2.326911   2.29604    0.10828    0.39089   
2994.2     172.328    2.18444    2.361631   2.39884    0.2144     0.31209   
2994.4     176.85001  2.16786    2.348701   2.36874    0.20089    0.33214   
2994.6     195.46319  2.17439    2.29771    2.29067    0.11628    0.40711   
2994.8     211.0105   2.20396    2.291943   2.28921    0.08525    0.40089   
2995       197.575    2.2427     2.302632   2.29228    0.04959    0.39339   
2995.2     177.7637   2.24982    2.328891   2.29715    0.04733    0.37838   
2995.4     172.28094  2.25137    2.35114    2.33321    0.08184    0.35086   
2995.6     180.75936  2.22807    2.337723   2.33401    0.10594    0.34836   
2995.8     195.0794   2.21362    2.310199   2.39145    0.17784    0.31709   
2996       174.2253   2.21518    2.357421   2.40698    0.1918     0.30584   
2996.2     144.8331   2.2829     2.44074    2.44906    0.16616    0.26832   
2996.4     125.78361  2.35334    2.477927   2.46363    0.11029    0.27583   
2996.6     111.20039  2.33902    2.48431    2.46765    0.12864    0.28457   
2996.8     93.49278   2.29246    2.420825   2.44824    0.15578    0.31709   
2997       89.50999   2.31647    2.490652   2.49697    0.18051    0.27207   
2997.2     91.339     2.3717     2.541286   2.50196    0.13026    0.23205   
2997.4     97.21250999999999 2.36214    2.540694   2.49738    0.13524    0.23205   
2997.6     101.0206   2.37813    2.537769   2.49419    0.11606    0.2333    
2997.8     113.2101   2.43844    2.503355   2.4828     0.04436    0.26331   
2998       104.501    2.47064    2.502184   2.48777    0.01713    0.26957   
2998.2     105.783    2.48772    2.48187    2.46874    -0.01898   0.28708   
2998.4     102.29917  2.60403    2.513114   2.49109    -0.11294   0.25955   
2998.6     108.83943  2.58921    2.528778   2.48974    -0.09948   0.23581   
2998.8     122.8081   2.59164    2.506951   2.4789     -0.11275   0.23205   
2999       114.9878   2.51348    2.516471   2.48669    -0.0268    0.24205   
2999.2     115.1502   2.47582    2.499349   2.48241    0.0066     0.26582   
2999.4     111.22341  2.43288    2.518081   2.48706    0.05418    0.24708   
2999.6     103.43649  2.42898    2.476321   2.46729    0.03831    0.29081   
2999.8     105.0565   2.42654    2.428183   2.43486    0.00832    0.32335   
3000       105.6719   2.4562     2.347484   2.35582    -0.10038   0.36462   
3000.2     103.7489   2.48635    2.398963   2.40502    -0.08133   0.33836   
3000.4     112.87092  2.48546    2.466636   2.45207    -0.03339   0.2996    
3000.6     118.11338  2.44919    2.432323   2.42551    -0.02368   0.32584   
3000.8     116.6716   2.39258    2.411084   2.39494    0.00236    0.33961   
3001       118.586    2.41063    2.453325   2.4387     0.02807    0.30959   
3001.2     125.1072   2.42439    2.461879   2.44057    0.01618    0.29708   
3001.4     128.66095  2.4488     2.462692   2.44291    -0.00589   0.29085   
3001.6     125.35665  2.4799     2.435661   2.41648    -0.06342   0.32208   
3001.8     115.2186   2.5087     2.410167   2.39531    -0.11338   0.33961   
3002       110.7487   2.47874    2.469862   2.4564     -0.02234   0.29708   
3002.2     109.7914   2.47338    2.458355   2.44782    -0.02556   0.30584   
3002.4     107.74125  2.46087    2.48353    2.46934    0.00847    0.28582   
3002.6     109.84165  2.43875    2.49785    2.48377    0.04502    0.27208   
3002.8     105.3215   2.49045    2.48021    2.46835    -0.02211   0.28833   
3003       110.3811   2.48518    2.521766   2.48853    0.00334    0.2433    
3003.2     107.0308   2.46967    2.538339   2.49152    0.02185    0.22454   
3003.4     116.33422  2.476      2.473962   2.4587     -0.01731   0.29208   
3003.6     108.37668  2.4607     2.469652   2.45748    -0.00322   0.29708   
3003.8     109.4581   2.45542    2.45996    2.44855    -0.00687   0.30459   
3004       107.8      2.4564     2.493438   2.47889    0.02249    0.27707   
3004.2     104.6292   2.49484    2.487829   2.4767     -0.01814   0.28208   
3004.4     104.73745  2.53943    2.438247   2.44075    -0.09868   0.31711   
3004.6     116.03345  2.52725    2.404503   2.38755    -0.13969   0.34335   
3004.8     102.6122   2.48177    2.446212   2.4475     -0.03426   0.31084   
3005       92.7663    2.5449     2.518481   2.50021    -0.04469   0.25331   
3005.2     95.38160999999999 2.56871    2.461737   2.46919    -0.09952   0.29583   
3005.4     107.19578  2.50488    2.469372   2.45826    -0.04662   0.29708   
3005.6     112.36142  2.47368    2.469742   2.4553     -0.01838   0.29708   
3005.8     109.6119   2.42703    2.453094   2.44503    0.018      0.30959   
3006       107.8086   2.43473    2.513137   2.48887    0.05414    0.25706   
3006.2     106.8257   2.44469    2.478919   2.4648     0.02012    0.28958   
3006.4     104.35064  2.45034    2.544736   2.49323    0.04288    0.21954   
3006.6     111.43736  2.44742    2.529974   2.48857    0.04115    0.22829   
3006.8     107.4411   2.46684    2.511113   2.48807    0.02123    0.25956   
3007       114.2186   2.43542    2.474981   2.45912    0.0237     0.29208   
3007.2     116.2442   2.46762    2.497167   2.48199    0.01437    0.26707   
3007.4     117.89457  2.46822    2.442481   2.43271    -0.0355    0.31835   
3007.6     119.62783  2.49229    2.427184   2.41317    -0.07912   0.3296    
3007.8     125.3636   2.49465    2.460467   2.43998    -0.05466   0.29833   
3008       119.321    2.46996    2.48454    2.47055    0.00059    0.27832   
3008.2     124.4833   2.49006    2.491078   2.47334    -0.01672   0.25831   
3008.4     115.14552  2.47893    2.499362   2.48241    0.00348    0.26581   
3008.6     105.77918  2.46782    2.51078    2.48828    0.02046    0.26082   
3008.8     111.1845   2.4682     2.526596   2.48824    0.02004    0.23455   
3009       114.5947   2.51816    2.523534   2.48711    -0.03106   0.2308    
3009.2     111.6717   2.52285    2.514822   2.48688    -0.03597   0.25081   
3009.4     88.74321999999999 2.52607    2.469991   2.48265    -0.04342   0.28457   
3009.6     93.60145   2.5327     2.489874   2.49204    -0.04066   0.27583   
3009.8     103.0139   2.53934    2.496576   2.48395    -0.05539   0.27457   
3010       101.2874   2.52304    2.384306   2.39412    -0.12892   0.34336   
3010.2     103.4412   2.55954    2.436888   2.44137    -0.11816   0.31709   
3010.4     111.90368  2.57242    2.448575   2.43881    -0.1336    0.31336   
3010.6     114.26872  2.56628    2.378022   2.36761    -0.19867   0.35709   
3010.8     119.2099   2.54558    2.430653   2.4204     -0.12518   0.3271    
3011       115.834    2.55417    2.49125    2.47673    -0.07744   0.27457   
3011.2     116.6716   2.50597    2.487147   2.47425    -0.03172   0.27832   
3011.4     117.54041  2.51018    2.508717   2.48386    -0.02632   0.24831   
3011.6     111.76859  2.54254    2.509861   2.48618    -0.05636   0.25706   
3011.8     113.834    2.53602    2.499599   2.4828     -0.05322   0.26707   
3012       114.7571   2.52168    2.4706     2.45508    -0.0666    0.29583   
3012.2     114.0392   2.545      2.463451   2.4503     -0.09469   0.30209   
3012.4     107.79494  2.56978    2.461127   2.45259    -0.11719   0.30333   
3012.6     114.66816  2.55359    2.485144   2.47088    -0.08271   0.28209   
3012.8     112.2785   2.5248     2.471244   2.4563     -0.0685    0.29583   
3013       103.4497   2.48753    2.495156   2.48359    -0.00394   0.27582   
