~Version
 VERS              .         2.0                           : CWLS LOG ASCII STANDARD - VERSION 2.0
 WRAP              .         NO                            : ONE LINE PER DEPTH STEP
 DLM               .         SPACE                         : DELIMITING CHARACTER(SPACE TAB OR COMMA)
~Well Information
#_______________________________________________________________________________
#
#PARAMETER_NAME    .UNIT     VALUE                         : DESCRIPTION
#_______________________________________________________________________________
STRT               .m        2891                          : First reference value
STOP               .m        3079.8                        : Last reference value
STEP               .m        0.2                           : Step increment
NULL               .         -9999                         : Missing value
COMP               .                                       : Company
WELL               .         301                           : Well name
FLD                .                                       : Field
LOC                .                                       : Location
PROV               .                                       : Province
SRVC               .                                       : Service Company
DATE               .         2021-05-13 14_16_42           : Date
UWI                .                                       : Unique Well ID
API                .                                       : API NUMBER
CNTY               .                                       : COUNTY
Cartographic_reference_system .         GCS_WGS_1984                  : GEOGCS["GCS_WGS_1984",DATUM["D_WGS_1984",SPHEROID["WGS_1984",6378137.0,298.257223563]],PRIMEM["Greenwich",0.0],UNIT["Degree",0.0174532925199433],AUTHORITY["EPSG",4326]]
CTRY               .                                       : COUNTRY
EREF               .m        138.34                        : 
HZCS               .GCS_WGS_1984 World_Mercator                : PROJCS["World_Mercator",GEOGCS["GCS_WGS_1984",DATUM["D_WGS_1984",SPHEROID["WGS_1984",6378137.0,298.257223563]],PRIMEM["Greenwich",0.0],UNIT["Degree",0.0174532925199433]],PROJECTION["Mercator"],PARAMETER["False_Easting",0.0],PARAMETER["False_Northing",0.0],PARAMETER["Central_Meridian",0.0],PARAMETER["Standard_Parallel_1",0.0],UNIT["Meter",1.0],AUTHORITY["ESRI",54004]]
LATI               .dega     2.2598774867                  : GCS_WGS_1984
LONG               .dega     1.9740478369                  : GCS_WGS_1984
ORIGINALWELLNAME   .         301                           : 
PROJECT_UPGRADE_TIME .         2014-05-27T11_38_46           : 
Pad                .         Pad3                          : 
STAT               .                                       : STATE
X                  .m        219750                        : 
Y                  .m        249950                        : 
group              .         Pad3                          : 
Интер-р            .         Пузин                         : 
Куст               .         3                             : 
Статус             .         Не проверено                  : 
Тип                .         Эксплуатация                  : 
~Parameter Information Block
#_______________________________________________________________________________
#
#PARAMETER_NAME    .UNIT     VALUE                         : DESCRIPTION
#_______________________________________________________________________________
SET                .         Gam                           : 
TLFamily_DEPT      .         Measured Depth                : 
TLFamily_GR_NORM   .         Gamma Ray                     : 
TLFamily_RHOB_NORM .         Bulk Density                  : 
TLFamily_RHOB_TL1  .         Bulk Density                  : 
TLFamily_SYNTH_Bulk_Density .         Bulk Density                  : 
TLFamily_SYNTH_Bulk_Density_MISFIT .                                       : 
TLFamily_TNPH_NORM .         Neutron Porosity              : 
~Curve Information
#_______________________________________________________________________________
#
#LOGNAME           .UNIT     LOG_ID                        : DESCRIPTION
#_______________________________________________________________________________
DEPT               .m                                      :  
GR_NORM            .gAPI                                   : Gamma Ray 
RHOB_NORM          .g/cm3                                  : Bulk Density 
RHOB_TL1           .g/cm3                                  :  
SYNTH_Bulk_Density .G/C3                                   : Bulk Density 
SYNTH_Bulk_Density_MISFIT .                                       : Synthetic Bulk Density Misfit 
TNPH_NORM          .v/v                                    : Thermal Neutron Porosity 
~Ascii
# ...
2910.2     84.68963623046875 2.6217     2.44866    2.47622    -0.14548   0.29208   
2910.4     83.51344299316406 2.56207    2.436257   2.47057    -0.0915    0.29706   
2910.6     72.93460083007813 2.5573     2.480454   2.49042    -0.06688   0.25833   
2910.8     73.34809875488281 2.59506    2.465693   2.48924    -0.10581   0.26707   
2911       85.22808074951172 2.60804    2.541541   2.50241    -0.10563   0.22955   
2911.2     78.91203308105469 2.59203    2.547868   2.50045    -0.09159   0.21954   
2911.4     80.61348724365234 2.60891    2.531313   2.50042    -0.10849   0.23454   
2911.6     81.91127777099609 2.60062    2.553131   2.50247    -0.09816   0.21705   
2911.8     80.95469665527344 2.62257    2.518402   2.50043    -0.12214   0.24455   
2912       81.51023864746094 2.64716    2.495392   2.49902    -0.14815   0.26081   
2912.2     82.15125274658203 2.67956    2.498439   2.49961    -0.17996   0.25956   
2912.4     83.31275177001953 2.68454    2.447697   2.47734    -0.2072    0.29083   
2912.6     81.59657287597656 2.68122    2.450472   2.48001    -0.20121   0.28708   
2912.8     80.01455688476563 2.59896    2.498494   2.49885    -0.10011   0.25706   
2913       75.57025146484375 2.62433    2.5275     2.49526    -0.12907   0.23205   
2913.2     76.77533721923828 2.5933     2.581384   2.50057    -0.09273   0.18577   
2913.4     82.77749633789063 2.57633    2.53212    2.50185    -0.07448   0.2358    
2913.6     87.46498107910156 2.5931     2.528598   2.50178    -0.09131   0.24205   
2913.8     87.58698272705078 2.59535    2.522582   2.50108    -0.09427   0.24706   
2914       85.06568908691406 2.57222    2.420349   2.45972    -0.1125    0.30709   
2914.2     88.08268737792969 2.56198    2.464624   2.48081    -0.08117   0.28708   
2914.4     77.55709838867188 2.65036    2.46103    2.49067    -0.15969   0.27582   
2914.6     85.56594848632813 2.6024     2.498171   2.49877    -0.10363   0.26332   
2914.8     80.32224273681641 2.56725    2.397863   2.44984    -0.1174    0.31084   
2915       76.04032897949219 2.62345    2.49847    2.49603    -0.12742   0.25206   
2915.2     74.88651275634766 2.60277    2.469975   2.49069    -0.11208   0.26707   
2915.4     74.60707092285156 2.63245    2.491164   2.49311    -0.13934   0.25455   
2915.6     79.81539154052734 2.6611     2.536693   2.50026    -0.16085   0.22956   
2915.8     86.51863861083984 2.6015     2.556411   2.50313    -0.09836   0.21579   
2916       94.6893310546875 2.63877    2.557283   2.50181    -0.13696   0.21329   
2916.2     94.35600280761719 2.67868    2.523413   2.49945    -0.17923   0.24956   
2916.4     80.22244262695313 2.66735    2.442062   2.47558    -0.19177   0.28957   
2916.6     68.64463806152344 2.63381    2.432784   2.47331    -0.1605    0.27583   
2916.8     73.51904296875 2.66571    2.454286   2.48679    -0.17892   0.27332   
2917       76.53603363037109 2.67498    2.398646   2.4515     -0.22348   0.30459   
2917.2     79.20262145996094 2.61867    2.43668    2.47504    -0.14363   0.29083   
2917.4     80.45249176025391 2.57193    2.489411   2.497      -0.07493   0.26332   
2917.6     84.54229736328125 2.56949    2.480989   2.4962     -0.0733    0.27332   
2917.8     82.83499145507813 2.53846    2.541208   2.50212    -0.03634   0.2283    
2918       85.64687347412109 2.62511    2.490764   2.49877    -0.12634   0.26832   
2918.2     90.20227813720703 2.63067    2.521472   2.50108    -0.12959   0.24956   
2918.4     88.64495849609375 2.58988    2.544496   2.50214    -0.08774   0.2283    
2918.6     102.10117  2.57847    2.537041   2.49387    -0.0846    0.2333    
2918.8     85.45029   2.5733     2.541681   2.50246    -0.07084   0.22955   
2919       77.36507   2.57857    2.516314   2.49914    -0.07943   0.24205   
2919.2     91.56976   2.61692    2.550884   2.50221    -0.11471   0.22204   
2919.4     89.04732   2.58082    2.533895   2.50188    -0.07895   0.23831   
2919.6     103.844    2.60432    2.511488   2.49018    -0.11414   0.2608    
2919.8     90.33902999999999 2.62677    2.474555   2.48497    -0.1418    0.28333   
2920       84.27939000000001 2.61906    2.470065   2.49076    -0.1283    0.27957   
2920.2     91.14242   2.54519    2.483435   2.49109    -0.0541    0.27832   
2920.4     81.45149000000001 2.49896    2.551454   2.50205    0.0031     0.2183    
2920.6     83.60311   2.53483    2.525089   2.50176    -0.03307   0.24204   
2920.8     81.79228000000001 2.54958    2.529474   2.50137    -0.04821   0.23705   
2921       81.82648   2.59028    2.562176   2.50237    -0.08791   0.20828   
2921.2     87.98013   2.63292    2.550639   2.50233    -0.13059   0.22204   
2921.4     81.83022   2.64003    2.505381   2.50031    -0.13972   0.25458   
2921.6     72.25036   2.61468    2.382076   2.43615    -0.17854   0.30456   
2921.8     77.29669   2.57213    2.438546   2.47747    -0.09466   0.28708   
2922       81.10854   2.55534    2.427073   2.46831    -0.08703   0.29833   
2922.2     77.03175   2.54617    2.500534   2.4976     -0.04857   0.25206   
2922.4     81.45688   2.54687    2.527463   2.50118    -0.0457    0.2383    
2922.6     77.29877   2.58665    2.526787   2.49923    -0.08742   0.23455   
2922.8     80.14276   2.59642    2.511848   2.49945    -0.09697   0.24831   
2923       81.84357   2.61301    2.532701   2.50137    -0.11164   0.23455   
2923.2     83.76658   2.60472    2.543376   2.50221    -0.10251   0.22704   
2923.4     76.2008    2.59831    2.442772   2.4806     -0.11772   0.28331   
2923.6     72.37568   2.6687     2.489899   2.48983    -0.17887   0.25207   
2923.8     74.72413   2.68337    2.513307   2.49409    -0.18928   0.2408    
2924       80.00601   2.64034    2.520498   2.50005    -0.14029   0.24205   
2924.2     81.00597999999999 2.63516    2.539527   2.50105    -0.13411   0.2283    
2924.4     71.92093   2.64841    2.475477   2.48781    -0.1606    0.25956   
2924.6     72.19414   2.59352    2.46937    2.48651    -0.10701   0.26331   
2924.8     72.93786   2.59135    2.447558   2.48281    -0.10854   0.27582   
2925       77.52746   2.62082    2.413201   2.46321    -0.15761   0.29958   
2925.2     86.84341000000001 2.58628    2.437221   2.46725    -0.11903   0.30084   
2925.4     84.58772999999999 2.56367    2.485092   2.49732    -0.06635   0.27082   
2925.6     85.90261   2.62684    2.473218   2.4908     -0.13603   0.27957   
2925.8     82.64696000000001 2.66463    2.377281   2.4395     -0.22513   0.32335   
2926       76.34801   2.63155    2.377624   2.43595    -0.1956    0.31334   
2926.2     83.25378000000001 2.62492    2.440404   2.47329    -0.15163   0.29458   
2926.4     88.48438   2.64198    2.463219   2.48009    -0.16189   0.28834   
2926.6     88.47584999999999 2.61508    2.433865   2.46172    -0.15335   0.30458   
2926.8     80.15985000000001 2.60238    2.434444   2.47247    -0.1299    0.29333   
2927       77.57874   2.61574    2.472429   2.49559    -0.12015   0.26957   
2927.2     76.64715   2.64375    2.404652   2.45802    -0.18573   0.30209   
2927.4     84.50281   2.64414    2.466219   2.4877     -0.15644   0.28207   
2927.6     86.91912000000001 2.64492    2.486979   2.49717    -0.14775   0.27207   
2927.8     86.27933   2.70679    2.435874   2.46731    -0.23947   0.30084   
2928       79.98891999999999 2.64317    2.367648   2.43132    -0.21185   0.32335   
2928.2     90.11681   2.54363    2.478184   2.48953    -0.0541    0.28082   
2928.4     81.50336   2.56217    2.477045   2.49618    -0.06599   0.27209   
2928.6     84.81617   2.55593    2.387441   2.4437     -0.11223   0.32207   
2928.8     85.45883000000001 2.61877    2.411086   2.45289    -0.16588   0.31209   
2929       89.55273   2.63331    2.471318   2.48265    -0.15066   0.28458   
2929.2     98.53536   2.63399    2.498385   2.49019    -0.1438    0.27207   
2929.4     104.55935  2.66162    2.502143   2.48777    -0.17385   0.2696    
2929.6     101.65635  2.68765    2.402724   2.41375    -0.2739    0.33457   
2929.8     92.87741   2.65146    2.483692   2.4898     -0.16166   0.27957   
