~Version
 VERS              .         2.0                           : CWLS LOG ASCII STANDARD - VERSION 2.0
 WRAP              .         NO                            : ONE LINE PER DEPTH STEP
 DLM               .         SPACE                         : DELIMITING CHARACTER(SPACE TAB OR COMMA)
~Well Information
#_______________________________________________________________________________
#
#PARAMETER_NAME    .UNIT     VALUE                         : DESCRIPTION
#_______________________________________________________________________________
STRT               .m        2891                          : First reference value
STOP               .m        3079.8                        : Last reference value
STEP               .m        0.2                           : Step increment
NULL               .         -9999                         : Missing value
COMP               .                                       : Company
WELL               .         301                           : Well name
FLD                .                                       : Field
LOC                .                                       : Location
PROV               .                                       : Province
SRVC               .                                       : Service Company
DATE               .         2021-05-13 14_16_42           : Date
UWI                .                                       : Unique Well ID
API                .                                       : API NUMBER
CNTY               .                                       : COUNTY
Cartographic_reference_system .         GCS_WGS_1984                  : GEOGCS["GCS_WGS_1984",DATUM["D_WGS_1984",SPHEROID["WGS_1984",6378137.0,298.257223563]],PRIMEM["Greenwich",0.0],UNIT["Degree",0.0174532925199433],AUTHORITY["EPSG",4326]]
CTRY               .                                       : COUNTRY
EREF               .m        138.34                        : 
HZCS               .GCS_WGS_1984 World_Mercator                : PROJCS["World_Mercator",GEOGCS["GCS_WGS_1984",DATUM["D_WGS_1984",SPHEROID["WGS_1984",6378137.0,298.257223563]],PRIMEM["Greenwich",0.0],UNIT["Degree",0.0174532925199433]],PROJECTION["Mercator"],PARAMETER["False_Easting",0.0],PARAMETER["False_Northing",0.0],PARAMETER["Central_Meridian",0.0],PARAMETER["Standard_Parallel_1",0.0],UNIT["Meter",1.0],AUTHORITY["ESRI",54004]]
LATI               .dega     2.2598774867                  : GCS_WGS_1984
LONG               .dega     1.9740478369                  : GCS_WGS_1984
ORIGINALWELLNAME   .         301                           : 
PROJECT_UPGRADE_TIME .         2014-05-27T11_38_46           : 
Pad                .         Pad3                          : 
STAT               .                                       : STATE
X                  .m        219750                        : 
Y                  .m        249950                        : 
group              .         Pad3                          : 
Интер-р            .         Пузин                         : 
Куст               .         3                             : 
Статус             .         Не проверено                  : 
Тип                .         Эксплуатация                  : 
~Parameter Information Block
#_______________________________________________________________________________
#
#PARAMETER_NAME    .UNIT     VALUE                         : DESCRIPTION
#_______________________________________________________________________________
SET                .         Gam                           : 
TLFamily_DEPT      .         Measured Depth                : 
TLFamily_GR_NORM   .         Gamma Ray                     : 
TLFamily_RHOB_NORM .         Bulk Density                  : 
TLFamily_RHOB_TL1  .         Bulk Density                  : 
TLFamily_SYNTH_Bulk_Density .         Bulk Density                  : 
TLFamily_SYNTH_Bulk_Density_MISFIT .                                       : 
TLFamily_TNPH_NORM .         Neutron Porosity              : 
~Curve Information
#_______________________________________________________________________________
#
#LOGNAME           .UNIT     LOG_ID                        : DESCRIPTION
#_______________________________________________________________________________
DEPT               .m                                      :  
GR_NORM            .gAPI                                   : Gamma Ray 
RHOB_NORM          .g/cm3                                  : Bulk Density 
RHOB_TL1           .g/cm3                                  :  
SYNTH_Bulk_Density .G/C3                                   : Bulk Density 
SYNTH_Bulk_Density_MISFIT .                                       : Synthetic Bulk Density Misfit 
TNPH_NORM          .v/v                                    : Thermal Neutron Porosity 
~Ascii
# ...
3013.2     91.35608999999999 2.51329    2.516136   2.50069    -0.0126    0.25456   
3013.4     91.42964000000001 2.54796    2.505012   2.49833    -0.04963   0.2633    
3013.6     101.78652  2.61542    2.543003   2.49438    -0.12104   0.22581   
3013.8     103.6207   2.64736    2.546367   2.49422    -0.15314   0.21829   
3014       109.0051   2.63292    2.535702   2.49023    -0.14268   0.22454   
3014.2     120.0646   2.59311    2.524077   2.48535    -0.10776   0.19703   
3014.4     116.41428  2.59133    2.535674   2.49105    -0.10028   0.18702   
3014.6     63.38348   2.5458     2.563025   2.48183    -0.06397   0.18952   
3014.8     28.46914   2.45659    2.538737   2.55239    0.0958     0.13825   
3015       23.42656   2.39063    2.478331   2.50929    0.11867    0.15701   
3015.2     20.80271   2.39063    2.480365   2.51961    0.12898    0.1495    
3015.4     23.14851   2.36895    2.433535   2.46385    0.09491    0.17578   
3015.6     31.12319   2.33502    2.42736    2.45067    0.11565    0.19827   
3015.8     34.66553   2.32057    2.472358   2.4539     0.13334    0.18702   
3016       30.64001   2.29715    2.50662    2.49835    0.2012     0.16076   
3016.2     33.66556   2.32193    2.54815    2.53051    0.20858    0.1445    
3016.4     39.42621   2.32164    2.479664   2.45848    0.13684    0.19452   
3016.6     39.69943   2.31959    2.512551   2.46854    0.14895    0.17828   
3016.8     44.16096   2.32037    2.553552   2.49287    0.1725     0.16326   
3017       46.18654   2.38516    2.553923   2.48929    0.10413    0.16701   
3017.2     48.35742   2.38672    2.531101   2.4663     0.07958    0.18577   
3017.4     45.38425   2.41239    2.535701   2.47296    0.06057    0.17702   
3017.6     47.57856   2.40722    2.520009   2.4641     0.05688    0.19077   
3017.8     37.74236   2.3959     2.489693   2.45841    0.06252    0.18577   
3018       38.25516   2.39921    2.52713    2.48472    0.08551    0.16701   
3018.2     37.43468   2.41034    2.530535   2.48883    0.07849    0.16326   
3018.4     38.17641   2.37471    2.494164   2.45841    0.0837     0.18451   
3018.6     34.50498   2.35336    2.514167   2.48257    0.12921    0.16577   
3018.8     36.65692   2.38204    2.487208   2.4564     0.07436    0.18452   
3019       42.53709   2.40165    2.542502   2.48778    0.08613    0.16701   
3019.2     40.87902   2.43278    2.51951    2.47198    0.0392     0.17702   
3019.4     41.77563   2.48663    2.495159   2.46102    -0.02561   0.19202   
3019.6     40.20461   2.46226    2.500547   2.46185    -0.00042   0.18577   
3019.8     53.63931   2.51563    2.561055   2.48021    -0.03542   0.17577   
3020       67.9722    2.56286    2.599129   2.51047    -0.05239   0.16076   
3020.2     71.04048   2.62375    2.596504   2.50539    -0.11835   0.16576   
3020.4     57.04971   2.62421    2.607675   2.54401    -0.0802    0.14075   
3020.6     57.55347   2.57791    2.597039   2.51794    -0.05996   0.152     
3020.8     56.6734    2.5087     2.564515   2.48065    -0.02805   0.17827   
3021       46.98994   2.43522    2.470181   2.46032    0.0251     0.21579   
3021.2     45.3746    2.39151    2.449341   2.45772    0.06622    0.22204   
3021.4     43.37429   2.36128    2.484746   2.45875    0.09748    0.2008    
3021.6     42.63147   2.40397    2.411891   2.45438    0.05041    0.23203   
3021.8     44.00713   2.42712    2.482542   2.45875    0.03163    0.20328   
3022       39.597     2.408      2.507494   2.46767    0.05968    0.18077   
3022.2     42.73366   2.40351    2.469067   2.4583     0.05479    0.20703   
3022.4     48.78388   2.40291    2.536501   2.46785    0.06494    0.18329   
3022.6     47.03355   2.37951    2.462584   2.45917    0.07965    0.21952   
3022.8     34.98176   2.35628    2.452014   2.45177    0.09549    0.19703   
3023       32.7767    2.34818    2.433999   2.45036    0.10218    0.19953   
3023.2     39.75939   2.41649    2.488801   2.45959    0.04311    0.19077   
3023.4     36.06026   2.40633    2.440699   2.45127    0.04493    0.20454   
3023.6     39.28771   2.39405    2.435105   2.45687    0.06282    0.21453   
3023.8     39.26368   2.36721    2.434952   2.45581    0.0886     0.21454   
3024       40.07562   2.34281    2.497581   2.46089    0.11808    0.18702   
3024.2     33.92196   2.37706    2.44049    2.45108    0.07401    0.19953   
3024.4     30.27426   2.40127    2.393876   2.45022    0.04896    0.20953   
3024.6     33.80055   2.40643    2.433939   2.45108    0.04465    0.20203   
3024.8     32.95618   2.40975    2.440898   2.45126    0.0415     0.19703   
3025       27.39225   2.41463    2.404224   2.45209    0.03746    0.19828   
3025.2     25.64017   2.47259    2.399214   2.45299    -0.0196    0.19578   
3025.4     21.5922    2.48724    2.35025    2.44899    -0.03824   0.20329   
3025.6     27.97024   2.49347    2.344126   2.44989    -0.04359   0.22203   
3025.8     31.25538   2.49455    2.400137   2.45022    -0.04433   0.20954   
3026       40.16109   2.49592    2.43398    2.45711    -0.0388    0.21704   
3026.2     41.92172   2.50499    2.425917   2.45655    -0.04845   0.22454   
3026.4     40.52991   2.47015    2.438834   2.4583     -0.01184   0.21579   
3026.6     43.14259   2.45318    2.463024   2.4583     0.00512    0.21079   
3026.8     37.4945    2.41092    2.473045   2.45545    0.04452    0.19328   
3027       38.18679   2.42751    2.401633   2.45339    0.02587    0.22579   
3027.2     45.33187   2.44303    2.315994   2.40159    -0.04144   0.27457   
3027.4     43.98008   2.46801    2.422236   2.4551     -0.01291   0.23079   
3027.6     41.17101   2.46459    2.424765   2.45655    -0.00805   0.2233    
3027.8     38.18679   2.50021    2.398488   2.45339    -0.04682   0.22704   
3028       38.61413   2.53524    2.437241   2.45524    -0.08      0.21204   
3028.2     38.22952   2.55827    2.359483   2.44897    -0.1093    0.24205   
3028.4     42.21228   2.5237     2.504159   2.46141    -0.06229   0.18827   
3028.6     42.15251   2.47379    2.506261   2.46141    -0.01238   0.18702   
3028.8     41.38327   2.4722     2.462635   2.4583     -0.0139    0.20703   
3029       42.66529   2.48206    2.48916    2.45965    -0.02241   0.19703   
3029.2     43.30629   2.49562    2.552841   2.49287    -0.00275   0.16201   
3029.4     41.79652   2.49017    2.495248   2.46102    -0.02915   0.19202   
3029.6     47.80741   2.50957    2.53342    2.467      -0.04257   0.18327   
3029.8     47.36599   2.58754    2.529904   2.46545    -0.12209   0.18452   
3030       51.86158   2.64629    2.533972   2.46848    -0.17781   0.19077   
3030.2     58.87846   2.69312    2.520248   2.47523    -0.2179    0.21204   
3030.4     74.13043999999999 2.6688     2.53878    2.49411    -0.17469   0.22203   
3030.6     83.30902   2.60475    2.578316   2.50393    -0.10082   0.19079   
3030.8     91.88599000000001 2.57984    2.566305   2.50285    -0.07698   0.20328   
3031       86.02292   2.53144    2.55988    2.50322    -0.02821   0.21204   
3031.2     94.79188000000001 2.48996    2.514989   2.4989     0.00894    0.25706   
3031.4     94.65921   2.53368    2.52213    2.49939    -0.03428   0.25079   
3031.6     85.69408   2.52646    2.563286   2.50319    -0.02328   0.20831   
3031.8     72.82675   2.51446    2.551234   2.49316    -0.02129   0.21079   
3032       71.15159   2.48343    2.575018   2.49244    0.00902    0.18827   
3032.2     46.39167   2.50245    2.530804   2.46886    -0.03359   0.18202   
3032.4     39.15893   2.53419    2.528409   2.48173    -0.05246   0.16825   
3032.6     34.77028   2.57133    2.565673   2.55082    -0.0205    0.13576   
3032.8     34.53733   2.56666    2.547215   2.53051    -0.03615   0.147     
3033       33.99889   2.55612    2.532476   2.50618    -0.04995   0.1545    
3033.2     38.75087   2.4563     2.551816   2.51702    0.06072    0.15325   
3033.4     39.71628   2.49886    2.590193   2.55428    0.05542    0.12825   
3033.6     38.96492   2.52576    2.569479   2.54841    0.02265    0.14199   
3033.8     41.56276   2.46606    2.519907   2.46996    0.00391    0.17827   
