~Version
 VERS              .         2.0                           : CWLS LOG ASCII STANDARD - VERSION 2.0
 WRAP              .         NO                            : ONE LINE PER DEPTH STEP
 DLM               .         SPACE                         : DELIMITING CHARACTER(SPACE TAB OR COMMA)
~Well Information
#_______________________________________________________________________________
#
#PARAMETER_NAME    .UNIT     VALUE                         : DESCRIPTION
#_______________________________________________________________________________
STRT               .m        2891                          : First reference value
STOP               .m        3079.8                        : Last reference value
STEP               .m        0.2                           : Step increment
NULL               .         -9999                         : Missing value
COMP               .                                       : Company
WELL               .         301                           : Well name
FLD                .                                       : Field
LOC                .                                       : Location
PROV               .                                       : Province
SRVC               .                                       : Service Company
DATE               .         2021-05-13 14_16_42           : Date
UWI                .                                       : Unique Well ID
API                .                                       : API NUMBER
CNTY               .                                       : COUNTY
Cartographic_reference_system .         GCS_WGS_1984                  : GEOGCS["GCS_WGS_1984",DATUM["D_WGS_1984",SPHEROID["WGS_1984",6378137.0,298.257223563]],PRIMEM["Greenwich",0.0],UNIT["Degree",0.0174532925199433],AUTHORITY["EPSG",4326]]
CTRY               .                                       : COUNTRY
EREF               .m        138.34                        : 
HZCS               .GCS_WGS_1984 World_Mercator                : PROJCS["World_Mercator",GEOGCS["GCS_WGS_1984",DATUM["D_WGS_1984",SPHEROID["WGS_1984",6378137.0,298.257223563]],PRIMEM["Greenwich",0.0],UNIT["Degree",0.0174532925199433]],PROJECTION["Mercator"],PARAMETER["False_Easting",0.0],PARAMETER["False_Northing",0.0],PARAMETER["Central_Meridian",0.0],PARAMETER["Standard_Parallel_1",0.0],UNIT["Meter",1.0],AUTHORITY["ESRI",54004]]
LATI               .dega     2.2598774867                  : GCS_WGS_1984
LONG               .dega     1.9740478369                  : GCS_WGS_1984
ORIGINALWELLNAME   .         301                           : 
PROJECT_UPGRADE_TIME .         2014-05-27T11_38_46           : 
Pad                .         Pad3                          : 
STAT               .                                       : STATE
X                  .m        219750                        : 
Y                  .m        249950                        : 
group              .         Pad3                          : 
Интер-р            .         Пузин                         : 
Куст               .         3                             : 
Статус             .         Не проверено                  : 
Тип                .         Эксплуатация                  : 
~Parameter Information Block
#_______________________________________________________________________________
#
#PARAMETER_NAME    .UNIT     VALUE                         : DESCRIPTION
#_______________________________________________________________________________
SET                .         Gam                           : 
TLFamily_DEPT      .         Measured Depth                : 
TLFamily_GR_NORM   .         Gamma Ray                     : 
TLFamily_RHOB_NORM .         Bulk Density                  : 
TLFamily_RHOB_TL1  .         Bulk Density                  : 
TLFamily_SYNTH_Bulk_Density .         Bulk Density                  : 
TLFamily_SYNTH_Bulk_Density_MISFIT .                                       : 
TLFamily_TNPH_NORM .         Neutron Porosity              : 
~Curve Information
#_______________________________________________________________________________
#
#LOGNAME           .UNIT     LOG_ID                        : DESCRIPTION
#_______________________________________________________________________________
DEPT               .m                                      :  
GR_NORM            .gAPI                                   : Gamma Ray 
RHOB_NORM          .g/cm3                                  : Bulk Density 
RHOB_TL1           .g/cm3                                  :  
SYNTH_Bulk_Density .G/C3                                   : Bulk Density 
SYNTH_Bulk_Density_MISFIT .                                       : Synthetic Bulk Density Misfit 
TNPH_NORM          .v/v                                    : Thermal Neutron Porosity 
~Ascii
# ...
2971.6     321.00826  2.32819    2.254953   2.34211    0.01391    0.33713   
2971.8     320.9901   2.31988    2.235222   2.37285    0.05296    0.31584   
2972       312.7595   2.28261    2.254444   2.33338    0.05077    0.34086   
2972.2     339.2117   2.26026    2.253383   2.36782    0.10756    0.3246    
2972.4     324.92248  2.27597    2.299515   2.2863     0.01034    0.38964   
2972.6     309.68172  2.26641    2.301879   2.28315    0.01674    0.40464   
2972.8     288.2902   2.30866    2.266386   2.29356    -0.0151    0.36587   
2973       299.0677   2.31149    2.26283    2.30902    -0.00247   0.35712   
2973.2     305.3752   2.27822    2.281635   2.28804    0.00983    0.37838   
2973.4     310.85758  2.27381    2.282221   2.28902    0.01521    0.37589   
2973.6     301.61922  2.24018    2.291418   2.28549    0.04531    0.39463   
2973.8     298.9993   2.21655    2.248216   2.3357     0.11916    0.33961   
2974       318.8021   2.2222     2.230562   2.37518    0.15297    0.31209   
2974.2     318.7422   2.24357    2.281155   2.29158    0.04801    0.36962   
2974.4     320.82762  2.24123    2.197112   2.40981    0.16858    0.27836   
2974.6     303.67438  2.24523    2.25723    2.32033    0.0751     0.34833   
2974.8     298.495    2.2225     2.278831   2.28804    0.06554    0.37838   
2975       293.0507   2.21479    2.313495   2.27761    0.06282    0.44216   
2975.2     283.3587   2.22913    2.302693   2.27948    0.05035    0.42966   
2975.4     274.05591  2.24308    2.26041    2.29913    0.05605    0.36084   
2975.6     266.26909  2.22504    2.222501   2.37647    0.15142    0.31212   
2975.8     245.7958   2.23011    2.233073   2.37943    0.14932    0.31209   
2976       247.4624   2.22513    2.239454   2.37483    0.1497     0.3221    
2976.2     252.2229   2.21206    2.277424   2.28676    0.0747     0.38963   
2976.4     246.22471  2.19938    2.267606   2.29492    0.09554    0.36585   
2976.6     249.43509  2.20932    2.232428   2.37542    0.1661     0.31462   
2976.8     247.3      2.23011    2.193578   2.4211     0.19099    0.26832   
2977       217.1129   2.25928    2.229826   2.43679    0.17751    0.25706   
2977.2     200.9767   2.27821    2.272897   2.43802    0.1598     0.26331   
2977.4     197.69486  2.27462    2.295121   2.41842    0.1438     0.28959   
2977.6     198.01934  2.29626    2.300702   2.40193    0.10567    0.30583   
2977.8     204.6517   2.30115    2.298243   2.3396     0.03845    0.34336   
2978       195.9426   2.32378    2.304079   2.40966    0.08587    0.30209   
2978.2     186.4044   2.31295    2.303156   2.29067    -0.02228   0.40589   
2978.4     177.7697   2.31235    2.337585   2.3046     -0.00775   0.36211   
2978.6     155.5703   2.28369    2.385733   2.35317    0.06947    0.33837   
2978.8     142.081    2.29383    2.407824   2.36851    0.07469    0.3346    
2979       135.3889   2.28778    2.419912   2.3819     0.09412    0.3296    
2979.2     141.1067   2.31812    2.438814   2.42297    0.10484    0.29458   
2979.4     138.32193  2.32681    2.4498     2.43345    0.10663    0.28458   
2979.6     141.37867  2.33559    2.439607   2.42574    0.09015    0.29208   
2979.8     149.4996   2.3556     2.415175   2.40802    0.05242    0.30709   
2980       146.4399   2.38419    2.427604   2.42227    0.03809    0.29458   
2980.2     137.3632   2.36653    2.435468   2.40775    0.04122    0.30959   
2980.4     125.25463  2.37072    2.441462   2.42016    0.04944    0.31709   
2980.6     112.51567  2.35882    2.465148   2.45161    0.09279    0.30084   
2980.8     105.9967   2.34916    2.517636   2.48939    0.14023    0.25331   
2981       91.39028   2.51046    2.559603   2.50275    -0.00771   0.21204   
2981.2     79.12569999999999 2.59525    2.539042   2.50005    -0.0952    0.22704   
2981.4     78.62390000000001 2.57755    2.543098   2.49969    -0.07787   0.22328   
2981.6     100.64399  2.4981     2.558965   2.4955     -0.0026    0.20329   
2981.8     110.6034   2.3919     2.536704   2.49001    0.09811    0.21829   
2982       126.5858   2.3635     2.465521   2.44478    0.08128    0.29083   
2982.2     131.6882   2.37745    2.437342   2.4069     0.02945    0.31584   
2982.4     120.9783   2.39773    2.491214   2.47514    0.0774     0.26705   
2982.6     102.3821   2.36088    2.542488   2.49438    0.13349    0.22581   
2982.8     101.4242   2.35628    2.526741   2.49289    0.13661    0.24581   
2983       96.24482999999999 2.36682    2.505083   2.49427    0.12745    0.26582   
2983.2     88.41602   2.36262    2.515384   2.5009     0.13827    0.25331   
2983.4     90.47457   2.37502    2.505796   2.49862    0.1236     0.26206   
2983.6     88.05826   2.38467    2.526017   2.50152    0.11685    0.24456   
2983.8     98.1764    2.34955    2.513112   2.49387    0.14432    0.25956   
2984       99.86011000000001 2.3435     2.491066   2.48323    0.13974    0.27832   
2984.2     96.50978000000001 2.34018    2.519764   2.4969     0.15672    0.25331   
2984.4     100.60983  2.34515    2.531609   2.49412    0.14897    0.2408    
2984.6     95.86259   2.32906    2.535227   2.49863    0.16957    0.2383    
2984.8     100.0738   2.32193    2.534056   2.49477    0.17284    0.2383    
2985       118.1758   2.35608    2.481243   2.46595    0.10987    0.28333   
2985.2     122.4321   2.37667    2.454263   2.43476    0.05809    0.30709   
2985.4     116.94336  2.36097    2.452206   2.43922    0.07824    0.31084   
2985.6     113.67324  2.38213    2.452347   2.4408     0.05867    0.31084   
2985.8     120.7483   2.35101    2.467127   2.44783    0.09682    0.29583   
2986       113.3298   2.32779    2.425094   2.41809    0.09031    0.3296    
2986.2     120.9364   2.32681    2.457911   2.43813    0.11132    0.30459   
2986.4     135.32092  2.33286    2.454296   2.4331     0.10024    0.28709   
2986.6     136.16628  2.33949    2.436234   2.40716    0.06767    0.31083   
2986.8     144.269    2.25314    2.434074   2.42706    0.17393    0.29083   
2987       144.5425   2.25021    2.422672   2.40471    0.1545     0.31084   
2987.2     138.9957   2.26329    2.426102   2.39756    0.13428    0.31835   
2987.4     128.57971  2.28838    2.466572   2.44768    0.1593     0.28582   
2987.6     116.60919  2.31889    2.484902   2.47257    0.15367    0.28083   
2987.8     113.4238   2.3029     2.49205    2.47729    0.17438    0.27582   
2988       96.62943   2.30661    2.489068   2.48662    0.18001    0.27832   
2988.2     94.33036   2.29002    2.454046   2.46643    0.17641    0.29958   
2988.4     108.04771  2.29199    2.477495   2.46386    0.17187    0.29083   
2988.6     124.85949  2.3147     2.466585   2.44726    0.13256    0.29208   
2988.8     127.9618   2.35589    2.462695   2.44151    0.08562    0.29208   
2989       103.9625   2.38965    2.464447   2.45733    0.06768    0.29958   
2989.2     82.72387999999999 2.4241     2.466781   2.49059    0.0665     0.27957   
2989.4     93.15072000000001 2.40095    2.478394   2.484      0.08304    0.28333   
2989.6     92.76649   2.36762    2.44934    2.46647    0.09885    0.30083   
2989.8     95.25341   2.34477    2.493098   2.49136    0.1466     0.27457   
2990       91.68087   2.29627    2.472564   2.48174    0.18547    0.28583   
2990.2     105.6121   2.27158    2.437095   2.43909    0.16751    0.31835   
2990.4     119.28084  2.28467    2.470719   2.45408    0.16941    0.29336   
2990.6     124.36106  2.30816    2.411444   2.37763    0.06947    0.34083   
2990.8     131.3463   2.323      2.440089   2.40925    0.08624    0.31334   
2991       138.6196   2.29656    2.438003   2.41528    0.11872    0.30334   
2991.2     129.9532   2.27929    2.469396   2.45285    0.17356    0.27832   
2991.4     119.06062  2.30176    2.44398    2.43147    0.12972    0.31708   
2991.6     111.09448  2.34991    2.485678   2.47008    0.12017    0.28334   
2991.8     89.31341999999999 2.36974    2.433353   2.46082    0.09107    0.30584   
2992       93.80047   2.35355    2.517501   2.49942    0.14587    0.25456   
2992.2     109.2615   2.30905    2.441948   2.43814    0.12909    0.31709   
