~Version
 VERS              .         2.0                           : CWLS LOG ASCII STANDARD - VERSION 2.0
 WRAP              .         NO                            : ONE LINE PER DEPTH STEP
 DLM               .         SPACE                         : DELIMITING CHARACTER(SPACE TAB OR COMMA)
~Well Information
#_______________________________________________________________________________
#
#PARAMETER_NAME    .UNIT     VALUE                         : DESCRIPTION
#_______________________________________________________________________________
STRT               .m        2891                          : First reference value
STOP               .m        3079.8                        : Last reference value
STEP               .m        0.2                           : Step increment
NULL               .         -9999                         : Missing value
COMP               .                                       : Company
WELL               .         301                           : Well name
FLD                .                                       : Field
LOC                .                                       : Location
PROV               .                                       : Province
SRVC               .                                       : Service Company
DATE               .         2021-05-13 14_16_42           : Date
UWI                .                                       : Unique Well ID
API                .                                       : API NUMBER
CNTY               .                                       : COUNTY
Cartographic_reference_system .         GCS_WGS_1984                  : GEOGCS["GCS_WGS_1984",DATUM["D_WGS_1984",SPHEROID["WGS_1984",6378137.0,298.257223563]],PRIMEM["Greenwich",0.0],UNIT["Degree",0.0174532925199433],AUTHORITY["EPSG",4326]]
CTRY               .                                       : COUNTRY
EREF               .m        138.34                        : 
HZCS               .GCS_WGS_1984 World_Mercator                : PROJCS["World_Mercator",GEOGCS["GCS_WGS_1984",DATUM["D_WGS_1984",SPHEROID["WGS_1984",6378137.0,298.257223563]],PRIMEM["Greenwich",0.0],UNIT["Degree",0.0174532925199433]],PROJECTION["Mercator"],PARAMETER["False_Easting",0.0],PARAMETER["False_Northing",0.0],PARAMETER["Central_Meridian",0.0],PARAMETER["Standard_Parallel_1",0.0],UNIT["Meter",1.0],AUTHORITY["ESRI",54004]]
LATI               .dega     2.2598774867                  : GCS_WGS_1984
LONG               .dega     1.9740478369                  : GCS_WGS_1984
ORIGINALWELLNAME   .         301                           : 
PROJECT_UPGRADE_TIME .         2014-05-27T11_38_46           : 
Pad                .         Pad3                          : 
STAT               .                                       : STATE
X                  .m        219750                        : 
Y                  .m        249950                        : 
group              .         Pad3                          : 
Интер-р            .         Пузин                         : 
Куст               .         3                             : 
Статус             .         Не проверено                  : 
Тип                .         Эксплуатация                  : 
~Parameter Information Block
#_______________________________________________________________________________
#
#PARAMETER_NAME    .UNIT     VALUE                         : DESCRIPTION
#_______________________________________________________________________________
SET                .         Gam                           : 
TLFamily_DEPT      .         Measured Depth                : 
TLFamily_GR_NORM   .         Gamma Ray                     : 
TLFamily_RHOB_NORM .         Bulk Density                  : 
TLFamily_RHOB_TL1  .         Bulk Density                  : 
TLFamily_SYNTH_Bulk_Density .         Bulk Density                  : 
TLFamily_SYNTH_Bulk_Density_MISFIT .                                       : 
TLFamily_TNPH_NORM .         Neutron Porosity              : 
~Curve Information
#_______________________________________________________________________________
#
#LOGNAME           .UNIT     LOG_ID                        : DESCRIPTION
#_______________________________________________________________________________
DEPT               .m                                      :  
GR_NORM            .gAPI                                   : Gamma Ray 
RHOB_NORM          .g/cm3                                  : Bulk Density 
RHOB_TL1           .g/cm3                                  :  
SYNTH_Bulk_Density .G/C3                                   : Bulk Density 
SYNTH_Bulk_Density_MISFIT .                                       : Synthetic Bulk Density Misfit 
TNPH_NORM          .v/v                                    : Thermal Neutron Porosity 
~Ascii
# ...
2930       96.54397   2.5814     2.512709   2.49571    -0.08569   0.25956   
2930.2     94.32182   2.64014    2.534025   2.50063    -0.13951   0.23955   
2930.4     74.44986   2.63396    2.535955   2.49437    -0.13959   0.22453   
2930.6     72.88735   2.56484    2.558818   2.49322    -0.07162   0.20454   
2930.8     75.94631   2.59125    2.519279   2.49701    -0.09424   0.2383    
2931       76.895     2.60921    2.529579   2.49829    -0.11091   0.23205   
2931.2     80.73249   2.60716    2.546665   2.50101    -0.10614   0.22204   
2931.4     83.5334    2.58532    2.555346   2.50285    -0.08248   0.21582   
2931.6     78.68369   2.63319    2.461716   2.48879    -0.1444    0.27704   
2931.8     91.50139   2.61818    2.498284   2.49833    -0.11985   0.26832   
2932       76.02324   2.52831    2.519415   2.49701    -0.0313    0.2383    
2932.2     54.38287   2.53788    2.450067   2.46475    -0.07313   0.2408    
2932.4     51.71536   2.5698     2.440845   2.46168    -0.10812   0.23954   
2932.6     49.84548   2.59817    2.469735   2.46236    -0.1358    0.22205   
2932.8     43.78491   2.61613    2.481566   2.45875    -0.15738   0.20328   
2933       43.70798   2.58218    2.514669   2.46237    -0.1198    0.18577   
2933.2     46.35748   2.53641    2.550647   2.4834     -0.05301   0.16951   
2933.4     48.77717   2.54412    2.548207   2.47571    -0.06841   0.17579   
2933.6     50.68972   2.54295    2.455207   2.46236    -0.08059   0.23077   
2933.8     50.35736   2.57174    2.445525   2.45977    -0.11196   0.23455   
2934       55.49395   2.55222    2.433162   2.461      -0.09122   0.25081   
2934.2     60.61345   2.56871    2.516999   2.47815    -0.09057   0.21704   
2934.4     68.48294   2.54343    2.532212   2.48441    -0.05902   0.21953   
2934.6     64.35898   2.53232    2.543258   2.48032    -0.052     0.20579   
2934.8     49.5796    2.53661    2.513924   2.46457    -0.07204   0.19828   
2935       56.22042   2.55671    2.534699   2.47001    -0.0867    0.19828   
2935.2     62.1946    2.54373    2.527203   2.4792     -0.06453   0.21329   
2935.4     55.63275   2.5297     2.542685   2.47169    -0.05801   0.19201   
2935.6     42.62905   2.57318    2.548754   2.49287    -0.08031   0.16327   
2935.8     45.99852   2.60199    2.502892   2.46083    -0.14116   0.19703   
2936       45.06692   2.573      2.416158   2.45454    -0.11846   0.2358    
2936.2     49.04116   2.62092    2.468858   2.46186    -0.15905   0.22079   
2936.4     41.98193   2.5957     2.402044   2.45337    -0.14234   0.23454   
2936.6     42.73328   2.5224     2.455626   2.4583     -0.0641    0.2133    
2936.8     52.63934   2.49992    2.522043   2.46718    -0.03274   0.19953   
2937       65.24578   2.49172    2.543349   2.48064    -0.01108   0.20703   
2937.2     76.87791   2.48118    2.551635   2.49908    0.0179     0.21454   
2937.4     80.80499   2.49712    2.528281   2.50056    0.00343    0.23706   
2937.6     89.05289999999999 2.56594    2.507775   2.4999     -0.06605   0.25955   
2937.8     92.36461   2.54529    2.5008     2.498      -0.0473    0.26707   
2938       92.79195   2.56003    2.531189   2.50148    -0.05854   0.24205   
2938.2     95.44144   2.56022    2.542321   2.50026    -0.05996   0.2308    
2938.4     93.53676   2.59134    2.547223   2.50147    -0.08987   0.2258    
2938.6     96.02992   2.56697    2.539918   2.49873    -0.06824   0.23329   
2938.8     104.9967   2.58784    2.536447   2.49237    -0.09547   0.2308    
2939       99.13363   2.54959    2.560661   2.4963     -0.05328   0.20328   
2939.2     98.78321   2.48948    2.568844   2.49747    0.00799    0.18952   
2939.4     91.765     2.52696    2.547396   2.50211    -0.02485   0.2258    
2939.6     89.09254   2.55006    2.542051   2.50215    -0.04792   0.23079   
2939.8     90.8091    2.53875    2.550925   2.50221    -0.03655   0.22204   
2940       81.75809   2.48069    2.512537   2.50058    0.01989    0.24956   
2940.2     71.96353000000001 2.47006    2.536948   2.49134    0.02128    0.22079   
2940.4     60.63498   2.51037    2.547526   2.47937    -0.03099   0.19704   
2940.6     69.51472   2.52548    2.53601    2.48674    -0.03874   0.21828   
2940.8     84.98877   2.52792    2.479769   2.49396    -0.03396   0.27457   
2941       99.00542   2.48831    2.518626   2.49355    0.00525    0.25456   
2941.2     97.36445999999999 2.53612    2.511504   2.49445    -0.04167   0.26081   
2941.4     95.23875   2.56137    2.540059   2.50009    -0.06128   0.2333    
2941.6     100.11406  2.52131    2.537261   2.49477    -0.02654   0.23455   
2941.8     95.06538   2.50831    2.552141   2.50099    -0.00732   0.21954   
2942       81.33931   2.48704    2.555448   2.50203    0.015      0.21454   
2942.2     68.92943   2.51504    2.579361   2.49232    -0.02272   0.18202   
2942.4     61.21096   2.57533    2.591416   2.5028     -0.07253   0.16201   
2942.6     59.6997    2.54014    2.590728   2.50973    -0.03041   0.16076   
2942.8     48.16939   2.50255    2.550281   2.47929    -0.02327   0.17326   
2943       46.1609    2.48567    2.5258     2.46408    -0.02159   0.18452   
2943.2     43.66526   2.56461    2.523364   2.4691     -0.09551   0.18077   
2943.4     46.76309   2.58723    2.471797   2.46032    -0.1269    0.21452   
2943.6     54.58408   2.54102    2.556331   2.47836    -0.06267   0.18079   
2943.8     61.14335   2.53456    2.568443   2.48602    -0.04853   0.18202   
2944       73.51904   2.53602    2.550625   2.49394    -0.04208   0.21204   
2944.2     88.84335   2.50119    2.573246   2.50332    0.00214    0.19578   
2944.4     82.66909   2.52323    2.599785   2.51694    -0.00629   0.16077   
2944.6     75.64214   2.50188    2.583169   2.4988     -0.00308   0.18326   
2944.8     70.47638999999999 2.51299    2.593995   2.50395    -0.00904   0.16826   
2945       63.98087   2.52978    2.609534   2.5267     -0.00307   0.14575   
2945.2     69.17728   2.52002    2.599853   2.50988    -0.01014   0.16076   
2945.4     66.28359   2.54198    2.596752   2.50428    -0.03769   0.162     
2945.6     56.50735   2.55212    2.602052   2.52857    -0.02354   0.14576   
2945.8     49.1779    2.64268    2.57413    2.50299    -0.13969   0.15826   
2946       40.39185   2.79168    2.526503   2.47588    -0.3158    0.17201   
2946.2     43.79346   2.74416    2.53026    2.47198    -0.27218   0.17702   
2946.4     42.7629    2.73515    2.573148   2.52978    -0.20537   0.147     
2946.6     49.9606    2.67618    2.588429   2.53082    -0.14536   0.14825   
2946.8     54.90422   2.52197    2.597158   2.52884    0.00687    0.14825   
2947       63.98087   2.46284    2.549409   2.47996    0.01712    0.20078   
2947.2     76.85226   2.55359    2.576772   2.50017    -0.05341   0.19077   
2947.4     92.30596   2.55747    2.580098   2.50563    -0.05184   0.18202   
2947.6     94.63688   2.51936    2.579737   2.50576    -0.01359   0.17827   
2947.8     81.09999999999999 2.49445    2.570336   2.50184    0.00738    0.19953   
2948       70.47638999999999 2.42205    2.523468   2.48707    0.06503    0.2283    
2948.2     52.78463   2.39434    2.496044   2.46702    0.07268    0.21454   
2948.4     53.14237   2.42315    2.552763   2.47688    0.05373    0.18077   
2948.6     50.68336   2.48086    2.528291   2.46728    -0.01358   0.19202   
2948.8     51.85304   2.49865    2.541794   2.46983    -0.02882   0.18577   
2949       59.3058    2.4966     2.533298   2.47591    -0.02069   0.20453   
2949.2     66.60472   2.50499    2.562134   2.48332    -0.02167   0.19453   
2949.4     77.6918    2.49955    2.567395   2.50028    0.00073    0.20079   
2949.6     81.58522000000001 2.53922    2.541604   2.50153    -0.03769   0.22703   
2949.8     96.93711999999999 2.53895    2.535069   2.49801    -0.04094   0.2383    
2950       100.1422   2.46518    2.558048   2.49607    0.03089    0.20578   
2950.2     89.33051   2.46528    2.563208   2.50287    0.0376     0.20828   
2950.4     75.81737   2.49698    2.53797    2.49629    -0.0007    0.22454   
2950.6     74.31462999999999 2.47748    2.547043   2.49491    0.01742    0.21579   
