~Version
 VERS              .         2.0                           : CWLS LOG ASCII STANDARD - VERSION 2.0
 WRAP              .         NO                            : ONE LINE PER DEPTH STEP
 DLM               .         SPACE                         : DELIMITING CHARACTER(SPACE TAB OR COMMA)
~Well Information
#_______________________________________________________________________________
#
#PARAMETER_NAME    .UNIT     VALUE                         : DESCRIPTION
#_______________________________________________________________________________
STRT               .m        2891                          : First reference value
STOP               .m        3079.8                        : Last reference value
STEP               .m        0.2                           : Step increment
NULL               .         -9999                         : Missing value
COMP               .                                       : Company
WELL               .         301                           : Well name
FLD                .                                       : Field
LOC                .                                       : Location
PROV               .                                       : Province
SRVC               .                                       : Service Company
DATE               .         2021-05-13 14_16_42           : Date
UWI                .                                       : Unique Well ID
API                .                                       : API NUMBER
CNTY               .                                       : COUNTY
Cartographic_reference_system .         GCS_WGS_1984                  : GEOGCS["GCS_WGS_1984",DATUM["D_WGS_1984",SPHEROID["WGS_1984",6378137.0,298.257223563]],PRIMEM["Greenwich",0.0],UNIT["Degree",0.0174532925199433],AUTHORITY["EPSG",4326]]
CTRY               .                                       : COUNTRY
EREF               .m        138.34                        : 
HZCS               .GCS_WGS_1984 World_Mercator                : PROJCS["World_Mercator",GEOGCS["GCS_WGS_1984",DATUM["D_WGS_1984",SPHEROID["WGS_1984",6378137.0,298.257223563]],PRIMEM["Greenwich",0.0],UNIT["Degree",0.0174532925199433]],PROJECTION["Mercator"],PARAMETER["False_Easting",0.0],PARAMETER["False_Northing",0.0],PARAMETER["Central_Meridian",0.0],PARAMETER["Standard_Parallel_1",0.0],UNIT["Meter",1.0],AUTHORITY["ESRI",54004]]
LATI               .dega     2.2598774867                  : GCS_WGS_1984
LONG               .dega     1.9740478369                  : GCS_WGS_1984
ORIGINALWELLNAME   .         301                           : 
PROJECT_UPGRADE_TIME .         2014-05-27T11_38_46           : 
Pad                .         Pad3                          : 
STAT               .                                       : STATE
X                  .m        219750                        : 
Y                  .m        249950                        : 
group              .         Pad3                          : 
Интер-р            .         Пузин                         : 
Куст               .         3                             : 
Статус             .         Не проверено                  : 
Тип                .         Эксплуатация                  : 
~Parameter Information Block
#_______________________________________________________________________________
#
#PARAMETER_NAME    .UNIT     VALUE                         : DESCRIPTION
#_______________________________________________________________________________
SET                .         Gam                           : 
TLFamily_DEPT      .         Measured Depth                : 
TLFamily_GR_NORM   .         Gamma Ray                     : 
TLFamily_RHOB_NORM .         Bulk Density                  : 
TLFamily_RHOB_TL1  .         Bulk Density                  : 
TLFamily_SYNTH_Bulk_Density .         Bulk Density                  : 
TLFamily_SYNTH_Bulk_Density_MISFIT .                                       : 
TLFamily_TNPH_NORM .         Neutron Porosity              : 
~Curve Information
#_______________________________________________________________________________
#
#LOGNAME           .UNIT     LOG_ID                        : DESCRIPTION
#_______________________________________________________________________________
DEPT               .m                                      :  
GR_NORM            .gAPI                                   : Gamma Ray 
RHOB_NORM          .g/cm3                                  : Bulk Density 
RHOB_TL1           .g/cm3                                  :  
SYNTH_Bulk_Density .G/C3                                   : Bulk Density 
SYNTH_Bulk_Density_MISFIT .                                       : Synthetic Bulk Density Misfit 
TNPH_NORM          .v/v                                    : Thermal Neutron Porosity 
~Ascii
# ...
2950.8     73.86091   2.48245    2.558514   2.49425    0.0118     0.20578   
2951       66.70728   2.47562    2.595921   2.50428    0.02866    0.16326   
2951.2     70.01487   2.47377    2.577842   2.48988    0.01611    0.18452   
2951.4     69.09232   2.52794    2.582096   2.49336    -0.03458   0.17954   
2951.6     70.09129   2.55318    2.52457    2.4862     -0.06698   0.22702   
2951.8     57.37424   2.61272    2.500663   2.47184    -0.14088   0.22079   
2952       55.01534   2.63682    2.508326   2.46913    -0.1677    0.21204   
2952.2     60.2374    2.59359    2.524036   2.47826    -0.11533   0.21204   
2952.4     69.62345000000001 2.56507    2.548029   2.48686    -0.07822   0.20952   
2952.6     73.08996999999999 2.50668    2.594181   2.50463    -0.00205   0.16953   
2952.8     85.21098000000001 2.48333    2.598161   2.51723    0.0339     0.16076   
2953       79.09151   2.5126     2.575426   2.50156    -0.01104   0.19328   
2953.2     76.41638   2.54178    2.561115   2.49863    -0.04315   0.20578   
2953.4     90.07769999999999 2.56666    2.572696   2.50332    -0.06334   0.19579   
2953.6     97.33517999999999 2.57115    2.5439     2.49744    -0.07371   0.22828   
2953.8     99.90284   2.54276    2.529615   2.49411    -0.04865   0.2433    
2954       103.8514   2.53758    2.502254   2.48864    -0.04894   0.26957   
2954.2     107.5949   2.60511    2.496179   2.48137    -0.12374   0.27457   
2954.4     107.75765  2.56226    2.516454   2.48939    -0.07287   0.25329   
2954.6     108.44925  2.54315    2.537203   2.4905     -0.05265   0.22331   
2954.8     103.0737   2.5288     2.546971   2.49433    -0.03447   0.21829   
2955       103.048    2.54422    2.532356   2.49314    -0.05108   0.2383    
2955.2     108.3812   2.52792    2.518026   2.48872    -0.0392    0.25081   
2955.4     112.41954  2.54255    2.510185   2.48614    -0.05642   0.25582   
2955.6     103.90696  2.52803    2.492264   2.48065    -0.04738   0.27831   
2955.8     100.655    2.5367     2.537995   2.4943     -0.0424    0.2333    
2956       86.98871   2.57359    2.508925   2.50079    -0.0728    0.25706   
2956.2     93.84319000000001 2.57535    2.523257   2.49969    -0.07566   0.24956   
2956.4     102.4516   2.59827    2.541525   2.49438    -0.10389   0.22705   
2956.6     106.0462   2.58092    2.528019   2.49066    -0.09026   0.2408    
2956.8     109.3726   2.56452    2.513047   2.48789    -0.07663   0.25581   
2957       115.099    2.5409     2.47324    2.458      -0.0829    0.29333   
2957.2     124.4491   2.55515    2.482574   2.46888    -0.08627   0.27207   
2957.4     130.41334  2.52826    2.490289   2.46928    -0.05898   0.22453   
2957.6     127.68966  2.6117     2.502522   2.47569    -0.13601   0.19454   
2957.8     128.7737   2.59701    2.495857   2.47292    -0.12409   0.21954   
2958       127.9105   2.6499     2.492922   2.4699     -0.18      0.2383    
2958.2     135.9188   2.6258     2.472579   2.45746    -0.16833   0.2358    
2958.4     132.61849  2.61904    2.480393   2.45886    -0.16018   0.24079   
2958.6     130.00581  2.57595    2.491131   2.46852    -0.10743   0.2258    
2958.8     110.2017   2.56217    2.542202   2.49049    -0.07168   0.20828   
2959       113.4836   2.54656    2.51945    2.48693    -0.05963   0.2408    
2959.2     110.4923   2.56481    2.478863   2.46291    -0.1019    0.28958   
2959.4     119.6796   2.55456    2.509956   2.48309    -0.07146   0.23954   
2959.6     101.681    2.54481    2.543098   2.49438    -0.05043   0.2258    
2959.8     106.3984   2.60257    2.52374    2.48987    -0.1127    0.24581   
2960       105.4155   2.56081    2.548568   2.49267    -0.06814   0.21079   
2960.2     109.0393   2.54841    2.541153   2.49077    -0.05764   0.21454   
2960.4     112.53274  2.52792    2.541179   2.48987    -0.03805   0.19953   
2960.6     108.21246  2.52266    2.545003   2.4912     -0.03145   0.20953   
2960.8     106.8172   2.60023    2.531024   2.49075    -0.10948   0.2358    
2961       109.8085   2.57866    2.50729    2.48555    -0.09312   0.26206   
2961.2     117.663    2.50958    2.49839    2.48054    -0.02904   0.26331   
2961.4     140.06327  2.46164    2.446722   2.43474    -0.0269    0.28336   
2961.6     155.59423  2.40178    2.368927   2.32218    -0.0796    0.35958   
2961.8     186.7976   2.42293    2.324844   2.30869    -0.11423   0.36087   
2962       183.8917   2.41444    2.332352   2.33401    -0.08043   0.34836   
2962.2     161.1061   2.44957    2.388958   2.40689    -0.04268   0.30834   
2962.4     168.11612  2.42748    2.372592   2.40724    -0.02025   0.30583   
2962.6     171.56558  2.37094    2.364131   2.42648    0.05553    0.28834   
2962.8     192.2248   2.39385    2.3104     2.4163     0.02246    0.29458   
2963       201.8741   2.39863    2.275129   2.43667    0.03804    0.27082   
2963.2     219.4376   2.40907    2.221844   2.43761    0.02854    0.25331   
2963.4     207.00217  2.40039    2.255886   2.43783    0.03745    0.2608    
2963.6     189.94283  2.40331    2.284374   2.44974    0.04643    0.22956   
2963.8     184.1652   2.3999     2.321544   2.44162    0.04172    0.26457   
2964       188.3018   2.40751    2.322128   2.40966    0.00215    0.30209   
2964.2     180.3619   2.45522    2.335273   2.44027    -0.01496   0.27082   
2964.4     172.89663  2.44146    2.346352   2.45369    0.01223    0.23331   
2964.6     164.95607  2.42664    2.380707   2.44966    0.02301    0.25705   
2964.8     157.3797   2.41571    2.405217   2.44664    0.03093    0.26707   
2965       167.2426   2.38907    2.375243   2.41343    0.02436    0.30209   
2965.2     181.0285   2.39756    2.339948   2.36349    -0.03406   0.3346    
2965.4     188.93695  2.40818    2.324506   2.34917    -0.05901   0.33836   
2965.6     194.23065  2.37484    2.314873   2.32659    -0.04825   0.35336   
2965.8     218.9675   2.35247    2.264162   2.38963    0.03716    0.31209   
2966       228.8049   2.36233    2.262903   2.35787    -0.00446   0.33335   
2966.2     218.5744   2.36682    2.281667   2.32727    -0.03955   0.35086   
2966.4     210.73773  2.39883    2.28795    2.35149    -0.04734   0.33835   
2966.6     195.00177  2.41404    2.312063   2.38378    -0.03026   0.32586   
2966.8     181.3448   2.41619    2.340269   2.39528    -0.02091   0.31334   
2967       158.6959   2.40868    2.397688   2.41806    0.00938    0.29708   
2967.2     151.209    2.45054    2.416242   2.41971    -0.03083   0.29583   
2967.4     142.41419  2.52479    2.431988   2.41632    -0.10847   0.30207   
2967.6     142.20081  2.50939    2.448312   2.44906    -0.06033   0.26583   
2967.8     155.3627   2.53524    2.411531   2.44875    -0.08649   0.26081   
2968       156.6703   2.52831    2.404778   2.4275     -0.10082   0.28833   
2968.2     163.5248   2.50499    2.385848   2.44875    -0.05624   0.26081   
2968.4     179.87856  2.4877     2.323214   2.45026    -0.03743   0.23707   
2968.6     204.59664  2.44256    2.270664   2.4307     -0.01187   0.27455   
2968.8     215.9164   2.43015    2.273382   2.38386    -0.04629   0.32085   
2969       223.9332   2.42156    2.252944   2.39166    -0.0299    0.30584   
2969.2     235.1807   2.36623    2.191552   2.42667    0.06044    0.25081   
2969.4     261.334    2.34351    2.245228   2.33677    -0.00674   0.33838   
2969.6     295.9308   2.3712     2.278752   2.28804    -0.08315   0.37961   
2969.8     313.5715   2.3433     2.230643   2.37269    0.02939    0.31459   
2970       309.2639   2.35833    2.279592   2.29054    -0.06778   0.37338   
2970.2     300.0762   2.37326    2.29561    2.28315    -0.09011   0.40214   
2970.4     298.78021  2.34905    2.265729   2.29904    -0.05001   0.36089   
2970.6     322.19199  2.33609    2.307669   2.28315    -0.05294   0.40337   
2970.8     318.5115   2.34613    2.29339    2.2869     -0.05923   0.38588   
2971       308.4435   2.37277    2.270437   2.2944     -0.07837   0.36212   
2971.2     313.674    2.35784    2.269702   2.30704    -0.05081   0.35837   
2971.4     306.13474  2.36202    2.291764   2.2863     -0.07572   0.39211   
