~Version
 VERS              .         2.0                           : CWLS LOG ASCII STANDARD - VERSION 2.0
 WRAP              .         NO                            : ONE LINE PER DEPTH STEP
 DLM               .         SPACE                         : DELIMITING CHARACTER(SPACE TAB OR COMMA)
~Well Information
#_______________________________________________________________________________
#
#PARAMETER_NAME    .UNIT     VALUE                         : DESCRIPTION
#_______________________________________________________________________________
STRT               .m        2891                          : First reference value
STOP               .m        3079.8                        : Last reference value
STEP               .m        0.2                           : Step increment
NULL               .         -9999                         : Missing value
COMP               .                                       : Company
WELL               .         301                           : Well name
FLD                .                                       : Field
LOC                .                                       : Location
PROV               .                                       : Province
SRVC               .                                       : Service Company
DATE               .         2021-05-13 14_16_42           : Date
UWI                .                                       : Unique Well ID
API                .                                       : API NUMBER
CNTY               .                                       : COUNTY
Cartographic_reference_system .         GCS_WGS_1984                  : GEOGCS["GCS_WGS_1984",DATUM["D_WGS_1984",SPHEROID["WGS_1984",6378137.0,298.257223563]],PRIMEM["Greenwich",0.0],UNIT["Degree",0.0174532925199433],AUTHORITY["EPSG",4326]]
CTRY               .                                       : COUNTRY
EREF               .m        138.34                        : 
HZCS               .GCS_WGS_1984 World_Mercator                : PROJCS["World_Mercator",GEOGCS["GCS_WGS_1984",DATUM["D_WGS_1984",SPHEROID["WGS_1984",6378137.0,298.257223563]],PRIMEM["Greenwich",0.0],UNIT["Degree",0.0174532925199433]],PROJECTION["Mercator"],PARAMETER["False_Easting",0.0],PARAMETER["False_Northing",0.0],PARAMETER["Central_Meridian",0.0],PARAMETER["Standard_Parallel_1",0.0],UNIT["Meter",1.0],AUTHORITY["ESRI",54004]]
LATI               .dega     2.2598774867                  : GCS_WGS_1984
LONG               .dega     1.9740478369                  : GCS_WGS_1984
ORIGINALWELLNAME   .         301                           : 
PROJECT_UPGRADE_TIME .         2014-05-27T11_38_46           : 
Pad                .         Pad3                          : 
STAT               .                                       : STATE
X                  .m        219750                        : 
Y                  .m        249950                        : 
group              .         Pad3                          : 
Интер-р            .         Пузин                         : 
Куст               .         3                             : 
Статус             .         Не проверено                  : 
Тип                .         Эксплуатация                  : 
~Parameter Information Block
#_______________________________________________________________________________
#
#PARAMETER_NAME    .UNIT     VALUE                         : DESCRIPTION
#_______________________________________________________________________________
SET                .         Gam                           : 
TLFamily_DEPT      .         Measured Depth                : 
TLFamily_GR_NORM   .         Gamma Ray                     : 
TLFamily_RHOB_NORM .         Bulk Density                  : 
TLFamily_RHOB_TL1  .         Bulk Density                  : 
TLFamily_SYNTH_Bulk_Density .         Bulk Density                  : 
TLFamily_SYNTH_Bulk_Density_MISFIT .                                       : 
TLFamily_TNPH_NORM .         Neutron Porosity              : 
~Curve Information
#_______________________________________________________________________________
#
#LOGNAME           .UNIT     LOG_ID                        : DESCRIPTION
#_______________________________________________________________________________
DEPT               .m                                      :  
GR_NORM            .gAPI                                   : Gamma Ray 
RHOB_NORM          .g/cm3                                  : Bulk Density 
RHOB_TL1           .g/cm3                                  :  
SYNTH_Bulk_Density .G/C3                                   : Bulk Density 
SYNTH_Bulk_Density_MISFIT .                                       : Synthetic Bulk Density Misfit 
TNPH_NORM          .v/v                                    : Thermal Neutron Porosity 
~Ascii
2891.0     59.61347961425781 -9999      2.385292   2.43723    -9999      0.27957   
2891.2     55.75035095214844 -9999      2.328618   2.34531    -9999      0.29333   
2891.4     51.50019073486328 1.86019    2.247059   2.23201    0.37182    0.31211   
2891.6     46.64194869995117 1.87891    2.099314   1.96486    0.08595    0.34709   
2891.8     48.24631118774414 1.90839    2.099429   1.95016    0.04177    0.35086   
2892       52.60514831542969 1.94576    2.208418   2.17296    0.2272     0.3271    
2892.2     51.01544952392578 2.04568    2.08364    1.86246    -0.18322   0.36212   
2892.4     44.5618896484375 2.18995    2.078722   1.946      -0.24396   0.34834   
2892.6     43.01647186279297 2.09286    2.188753   2.20792    0.11506    0.31086   
2892.8     41.63113021850586 2.04188    2.030235   1.91619    -0.12569   0.35587   
2893       37.82783126831055 2.06637    2.076843   2.05192    -0.01445   0.3321    
2893.2     34.89628982543945 2.07164    1.873345   1.7663     -0.30534   0.38838   
2893.4     42.69237899780273 2.26474    2.002284   1.82045    -0.44429   0.36709   
2893.6     62.68886184692383 2.43689    2.362896   2.40899    -0.02791   0.29462   
2893.8     77.31379699707031 2.47552    2.48053    2.49586    0.02034    0.26457   
2894       84.56143188476563 2.5168     2.561927   2.503      -0.0138    0.20954   
2894.2     90.43303680419922 2.64638    2.566933   2.50293    -0.14346   0.20328   
2894.4     85.79556274414063 2.76334    2.548637   2.50265    -0.26069   0.22329   
2894.6     75.51557159423828 2.67463    2.548584   2.49626    -0.17836   0.21579   
2894.8     73.08315277099609 2.52012    2.519441   2.4924     -0.02772   0.23455   
2895       83.32215118408203 2.51982    2.552661   2.50273    -0.01709   0.21829   
2895.2     94.93717956542969 2.57827    2.510573   2.49803    -0.08024   0.26081   
2895.4     97.52731323242188 2.62963    2.49139    2.48549    -0.14415   0.27707   
2895.6     98.44088745117188 2.6968     2.486966   2.48244    -0.21436   0.28082   
2895.8     90.97148895263672 2.6419     2.530592   2.50166    -0.14023   0.24205   
2896       76.60442352294922 2.67185    2.563983   2.49876    -0.17309   0.20328   
2896.2     77.45908355712891 2.67273    2.563334   2.50028    -0.17245   0.20453   
2896.4     75.26178741455078 2.70942    2.562784   2.49609    -0.21334   0.20329   
2896.6     73.69930267333984 2.71137    2.549336   2.49419    -0.21718   0.21328   
2896.8     75.10872650146484 2.69225    2.508351   2.49447    -0.19778   0.24455   
2897       84.89475250244141 2.62306    2.539903   2.50241    -0.12065   0.2308    
2897.2     85.41610717773438 2.59086    2.525341   2.50191    -0.08895   0.2433    
2897.4     81.70247650146484 2.59438    2.522802   2.50129    -0.09309   0.24206   
2897.6     73.01911926269531 2.59691    2.474013   2.48908    -0.10783   0.26205   
2897.8     72.22847747802734 2.63975    2.480815   2.48871    -0.15104   0.25706   
2898       73.82671356201172 2.63311    2.515305   2.49298    -0.14013   0.2383    
2898.2     73.99765014648438 2.61994    2.51751    2.49343    -0.12651   0.23705   
2898.4     71.26302337646484 2.60151    2.545757   2.49062    -0.11089   0.2133    
2898.6     71.89482879638672 2.61681    2.515147   2.48979    -0.12702   0.23579   
2898.8     77.27960205078125 2.6056     2.556341   2.50022    -0.10537   0.21079   
2899       77.79241180419922 2.61994    2.524101   2.49923    -0.12071   0.23705   
2899.2     71.70713043212891 2.62687    2.508891   2.48933    -0.13754   0.23955   
2899.4     76.06655883789063 2.59595    2.556571   2.49801    -0.09795   0.20954   
2899.6     77.27046203613281 2.6328     2.54305    2.49969    -0.13312   0.22204   
2899.8     76.15142822265625 2.65731    2.502674   2.49621    -0.1611    0.24956   
2900       75.06598663330078 2.64307    2.449206   2.48347    -0.1596    0.27832   
2900.2     72.37377166748047 2.60472    2.450729   2.48486    -0.11985   0.27332   
2900.4     76.47245788574219 2.61505    2.441081   2.4784     -0.13666   0.28457   
2900.6     86.06939697265625 2.59887    2.47762    2.49157    -0.1073    0.27708   
2900.8     84.79219818115234 2.60569    2.497032   2.49858    -0.10711   0.26331   
2901       86.12548065185547 2.59398    2.522846   2.50173    -0.09225   0.24581   
2901.2     92.31331634521484 2.57827    2.504086   2.498      -0.08028   0.26457   
2901.4     92.56027984619141 2.54081    2.515376   2.50035    -0.04045   0.2558    
2901.6     90.76727294921875 2.54548    2.530495   2.50166    -0.04382   0.24206   
2901.8     85.23661804199219 2.5692     2.526738   2.50205    -0.06715   0.24205   
2902       79.92910003662109 2.58315    2.488377   2.49677    -0.08638   0.26331   
2902.2     78.82656097412109 2.60335    2.392687   2.4468     -0.15655   0.31084   
2902.4     77.06722259521484 2.59886    2.482113   2.49522    -0.10365   0.26331   
2902.6     79.64576721191406 2.59399    2.509203   2.49919    -0.09479   0.24956   
2902.8     80.53591918945313 2.60316    2.526306   2.50042    -0.10274   0.2383    
2903       78.62998962402344 2.59008    2.512995   2.49874    -0.09135   0.24581   
2903.2     76.74115753173828 2.61008    2.493911   2.49702    -0.11307   0.25581   
2903.4     79.01628875732422 2.59886    2.453226   2.48521    -0.11365   0.28206   
2903.6     82.39740753173828 2.59389    2.502598   2.50042    -0.09347   0.25707   
2903.8     79.66414642333984 2.60628    2.450174   2.48072    -0.12556   0.28458   
2904       79.52739715576172 2.66102    2.47917    2.49663    -0.1644    0.26832   
2904.2     80.45899200439453 2.59418    2.468262   2.49182    -0.10236   0.27582   
2904.4     81.61894989013672 2.57281    2.466494   2.49055    -0.08226   0.27833   
2904.6     76.82048034667969 2.57973    2.405309   2.4584     -0.12134   0.30207   
2904.8     68.86961364746094 2.60257    2.468746   2.48174    -0.12083   0.25831   
2905       70.27982330322266 2.61935    2.448894   2.48063    -0.13873   0.27082   
2905.2     82.01450347900391 2.58569    2.496286   2.49943    -0.08626   0.26081   
2905.4     93.77555084228516 2.60288    2.523224   2.49969    -0.10319   0.24957   
2905.6     95.21849822998047 2.62871    2.498098   2.49492    -0.13379   0.27081   
2905.8     86.15968322753906 2.61565    2.57694    2.5043     -0.11134   0.19203   
2906       82.20252990722656 2.63389    2.564788   2.50276    -0.13114   0.20578   
2906.2     75.05744934082031 2.6054     2.563974   2.49544    -0.10996   0.20203   
2906.4     76.63356018066406 2.62814    2.525749   2.4977     -0.13043   0.23455   
2906.6     83.65196990966797 2.63214    2.520221   2.50136    -0.13078   0.2458    
2906.8     87.20237731933594 2.58842    2.529896   2.50194    -0.08648   0.2408    
2907       84.34776306152344 2.56774    2.545166   2.50232    -0.06542   0.22579   
2907.2     74.83522796630859 2.56783    2.503865   2.49338    -0.07445   0.24706   
2907.4     71.10958862304688 2.56665    2.533716   2.48873    -0.07792   0.22204   
2907.6     72.59525299072266 2.54969    2.550916   2.49271    -0.05699   0.21079   
2907.8     80.51882171630859 2.5491     2.547915   2.50106    -0.04804   0.22079   
2908       80.51027679443359 2.56481    2.501316   2.49935    -0.06546   0.25581   
2908.2     79.22825622558594 2.60189    2.527888   2.49985    -0.10203   0.2358    
2908.4     77.92292022705078 2.60471    2.549798   2.50011    -0.10461   0.21704   
2908.6     82.54209136962891 2.59419    2.545298   2.50231    -0.09188   0.22454   
2908.8     91.35608673095703 2.54851    2.525087   2.50096    -0.04756   0.24706   
2909       80.22823333740234 2.56608    2.469933   2.49197    -0.07411   0.27457   
2909.2     77.39924621582031 2.5894     2.401736   2.45575    -0.13365   0.30459   
2909.4     78.10713195800781 2.59587    2.440974   2.47747    -0.1184    0.28707   
2909.6     75.10167694091797 2.65904    2.472795   2.49145    -0.16758   0.26583   
2909.8     78.81802368164063 2.71576    2.384028   2.44061    -0.27515   0.31459   
2910       81.99741363525391 2.70337    2.453806   2.48161    -0.22177   0.28583   
