~Version
 VERS              .         2.0                           : CWLS LOG ASCII STANDARD - VERSION 2.0
 WRAP              .         NO                            : ONE LINE PER DEPTH STEP
 DLM               .         SPACE                         : DELIMITING CHARACTER(SPACE TAB OR COMMA)
~Well Information
#_______________________________________________________________________________
#
#PARAMETER_NAME    .UNIT     VALUE                         : DESCRIPTION
#_______________________________________________________________________________
STRT               .m        2891                          : First reference value
STOP               .m        3079.8                        : Last reference value
STEP               .m        0.2                           : Step increment
NULL               .         -9999                         : Missing value
COMP               .                                       : Company
WELL               .         301                           : Well name
FLD                .                                       : Field
LOC                .                                       : Location
PROV               .                                       : Province
SRVC               .                                       : Service Company
DATE               .         2021-05-13 14_16_42           : Date
UWI                .                                       : Unique Well ID
API                .                                       : API NUMBER
CNTY               .                                       : COUNTY
Cartographic_reference_system .         GCS_WGS_1984                  : GEOGCS["GCS_WGS_1984",DATUM["D_WGS_1984",SPHEROID["WGS_1984",6378137.0,298.257223563]],PRIMEM["Greenwich",0.0],UNIT["Degree",0.0174532925199433],AUTHORITY["EPSG",4326]]
CTRY               .                                       : COUNTRY
EREF               .m        138.34                        : 
HZCS               .GCS_WGS_1984 World_Mercator                : PROJCS["World_Mercator",GEOGCS["GCS_WGS_1984",DATUM["D_WGS_1984",SPHEROID["WGS_1984",6378137.0,298.257223563]],PRIMEM["Greenwich",0.0],UNIT["Degree",0.0174532925199433]],PROJECTION["Mercator"],PARAMETER["False_Easting",0.0],PARAMETER["False_Northing",0.0],PARAMETER["Central_Meridian",0.0],PARAMETER["Standard_Parallel_1",0.0],UNIT["Meter",1.0],AUTHORITY["ESRI",54004]]
LATI               .dega     2.2598774867                  : GCS_WGS_1984
LONG               .dega     1.9740478369                  : GCS_WGS_1984
ORIGINALWELLNAME   .         301                           : 
PROJECT_UPGRADE_TIME .         2014-05-27T11_38_46           : 
Pad                .         Pad3                          : 
STAT               .                                       : STATE
X                  .m        219750                        : 
Y                  .m        249950                        : 
group              .         Pad3                          : 
Интер-р            .         Пузин                         : 
Куст               .         3                             : 
Статус             .         Не проверено                  : 
Тип                .         Эксплуатация                  : 
~Parameter Information Block
#_______________________________________________________________________________
#
#PARAMETER_NAME    .UNIT     VALUE                         : DESCRIPTION
#_______________________________________________________________________________
SET                .         Gam                           : 
TLFamily_DEPT      .         Measured Depth                : 
TLFamily_GR_NORM   .         Gamma Ray                     : 
TLFamily_RHOB_NORM .         Bulk Density                  : 
TLFamily_RHOB_TL1  .         Bulk Density                  : 
TLFamily_SYNTH_Bulk_Density .         Bulk Density                  : 
TLFamily_SYNTH_Bulk_Density_MISFIT .                                       : 
TLFamily_TNPH_NORM .         Neutron Porosity              : 
~Curve Information
#_______________________________________________________________________________
#
#LOGNAME           .UNIT     LOG_ID                        : DESCRIPTION
#_______________________________________________________________________________
DEPT               .m                                      :  
GR_NORM            .gAPI                                   : Gamma Ray 
RHOB_NORM          .g/cm3                                  : Bulk Density 
RHOB_TL1           .g/cm3                                  :  
SYNTH_Bulk_Density .G/C3                                   : Bulk Density 
SYNTH_Bulk_Density_MISFIT .                                       : Synthetic Bulk Density Misfit 
TNPH_NORM          .v/v                                    : Thermal Neutron Porosity 
~Ascii
# ...
3054.6     51.77418   -9999      2.485115   2.46558    -9999      0.21829   
3054.8     55.8871    -9999      2.511168   2.46955    -9999      0.21204   
3055       68.71577000000001 -9999      2.50784    2.48332    -9999      0.2358    
3055.2     71.9037    -9999      2.528118   2.49106    -9999      0.22704   
3055.4     86.26423   -9999      2.524548   2.50179    -9999      0.24456   
3055.6     90.25157   -9999      2.523017   2.50108    -9999      0.2483    
3055.8     86.74084999999999 -9999      2.549018   2.5026     -9999      0.22329   
3056       80.87778   -9999      2.565449   2.50161    -9999      0.20453   
3056.2     74.54465   -9999      2.495157   2.4932     -9999      0.25206   
3056.4     74.34927   -9999      2.466202   2.49021    -9999      0.26832   
3056.6     76.73142   -9999      2.468037   2.49343    -9999      0.27082   
3056.8     77.82659   -9999      2.545229   2.49987    -9999      0.22079   
3057       81.86921   -9999      2.564658   2.50243    -9999      0.20578   
3057.2     67.15170999999999 -9999      2.482037   2.47983    -9999      0.24831   
3057.4     60.24215   -9999      2.527992   2.47826    -9999      0.20954   
3057.6     52.66022   -9999      2.495588   2.46672    -9999      0.21454   
3057.8     60.56217   -9999      2.570501   2.48713    -9999      0.17952   
3058       69.07472   -9999      2.601935   2.50988    -9999      0.15826   
3058.2     74.95489999999999 -9999      2.569237   2.49583    -9999      0.19703   
3058.4     80.39518   -9999      2.567644   2.50147    -9999      0.20206   
3058.6     72.43758   -9999      2.465466   2.48732    -9999      0.26578   
3058.8     53.70768   -9999      2.404379   2.44879    -9999      0.25956   
3059       51.94705   -9999      2.407411   2.45312    -9999      0.25456   
3059.2     55.60505   -9999      2.505886   2.46945    -9999      0.21454   
3059.4     55.26472   -9999      2.429364   2.4584     -9999      0.25204   
3059.6     58.33848   -9999      2.503764   2.47345    -9999      0.22081   
3059.8     60.88694   -9999      2.500859   2.47762    -9999      0.22704   
3060       61.10062   -9999      2.466597   2.47484    -9999      0.24581   
3060.2     60.98096   -9999      2.503325   2.47762    -9999      0.22579   
3060.4     58.00462   -9999      2.410553   2.45859    -9999      0.2658    
3060.6     53.85504   -9999      2.450422   2.4632     -9999      0.23956   
3060.8     51.24622   -9999      2.478112   2.4648     -9999      0.22079   
3061       47.94717   -9999      2.45339    2.45976    -9999      0.22579   
3061.2     49.3232    -9999      2.368078   2.43317    -9999      0.26457   
3061.4     48.21078   -9999      2.408996   2.45118    -9999      0.24579   
3061.6     45.52979   -9999      2.473981   2.45948    -9999      0.2108    
3061.8     47.72496   -9999      2.478463   2.46162    -9999      0.21329   
3062       58.28873   -9999      2.547469   2.47652    -9999      0.19328   
3062.2     54.17775   -9999      2.542548   2.47013    -9999      0.18952   
3062.4     51.72021   -9999      2.51688    2.46644    -9999      0.2008    
3062.6     59.55828   -9999      2.470847   2.47226    -9999      0.24078   
3062.8     58.25455   -9999      2.538188   2.47508    -9999      0.19953   
3063       57.89559   -9999      2.539149   2.47419    -9999      0.19828   
3063.2     62.87834   -9999      2.495972   2.47711    -9999      0.2333    
3063.4     54.37467   -9999      2.494879   2.46783    -9999      0.21828   
3063.6     55.05773   -9999      2.537284   2.47049    -9999      0.19454   
3063.8     56.57084   -9999      2.515455   2.46992    -9999      0.21079   
3064       55.76744   -9999      2.533442   2.46991    -9999      0.19828   
3064.2     62.55356   -9999      2.505852   2.47827    -9999      0.22704   
3064.4     61.22404   -9999      2.558986   2.48105    -9999      0.18954   
3064.6     68.75473   -9999      2.527307   2.48469    -9999      0.22328   
3064.8     69.26276   -9999      2.52279    2.48557    -9999      0.22704   
3065       61.5365    -9999      2.531312   2.47856    -9999      0.20954   
3065.2     67.62178   -9999      2.502999   2.48125    -9999      0.23705   
3065.4     70.48361   -9999      2.512031   2.48639    -9999      0.2358    
3065.6     67.81968999999999 -9999      2.509667   2.4819     -9999      0.2333    
3065.8     49.52832   -9999      2.335853   2.39397    -9999      0.27707   
3066       46.41731   -9999      2.451617   2.45826    -9999      0.22329   
3066.2     52.22054   -9999      2.474598   2.46486    -9999      0.22454   
3066.4     53.83614   -9999      2.523742   2.46796    -9999      0.20077   
3066.6     54.36552   -9999      2.557571   2.47836    -9999      0.17953   
3066.8     56.59648   -9999      2.535725   2.47038    -9999      0.19828   
3067       57.01527   -9999      2.52303    2.47123    -9999      0.20703   
3067.2     52.87865   -9999      2.531003   2.46838    -9999      0.19453   
3067.4     64.97656000000001 -9999      2.559463   2.48201    -9999      0.19453   
3067.6     73.52331   -9999      2.559574   2.494      -9999      0.20453   
3067.8     86.68102   -9999      2.5656     2.50319    -9999      0.20578   
3068       74.65575   -9999      2.544366   2.49527    -9999      0.21829   
3068.2     63.42533   -9999      2.54128    2.4798     -9999      0.20578   
3068.4     86.8231    -9999      2.529615   2.50199    -9999      0.2408    
3068.6     97.47878   -9999      2.534952   2.49702    -9999      0.2383    
3068.8     80.18549   -9999      2.472027   2.49444    -9999      0.27332   
3069       84.33922   -9999      2.514303   2.50116    -9999      0.25081   
3069.2     72.33958   -9999      2.500284   2.4895     -9999      0.24581   
3069.4     64.97026   -9999      2.491232   2.47805    -9999      0.23955   
3069.6     60.90607   -9999      2.473255   2.47588    -9999      0.24205   
3069.8     57.18621   -9999      2.504476   2.47057    -9999      0.21829   
3070       49.86164   -9999      2.503733   2.46457    -9999      0.20453   
3070.2     60.14338   -9999      2.452832   2.47221    -9999      0.25081   
3070.4     59.06888   -9999      2.423975   2.46425    -9999      0.26207   
3070.6     63.84173   -9999      2.399179   2.44824    -9999      0.28207   
3070.8     65.82697   -9999      2.346421   2.38407    -9999      0.30709   
3071       64.21162   -9999      2.423637   2.46782    -9999      0.27207   
3071.2     70.44221   -9999      2.511936   2.48545    -9999      0.2358    
3071.4     65.1053    -9999      2.489409   2.47796    -9999      0.2408    
3071.6     74.72786000000001 -9999      2.509504   2.4939     -9999      0.2433    
3071.8     78.15137   -9999      2.536265   2.4995     -9999      0.2283    
3072       70.77553   -9999      2.481283   2.48528    -9999      0.25456   
3072.2     68.39954   -9999      2.532028   2.48441    -9999      0.21954   
3072.4     66.14003   -9999      2.534539   2.48148    -9999      0.21454   
3072.6     59.80468   -9999      2.524849   2.4768     -9999      0.21079   
3072.8     62.61339   -9999      2.522411   2.47909    -9999      0.21704   
3073       73.47629999999999 -9999      2.496798   2.49193    -9999      0.24956   
3073.2     76.07451   -9999      2.526586   2.49711    -9999      0.2333    
3073.4     78.22261   -9999      2.471754   2.49458    -9999      0.27084   
3073.6     83.9432    -9999      2.395829   2.44748    -9999      0.31707   
3073.8     83.58710000000001 -9999      2.408273   2.45454    -9999      0.31084   
3074       69.10035999999999 -9999      2.288327   2.31807    -9999      0.3346    
3074.2     52.09235   -9999      1.965547   1.82601    -9999      0.40089   
3074.4     35.41007   -9999      1.881111   1.7663     -9999      0.38713   
3074.6     37.34824   -9999      1.946631   1.7953     -9999      0.37088   
3074.8     48.65655   -9999      1.924921   1.80431    -9999      0.40589   
3075       60.63909   -9999      2.054481   2.02197    -9999      0.39214   
