~Version
 VERS              .         2.0                           : CWLS LOG ASCII STANDARD - VERSION 2.0
 WRAP              .         NO                            : ONE LINE PER DEPTH STEP
 DLM               .         SPACE                         : DELIMITING CHARACTER(SPACE TAB OR COMMA)
~Well Information
#_______________________________________________________________________________
#
#PARAMETER_NAME    .UNIT     VALUE                         : DESCRIPTION
#_______________________________________________________________________________
STRT               .m        2718                          : First reference value
STOP               .m        2945                          : Last reference value
STEP               .m        0.2                           : Step increment
NULL               .         -9999                         : Missing value
COMP               .                                       : Company
WELL               .         302                           : Well name
FLD                .                                       : Field
LOC                .                                       : Location
CNTY               .                                       : County
STAT               .                                       : State
CTRY               .                                       : Country
SRVC               .                                       : Service Company
DATE               .                                       : Date
API                .                                       : API number
Cartographic_reference_system .         GCS_WGS_1984                  : GEOGCS["GCS_WGS_1984",DATUM["D_WGS_1984",SPHEROID["WGS_1984",6378137.0,298.257223563]],PRIMEM["Greenwich",0.0],UNIT["Degree",0.0174532925199433],AUTHORITY["EPSG",4326]]
EREF               .m        138.34                        : 
HZCS               .GCS_WGS_1984 World_Mercator                : PROJCS["World_Mercator",GEOGCS["GCS_WGS_1984",DATUM["D_WGS_1984",SPHEROID["WGS_1984",6378137.0,298.257223563]],PRIMEM["Greenwich",0.0],UNIT["Degree",0.0174532925199433]],PROJECTION["Mercator"],PARAMETER["False_Easting",0.0],PARAMETER["False_Northing",0.0],PARAMETER["Central_Meridian",0.0],PARAMETER["Standard_Parallel_1",0.0],UNIT["Meter",1.0],AUTHORITY["ESRI",54004]]
LATI               .dega     2.2598774867                  : GCS_WGS_1984
LONG               .dega     1.9740478369                  : GCS_WGS_1984
PROJECT_UPGRADE_TIME .         2014-05-27T11_38_46           : 
Pad                .         Pad3                          : 
X                  .m        219750                        : 
Y                  .m        249950                        : 
group              .         Pad3                          : 
Интер-р            .         Зайцев                        : 
Куст               .         3                             : 
Статус             .         Не проверено                  : 
Тип                .         Разведка                      : 
~Parameter Information Block
#_______________________________________________________________________________
#
#PARAMETER_NAME    .UNIT     VALUE                         : DESCRIPTION
#_______________________________________________________________________________
SET                .         LQC                           : 
PROJECT_UPGRADE_TIME .         2014-05-27T11_38_46           : 
TLFamily_GR_NORM   .         Gamma Ray                     : 
TLFamily_MD        .         Measured Depth                : 
TLFamily_RHOB_NORM .         Bulk Density                  : 
TLFamily_TNPH_NORM .         Neutron Porosity              : 
~Curve Information
#_______________________________________________________________________________
#
#LOGNAME           .UNIT     LOG_ID                        : DESCRIPTION
#_______________________________________________________________________________
MD                 .m                                      :  
GR_NORM            .gAPI                                   : Normalised By Techlog 
RHOB_NORM          .g/cm3                                  : Normalized By Techlog 
TNPH_NORM          .v/v                                    : Normalised By Techlog 
~Ascii
# ...
2900       77.29273   2.606973   0.2443686 
2900.2     81.0694    2.565783   0.2612115 
2900.4     82.77419   2.485919   0.2602757 
2900.6     82.72525   2.48741    0.2677614 
2900.8     80.07424   2.535124   0.2612115 
2901       79.11172   2.507819   0.2537257 
2901.2     80.3679    2.503718   0.25934   
2901.4     81.15912   2.505955   0.27899   
2901.6     79.37275   2.526363   0.3295186 
2901.8     75.81633   2.524034   0.33794   
2902       79.03831   2.490578   0.29864   
2902.2     84.22613   2.455818   0.2780543 
2902.4     83.58989   2.404937   0.26589   
2902.6     82.11348   2.363467   0.2977043 
2902.8     81.28963   2.329918   0.3061257 
2903       79.56852   2.420965   0.2977043 
2903.2     80.76759   2.513224   0.2705686 
2903.4     83.00259   2.575754   0.2612115 
2903.6     88.22302   2.577152   0.2537257 
2903.8     95.40112   2.570909   0.2453043 
2904       98.29682   2.528321   0.2574686 
2904.2     91.55105   2.504464   0.2640186 
2904.4     75.80002   2.562335   0.2453043 
2904.6     61.2399    2.55283    0.23969   
2904.8     55.73398   2.519933   0.2350114 
2905       51.63919   2.497847   0.22004   
2905.2     47.25077   2.504557   0.2088114 
2905.4     51.77787   2.505955   0.2060043 
2905.6     61.72932   2.49617    0.2209757 
2905.8     69.91072   2.523568   0.24624   
2906       73.46714   2.457869   0.2565329 
2906.2     75.87343   2.458521   0.2509186 
2906.4     80.75943   2.434385   0.2322043 
2906.6     82.83129   2.462528   0.22659   
2906.8     80.009     2.502414   0.2312686 
2907       81.16728   2.445194   0.2378186 
2907.2     87.76624   2.406055   0.2630829 
2907.4     90.23778   2.490392   0.2799257 
2907.6     83.79381   2.519561   0.2911543 
2907.8     77.41509   2.503253   0.3079971 
2908       79.65824   2.445847   0.2995757 
2908.2     88.24749   2.421524   0.2705686 
2908.4     95.12378   2.40009    0.27244   
2908.6     93.39451   2.335323   0.2892829 
2908.8     88.68797   2.240642   0.2967686 
2909       80.6697    2.123408   0.3276471 
2909.2     55.43217   1.973371   0.3744329 
2909.4     27.00528   1.875242   0.4053114 
2909.6     13.01615   1.781958   0.4352543 
2909.8     7.958855   1.73294    0.4960757 
2910       5.291541   1.721291   0.5400543 
2910.2     5.356795   1.726323   0.5316328 
2910.4     8.799018   1.730424   0.4932686 
2910.6     18.1387    1.730703   0.4895257 
2910.8     33.6287    1.740488   0.4867186 
2911       44.59162   1.749434   0.4745543 
2911.2     76.55046   1.840575   0.4249614 
2911.4     79.67456   2.090232   0.3435543 
2911.6     73.95655   2.340728   0.2846043 
2911.8     72.08046   2.355732   0.2668257 
2912       68.06725   2.335696   0.3192258 
2912.2     58.4747    2.33085    0.3716258 
2912.4     55.78292   2.184355   0.3482329 
2912.6     62.69184   2.108404   0.3210971 
2912.8     70.52248   2.104863   0.2948971 
2913       74.56017   2.301961   0.2948971 
2913.2     77.32536   2.606135   0.2453043 
2913.4     77.04803   2.626264   0.2219114 
2913.6     69.09502   2.583769   0.22004   
2913.8     64.5353    2.543231   0.2434329 
2914       67.74913   2.514529   0.2555971 
2914.2     73.29585   2.574077   0.2368829 
2914.4     82.45607   2.591877   0.2237829 
2914.6     85.56386   2.585726   0.2312686 
2914.8     75.97131   2.531116   0.25279   
2915       62.62658   2.566529   0.2293972 
2915.2     52.33253   2.597841   0.2050686 
2915.4     49.12687   2.617317   0.2050686 
2915.6     49.13502   2.580973   0.2106829 
2915.8     46.19853   2.476413   0.2088114 
2916       48.00121   2.497288   0.2060043 
2916.2     49.84468   2.444729   0.2050686 
2916.4     52.55278   2.378936   0.2106829 
2916.6     73.28768   2.392449   0.2153614 
2916.8     83.73671   2.501854   0.2219114 
2917       79.00569   2.561403   0.2518543 
2917.2     70.98743   2.578737   0.2602757 
2917.4     70.97112   2.572586   0.2518543 
2917.6     74.0789    2.516299   0.2565329 
2917.8     78.42654   2.451718   0.2799257 
2918       81.0694    2.429725   0.3023829 
2918.2     82.04823   2.425625   0.27244   
2918.4     86.18378   2.419567   0.2471757 
2918.6     88.13329   2.446872   0.2518543 
2918.8     77.64349   2.383316   0.2705686 
2919       62.54501   2.360578   0.2584043 
2919.2     56.15814   2.351538   0.2359472 
2919.4     58.94781   2.380054   0.21349   
2919.6     65.04103   2.41761    0.2116186 
2919.8     68.94004   2.433266   0.2237829 
2920       70.13095   2.444076   0.2247186 
2920.2     75.76739   2.461689   0.2153614 
2920.4     83.73671   2.526736   0.2219114 
2920.6     80.70233   2.580414   0.2293972 
2920.8     69.81284   2.563267   0.2209757 
2921       63.28729   2.532794   0.2247186 
2921.2     60.11425   2.549195   0.2303329 
2921.4     56.50073   2.55693    0.2247186 
2921.6     55.84002   2.550313   0.2209757 
2921.8     57.31642   2.514342   0.2247186 
2922       58.51549   2.545002   0.2060043 
2922.2     60.05715   2.517977   0.1966472 
2922.4     69.62523   2.485919   0.2106829 
2922.6     85.4986    2.527854   0.2406257 
2922.8     91.54288   2.550873   0.2649543 
2923       82.0727    2.564851   0.2612115 
2923.2     67.39838   2.559353   0.23969   
2923.4     57.78952   2.535776   0.2322043 
2923.6     55.56269   2.548916   0.23314   
2923.8     56.0521    2.482937   0.2303329 
2924       54.61648   2.414628   0.2322043 
2924.2     51.35371   2.405775   0.22659   
2924.4     51.73708   2.411832   0.21349   
2924.6     53.83341   2.446499   0.2191043 
2924.8     55.61162   2.44855    0.2256543 
2925       56.90858   2.442306   0.2209757 
2925.2     57.86293   2.446406   0.2116186 
2925.4     59.12726   2.516299   0.2088114 
2925.6     61.60696   2.510055   0.19384   
2925.8     64.66581   2.43308    0.2060043 
2926       66.77846   2.443144   0.2209757 
2926.2     68.19776   2.478743   0.2162972 
2926.4     70.36751   2.522077   0.2031972 
2926.6     73.47529   2.583583   0.2078757 
2926.8     78.67941   2.614615   0.2340757 
2927       84.52793   2.659067   0.2443686 
2927.2     86.05328   2.6723     0.2303329 
2927.4     86.94238   2.675189   0.2125543 
2927.6     90.52327   2.582837   0.2340757 
2927.8     91.51842   2.619088   0.2415614 
2928       88.23933   2.65888    0.2368829 
2928.2     81.51802   2.599239   0.2453043 
2928.4     75.62872   2.540622   0.2630829 
2928.6     66.45218   2.493561   0.2668257 
2928.8     57.5285    2.460478   0.24624   
2929       54.71436   2.481352   0.2284614 
2929.2     58.56443   2.52217    0.2303329 
2929.4     66.92529   2.517604   0.24624   
2929.6     70.04123   2.487783   0.2630829 
2929.8     63.532     2.51313    0.2602757 
2930       54.11891   2.473804   0.2340757 
2930.2     48.97188   2.374556   0.2191043 
2930.4     47.38129   2.36766    0.2228472 
2930.6     48.5151    2.333459   0.2153614 
2930.8     51.82681   2.27186    0.2303329 
2931       60.61998   2.187709   0.30519   
2931.2     69.96782   2.147731   0.3173543 
2931.4     71.41159   2.212405   0.2771186 
2931.6     68.23855   2.366262   0.2649543 
2931.8     67.80623   2.396642   0.26589   
2932       68.06725   2.410062   0.2771186 
2932.2     68.05093   2.407639   0.2630829 
2932.4     68.40984   2.371574   0.2537257 
2932.6     74.27467   2.322183   0.2705686 
2932.8     81.73826   2.263194   0.2733757 
2933       82.00744   2.169164   0.2602757 
2933.2     75.62057   2.055006   0.2752472 
2933.4     61.15018   1.951005   0.3566543 
2933.6     41.57355   1.864618   0.40999   
2933.8     35.23562   1.824453   0.4595829 
2934       45.62754   1.90264    0.37724   
2934.2     60.19582   2.283975   0.2827329 
2934.4     66.48481   2.471661   0.23314   
2934.6     69.20107   2.518536   0.22004   
2934.8     73.53239   2.524406   0.2153614 
2935       75.71029   2.504557   0.2322043 
2935.2     71.1261    2.52422    0.2471757 
2935.4     66.17484   2.527575   0.2453043 
2935.6     65.36731   2.546027   0.2359472 
2935.8     65.767     2.562242   0.2387543 
2936       71.41159   2.555719   0.2443686 
2936.2     82.40713   2.554321   0.2509186 
