~Version
 VERS              .         2.0                           : CWLS LOG ASCII STANDARD - VERSION 2.0
 WRAP              .         NO                            : ONE LINE PER DEPTH STEP
 DLM               .         SPACE                         : DELIMITING CHARACTER(SPACE TAB OR COMMA)
~Well Information
#_______________________________________________________________________________
#
#PARAMETER_NAME    .UNIT     VALUE                         : DESCRIPTION
#_______________________________________________________________________________
STRT               .m        2718                          : First reference value
STOP               .m        2945                          : Last reference value
STEP               .m        0.2                           : Step increment
NULL               .         -9999                         : Missing value
COMP               .                                       : Company
WELL               .         302                           : Well name
FLD                .                                       : Field
LOC                .                                       : Location
CNTY               .                                       : County
STAT               .                                       : State
CTRY               .                                       : Country
SRVC               .                                       : Service Company
DATE               .                                       : Date
API                .                                       : API number
Cartographic_reference_system .         GCS_WGS_1984                  : GEOGCS["GCS_WGS_1984",DATUM["D_WGS_1984",SPHEROID["WGS_1984",6378137.0,298.257223563]],PRIMEM["Greenwich",0.0],UNIT["Degree",0.0174532925199433],AUTHORITY["EPSG",4326]]
EREF               .m        138.34                        : 
HZCS               .GCS_WGS_1984 World_Mercator                : PROJCS["World_Mercator",GEOGCS["GCS_WGS_1984",DATUM["D_WGS_1984",SPHEROID["WGS_1984",6378137.0,298.257223563]],PRIMEM["Greenwich",0.0],UNIT["Degree",0.0174532925199433]],PROJECTION["Mercator"],PARAMETER["False_Easting",0.0],PARAMETER["False_Northing",0.0],PARAMETER["Central_Meridian",0.0],PARAMETER["Standard_Parallel_1",0.0],UNIT["Meter",1.0],AUTHORITY["ESRI",54004]]
LATI               .dega     2.2598774867                  : GCS_WGS_1984
LONG               .dega     1.9740478369                  : GCS_WGS_1984
PROJECT_UPGRADE_TIME .         2014-05-27T11_38_46           : 
Pad                .         Pad3                          : 
X                  .m        219750                        : 
Y                  .m        249950                        : 
group              .         Pad3                          : 
Интер-р            .         Зайцев                        : 
Куст               .         3                             : 
Статус             .         Не проверено                  : 
Тип                .         Разведка                      : 
~Parameter Information Block
#_______________________________________________________________________________
#
#PARAMETER_NAME    .UNIT     VALUE                         : DESCRIPTION
#_______________________________________________________________________________
SET                .         LQC                           : 
PROJECT_UPGRADE_TIME .         2014-05-27T11_38_46           : 
TLFamily_GR_NORM   .         Gamma Ray                     : 
TLFamily_MD        .         Measured Depth                : 
TLFamily_RHOB_NORM .         Bulk Density                  : 
TLFamily_TNPH_NORM .         Neutron Porosity              : 
~Curve Information
#_______________________________________________________________________________
#
#LOGNAME           .UNIT     LOG_ID                        : DESCRIPTION
#_______________________________________________________________________________
MD                 .m                                      :  
GR_NORM            .gAPI                                   : Normalised By Techlog 
RHOB_NORM          .g/cm3                                  : Normalized By Techlog 
TNPH_NORM          .v/v                                    : Normalised By Techlog 
~Ascii
# ...
2754.4     83.65514   2.63288    0.3089329 
2754.6     80.58813   2.629432   0.29864   
2754.8     79.38091   2.624866   0.3229686 
2755       78.18999   2.601475   0.3323258 
2755.2     77.96976   2.574823   0.3005114 
2755.4     75.71845   2.604178   0.2864757 
2755.6     73.14902   2.597375   0.29209   
2755.8     75.2535    2.612937   0.2883472 
2756       78.35313   2.599518   0.2733757 
2756.2     79.26671   2.596536   0.2443686 
2756.4     76.61571   2.599797   0.2312686 
2756.6     72.62698   2.630178   0.2453043 
2756.8     72.87984   2.616572   0.2705686 
2757       73.64659   2.61126    0.2874115 
2757.2     71.39528   2.609769   0.2967686 
2757.4     70.82429   2.598027   0.2948971 
2757.6     71.9581    2.61564    0.2808614 
2757.8     73.65475   2.632041   0.2827329 
2758       78.88333   2.575754   0.2911543 
2758.2     79.32381   2.60455    0.2883472 
2758.4     72.09677   2.633067   0.2686971 
2758.6     69.2337    2.610981   0.2490472 
2758.8     74.136     2.618902   0.2499829 
2759       77.64349   2.651891   0.2565329 
2759.2     77.34983   2.669784   0.2490472 
2759.4     73.96471   2.644716   0.2509186 
2759.6     71.07716   2.655246   0.25934   
2759.8     71.33818   2.622629   0.2537257 
2760       73.62212   2.586844   0.25279   
2760.2     73.53239   2.594672   0.2537257 
2760.4     67.99384   2.612099   0.24624   
2760.6     67.30865   2.603805   0.2499829 
2760.8     74.48676   2.672766   0.2555971 
2761       75.98763   2.669318   0.2584043 
2761.2     71.10163   2.599984   0.2649543 
2761.4     72.99403   2.574543   0.2686971 
2761.6     77.34983   2.618063   0.2733757 
2761.8     76.1263    2.59402    0.2892829 
2762       78.69572   2.604644   0.2799257 
2762.2     82.42344   2.569883   0.24624   
2762.4     77.34983   2.563453   0.2499829 
2762.6     71.66446   2.55227    0.27244   
2762.8     71.08532   2.555346   0.29209   
2763       72.92062   2.547984   0.3061257 
2763.2     73.64659   2.550779   0.2939614 
2763.4     74.65805   2.64192    0.24624   
2763.6     75.65319   2.631762   0.2424972 
2763.8     75.63688   2.583489   0.2565329 
2764       77.61086   2.572027   0.2424972 
2764.2     80.63708   2.585912   0.2340757 
2764.4     82.44791   2.613776   0.2443686 
2764.6     80.94704   2.643411   0.2621472 
2764.8     78.82623   2.593274   0.2827329 
2765       77.06435   2.582092   0.2715043 
2765.2     76.52599   2.555253   0.24624   
2765.4     77.33352   2.553109   0.2509186 
2765.6     76.99093   2.553016   0.2649543 
2765.8     77.40693   2.589267   0.2537257 
2766       77.11328   2.644343   0.2424972 
2766.2     74.42966   2.639217   0.2518543 
2766.4     72.18649   2.602221   0.2602757 
2766.6     72.39043   2.590478   0.2584043 
2766.8     71.43606   2.557862   0.25279   
2767       72.37411   2.493374   0.2471757 
2767.2     77.26011   2.499245   0.2499829 
2767.4     81.65669   2.517045   0.24624   
2767.6     81.86877   2.553668   0.2518543 
2767.8     76.47704   2.541647   0.2677614 
2768       71.73787   2.586844   0.2752472 
2768.2     72.75748   2.573891   0.2799257 
2768.4     76.60756   2.602314   0.2874115 
2768.6     76.89305   2.594765   0.28554   
2768.8     76.70544   2.558887   0.2668257 
2769       77.64349   2.551339   0.2424972 
2769.2     76.02026   2.553948   0.2293972 
2769.4     71.90916   2.582557   0.23969   
2769.6     70.10648   2.570256   0.2686971 
2769.8     70.33488   2.566995   0.2799257 
2770       71.17504   2.571188   0.2827329 
2770.2     75.7837    2.614336   0.2761829 
2770.4     83.55725   2.629153   0.2565329 
2770.6     88.88373   2.603805   0.2509186 
2770.8     90.75982   2.599425   0.26589   
2771       90.45802   2.607812   0.2686971 
2771.2     88.9082    2.6025     0.2705686 
2771.4     87.23603   2.595325   0.2649543 
2771.6     84.78895   2.609303   0.2602757 
2771.8     81.65669   2.579762   0.2518543 
2772       80.3108    2.625518   0.2537257 
2772.2     78.606     2.606414   0.2743115 
2772.4     78.06764   2.575475   0.2771186 
2772.6     79.29118   2.583583   0.2509186 
2772.8     77.31721   2.531489   0.2368829 
2773       75.4248    2.523195   0.2359472 
2773.2     79.45432   2.526923   0.2499829 
2773.4     85.37625   2.531023   0.25934   
2773.6     83.10046   2.575382   0.2555971 
2773.8     73.75263   2.598866   0.2537257 
2774       69.29079   2.617411   0.2537257 
2774.2     75.23719   2.603153   0.2602757 
2774.4     82.76603   2.584887   0.27244   
2774.6     86.59978   2.640522   0.27899   
2774.8     90.04201   2.568672   0.29209   
2775       90.80876   2.550593   0.3023829 
2775.2     90.4417    2.604178   0.29864   
2775.4     89.78915   2.604737   0.2939614 
2775.6     87.81517   2.601382   0.3079971 
2775.8     83.78564   2.568858   0.2995757 
2776       77.70058   2.526736   0.2686971 
2776.2     74.69067   2.575568   0.2612115 
2776.4     76.72176   2.550407   0.2490472 
2776.6     76.07735   2.537453   0.22659   
2776.8     76.16708   2.591131   0.2387543 
2777       81.4854    2.6203     0.2434329 
2777.2     82.57027   2.62617    0.2350114 
2777.4     80.96335   2.646765   0.2434329 
2777.6     81.72195   2.622164   0.2602757 
2777.8     82.09716   2.585073   0.2602757 
2778       79.75613   2.627755   0.2453043 
2778.2     76.11814   2.625052   0.2368829 
2778.4     73.03482   2.645834   0.23969   
2778.6     76.72176   2.654035   0.2565329 
2778.8     83.82643   2.566715   0.2686971 
2779       85.91461   2.570816   0.2733757 
2779.2     82.08085   2.584701   0.2602757 
2779.4     77.12959   2.560471   0.24624   
2779.6     75.67767   2.596256   0.2424972 
2779.8     75.37586   2.584328   0.2434329 
2780       73.03482   2.612285   0.2424972 
2780.2     71.06084   2.628128   0.2340757 
2780.4     71.82759   2.679103   0.2368829 
2780.6     75.18009   2.675002   0.2499829 
2780.8     77.62717   2.653289   0.2705686 
2781       77.21117   2.592808   0.2771186 
2781.2     78.10843   2.55488    0.2686971 
2781.4     77.86372   2.561217   0.2696329 
2781.6     74.12785   2.57883    0.2911543 
2781.8     75.0659    2.616758   0.3033186 
2782       80.22108   2.581532   0.2939614 
2782.2     83.86722   2.533353   0.2827329 
2782.4     85.62096   2.581626   0.2705686 
2782.6     85.70253   2.567647   0.2630829 
2782.8     82.17873   2.55898    0.2546614 
2783       77.04803   2.613869   0.2406257 
2783.2     74.91907   2.596909   0.2340757 
2783.4     74.56017   2.605855   0.22659   
2783.6     75.7837    2.59579    0.2284614 
2783.8     79.60931   2.602034   0.2415614 
2784       81.34673   2.586192   0.2602757 
2784.2     82.05638   2.575195   0.26589   
2784.4     82.16242   2.587962   0.25934   
2784.6     77.12144   2.5765     0.2640186 
2784.8     72.58619   2.551152   0.2705686 
2785       70.94665   2.562335   0.2771186 
2785.2     70.22068   2.558794   0.30519   
2785.4     72.91247   2.59402    0.3154829 
2785.6     78.34498   2.588988   0.2864757 
2785.8     80.63708   2.575102   0.2649543 
2786       78.51627   2.555812   0.2574686 
2786.2     76.61571   2.568486   0.2518543 
2786.4     76.86041   2.537174   0.2453043 
2786.6     77.36615   2.505955   0.2584043 
2786.8     77.89635   2.531955   0.2836686 
2787       79.45432   2.560378   0.2808614 
2787.2     78.91597   2.562428   0.2696329 
2787.4     75.67767   2.539224   0.27244   
2787.6     74.48676   2.538292   0.2743115 
2787.8     80.88994   2.540901   0.2752472 
2788       86.10222   2.555066   0.2752472 
2788.2     86.02065   2.568672   0.2705686 
2788.4     85.84935   2.554041   0.26589   
2788.6     84.79711   2.594393   0.26589   
2788.8     82.04006   2.593181   0.27899   
2789       76.68097   2.616385   0.2958329 
2789.2     75.4819    2.589453   0.2902186 
2789.4     78.0187    2.560751   0.2808614 
2789.6     77.61901   2.516206   0.2883472 
2789.8     78.23078   2.566901   0.29209   
2790       76.57492   2.551339   0.2958329 
2790.2     76.17524   2.489087   0.2939614 
2790.4     80.73495   2.484521   0.2705686 
2790.6     82.92101   2.51779    0.25279   
