~Version
 VERS              .         2.0                           : CWLS LOG ASCII STANDARD - VERSION 2.0
 WRAP              .         NO                            : ONE LINE PER DEPTH STEP
 DLM               .         SPACE                         : DELIMITING CHARACTER(SPACE TAB OR COMMA)
~Well Information
#_______________________________________________________________________________
#
#PARAMETER_NAME    .UNIT     VALUE                         : DESCRIPTION
#_______________________________________________________________________________
STRT               .m        2718                          : First reference value
STOP               .m        2945                          : Last reference value
STEP               .m        0.2                           : Step increment
NULL               .         -9999                         : Missing value
COMP               .                                       : Company
WELL               .         302                           : Well name
FLD                .                                       : Field
LOC                .                                       : Location
CNTY               .                                       : County
STAT               .                                       : State
CTRY               .                                       : Country
SRVC               .                                       : Service Company
DATE               .                                       : Date
API                .                                       : API number
Cartographic_reference_system .         GCS_WGS_1984                  : GEOGCS["GCS_WGS_1984",DATUM["D_WGS_1984",SPHEROID["WGS_1984",6378137.0,298.257223563]],PRIMEM["Greenwich",0.0],UNIT["Degree",0.0174532925199433],AUTHORITY["EPSG",4326]]
EREF               .m        138.34                        : 
HZCS               .GCS_WGS_1984 World_Mercator                : PROJCS["World_Mercator",GEOGCS["GCS_WGS_1984",DATUM["D_WGS_1984",SPHEROID["WGS_1984",6378137.0,298.257223563]],PRIMEM["Greenwich",0.0],UNIT["Degree",0.0174532925199433]],PROJECTION["Mercator"],PARAMETER["False_Easting",0.0],PARAMETER["False_Northing",0.0],PARAMETER["Central_Meridian",0.0],PARAMETER["Standard_Parallel_1",0.0],UNIT["Meter",1.0],AUTHORITY["ESRI",54004]]
LATI               .dega     2.2598774867                  : GCS_WGS_1984
LONG               .dega     1.9740478369                  : GCS_WGS_1984
PROJECT_UPGRADE_TIME .         2014-05-27T11_38_46           : 
Pad                .         Pad3                          : 
X                  .m        219750                        : 
Y                  .m        249950                        : 
group              .         Pad3                          : 
Интер-р            .         Зайцев                        : 
Куст               .         3                             : 
Статус             .         Не проверено                  : 
Тип                .         Разведка                      : 
~Parameter Information Block
#_______________________________________________________________________________
#
#PARAMETER_NAME    .UNIT     VALUE                         : DESCRIPTION
#_______________________________________________________________________________
SET                .         LQC                           : 
PROJECT_UPGRADE_TIME .         2014-05-27T11_38_46           : 
TLFamily_GR_NORM   .         Gamma Ray                     : 
TLFamily_MD        .         Measured Depth                : 
TLFamily_RHOB_NORM .         Bulk Density                  : 
TLFamily_TNPH_NORM .         Neutron Porosity              : 
~Curve Information
#_______________________________________________________________________________
#
#LOGNAME           .UNIT     LOG_ID                        : DESCRIPTION
#_______________________________________________________________________________
MD                 .m                                      :  
GR_NORM            .gAPI                                   : Normalised By Techlog 
RHOB_NORM          .g/cm3                                  : Normalized By Techlog 
TNPH_NORM          .v/v                                    : Normalised By Techlog 
~Ascii
2718.0     52.32438   1.839363   0.31174   
2718.2     54.11891   1.870209   0.32484   
2718.4     57.23486   1.905994   0.37069   
2718.6     54.52675   1.934697   0.3632043 
2718.8     45.81515   1.956876   0.3295186 
2719       33.62055   2.002447   0.3304543 
2719.2     25.93672   1.936095   0.3388757 
2719.4     37.91109   1.908883   0.3005114 
2719.6     60.78312   1.922303   0.2705686 
2719.8     71.44422   1.931435   0.2911543 
2720       72.92062   1.959952   0.30519   
2720.2     73.67106   2.026676   0.2995757 
2720.4     76.86858   2.160777   0.2780543 
2720.6     80.21291   2.203645   0.2733757 
2720.8     81.57512   2.240269   0.27899   
2721       79.29934   2.335696   0.27244   
2721.2     74.08707   2.452463   0.2696329 
2721.4     72.84721   2.520213   0.2752472 
2721.6     78.45918   2.664099   0.2817971 
2721.8     86.20826   2.592156   0.2743115 
2722       84.6095    2.57445    0.2453043 
2722.2     74.81303   2.575102   0.2387543 
2722.4     69.89441   2.641454   0.23314   
2722.6     68.78506   2.676214   0.23969   
2722.8     66.61532   2.666895   0.2424972 
2723       68.62193   2.60921    0.2424972 
2723.2     71.49316   2.633719   0.2415614 
2723.4     68.4751    2.590292   0.2406257 
2723.6     67.14552   2.536149   0.2415614 
2723.8     69.58444   2.539876   0.2434329 
2724       68.002     2.570163   0.2453043 
2724.2     65.18785   2.603245   0.2490472 
2724.4     62.65105   2.599239   0.2612115 
2724.6     62.52054   2.594672   0.2705686 
2724.8     63.116     2.642572   0.2555971 
2725       61.74563   2.609303   0.2424972 
2725.2     64.08667   2.599891   0.2490472 
2725.4     69.63338   2.633067   0.2621472 
2725.6     70.58775   2.630178   0.2565329 
2725.8     68.27117   2.635489   0.2368829 
2726       66.81109   2.678451   0.2275257 
2726.2     67.97752   2.626916   0.2509186 
2726.4     69.01345   2.639031   0.2799257 
2726.6     67.48811   2.663913   0.2846043 
2726.8     68.02647   2.657483   0.2649543 
2727       70.22068   2.64602    0.2499829 
2727.2     69.07871   2.612937   0.2415614 
2727.4     66.45218   2.568299   0.2434329 
2727.6     67.20261   2.586937   0.25279   
2727.8     68.01831   2.65478    0.2424972 
2728       67.46364   2.679662   0.2340757 
2728.2     68.83401   2.641174   0.2471757 
2728.4     71.00375   2.662888   0.2696329 
2728.6     70.93034   2.655805   0.2761829 
2728.8     69.75574   2.629339   0.2640186 
2729       69.82915   2.634465   0.2509186 
2729.2     70.42461   2.596629   0.24624   
2729.4     68.54852   2.599984   0.2499829 
2729.6     68.71981   2.619274   0.2715043 
2729.8     73.33663   2.577245   0.3033186 
2730       74.87829   2.570256   0.29864   
2730.2     72.61882   2.607439   0.2546614 
2730.4     71.66446   2.644716   0.23314   
2730.6     72.94509   2.693547   0.2555971 
2730.8     76.13445   2.665217   0.2817971 
2731       79.63377   2.62878    0.2930257 
2731.2     79.21777   2.612285   0.2995757 
2731.4     74.88644   2.619274   0.29209   
2731.6     74.93539   2.653662   0.2743115 
2731.8     76.64018   2.676028   0.27899   
2732       75.57978   2.64397    0.2939614 
2732.2     77.32536   2.620952   0.2995757 
2732.4     80.97967   2.629712   0.2836686 
2732.6     79.87032   2.634371   0.27244   
2732.8     75.2535    2.60688    0.2799257 
2733       74.7804    2.551898   0.3070614 
2733.2     80.10688   2.560937   0.30519   
2733.4     84.04667   2.539876   0.2686971 
2733.6     82.34188   2.5546     0.2453043 
2733.8     77.99423   2.556371   0.2471757 
2734       75.8979    2.590945   0.26589   
2734.2     74.38887   2.628873   0.3033186 
2734.4     69.1195    2.573238   0.2977043 
2734.6     66.5256    2.56979    0.2649543 
2734.8     69.89441   2.597468   0.2546614 
2735       74.85381   2.569045   0.2471757 
2735.2     77.33352   2.620486   0.2424972 
2735.4     76.787     2.592995   0.2415614 
2735.6     74.06259   2.572307   0.2434329 
2735.8     72.55356   2.595511   0.2677614 
2736       73.09192   2.612192   0.3005114 
2736.2     75.97131   2.611633   0.2780543 
2736.4     79.87849   2.573704   0.2509186 
2736.6     77.3009    2.614894   0.2499829 
2736.8     71.27293   2.625798   0.2621472 
2737       74.0789    2.602407   0.2686971 
2737.2     81.257     2.603339   0.2705686 
2737.4     80.15582   2.612472   0.26589   
2737.6     73.47529   2.638751   0.2555971 
2737.8     69.38867   2.63288    0.2481114 
2738       69.40498   2.599891   0.2630829 
2738.2     72.05598   2.60921    0.2902186 
2738.4     74.16863   2.611446   0.2827329 
2738.6     73.09192   2.597002   0.27244   
2738.8     70.39198   2.574729   0.2808614 
2739       67.45548   2.602314   0.2958329 
2739.2     68.09988   2.649095   0.29864   
2739.4     71.02006   2.638006   0.28554   
2739.6     71.75418   2.603712   0.26589   
2739.8     71.46053   2.608837   0.2518543 
2740       71.16688   2.574543   0.2499829 
2740.2     70.71825   2.610421   0.2668257 
2740.4     69.10318   2.59607    0.2733757 
2740.6     68.67086   2.62207    0.27244   
2740.8     71.27293   2.633346   0.27899   
2741       72.9043    2.595418   0.2780543 
2741.2     73.19796   2.578084   0.2771186 
2741.4     73.87498   2.576407   0.27899   
2741.6     75.55531   2.55022    0.2668257 
2741.8     78.9649    2.520213   0.2565329 
2742       79.82954   2.493467   0.2612115 
2742.2     76.59124   2.535962   0.2771186 
2742.4     74.54385   2.565038   0.2902186 
2742.6     75.55531   2.607719   0.2808614 
2742.8     75.57162   2.590478   0.2686971 
2743       75.49006   2.59374    0.2696329 
2743.2     75.53085   2.579669   0.2733757 
2743.4     72.45567   2.637633   0.2668257 
2743.6     73.0185    2.623655   0.2518543 
2743.8     76.68912   2.609769   0.2415614 
2744       78.53259   2.576221   0.2471757 
2744.2     78.98938   2.612565   0.2705686 
2744.4     77.83109   2.583117   0.2930257 
2744.6     76.1263    2.542672   0.2948971 
2744.8     76.55046   2.579389   0.2892829 
2745       77.99423   2.601848   0.2743115 
2745.2     75.17194   2.591504   0.27244   
2745.4     71.62367   2.573052   0.2967686 
2745.6     74.8375    2.534285   0.3033186 
2745.8     77.35799   2.555439   0.2939614 
2746       78.53259   2.548822   0.2930257 
2746.2     80.35974   2.540808   0.2883472 
2746.4     80.62076   2.56802    0.2771186 
2746.6     78.89964   2.569604   0.2705686 
2746.8     75.66135   2.558794   0.2752472 
2747       75.2535    2.591317   0.2995757 
2747.2     79.20146   2.566342   0.3239043 
2747.4     82.28478   2.507725   0.3033186 
2747.6     82.05638   2.533539   0.27244   
2747.8     81.57512   2.533446   0.2640186 
2748       81.59959   2.61592    0.2799257 
2748.2     81.28148   2.645927   0.2846043 
2748.4     79.26671   2.633905   0.2743115 
2748.6     75.52268   2.633533   0.2752472 
2748.8     72.22728   2.63521    0.2612115 
2749       71.71339   2.649561   0.2434329 
2749.2     74.93539   2.605669   0.2293972 
2749.4     76.55861   2.603432   0.2275257 
2749.6     77.96976   2.660465   0.2518543 
2749.8     78.00239   2.658694   0.2630829 
2750       77.6027    2.625798   0.2509186 
2750.2     77.96976   2.574357   0.2443686 
2750.4     74.22573   2.589826   0.2715043 
2750.6     70.16358   2.629712   0.2967686 
2750.8     69.04608   2.623655   0.2780543 
2751       70.80798   2.632135   0.2537257 
2751.2     75.00064   2.63083    0.2453043 
2751.4     76.24049   2.607346   0.26589   
2751.6     74.05444   2.637447   0.2995757 
2751.8     73.39373   2.673418   0.2911543 
2752       71.1832    2.689633   0.2546614 
2752.2     71.09347   2.666056   0.2434329 
2752.4     75.09036   2.672207   0.2733757 
2752.6     77.70058   2.701934   0.3005114 
2752.8     77.58639   2.730078   0.3023829 
2753       76.87673   2.71582    0.2911543 
2753.2     78.04317   2.690845   0.2836686 
2753.4     77.02356   2.608744   0.2743115 
2753.6     75.3677    2.568206   0.26589   
2753.8     76.25681   2.61359    0.2686971 
2754       79.42985   2.63931    0.28554   
2754.2     83.80196   2.653475   0.3108043 
