~Version
 VERS              .         2.0                           : CWLS LOG ASCII STANDARD - VERSION 2.0
 WRAP              .         NO                            : ONE LINE PER DEPTH STEP
 DLM               .         SPACE                         : DELIMITING CHARACTER(SPACE TAB OR COMMA)
~Well Information
#_______________________________________________________________________________
#
#PARAMETER_NAME    .UNIT     VALUE                         : DESCRIPTION
#_______________________________________________________________________________
STRT               .m        2718                          : First reference value
STOP               .m        2945                          : Last reference value
STEP               .m        0.2                           : Step increment
NULL               .         -9999                         : Missing value
COMP               .                                       : Company
WELL               .         302                           : Well name
FLD                .                                       : Field
LOC                .                                       : Location
CNTY               .                                       : County
STAT               .                                       : State
CTRY               .                                       : Country
SRVC               .                                       : Service Company
DATE               .                                       : Date
API                .                                       : API number
Cartographic_reference_system .         GCS_WGS_1984                  : GEOGCS["GCS_WGS_1984",DATUM["D_WGS_1984",SPHEROID["WGS_1984",6378137.0,298.257223563]],PRIMEM["Greenwich",0.0],UNIT["Degree",0.0174532925199433],AUTHORITY["EPSG",4326]]
EREF               .m        138.34                        : 
HZCS               .GCS_WGS_1984 World_Mercator                : PROJCS["World_Mercator",GEOGCS["GCS_WGS_1984",DATUM["D_WGS_1984",SPHEROID["WGS_1984",6378137.0,298.257223563]],PRIMEM["Greenwich",0.0],UNIT["Degree",0.0174532925199433]],PROJECTION["Mercator"],PARAMETER["False_Easting",0.0],PARAMETER["False_Northing",0.0],PARAMETER["Central_Meridian",0.0],PARAMETER["Standard_Parallel_1",0.0],UNIT["Meter",1.0],AUTHORITY["ESRI",54004]]
LATI               .dega     2.2598774867                  : GCS_WGS_1984
LONG               .dega     1.9740478369                  : GCS_WGS_1984
PROJECT_UPGRADE_TIME .         2014-05-27T11_38_46           : 
Pad                .         Pad3                          : 
X                  .m        219750                        : 
Y                  .m        249950                        : 
group              .         Pad3                          : 
Интер-р            .         Зайцев                        : 
Куст               .         3                             : 
Статус             .         Не проверено                  : 
Тип                .         Разведка                      : 
~Parameter Information Block
#_______________________________________________________________________________
#
#PARAMETER_NAME    .UNIT     VALUE                         : DESCRIPTION
#_______________________________________________________________________________
SET                .         LQC                           : 
PROJECT_UPGRADE_TIME .         2014-05-27T11_38_46           : 
TLFamily_GR_NORM   .         Gamma Ray                     : 
TLFamily_MD        .         Measured Depth                : 
TLFamily_RHOB_NORM .         Bulk Density                  : 
TLFamily_TNPH_NORM .         Neutron Porosity              : 
~Curve Information
#_______________________________________________________________________________
#
#LOGNAME           .UNIT     LOG_ID                        : DESCRIPTION
#_______________________________________________________________________________
MD                 .m                                      :  
GR_NORM            .gAPI                                   : Normalised By Techlog 
RHOB_NORM          .g/cm3                                  : Normalized By Techlog 
TNPH_NORM          .v/v                                    : Normalised By Techlog 
~Ascii
# ...
2790.8     80.47394   2.546772   0.2406257 
2791       79.01385   2.5724     0.2378186 
2791.2     83.15756   2.599984   0.2574686 
2791.4     87.50521   2.584235   0.2846043 
2791.6     86.09406   2.560471   0.2864757 
2791.8     80.60445   2.528693   0.2836686 
2792       76.17524   2.520865   0.2911543 
2792.2     76.29759   2.547891   0.2817971 
2792.4     78.55706   2.571747   0.27899   
2792.6     80.38421   2.573052   0.2874115 
2792.8     83.076     2.603618   0.2752472 
2793       79.79691   2.585726   0.2668257 
2793.2     75.13931   2.603245   0.2733757 
2793.4     79.79691   2.59402    0.2677614 
2793.6     83.93247   2.558887   0.2602757 
2793.8     83.08415   2.540249   0.2677614 
2794       81.86062   2.52627    0.2649543 
2794.2     79.49511   2.579109   0.2630829 
2794.4     78.42654   2.579762   0.2649543 
2794.6     77.4314    2.605669   0.2733757 
2794.8     75.59609   2.556464   0.2864757 
2795       79.52773   2.531582   0.2752472 
2795.2     83.29623   2.503159   0.2546614 
2795.4     82.00744   2.500363   0.2602757 
2795.6     83.20651   2.55283    0.2705686 
2795.8     86.89344   2.555812   0.2696329 
2796       88.6227    2.604457   0.2799257 
2796.2     85.10707   2.608371   0.2761829 
2796.4     78.45102   2.593927   0.2640186 
2796.6     76.13445   2.58265    0.2846043 
2796.8     77.97791   2.552457   0.2977043 
2797       77.57008   2.534098   0.2705686 
2797.2     72.66776   2.505862   0.25934   
2797.4     70.5388    2.522915   0.2640186 
2797.6     71.61552   2.57007    0.2584043 
2797.8     71.99889   2.545281   0.2602757 
2798       73.85051   2.58088    0.2555971 
2798.2     75.13931   2.581253   0.2424972 
2798.4     76.87673   2.571281   0.2424972 
2798.6     80.57998   2.565224   0.2471757 
2798.8     80.96335   2.559633   0.2537257 
2799       79.2504    2.577152   0.2668257 
2799.2     79.56036   2.553761   0.2743115 
2799.4     78.40208   2.56103    0.2649543 
2799.6     75.53899   2.588988   0.2602757 
2799.8     75.01695   2.609862   0.2677614 
2800       78.56522   2.577711   0.2612115 
2800.2     80.09057   2.586005   0.2471757 
2800.4     79.20961   2.587217   0.2574686 
2800.6     78.67941   2.606228   0.2836686 
2800.8     79.56036   2.573518   0.29864   
2801       83.78564   2.575568   0.29864   
2801.2     85.74332   2.561776   0.2948971 
2801.4     85.71884   2.547518   0.2808614 
2801.6     87.75807   2.584701   0.2696329 
2801.8     86.59978   2.582092   0.2892829 
2802       84.34032   2.566249   0.3070614 
2802.2     79.75613   2.594113   0.2930257 
2802.4     72.37411   2.571561   0.2780543 
2802.6     70.71825   2.543697   0.2817971 
2802.8     78.37761   2.543511   0.2827329 
2803       82.70893   2.554134   0.2874115 
2803.2     81.0694    2.589174   0.3023829 
2803.4     79.81322   2.61331    0.3005114 
2803.6     83.70408   2.597468   0.2761829 
2803.8     87.88858   2.597841   0.2584043 
2804       87.59493   2.601568   0.2518543 
2804.2     84.62582   2.599332   0.26589   
2804.4     81.34673   2.606973   0.2705686 
2804.6     79.82139   2.595511   0.2481114 
2804.8     79.36459   2.574543   0.2359472 
2805       79.12804   2.567088   0.2434329 
2805.2     81.23253   2.568486   0.2499829 
2805.4     84.60134   2.547797   0.2453043 
2805.6     86.02881   2.528321   0.2602757 
2805.8     86.95869   2.547052   0.2761829 
2806       89.08765   2.550686   0.2677614 
2806.2     88.33722   2.575941   0.2612115 
2806.4     84.48714   2.612378   0.2537257 
2806.6     84.41373   2.649468   0.2677614 
2806.8     86.57532   2.680594   0.2930257 
2807       85.89829   2.633346   0.3089329 
2807.2     83.85906   2.646672   0.2808614 
2807.4     80.49841   2.613683   0.2518543 
2807.6     80.01714   2.596909   0.2630829 
2807.8     84.98472   2.612378   0.2733757 
2808       88.41063   2.617411   0.2696329 
2808.2     90.30304   2.581905   0.2640186 
2808.4     91.74681   2.579389   0.2612115 
2808.6     94.56094   2.578644   0.2649543 
2808.8     99.54483   2.593461   0.2761829 
2809       103.8435   2.577245   0.2995757 
2809.2     104.2595   2.584887   0.3061257 
2809.4     98.2071    2.563546   0.28554   
2809.6     89.29974   2.514156   0.2630829 
2809.8     83.11678   2.505116   0.2499829 
2810       79.1362    2.499991   0.2378186 
2810.2     75.39217   2.536521   0.2434329 
2810.4     76.74622   2.549102   0.2574686 
2810.6     80.9552    2.549941   0.2555971 
2810.8     77.27642   2.525898   0.2368829 
2811       66.86002   2.537826   0.2209757 
2811.2     59.15989   2.530277   0.2125543 
2811.4     54.33914   2.497754   0.1994543 
2811.6     48.41721   2.467188   0.1929043 
2811.8     45.67649   2.469797   0.1900972 
2812       46.05986   2.465603   0.20039   
2812.2     45.02393   2.454607   0.2097472 
2812.4     44.83632   2.508937   0.2013257 
2812.6     47.03054   2.58759    0.1966472 
2812.8     52.12862   2.566342   0.2106829 
2813       57.5856    2.506421   0.2312686 
2813.2     57.39799   2.479395   0.2303329 
2813.4     55.66872   2.433918   0.2172329 
2813.6     57.46325   2.401582   0.2031972 
2813.8     58.18921   2.445008   0.2116186 
2814       56.23155   2.486478   0.23314   
2814.2     54.7633    2.486292   0.2293972 
2814.4     56.97383   2.512012   0.2228472 
2814.6     67.23524   2.50232    0.2303329 
2814.8     81.37936   2.55954    0.2453043 
2815       91.03716   2.598493   0.2481114 
2815.2     92.30963   2.567274   0.2481114 
2815.4     87.55415   2.586285   0.2424972 
2815.6     83.81828   2.605203   0.2434329 
2815.8     84.96841   2.580321   0.2378186 
2816       88.10883   2.551618   0.2284614 
2816.2     86.01249   2.509496   0.2172329 
2816.4     81.86062   2.4766     0.2237829 
2816.6     84.67475   2.509403   0.2434329 
2816.8     87.62756   2.563546   0.2368829 
2817       82.3745    2.55255    0.2312686 
2817.2     74.71515   2.525525   0.2293972 
2817.4     67.47995   2.506421   0.2144257 
2817.6     63.24651   2.489553   0.2031972 
2817.8     64.96762   2.491604   0.2097472 
2818       65.31837   2.477998   0.2293972 
2818.2     57.75689   2.507819   0.23969   
2818.4     47.04685   2.507073   0.2060043 
2818.6     40.65997   2.508098   0.1788686 
2818.8     36.67939   2.583396   0.1554757 
2819       35.84739   2.637633   0.1536043 
2819.2     41.89167   2.637913   0.1564114 
2819.4     46.94081   2.604084   0.1667043 
2819.6     43.42517   2.573425   0.1751257 
2819.8     41.25543   2.640801   0.1788686 
2820       48.19698   2.60921    0.18074   
2820.2     55.30982   2.513317   0.1929043 
2820.4     57.82215   2.462714   0.20694   
2820.6     58.14027   2.463739   0.2153614 
2820.8     57.814     2.438578   0.22004   
2821       59.22514   2.433546   0.2088114 
2821.2     61.55803   2.450786   0.1957114 
2821.4     62.61843   2.492815   0.20039   
2821.6     69.16028   2.523941   0.2106829 
2821.8     83.17388   2.590945   0.2293972 
2822       94.11232   2.571188   0.2602757 
2822.2     99.95267   2.579109   0.2668257 
2822.4     99.50404   2.624959   0.2443686 
2822.6     88.94083   2.574823   0.2247186 
2822.8     72.38226   2.514435   0.2153614 
2823       59.2904    2.501389   0.1798043 
2823.2     51.33739   2.527296   0.1592186 
2823.4     47.79729   2.585633   0.1395686 
2823.6     47.38944   2.629339   0.1423757 
2823.8     52.26728   2.667268   0.15454   
2824       69.16028   2.649095   0.1882257 
2824.2     91.10241   2.623655   0.2162972 
2824.4     103.0768   2.597561   0.2415614 
2824.6     104.3003   2.580414   0.2387543 
2824.8     101.7064   2.557676   0.2518543 
2825       103.8517   2.522449   0.2677614 
2825.2     111.25     2.479395   0.2649543 
2825.4     116.7641   2.48275    0.2761829 
2825.6     109.3005   2.48303    0.2948971 
2825.8     100.0832   2.550686   0.2958329 
2826       98.13369   2.59812    0.2817971 
2826.2     100.5318   2.598213   0.2630829 
2826.4     107.0247   2.59607    0.2612115 
2826.6     116.5765   2.586565   0.2808614 
2826.8     124.3664   2.543883   0.3005114 
2827       127.9309   2.553948   0.30519   
