~Version
 VERS              .         2.0                           : CWLS LOG ASCII STANDARD - VERSION 2.0
 WRAP              .         NO                            : ONE LINE PER DEPTH STEP
 DLM               .         SPACE                         : DELIMITING CHARACTER(SPACE TAB OR COMMA)
~Well Information
#_______________________________________________________________________________
#
#PARAMETER_NAME    .UNIT     VALUE                         : DESCRIPTION
#_______________________________________________________________________________
STRT               .m        2718                          : First reference value
STOP               .m        2945                          : Last reference value
STEP               .m        0.2                           : Step increment
NULL               .         -9999                         : Missing value
COMP               .                                       : Company
WELL               .         302                           : Well name
FLD                .                                       : Field
LOC                .                                       : Location
CNTY               .                                       : County
STAT               .                                       : State
CTRY               .                                       : Country
SRVC               .                                       : Service Company
DATE               .                                       : Date
API                .                                       : API number
Cartographic_reference_system .         GCS_WGS_1984                  : GEOGCS["GCS_WGS_1984",DATUM["D_WGS_1984",SPHEROID["WGS_1984",6378137.0,298.257223563]],PRIMEM["Greenwich",0.0],UNIT["Degree",0.0174532925199433],AUTHORITY["EPSG",4326]]
EREF               .m        138.34                        : 
HZCS               .GCS_WGS_1984 World_Mercator                : PROJCS["World_Mercator",GEOGCS["GCS_WGS_1984",DATUM["D_WGS_1984",SPHEROID["WGS_1984",6378137.0,298.257223563]],PRIMEM["Greenwich",0.0],UNIT["Degree",0.0174532925199433]],PROJECTION["Mercator"],PARAMETER["False_Easting",0.0],PARAMETER["False_Northing",0.0],PARAMETER["Central_Meridian",0.0],PARAMETER["Standard_Parallel_1",0.0],UNIT["Meter",1.0],AUTHORITY["ESRI",54004]]
LATI               .dega     2.2598774867                  : GCS_WGS_1984
LONG               .dega     1.9740478369                  : GCS_WGS_1984
PROJECT_UPGRADE_TIME .         2014-05-27T11_38_46           : 
Pad                .         Pad3                          : 
X                  .m        219750                        : 
Y                  .m        249950                        : 
group              .         Pad3                          : 
Интер-р            .         Зайцев                        : 
Куст               .         3                             : 
Статус             .         Не проверено                  : 
Тип                .         Разведка                      : 
~Parameter Information Block
#_______________________________________________________________________________
#
#PARAMETER_NAME    .UNIT     VALUE                         : DESCRIPTION
#_______________________________________________________________________________
SET                .         LQC                           : 
PROJECT_UPGRADE_TIME .         2014-05-27T11_38_46           : 
TLFamily_GR_NORM   .         Gamma Ray                     : 
TLFamily_MD        .         Measured Depth                : 
TLFamily_RHOB_NORM .         Bulk Density                  : 
TLFamily_TNPH_NORM .         Neutron Porosity              : 
~Curve Information
#_______________________________________________________________________________
#
#LOGNAME           .UNIT     LOG_ID                        : DESCRIPTION
#_______________________________________________________________________________
MD                 .m                                      :  
GR_NORM            .gAPI                                   : Normalised By Techlog 
RHOB_NORM          .g/cm3                                  : Normalized By Techlog 
TNPH_NORM          .v/v                                    : Normalised By Techlog 
~Ascii
# ...
2827.2     128.2572   2.518349   0.2967686 
2827.4     126.5524   2.528321   0.29209   
2827.6     125.6144   2.558328   0.2902186 
2827.8     124.0564   2.529253   0.2836686 
2828       115.5977   2.557582   0.2743115 
2828.2     103.4357   2.612192   0.26589   
2828.4     98.07659   2.675096   0.2546614 
2828.6     100.8663   2.681805   0.25934   
2828.8     98.71283   2.628034   0.2537257 
2829       96.11892   2.657856   0.2340757 
2829.2     100.4666   2.693454   0.2350114 
2829.4     105.377    2.695411   0.2424972 
2829.6     107.2939   2.601475   0.2406257 
2829.8     108.86     2.536428   0.2481114 
2830       122.7023   2.537546   0.2761829 
2830.2     158.3318   2.461689   0.3033186 
2830.4     190.3151   2.43541    0.33139   
2830.6     187.7212   2.415933   0.3239043 
2830.8     167.4431   2.382943   0.3323258 
2831       158.7804   2.459453   0.3267114 
2831.2     162.7692   2.460851   0.31174   
2831.4     159.9632   2.474736   0.2995757 
2831.6     160.8034   2.434757   0.2948971 
2831.8     176.9051   2.445661   0.2948971 
2832       188.9121   2.471288   0.3192258 
2832.2     189.2221   2.48331    0.31829   
2832.4     184.8744   2.487783   0.3164186 
2832.6     182.0032   2.492535   0.3323258 
2832.8     180.2087   2.458614   0.34449   
2833       173.153    2.447618   0.3501043 
2833.2     168.2833   2.418729   0.3285829 
2833.4     173.9768   2.379402   0.3145472 
2833.6     180.8286   2.390771   0.3192258 
2833.8     189.8502   2.409969   0.3304543 
2834       201.1883   2.410621   0.3370043 
2834.2     208.3419   2.402047   0.34449   
2834.4     214.7043   2.36328    0.35759   
2834.6     212.8935   2.347251   0.3809829 
2834.8     203.5864   2.367194   0.3865972 
2835       198.0071   2.407359   0.3370043 
2835.2     191.3674   2.443424   0.3098686 
2835.4     176.22     2.417517   0.2977043 
2835.6     155.9418   2.456005   0.2911543 
2835.8     144.3835   2.489087   0.2883472 
2836       142.3524   2.490019   0.2780543 
2836.2     140.7047   2.490951   0.25934   
2836.4     142.3034   2.46551    0.2481114 
2836.6     157.875    2.455818   0.2733757 
2836.8     176.5707   2.458894   0.3042543 
2837       186.5793   2.420965   0.33139   
2837.2     194.5649   2.398413   0.3529114 
2837.4     216.0176   2.407452   0.3688186 
2837.6     254.3878   2.40242    0.3622686 
2837.8     282.0642   2.365703   0.35759   
2838       289.4055   2.342499   0.3791114 
2838.2     287.5457   2.329452   0.4025043 
2838.4     289.1281   2.336441   0.3800472 
2838.6     301.8937   2.334111   0.34449   
2838.8     297.0322   2.373718   0.3164186 
2839       258.9394   2.447431   0.2939614 
2839.2     224.1174   2.499711   0.2967686 
2839.4     230.1617   2.418169   0.2902186 
2839.6     277.2761   2.367846   0.3126757 
2839.8     327.9877   2.299631   0.3472971 
2840       340.0355   2.235516   0.3791114 
2840.2     326.0953   2.250613   0.3370043 
2840.4     299.9524   2.307739   0.3323258 
2840.6     268.5564   2.269531   0.36414   
2840.8     249.1347   2.264498   0.3734972 
2841       247.5359   2.235423   0.3809829 
2841.2     252.6096   2.221537   0.3931472 
2841.4     260.5789   2.198426   0.3894043 
2841.6     275.6284   2.184448   0.3547829 
2841.8     283.6711   2.201129   0.3360686 
2842       283.7038   2.220885   0.3295186 
2842.2     288.655    2.20905    0.3472971 
2842.4     291.0042   2.194419   0.3632043 
2842.6     274.8617   2.220885   0.3416829 
2842.8     256.3944   2.218555   0.3351329 
2843       249.5507   2.230577   0.3341971 
2843.2     242.6744   2.205415   0.3276471 
2843.4     237.7232   2.211007   0.3360686 
2843.6     238.7917   2.208304   0.3491686 
2843.8     241.9077   2.243996   0.3566543 
2844       242.8702   2.244555   0.36414   
2844.2     228.5548   2.233466   0.37069   
2844.4     201.0333   2.231229   0.3753686 
2844.6     185.1518   2.255552   0.3716258 
2844.8     184.7684   2.264032   0.3398114 
2845       190.1846   2.295344   0.3426186 
2845.2     191.7426   2.301402   0.3697543 
2845.4     187.2318   2.324234   0.3632043 
2845.6     181.3588   2.324513   0.3519757 
2845.8     172.0191   2.291617   0.3603972 
2846       153.9678   2.266642   0.35759   
2846.2     137.5153   2.322556   0.3566543 
2846.4     132.7272   2.332248   0.3538471 
2846.6     125.0842   2.305036   0.3276471 
2846.8     112.0086   2.336348   0.3070614 
2847       105.8583   2.404284   0.2939614 
2847.2     110.883    2.469145   0.2677614 
2847.4     122.0416   2.438205   0.27899   
2847.6     128.3959   2.37176    0.3023829 
2847.8     130.1252   2.397202   0.3192258 
2848       133.6816   2.392169   0.3173543 
2848.2     139.734    2.390026   0.2939614 
2848.4     136.7649   2.369151   0.2696329 
2848.6     120.0677   2.373997   0.2743115 
2848.8     106.6821   2.364492   0.2967686 
2849       99.94453   2.365051   0.3061257 
2849.2     95.96394   2.338864   0.3042543 
2849.4     95.32771   2.372693   0.3005114 
2849.6     95.09115   2.406521   0.3070614 
2849.8     93.87577   2.427302   0.3023829 
2850       92.04046   2.44594    0.2883472 
2850.2     91.01269   2.468213   0.2930257 
2850.4     89.75652   2.449388   0.3014472 
2850.6     89.60154   2.410621   0.3023829 
2850.8     95.32771   2.416585   0.2892829 
2851       104.5287   2.416119   0.2995757 
2851.2     107.3265   2.380614   0.3360686 
2851.4     105.3526   2.338585   0.3472971 
2851.6     107.612    2.336628   0.3426186 
2851.8     111.5192   2.354241   0.35104   
2852       110.679    2.342499   0.3538471 
2852.2     104.0638   2.327775   0.3351329 
2852.4     94.29993   2.353495   0.3173543 
2852.6     90.92296   2.356943   0.3042543 
2852.8     97.31799   2.357968   0.2780543 
2853       105.8991   2.316592   0.26589   
2853.2     110.5404   2.321717   0.25934   
2853.4     111.8047   2.318176   0.2771186 
2853.6     113.7542   2.29376    0.2995757 
2853.8     114.4475   2.312957   0.3210971 
2854       110.1162   2.312585   0.3267114 
2854.2     102.0327   2.309136   0.2958329 
2854.4     92.81537   2.331223   0.2808614 
2854.6     91.46947   2.303079   0.2958329 
2854.8     103.0278   2.292828   0.31174   
2855       114.162    2.298699   0.3089329 
2855.2     113.6645   2.29786    0.2892829 
2855.4     103.2399   2.321251   0.2817971 
2855.6     90.60484   2.366821   0.2864757 
2855.8     82.92101   2.380241   0.2817971 
2856       81.29779   2.397388   0.2874115 
2856.2     78.10027   2.392169   0.29864   
2856.4     78.76913   2.329452   0.32484   
2856.6     91.65708   2.327309   0.3426186 
2856.8     108.5093   2.303638   0.3351329 
2857       122.0253   2.275867   0.33794   
2857.2     131.8952   2.306248   0.3697543 
2857.4     131.9197   2.324699   0.3632043 
2857.6     121.8622   2.345574   0.3323258 
2857.8     108.6561   2.356757   0.3164186 
2858       94.42229   2.373251   0.2958329 
2858.2     88.18224   2.397574   0.2799257 
2858.4     91.445     2.342871   0.2967686 
2858.6     96.26575   2.295903   0.3220329 
2858.8     96.77963   2.297301   0.33794   
2859       103.9169   2.292921   0.3491686 
2859.2     130.9408   2.261703   0.3491686 
2859.4     157.7037   2.269158   0.3557186 
2859.6     170.9669   2.248097   0.3660114 
2859.8     177.8187   2.212778   0.3940829 
2860       169.5884   2.223028   0.4156043 
2860.2     158.7152   2.225731   0.42964   
2860.4     160.632    2.235982   0.4249614 
2860.6     172.4025   2.208304   0.4062472 
2860.8     188.072    2.176806   0.3884686 
2861       194.777    2.169164   0.3547829 
2861.2     183.3573   2.2111     0.3501043 
2861.4     165.0776   2.274563   0.3603972 
2861.6     159.4004   2.26981    0.3585258 
2861.8     167.2147   2.23971    0.3341971 
2862       162.606    2.259093   0.31829   
2862.2     137.5806   2.320692   0.3005114 
2862.4     112.9548   2.319201   0.2892829 
2862.6     102.5629   2.329079   0.3136114 
2862.8     100.9886   2.334205   0.3585258 
2863       102.9463   2.360484   0.3734972 
2863.2     105.2628   2.390026   0.32484   
2863.4     104.178    2.400184   0.3108043 
