~Version
 VERS              .         2.0                           : CWLS LOG ASCII STANDARD - VERSION 2.0
 WRAP              .         NO                            : ONE LINE PER DEPTH STEP
 DLM               .         SPACE                         : DELIMITING CHARACTER(SPACE TAB OR COMMA)
~Well Information
#_______________________________________________________________________________
#
#PARAMETER_NAME    .UNIT     VALUE                         : DESCRIPTION
#_______________________________________________________________________________
STRT               .m        2718                          : First reference value
STOP               .m        2945                          : Last reference value
STEP               .m        0.2                           : Step increment
NULL               .         -9999                         : Missing value
COMP               .                                       : Company
WELL               .         302                           : Well name
FLD                .                                       : Field
LOC                .                                       : Location
CNTY               .                                       : County
STAT               .                                       : State
CTRY               .                                       : Country
SRVC               .                                       : Service Company
DATE               .                                       : Date
API                .                                       : API number
Cartographic_reference_system .         GCS_WGS_1984                  : GEOGCS["GCS_WGS_1984",DATUM["D_WGS_1984",SPHEROID["WGS_1984",6378137.0,298.257223563]],PRIMEM["Greenwich",0.0],UNIT["Degree",0.0174532925199433],AUTHORITY["EPSG",4326]]
EREF               .m        138.34                        : 
HZCS               .GCS_WGS_1984 World_Mercator                : PROJCS["World_Mercator",GEOGCS["GCS_WGS_1984",DATUM["D_WGS_1984",SPHEROID["WGS_1984",6378137.0,298.257223563]],PRIMEM["Greenwich",0.0],UNIT["Degree",0.0174532925199433]],PROJECTION["Mercator"],PARAMETER["False_Easting",0.0],PARAMETER["False_Northing",0.0],PARAMETER["Central_Meridian",0.0],PARAMETER["Standard_Parallel_1",0.0],UNIT["Meter",1.0],AUTHORITY["ESRI",54004]]
LATI               .dega     2.2598774867                  : GCS_WGS_1984
LONG               .dega     1.9740478369                  : GCS_WGS_1984
PROJECT_UPGRADE_TIME .         2014-05-27T11_38_46           : 
Pad                .         Pad3                          : 
X                  .m        219750                        : 
Y                  .m        249950                        : 
group              .         Pad3                          : 
Интер-р            .         Зайцев                        : 
Куст               .         3                             : 
Статус             .         Не проверено                  : 
Тип                .         Разведка                      : 
~Parameter Information Block
#_______________________________________________________________________________
#
#PARAMETER_NAME    .UNIT     VALUE                         : DESCRIPTION
#_______________________________________________________________________________
SET                .         LQC                           : 
PROJECT_UPGRADE_TIME .         2014-05-27T11_38_46           : 
TLFamily_GR_NORM   .         Gamma Ray                     : 
TLFamily_MD        .         Measured Depth                : 
TLFamily_RHOB_NORM .         Bulk Density                  : 
TLFamily_TNPH_NORM .         Neutron Porosity              : 
~Curve Information
#_______________________________________________________________________________
#
#LOGNAME           .UNIT     LOG_ID                        : DESCRIPTION
#_______________________________________________________________________________
MD                 .m                                      :  
GR_NORM            .gAPI                                   : Normalised By Techlog 
RHOB_NORM          .g/cm3                                  : Normalized By Techlog 
TNPH_NORM          .v/v                                    : Normalised By Techlog 
~Ascii
# ...
2863.6     98.63126   2.407173   0.3145472 
2863.8     96.24944   2.450041   0.2939614 
2864       96.6165    2.528787   0.2752472 
2864.2     97.57085   2.547238   0.2836686 
2864.4     102.6037   2.547238   0.3201614 
2864.6     110.1325   2.552084   0.3388757 
2864.8     116.2584   2.545095   0.30519   
2865       121.1852   2.541553   0.2902186 
2865.2     123.7057   2.545561   0.29209   
2865.4     120.3613   2.518536   0.3126757 
2865.6     110.8993   2.464485   0.3210971 
2865.8     104.1943   2.445661   0.3323258 
2866       108.2564   2.445754   0.3435543 
2866.2     114.4149   2.442306   0.3145472 
2866.4     113.5911   2.449575   0.2995757 
2866.6     113.6318   2.469051   0.3323258 
2866.8     112.5633   2.448736   0.3557186 
2867       110.883    2.457123   0.3435543 
2867.2     112.8814   2.475295   0.3501043 
2867.4     110.1978   2.529812   0.3594615 
2867.6     103.4194   2.566529   0.3454258 
2867.8     101.1354   2.571747   0.31174   
2868       101.6085   2.571281   0.2864757 
2868.2     107.0411   2.517977   0.29864   
2868.4     111.1032   2.473338   0.33139   
2868.6     108.338    2.506421   0.3426186 
2868.8     105.0589   2.515087   0.3089329 
2869       106.3559   2.51779    0.2864757 
2869.2     112.2207   2.496915   0.2874115 
2869.4     114.7493   2.532328   0.2977043 
2869.6     114.2844   2.525152   0.3014472 
2869.8     113.2648   2.500736   0.3042543 
2870       111.511    2.4506     0.30519   
2870.2     111.1684   2.460664   0.2958329 
2870.4     109.0395   2.455725   0.2846043 
2870.6     101.6656   2.452463   0.2761829 
2870.8     86.37955   2.457682   0.2640186 
2871       61.86799   2.481446   0.2116186 
2871.2     51.73708   2.538665   0.20694   
2871.4     67.20261   2.573425   0.2368829 
2871.6     106.4293   2.569231   0.2733757 
2871.8     115.7526   2.525805   0.2977043 
2872       115.6466   2.449854   0.3098686 
2872.2     109.9041   2.425065   0.2995757 
2872.4     104.9773   2.417703   0.3023829 
2872.6     103.607    2.420686   0.3023829 
2872.8     105.4749   2.442865   0.2977043 
2873       107.1308   2.468865   0.29864   
2873.2     109.7247   2.465976   0.3145472 
2873.4     115.4427   2.495331   0.31829   
2873.6     117.694    2.47632    0.3164186 
2873.8     114.8962   2.498686   0.3210971 
2874       111.2419   2.516206   0.3079971 
2874.2     108.5175   2.522357   0.2892829 
2874.4     105.687    2.540529   0.2958329 
2874.6     107.4081   2.559167   0.3108043 
2874.8     109.4229   2.554041   0.3239043 
2875       103.9006   2.515647   0.3398114 
2875.2     100.4747   2.56802    0.3323258 
2875.4     102.8484   2.598679   0.3108043 
2875.6     103.7538   2.572027   0.29864   
2875.8     103.8027   2.559912   0.30519   
2876       105.2221   2.53736    0.2864757 
2876.2     107.3592   2.549754   0.26589   
2876.4     107.8404   2.565504   0.2874115 
2876.6     107.3102   2.560564   0.3023829 
2876.8     108.5093   2.546958   0.3014472 
2877       111.8536   2.53065    0.3145472 
2877.2     113.6889   2.579762   0.3154829 
2877.4     112.2044   2.569977   0.29864   
2877.6     110.6138   2.567274   0.2958329 
2877.8     108.3706   2.532141   0.3089329 
2878       108.5501   2.548357   0.3201614 
2878.2     117.1393   2.504184   0.3416829 
2878.4     120.8997   2.485546   0.3828543 
2878.6     115.7119   2.524686   0.3865972 
2878.8     109.9286   2.58554    0.3370043 
2879       106.1112   2.600916   0.3070614 
2879.2     112.6612   2.645461   0.3098686 
2879.4     134.2526   2.605575   0.2602757 
2879.6     146.7571   2.588894   0.2088114 
2879.8     118.6402   2.582278   0.1779329 
2880       71.69708   2.527482   0.1760615 
2880.2     45.64386   2.48331    0.1769972 
2880.4     36.69571   2.452184   0.15454   
2880.6     34.56675   2.42842    0.1582829 
2880.8     36.49179   2.385273   0.1788686 
2881       38.79204   2.390958   0.1863543 
2881.2     40.79049   2.410062   0.1788686 
2881.4     40.82311   2.364958   0.18729   
2881.6     40.1624    2.322649   0.1957114 
2881.8     42.79709   2.33057    0.1910329 
2882       44.41216   2.34399    0.1826115 
2882.2     42.77262   2.362441   0.1788686 
2882.4     42.73183   2.367846   0.1704472 
2882.6     44.00432   2.408291   0.1638972 
2882.8     44.37954   2.413323   0.16109   
2883       44.06142   2.357223   0.1695115 
2883.2     43.56384   2.372879   0.1751257 
2883.4     43.21309   2.374836   0.1816757 
2883.6     42.91944   2.349302   0.1994543 
2883.8     42.28321   2.331223   0.2106829 
2884       41.49198   2.319108   0.2013257 
2884.2     39.55064   2.352843   0.1994543 
2884.4     38.19658   2.371947   0.2162972 
2884.6     39.6322    2.374836   0.2237829 
2884.8     40.26844   2.368312   0.2172329 
2885       39.73824   2.374556   0.2106829 
2885.2     43.12337   2.398599   0.2041329 
2885.4     52.79748   2.386764   0.1891614 
2885.6     61.92509   2.401582   0.1910329 
2885.8     66.56638   2.433173   0.1910329 
2886       66.39508   2.460291   0.1863543 
2886.2     60.61182   2.468213   0.1975829 
2886.4     57.12066   2.477998   0.2050686 
2886.6     55.73398   2.509589   0.1994543 
2886.8     53.00141   2.515647   0.1929043 
2887       48.88216   2.553855   0.1788686 
2887.2     44.41216   2.641454   0.1620257 
2887.4     38.14764   2.759712   0.1245972 
2887.6     33.40847   2.805096   0.1068186 
2887.8     35.39876   2.755892   0.09933287
2888       39.18357   2.755053   0.09746145
2888.2     36.6223    2.665404   0.09933287
2888.4     32.40517   2.584887   0.1058829 
2888.6     32.90274   2.557023   0.12834   
2888.8     35.74951   2.516113   0.1648329 
2889       35.95343   2.460757   0.1826115 
2889.2     32.91905   2.475668   0.1638972 
2889.4     29.8602    2.585726   0.1245972 
2889.6     26.91555   2.662515   0.1105614 
2889.8     25.6757    2.742379   0.1012043 
2890       27.51101   2.684135   0.1049471 
2890.2     31.74445   2.656644   0.1199186 
2890.4     35.88002   2.589733   0.1732543 
2890.6     38.13948   2.512105   0.2022614 
2890.8     40.07267   2.509123   0.1966472 
2891       41.54092   2.529253   0.19384   
2891.2     41.94061   2.536801   0.2060043 
2891.4     41.67959   2.566342   0.2031972 
2891.6     41.85089   2.566342   0.1957114 
2891.8     42.69921   2.530184   0.1957114 
2892       42.87866   2.500363   0.1966472 
2892.2     41.77747   2.505116   0.1788686 
2892.4     42.17717   2.498406   0.1667043 
2892.6     43.91459   2.490765   0.1713829 
2892.8     44.45295   2.475388   0.1788686 
2893       43.02548   2.4985     0.2013257 
2893.2     41.75301   2.486664   0.23314   
2893.4     42.24242   2.465697   0.2209757 
2893.6     43.71882   2.453954   0.1929043 
2893.8     45.78253   2.466535   0.1798043 
2894       47.79729   2.451438   0.1854186 
2894.2     49.12687   2.443424   0.1910329 
2894.4     50.1057    2.441467   0.1985186 
2894.6     49.82021   2.458987   0.2078757 
2894.8     49.24922   2.472872   0.2060043 
2895       50.30962   2.487876   0.2106829 
2895.2     51.78603   2.506607   0.2312686 
2895.4     54.28204   2.49384    0.2565329 
2895.6     61.59881   2.466908   0.2546614 
2895.8     68.32011   2.419661   0.2453043 
2896       70.31041   2.413789   0.26589   
2896.2     74.64174   2.434571   0.2836686 
2896.4     81.79536   2.472034   0.2948971 
2896.6     82.52949   2.527668   0.2752472 
2896.8     80.18844   2.573518   0.2555971 
2897       68.78506   2.589174   0.2097472 
2897.2     51.73708   2.605203   0.1695115 
2897.4     39.9748    2.630271   0.15454   
2897.6     36.11657   2.649841   0.1236614 
2897.8     34.90118   2.638099   0.12179   
2898       46.61453   2.583769   0.2097472 
2898.2     66.53374   2.486571   0.2771186 
2898.4     80.03347   2.482098   0.3014472 
2898.6     85.36809   2.447245   0.3136114 
2898.8     89.5526    2.2111     0.33139   
2899       90.92296   2.191157   0.3463615 
2899.2     87.75807   2.328334   0.3136114 
2899.4     81.05309   2.601755   0.2640186 
2899.6     72.7167    2.607626   0.2415614 
2899.8     71.1261    2.585819   0.2237829 
