~Version
 VERS              .         2.0                           : CWLS LOG ASCII STANDARD - VERSION 2.0
 WRAP              .         NO                            : ONE LINE PER DEPTH STEP
 DLM               .         SPACE                         : DELIMITING CHARACTER(SPACE TAB OR COMMA)
~Well Information
#_______________________________________________________________________________
#
#PARAMETER_NAME    .UNIT     VALUE                         : DESCRIPTION
#_______________________________________________________________________________
STRT               .m        2759                          : First reference value
STOP               .m        2936.8                        : Last reference value
STEP               .m        0.1                           : Step increment
NULL               .         -9999                         : Missing value
COMP               .                                       : Company
WELL               .         303                           : Well name
FLD                .                                       : Field
LOC                .                                       : Location
CNTY               .                                       : County
STAT               .                                       : State
CTRY               .                                       : Country
SRVC               .                                       : Service Company
DATE               .                                       : Date
API                .                                       : API number
Cartographic_reference_system .         GCS_WGS_1984                  : GEOGCS["GCS_WGS_1984",DATUM["D_WGS_1984",SPHEROID["WGS_1984",6378137.0,298.257223563]],PRIMEM["Greenwich",0.0],UNIT["Degree",0.0174532925199433],AUTHORITY["EPSG",4326]]
EREF               .m        138.34                        : 
HZCS               .GCS_WGS_1984 World_Mercator                : PROJCS["World_Mercator",GEOGCS["GCS_WGS_1984",DATUM["D_WGS_1984",SPHEROID["WGS_1984",6378137.0,298.257223563]],PRIMEM["Greenwich",0.0],UNIT["Degree",0.0174532925199433]],PROJECTION["Mercator"],PARAMETER["False_Easting",0.0],PARAMETER["False_Northing",0.0],PARAMETER["Central_Meridian",0.0],PARAMETER["Standard_Parallel_1",0.0],UNIT["Meter",1.0],AUTHORITY["ESRI",54004]]
LATI               .dega     2.2598774867                  : GCS_WGS_1984
LONG               .dega     1.9740478369                  : GCS_WGS_1984
PROJECT_UPGRADE_TIME .         2014-05-27T11_38_46           : 
Pad                .         Pad3                          : 
X                  .m        219750                        : 
Y                  .m        249950                        : 
group              .         Pad3                          : 
Интер-р            .         Ярышев                        : 
Куст               .         3                             : 
Статус             .         Проверено                     : 
Тип                .         Нагнетательные                : 
~Parameter Information Block
#_______________________________________________________________________________
#
#PARAMETER_NAME    .UNIT     VALUE                         : DESCRIPTION
#_______________________________________________________________________________
SET                .         LQC                           : 
PROJECT_UPGRADE_TIME .         2014-05-27T11_38_46           : 
TLFamily_GR_NORM   .         Gamma Ray                     : 
TLFamily_MD        .         Measured Depth                : 
TLFamily_RHOB_NORM .         Bulk Density                  : 
TLFamily_TNPH_NORM .         Neutron Porosity              : 
~Curve Information
#_______________________________________________________________________________
#
#LOGNAME           .UNIT     LOG_ID                        : DESCRIPTION
#_______________________________________________________________________________
MD                 .m                                      :  
GR_NORM            .gAPI                                   : Normalised By Techlog 
RHOB_NORM          .g/cm3                                  : Normalized By Techlog 
TNPH_NORM          .v/v                                    : Normalised By Techlog 
~Ascii
2759.0     48.48517   -9999      0.3122794 
2759.1     48.94208   -9999      0.3132748 
2759.2     49.03999   -9999      0.3122794 
2759.3     49.22927   -9999      0.3122794 
2759.4     48.91597   -9999      0.3142701 
2759.5     48.62225   -9999      0.3202422 
2759.6     48.83764   -9999      0.3222328 
2759.7     48.49823   -9999      0.3092934 
2759.8     48.65488   -9999      0.305312  
2759.9     49.11831   -9999      0.2963539 
2760       49.03346   -9999      0.2943632 
2760.1     48.09353   -9999      0.2963539 
2760.2     48.19144   -9999      0.2943632 
2760.3     48.53086   -9999      0.2933679 
2760.4     48.17186   -9999      0.2893865 
2760.5     47.9891    -9999      0.2864005 
2760.6     47.8455    -9999      0.2834145 
2760.7     47.52566   -9999      0.2754517 
2760.8     48.6353    -9999      0.2774424 
2760.9     49.07262   -9999      0.2744564 
2761       49.9538    -9999      0.273461  
2761.1     50.47598   -9999      0.2784377 
2761.2     50.44334   -9999      0.2923725 
2761.3     50.21489   -9999      0.2933679 
2761.4     49.97991   -9999      0.2943632 
2761.5     49.74493   -9999      0.2903819 
2761.6     49.7384    -9999      0.2844098 
2761.7     50.5282    -9999      0.2824191 
2761.8     51.06997   -9999      0.2854051 
2761.9     51.81407   -9999      0.2893865 
2762       52.036     -9999      0.2903819 
2762.1     52.76052   -9999      0.2913772 
2762.2     52.57123   -9999      0.2993399 
2762.3     53.75267   -9999      0.2983446 
2762.4     53.66129   -9999      0.3033213 
2762.5     53.64171   -9999      0.302326  
2762.6     52.57776   -9999      0.2963539 
2762.7     52.04252   -9999      0.2893865 
2762.8     51.84018   -9999      0.2864005 
2762.9     52.13391   -9999      0.2844098 
2763       53.1848    -9999      0.2794331 
2763.1     54.78397   -9999      0.2764471 
2763.2     54.73176   -9999      0.2814238 
2763.3     54.44455   -9999      0.2814238 
2763.4     54.05944   -9999      0.2943632 
2763.5     53.1848    -9999      0.3092934 
2763.6     51.82712   -9999      0.3212375 
2763.7     51.64436   -9999      0.3351723 
2763.8     50.07782   -9999      0.3331816 
2763.9     49.65355   -9999      0.3411444 
2764       48.80501   -9999      0.3471164 
2764.1     48.02826   -9999      0.3471164 
2764.2     48.46559   -9999      0.3391537 
2764.3     48.73973   -9999      0.3331816 
2764.4     49.55564   -9999      0.3282049 
2764.5     49.79715   -9999      0.3311909 
2764.6     50.01908   -9999      0.3421397 
2764.7     49.9538    -9999      0.3560745 
2764.8     49.71882   -9999      0.3570698 
2764.9     49.523     -9999      0.3520931 
2765       48.88986   -9999      0.343135  
2765.1     49.60133   -9999      0.3351723 
2765.2     49.2815    -9999      0.3292002 
2765.3     49.46426   -9999      0.3262142 
2765.4     49.34024   -9999      0.3202422 
2765.5     48.98777   -9999      0.3092934 
2765.6     48.55044   -9999      0.2963539 
2765.7     48.88334   -9999      0.2864005 
2765.8     49.05304   -9999      0.2844098 
2765.9     49.3794    -9999      0.2903819 
2766       49.69271   -9999      0.3003353 
2766.1     49.11831   2.147464   0.308298  
2766.2     49.04651   2.124033   0.3102887 
2766.3     47.47997   2.12699    0.3122794 
2766.4     46.60532   2.149044   0.3152654 
2766.5     45.38472   2.161254   0.3232282 
2766.6     43.55709   2.170089   0.3301956 
2766.7     42.36913   2.19661    0.3262142 
2766.8     41.09631   2.182764   0.3262142 
2766.9     41.08326   2.154028   0.3202422 
2767       42.10151   2.155335   0.3182515 
2767.1     44.62756   2.160043   0.3202422 
2767.2     47.20583   2.136214   0.3311909 
2767.3     54.88841   2.124975   0.3331816 
2767.4     58.68075   2.117361   0.3391537 
2767.5     66.0696    2.131531   0.340149  
2767.6     75.8148    2.134049   0.3311909 
2767.7     77.34218   2.096441   0.2873958 
2767.8     80.41652   2.081773   0.3033213 
2767.9     80.92564   2.059823   0.2883912 
2768       81.52615   2.03019    0.2794331 
2768.1     81.18674   2.008155   0.2744564 
2768.2     81.08883   1.990131   0.2595262 
2768.3     80.66455   1.969358   0.267489  
2768.4     80.42958   1.946174   0.2615169 
2768.5     80.66455   1.926977   0.2545495 
2768.6     80.28597   1.915784   0.2495728 
2768.7     79.60061   1.921128   0.2505681 
2768.8     79.01316   1.947076   0.2565402 
2768.9     78.38654   1.993102   0.2664936 
2769       77.42051   2.031114   0.2744564 
2769.1     77.32912   2.051293   0.2774424 
2769.2     75.61899   2.05076    0.2764471 
2769.3     75.23388   2.0173     0.2784377 
2769.4     73.98064   1.99132    0.2754517 
2769.5     72.38146   1.988979   0.2724657 
2769.6     71.37627   2.035814   0.2664936 
2769.7     70.0186    2.101513   0.2485774 
2769.8     69.67265   2.085668   0.2475821 
2769.9     69.62696   2.043091   0.2346426 
2770       69.88152   2.022207   0.2266799 
2770.1     69.9011    2.022032   0.2266799 
2770.2     69.75098   2.02752    0.2306613 
2770.3     69.68571   2.033918   0.2336473 
2770.4     70.25358   2.058791   0.235638  
2770.5     71.05643   2.153909   0.2336473 
2770.6     71.5525    2.311517   0.2276752 
2770.7     71.51987   2.379712   0.2197125 
2770.8     71.61777   2.338667   0.2236939 
2770.9     71.63083   2.315545   0.2256846 
2771       71.1674    2.300428   0.2276752 
2771.1     71.14129   2.287355   0.2266799 
2771.2     69.93374   2.265206   0.2197125 
2771.3     69.17005   2.244599   0.2197125 
2771.4     68.44553   2.223644   0.2187172 
2771.5     68.41289   2.205045   0.2207078 
2771.6     68.798     2.180485   0.2226985 
2771.7     71.08254   2.151223   0.2276752 
2771.8     71.41543   2.127954   0.2256846 
2771.9     73.00809   2.101329   0.2316566 
2772       72.90364   2.077033   0.2366333 
2772.1     72.40758   2.051835   0.235638  
2772.2     68.31498   2.022565   0.2236939 
2772.3     67.32284   2.002953   0.2246892 
2772.4     64.91428   1.983256   0.2197125 
2772.5     62.99527   1.965566   0.2157311 
2772.6     62.91042   1.970489   0.2127451 
2772.7     64.43127   2.026279   0.2087637 
2772.8     64.65319   2.161254   0.2077684 
2772.9     66.21973   2.406303   0.2077684 
2773       68.54344   2.55913    0.2087637 
2773.1     69.34628   2.530881   0.2087637 
2773.2     70.12956   2.542731   0.2047824 
2773.3     69.42461   2.557123   0.2047824 
2773.4     67.44033   2.568265   0.200801  
2773.5     62.01618   2.555155   0.1948289 
2773.6     60.50838   2.529774   0.1868662 
2773.7     53.45242   2.52376    0.1629779 
2773.8     51.67048   2.571351   0.171936  
2773.9     48.00215   2.588436   0.1629779 
2774       44.9735    2.577127   0.1540198 
2774.1     44.07274   2.571566   0.1430711 
2774.2     43.80513   2.583648   0.1261503 
2774.3     43.97483   2.579596   0.1291363 
2774.4     44.32078   2.592036   0.1241596 
2774.5     45.28029   2.592557   0.1241596 
2774.6     46.3377    2.573239   0.1301316 
2774.7     48.81153   2.56881    0.1500385 
2774.8     49.52953   2.605049   0.1430711 
2774.9     51.40939   2.63713    0.1609873 
2775       55.64557   2.638245   0.1699453 
2775.1     57.13379   2.625618   0.1858708 
2775.2     63.28246   2.577936   0.2097591 
2775.3     64.9665    2.569766   0.200801  
2775.4     69.46378   2.545992   0.206773  
2775.5     75.7169    2.531551   0.2137404 
2775.6     77.34871   2.529734   0.2236939 
2775.7     80.61234   2.526668   0.2406147 
2775.8     81.05619   2.55451    0.2416101 
2775.9     81.57837   2.590541   0.2555448 
2776       82.55093   2.573343   0.2595262 
2776.1     83.01437   2.5455     0.2605216 
2776.2     83.76501   2.570833   0.2605216 
2776.3     84.11748   2.553538   0.2565402 
2776.4     83.62793   2.529836   0.2485774 
2776.5     81.34992   2.536482   0.235638  
2776.6     81.41518   2.541572   0.2306613 
2776.7     79.99225   2.543675   0.2226985 
2776.8     80.71024   2.546727   0.2167265 
2776.9     80.80163   2.547332   0.2167265 
2777       80.7233    2.553458   0.2256846 
2777.1     81.08883   2.557935   0.2296659 
