~Version
 VERS              .         2.0                           : CWLS LOG ASCII STANDARD - VERSION 2.0
 WRAP              .         NO                            : ONE LINE PER DEPTH STEP
 DLM               .         SPACE                         : DELIMITING CHARACTER(SPACE TAB OR COMMA)
~Well Information
#_______________________________________________________________________________
#
#PARAMETER_NAME    .UNIT     VALUE                         : DESCRIPTION
#_______________________________________________________________________________
STRT               .m        2759                          : First reference value
STOP               .m        2936.8                        : Last reference value
STEP               .m        0.1                           : Step increment
NULL               .         -9999                         : Missing value
COMP               .                                       : Company
WELL               .         303                           : Well name
FLD                .                                       : Field
LOC                .                                       : Location
CNTY               .                                       : County
STAT               .                                       : State
CTRY               .                                       : Country
SRVC               .                                       : Service Company
DATE               .                                       : Date
API                .                                       : API number
Cartographic_reference_system .         GCS_WGS_1984                  : GEOGCS["GCS_WGS_1984",DATUM["D_WGS_1984",SPHEROID["WGS_1984",6378137.0,298.257223563]],PRIMEM["Greenwich",0.0],UNIT["Degree",0.0174532925199433],AUTHORITY["EPSG",4326]]
EREF               .m        138.34                        : 
HZCS               .GCS_WGS_1984 World_Mercator                : PROJCS["World_Mercator",GEOGCS["GCS_WGS_1984",DATUM["D_WGS_1984",SPHEROID["WGS_1984",6378137.0,298.257223563]],PRIMEM["Greenwich",0.0],UNIT["Degree",0.0174532925199433]],PROJECTION["Mercator"],PARAMETER["False_Easting",0.0],PARAMETER["False_Northing",0.0],PARAMETER["Central_Meridian",0.0],PARAMETER["Standard_Parallel_1",0.0],UNIT["Meter",1.0],AUTHORITY["ESRI",54004]]
LATI               .dega     2.2598774867                  : GCS_WGS_1984
LONG               .dega     1.9740478369                  : GCS_WGS_1984
PROJECT_UPGRADE_TIME .         2014-05-27T11_38_46           : 
Pad                .         Pad3                          : 
X                  .m        219750                        : 
Y                  .m        249950                        : 
group              .         Pad3                          : 
Интер-р            .         Ярышев                        : 
Куст               .         3                             : 
Статус             .         Проверено                     : 
Тип                .         Нагнетательные                : 
~Parameter Information Block
#_______________________________________________________________________________
#
#PARAMETER_NAME    .UNIT     VALUE                         : DESCRIPTION
#_______________________________________________________________________________
SET                .         LQC                           : 
PROJECT_UPGRADE_TIME .         2014-05-27T11_38_46           : 
TLFamily_GR_NORM   .         Gamma Ray                     : 
TLFamily_MD        .         Measured Depth                : 
TLFamily_RHOB_NORM .         Bulk Density                  : 
TLFamily_TNPH_NORM .         Neutron Porosity              : 
~Curve Information
#_______________________________________________________________________________
#
#LOGNAME           .UNIT     LOG_ID                        : DESCRIPTION
#_______________________________________________________________________________
MD                 .m                                      :  
GR_NORM            .gAPI                                   : Normalised By Techlog 
RHOB_NORM          .g/cm3                                  : Normalized By Techlog 
TNPH_NORM          .v/v                                    : Normalised By Techlog 
~Ascii
# ...
2777.2     82.19846   2.544237   0.235638  
2777.3     82.04833   2.536641   0.235638  
2777.4     81.83946   2.51239    0.2286706 
2777.5     80.74288   2.475777   0.2117497 
2777.6     79.60061   2.458235   0.2157311 
2777.7     76.80042   2.450685   0.2107544 
2777.8     75.87354   2.447791   0.2057777 
2777.9     74.55504   2.461593   0.200801  
2778       74.23521   2.484381   0.1968196 
2778.1     74.43755   2.503373   0.1958243 
2778.2     74.35922   2.51712    0.1958243 
2778.3     74.16993   2.537302   0.1958243 
2778.4     73.58248   2.523628   0.1958243 
2778.5     72.08121   2.524237   0.1838802 
2778.6     70.98463   2.535972   0.1918429 
2778.7     67.52518   2.532516   0.1848755 
2778.8     65.3973    2.516574   0.1769127 
2778.9     62.14672   2.491996   0.16895   
2779       56.97713   2.509165   0.1560105 
2779.1     56.12206   2.536737   0.1560105 
2779.2     53.88974   2.534826   0.1520292 
2779.3     53.95501   2.537095   0.1540198 
2779.4     54.68607   2.551527   0.1679547 
2779.5     57.90401   2.575971   0.2117497 
2779.6     60.11674   2.590988   0.2027917 
2779.7     66.76149   2.579114   0.2177218 
2779.8     69.86847   2.576991   0.2306613 
2779.9     75.05112   2.57054    0.2426054 
2780       81.06924   2.567463   0.2555448 
2780.1     82.64884   2.581038   0.2545495 
2780.2     86.53909   2.577917   0.2535542 
2780.3     86.38244   2.569296   0.2485774 
2780.4     87.12654   2.559507   0.238624  
2780.5     86.52603   2.540162   0.2147358 
2780.6     85.69707   2.531312   0.2187172 
2780.7     82.12014   2.532418   0.2097591 
2780.8     80.54707   2.519649   0.2027917 
2780.9     76.83958   2.510681   0.1948289 
2781       70.05123   2.511061   0.1789034 
2781.1     67.84502   2.511196   0.1838802 
2781.2     61.9966    2.521446   0.1779081 
2781.3     60.82822   2.541086   0.171936  
2781.4     58.83088   2.546582   0.16895   
2781.5     57.07505   2.575788   0.1759174 
2781.6     57.31655   2.59333    0.174922  
2781.7     57.22517   2.56489    0.1818895 
2781.8     56.38968   2.533223   0.1858708 
2781.9     55.90666   2.524988   0.1878615 
2782       55.01243   2.507213   0.1888569 
2782.1     53.41978   2.496124   0.1868662 
2782.2     50.54779   2.505426   0.1838802 
2782.3     49.05304   2.54773    0.1808941 
2782.4     47.51913   2.536175   0.1769127 
2782.5     46.68365   2.519322   0.16895   
2782.6     47.38206   2.543604   0.16895   
2782.7     49.41857   2.547778   0.1669593 
2782.8     50.84804   2.55925    0.1669593 
2782.9     53.51769   2.55929    0.16895   
2783       57.79304   2.531551   0.1808941 
2783.1     59.05933   2.530563   0.1789034 
2783.2     63.63493   2.507785   0.1928382 
2783.3     64.90775   2.515546   0.2087637 
2783.4     67.42728   2.502357   0.2236939 
2783.5     69.91416   2.500043   0.2346426 
2783.6     71.0499    2.517171   0.2326519 
2783.7     73.50415   2.504891   0.2296659 
2783.8     74.26131   2.500226   0.2226985 
2783.9     75.78217   2.522534   0.2137404 
2784       77.59675   2.540473   0.200801  
2784.1     78.15156   2.532005   0.2017963 
2784.2     78.41918   2.537396   0.200801  
2784.3     78.6868    2.533678   0.200801  
2784.4     78.20378   2.536266   0.2027917 
2784.5     76.95055   2.526141   0.2057777 
2784.6     75.98451   2.50942    0.2077684 
2784.7     73.84357   2.492065   0.2087637 
2784.8     73.2757    2.497996   0.2077684 
2784.9     72.27703   2.511034   0.2057777 
2785       71.02379   2.539565   0.1988103 
2785.1     70.67785   2.56438    0.200801  
2785.2     69.69876   2.557627   0.1978149 
2785.3     69.2288    2.535956   0.1948289 
2785.4     68.19749   2.511298   0.1948289 
2785.5     65.73019   2.489233   0.2017963 
2785.6     65.01872   2.478597   0.200801  
2785.7     62.12714   2.48375    0.2027917 
2785.8     61.38303   2.50558    0.203787  
2785.9     59.83607   2.527283   0.203787  
2786       58.15204   2.539047   0.1978149 
2786.1     56.9706    2.540473   0.2027917 
2786.2     55.59336   2.53528    0.1978149 
2786.3     54.7187    2.562014   0.1928382 
2786.4     54.3597    2.580317   0.1898522 
2786.5     55.05159   2.558716   0.1988103 
2786.6     56.37663   2.547954   0.1938336 
2786.7     58.92878   2.578727   0.1998056 
2786.8     60.30604   2.537876   0.203787  
2786.9     61.70287   2.493593   0.203787  
2787       63.16497   2.490284   0.206773  
2787.1     63.44565   2.488683   0.2047824 
2787.2     64.06573   2.469856   0.2057777 
2787.3     64.48348   2.460537   0.2097591 
2787.4     65.22758   2.458013   0.2157311 
2787.5     65.91295   2.4599     0.2306613 
2787.6     65.72366   2.468233   0.2296659 
2787.7     65.61269   2.461249   0.2346426 
2787.8     65.26675   2.458004   0.2376287 
2787.9     66.67011   2.459533   0.238624  
2788       70.49509   2.441092   0.2426054 
2788.1     72.29661   2.445975   0.2426054 
2788.2     76.08242   2.465671   0.2485774 
2788.3     76.63071   2.495598   0.2545495 
2788.4     77.10068   2.509369   0.2565402 
2788.5     75.22083   2.538234   0.2455914 
2788.6     73.34097   2.549555   0.2465868 
2788.7     67.1466    2.531835   0.2396194 
2788.8     65.27328   2.522445   0.2346426 
2788.9     61.90522   2.490094   0.2296659 
2789       57.58417   2.448365   0.2226985 
2789.1     57.53195   2.406692   0.2226985 
2789.2     57.31655   2.389058   0.2217032 
2789.3     58.7656    2.387557   0.2226985 
2789.4     61.76814   2.413576   0.2246892 
2789.5     67.5056    2.422139   0.2286706 
2789.6     70.27969   2.416818   0.2266799 
2789.7     76.85916   2.42526    0.2306613 
2789.8     77.75993   2.446206   0.2346426 
2789.9     78.81734   2.47659    0.2366333 
2790       76.69598   2.485967   0.2306613 
2790.1     74.63337   2.49849    0.2296659 
2790.2     68.91549   2.500449   0.2217032 
2790.3     67.19229   2.471842   0.2127451 
2790.4     64.37904   2.450807   0.206773  
2790.5     61.03056   2.442653   0.2017963 
2790.6     60.43658   2.45007    0.2047824 
2790.7     57.41446   2.452905   0.203787  
2790.8     56.35704   2.457422   0.200801  
2790.9     54.19653   2.452596   0.1968196 
2791       51.16787   2.452866   0.1858708 
2791.1     50.42377   2.451097   0.1898522 
2791.2     49.12484   2.487159   0.1848755 
2791.3     48.98124   2.51228    0.1789034 
2791.4     48.40031   2.52265    0.1709407 
2791.5     46.71628   2.521035   0.1530245 
2791.6     46.22674   2.520613   0.1560105 
2791.7     44.16413   2.546258   0.1480478 
2791.8     43.45265   2.558796   0.1420757 
2791.9     42.02971   2.574637   0.1390897 
2792       41.12895   2.599871   0.1380944 
2792.1     40.46317   2.626511   0.1390897 
2792.2     40.93313   2.637852   0.1410804 
2792.3     40.95271   2.634517   0.1450618 
2792.4     41.7882    2.658338   0.1520292 
2792.5     43.64847   2.63466    0.1769127 
2792.6     44.84296   2.599536   0.1699453 
2792.7     48.23061   2.590082   0.1828848 
2792.8     49.82326   2.577955   0.1938336 
2792.9     52.75399   2.529803   0.2027917 
2793       56.28524   2.500633   0.2157311 
2793.1     57.20559   2.485783   0.2137404 
2793.2     58.94837   2.446368   0.2157311 
2793.3     58.58937   2.434527   0.2157311 
2793.4     58.73949   2.444506   0.2147358 
2793.5     59.30084   2.466863   0.2167265 
2793.6     59.85566   2.471866   0.2157311 
2793.7     62.00312   2.451087   0.2187172 
2793.8     62.79945   2.448811   0.2236939 
2793.9     64.58792   2.474982   0.2276752 
2794       67.12702   2.492021   0.2336473 
2794.1     67.38811   2.495741   0.2306613 
2794.2     67.72753   2.508596   0.2316566 
2794.3     67.40117   2.520612   0.2316566 
2794.4     66.10877   2.561931   0.2296659 
2794.5     62.64932   2.58526    0.2217032 
2794.6     61.74856   2.574235   0.2236939 
2794.7     57.96927   2.55328    0.2207078 
2794.8     57.186     2.530818   0.2187172 
2794.9     55.93277   2.508923   0.2157311 
2795       55.34532   2.47655    0.2097591 
2795.1     55.18214   2.452476   0.2087637 
2795.2     56.42232   2.474114   0.206773  
2795.3     57.09462   2.487106   0.2057777 
