~Version
 VERS              .         2.0                           : CWLS LOG ASCII STANDARD - VERSION 2.0
 WRAP              .         NO                            : ONE LINE PER DEPTH STEP
 DLM               .         SPACE                         : DELIMITING CHARACTER(SPACE TAB OR COMMA)
~Well Information
#_______________________________________________________________________________
#
#PARAMETER_NAME    .UNIT     VALUE                         : DESCRIPTION
#_______________________________________________________________________________
STRT               .m        2759                          : First reference value
STOP               .m        2936.8                        : Last reference value
STEP               .m        0.1                           : Step increment
NULL               .         -9999                         : Missing value
COMP               .                                       : Company
WELL               .         303                           : Well name
FLD                .                                       : Field
LOC                .                                       : Location
CNTY               .                                       : County
STAT               .                                       : State
CTRY               .                                       : Country
SRVC               .                                       : Service Company
DATE               .                                       : Date
API                .                                       : API number
Cartographic_reference_system .         GCS_WGS_1984                  : GEOGCS["GCS_WGS_1984",DATUM["D_WGS_1984",SPHEROID["WGS_1984",6378137.0,298.257223563]],PRIMEM["Greenwich",0.0],UNIT["Degree",0.0174532925199433],AUTHORITY["EPSG",4326]]
EREF               .m        138.34                        : 
HZCS               .GCS_WGS_1984 World_Mercator                : PROJCS["World_Mercator",GEOGCS["GCS_WGS_1984",DATUM["D_WGS_1984",SPHEROID["WGS_1984",6378137.0,298.257223563]],PRIMEM["Greenwich",0.0],UNIT["Degree",0.0174532925199433]],PROJECTION["Mercator"],PARAMETER["False_Easting",0.0],PARAMETER["False_Northing",0.0],PARAMETER["Central_Meridian",0.0],PARAMETER["Standard_Parallel_1",0.0],UNIT["Meter",1.0],AUTHORITY["ESRI",54004]]
LATI               .dega     2.2598774867                  : GCS_WGS_1984
LONG               .dega     1.9740478369                  : GCS_WGS_1984
PROJECT_UPGRADE_TIME .         2014-05-27T11_38_46           : 
Pad                .         Pad3                          : 
X                  .m        219750                        : 
Y                  .m        249950                        : 
group              .         Pad3                          : 
Интер-р            .         Ярышев                        : 
Куст               .         3                             : 
Статус             .         Проверено                     : 
Тип                .         Нагнетательные                : 
~Parameter Information Block
#_______________________________________________________________________________
#
#PARAMETER_NAME    .UNIT     VALUE                         : DESCRIPTION
#_______________________________________________________________________________
SET                .         LQC                           : 
PROJECT_UPGRADE_TIME .         2014-05-27T11_38_46           : 
TLFamily_GR_NORM   .         Gamma Ray                     : 
TLFamily_MD        .         Measured Depth                : 
TLFamily_RHOB_NORM .         Bulk Density                  : 
TLFamily_TNPH_NORM .         Neutron Porosity              : 
~Curve Information
#_______________________________________________________________________________
#
#LOGNAME           .UNIT     LOG_ID                        : DESCRIPTION
#_______________________________________________________________________________
MD                 .m                                      :  
GR_NORM            .gAPI                                   : Normalised By Techlog 
RHOB_NORM          .g/cm3                                  : Normalized By Techlog 
TNPH_NORM          .v/v                                    : Normalised By Techlog 
~Ascii
# ...
2850       95.51407   2.34974    0.3192468 
2850.1     96.05583   2.362861   0.3182515 
2850.2     97.1263    2.377205   0.3222328 
2850.3     98.79728   2.381789   0.3262142 
2850.4     99.2803    2.394683   0.3222328 
2850.5     100.0505   2.40619    0.3162608 
2850.6     100.5401   2.424306   0.3073027 
2850.7     100.7098   2.440458   0.2893865 
2850.8     101.3364   2.43201    0.2923725 
2850.9     102.1915   2.439711   0.2864005 
2851       103.1183   2.494323   0.2864005 
2851.1     104.3912   2.537852   0.2913772 
2851.2     105.9316   2.538442   0.302326  
2851.3     106.519    2.516749   0.3033213 
2851.4     107.5308   2.506713   0.3063073 
2851.5     108.8493   2.51984    0.3073027 
2851.6     109.0647   2.548065   0.3092934 
2851.7     110.4941   2.557981   0.3192468 
2851.8     110.951    2.559903   0.3172561 
2851.9     111.4341   2.558812   0.3232282 
2852       112.3413   2.540608   0.3311909 
2852.1     113.2682   2.51071    0.3351723 
2852.2     114.2995   2.50625    0.3282049 
2852.3     113.6011   2.51126    0.3262142 
2852.4     112.1129   2.505956   0.3162608 
2852.5     110.3636   2.481641   0.3102887 
2852.6     108.9341   2.453631   0.3092934 
2852.7     106.9433   2.41619    0.3152654 
2852.8     105.5334   2.406167   0.3112841 
2852.9     104.5152   2.40326    0.3122794 
2853       102.8638   2.415774   0.3102887 
2853.1     102.8572   2.43526    0.3073027 
2853.2     100.8599   2.4301     0.3003353 
2853.3     101.1732   2.412165   0.3003353 
2853.4     101.3821   2.411838   0.2963539 
2853.5     103.5426   2.429078   0.2923725 
2853.6     103.7188   2.43585    0.2913772 
2853.7     107.1652   2.432449   0.2963539 
2853.8     107.3284   2.439753   0.2933679 
2853.9     109.1169   2.438105   0.2973493 
2854       109.4041   2.42621    0.302326  
2854.1     109.6717   2.417965   0.3073027 
2854.2     106.036    2.404863   0.3112841 
2854.3     105.7227   2.379471   0.3112841 
2854.4     103.6144   2.379168   0.3142701 
2854.5     99.48264   2.392982   0.3182515 
2854.6     99.10406   2.40639    0.3202422 
2854.7     96.51926   2.413088   0.3202422 
2854.8     95.57281   2.433834   0.3192468 
2854.9     95.25951   2.4522     0.3202422 
2855       95.93182   2.457367   0.3232282 
2855.1     96.37567   2.45136    0.3232282 
2855.2     97.64195   2.451511   0.3112841 
2855.3     97.52447   2.481649   0.3122794 
2855.4     98.07928   2.519177   0.3043167 
2855.5     100.1484   2.508002   0.302326  
2855.6     99.89386   2.491567   0.305312  
2855.7     101.3429   2.485482   0.3192468 
2855.8     101.8063   2.489575   0.3192468 
2855.9     101.8651   2.508291   0.3282049 
2856       101.604    2.514048   0.3361676 
2856.1     100.8273   2.493957   0.3391537 
2856.2     102.3024   2.484367   0.3311909 
2856.3     102.9551   2.464481   0.3311909 
2856.4     103.6992   2.444299   0.3242235 
2856.5     101.2515   2.441354   0.308298  
2856.6     101.245    2.450141   0.2903819 
2856.7     101.3886   2.47292    0.2883912 
2856.8     101.3951   2.491479   0.2824191 
2856.9     102.1719   2.507607   0.2794331 
2857       102.3612   2.508058   0.2794331 
2857.1     101.6627   2.510009   0.2824191 
2857.2     100.7098   2.517551   0.2834145 
2857.3     100.4487   2.517291   0.2883912 
2857.4     100.5988   2.498678   0.2943632 
2857.5     100.9774   2.466361   0.3013306 
2857.6     101.2581   2.469524   0.308298  
2857.7     100.9121   2.477417   0.3112841 
2857.8     100.9513   2.501732   0.3182515 
2857.9     100.8011   2.526064   0.3272096 
2858       101.4278   2.527336   0.3331816 
2858.1     102.2241   2.527997   0.3212375 
2858.2     103.5361   2.513391   0.3222328 
2858.3     103.3402   2.488739   0.3102887 
2858.4     102.5766   2.48869    0.3003353 
2858.5     100.4552   2.505675   0.2883912 
2858.6     100.4813   2.491686   0.2684843 
2858.7     97.7725    2.491861   0.267489  
2858.8     97.73334   2.481179   0.2595262 
2858.9     95.68378   2.454164   0.2515635 
2859       91.51286   2.427485   0.2406147 
2859.1     89.26096   2.418602   0.2167265 
2859.2     81.76114   2.447154   0.2286706 
2859.3     77.61633   2.474216   0.2246892 
2859.4     70.87366   2.49349    0.2217032 
2859.5     63.41954   2.536641   0.2167265 
2859.6     63.00832   2.539796   0.2087637 
2859.7     65.00566   2.537558   0.203787  
2859.8     68.02778   2.532236   0.200801  
2859.9     74.59421   2.511672   0.2027917 
2860       86.19968   2.46707    0.2117497 
2860.1     89.12389   2.467668   0.2465868 
2860.2     96.8848    2.45643    0.2346426 
2860.3     98.61452   2.476837   0.2545495 
2860.4     101.48     2.493443   0.2744564 
2860.5     103.9146   2.487568   0.2923725 
2860.6     104.946    2.475698   0.308298  
2860.7     105.6509   2.487588   0.3122794 
2860.8     105.7619   2.483314   0.3102887 
2860.9     105.566    2.450851   0.3013306 
2861       104.9851   2.448094   0.2913772 
2861.1     104.5935   2.442589   0.2943632 
2861.2     105.2984   2.457522   0.2973493 
2861.3     105.7684   2.438678   0.3122794 
2861.4     107.942    2.408365   0.3232282 
2861.5     111.173    2.41019    0.3232282 
2861.6     111.5581   2.418339   0.3142701 
2861.7     112.7917   2.414955   0.3132748 
2861.8     111.9954   2.398351   0.3102887 
2861.9     111.6299   2.391398   0.308298  
2862       111.4928   2.407242   0.305312  
2862.1     111.7082   2.429859   0.302326  
2862.2     110.9576   2.431596   0.302326  
2862.3     110.7683   2.418052   0.305312  
2862.4     109.2278   2.416268   0.3122794 
2862.5     106.6887   2.433444   0.3202422 
2862.6     105.8859   2.471061   0.3292002 
2862.7     102.8572   2.486425   0.3301956 
2862.8     101.7802   2.492714   0.3272096 
2862.9     99.7111    2.51069    0.3202422 
2863       97.68112   2.526038   0.3102887 
2863.1     97.02839   2.531112   0.3013306 
2863.2     96.67592   2.526637   0.3013306 
2863.3     96.57149   2.518852   0.2993399 
2863.4     98.33384   2.506579   0.2953586 
2863.5     100.5531   2.502648   0.2854051 
2863.6     101.4735   2.523074   0.273461  
2863.7     100.4226   2.51742    0.2724657 
2863.8     100.3051   2.500043   0.2744564 
2863.9     99.95914   2.494412   0.2804284 
2864       100.1223   2.486819   0.2834145 
2864.1     100.3899   2.475268   0.2754517 
2864.2     100.0244   2.449845   0.2764471 
2864.3     100.2268   2.434527   0.273461  
2864.4     99.67193   2.469753   0.2724657 
2864.5     98.78423   2.507317   0.273461  
2864.6     97.75945   2.509316   0.2774424 
2864.7     96.21249   2.48626    0.2774424 
2864.8     95.93182   2.47052    0.2804284 
2864.9     95.5206    2.466832   0.2814238 
2865       95.65767   2.484007   0.2824191 
2865.1     95.28561   2.504656   0.2913772 
2865.2     95.72294   2.52874    0.2873958 
2865.3     95.89918   2.539581   0.2933679 
2865.4     97.21768   2.538004   0.2983446 
2865.5     99.74373   2.515355   0.3013306 
2865.6     100.3116   2.489065   0.3043167 
2865.7     101.3298   2.4928     0.305312  
2865.8     101.1797   2.482326   0.308298  
2865.9     101.0296   2.478861   0.3132748 
2866       101.1079   2.477681   0.3202422 
2866.1     101.2842   2.486397   0.3292002 
2866.2     102.2763   2.48838    0.3292002 
2866.3     103.0792   2.471786   0.3282049 
2866.4     103.6862   2.468425   0.3232282 
2866.5     104.3716   2.472487   0.3122794 
2866.6     103.6992   2.474607   0.2893865 
2866.7     102.9486   2.464253   0.2873958 
2866.8     101.8651   2.441641   0.2844098 
2866.9     100.7163   2.431661   0.2873958 
2867       98.62105   2.433898   0.2893865 
2867.1     98.2751    2.450444   0.2844098 
2867.2     96.9109    2.436188   0.2814238 
2867.3     96.4801    2.410094   0.2754517 
2867.4     96.57802   2.405888   0.2694797 
2867.5     96.94354   2.413966   0.2684843 
2867.6     97.64195   2.410723   0.2744564 
2867.7     98.79076   2.425887   0.2764471 
2867.8     99.67847   2.433077   0.2854051 
2867.9     100.997    2.427088   0.2923725 
2868       102.6941   2.441984   0.2993399 
2868.1     103.3794   2.433539   0.3073027 
