~Version
 VERS              .         2.0                           : CWLS LOG ASCII STANDARD - VERSION 2.0
 WRAP              .         NO                            : ONE LINE PER DEPTH STEP
 DLM               .         SPACE                         : DELIMITING CHARACTER(SPACE TAB OR COMMA)
~Well Information
#_______________________________________________________________________________
#
#PARAMETER_NAME    .UNIT     VALUE                         : DESCRIPTION
#_______________________________________________________________________________
STRT               .m        2759                          : First reference value
STOP               .m        2936.8                        : Last reference value
STEP               .m        0.1                           : Step increment
NULL               .         -9999                         : Missing value
COMP               .                                       : Company
WELL               .         303                           : Well name
FLD                .                                       : Field
LOC                .                                       : Location
CNTY               .                                       : County
STAT               .                                       : State
CTRY               .                                       : Country
SRVC               .                                       : Service Company
DATE               .                                       : Date
API                .                                       : API number
Cartographic_reference_system .         GCS_WGS_1984                  : GEOGCS["GCS_WGS_1984",DATUM["D_WGS_1984",SPHEROID["WGS_1984",6378137.0,298.257223563]],PRIMEM["Greenwich",0.0],UNIT["Degree",0.0174532925199433],AUTHORITY["EPSG",4326]]
EREF               .m        138.34                        : 
HZCS               .GCS_WGS_1984 World_Mercator                : PROJCS["World_Mercator",GEOGCS["GCS_WGS_1984",DATUM["D_WGS_1984",SPHEROID["WGS_1984",6378137.0,298.257223563]],PRIMEM["Greenwich",0.0],UNIT["Degree",0.0174532925199433]],PROJECTION["Mercator"],PARAMETER["False_Easting",0.0],PARAMETER["False_Northing",0.0],PARAMETER["Central_Meridian",0.0],PARAMETER["Standard_Parallel_1",0.0],UNIT["Meter",1.0],AUTHORITY["ESRI",54004]]
LATI               .dega     2.2598774867                  : GCS_WGS_1984
LONG               .dega     1.9740478369                  : GCS_WGS_1984
PROJECT_UPGRADE_TIME .         2014-05-27T11_38_46           : 
Pad                .         Pad3                          : 
X                  .m        219750                        : 
Y                  .m        249950                        : 
group              .         Pad3                          : 
Интер-р            .         Ярышев                        : 
Куст               .         3                             : 
Статус             .         Проверено                     : 
Тип                .         Нагнетательные                : 
~Parameter Information Block
#_______________________________________________________________________________
#
#PARAMETER_NAME    .UNIT     VALUE                         : DESCRIPTION
#_______________________________________________________________________________
SET                .         LQC                           : 
PROJECT_UPGRADE_TIME .         2014-05-27T11_38_46           : 
TLFamily_GR_NORM   .         Gamma Ray                     : 
TLFamily_MD        .         Measured Depth                : 
TLFamily_RHOB_NORM .         Bulk Density                  : 
TLFamily_TNPH_NORM .         Neutron Porosity              : 
~Curve Information
#_______________________________________________________________________________
#
#LOGNAME           .UNIT     LOG_ID                        : DESCRIPTION
#_______________________________________________________________________________
MD                 .m                                      :  
GR_NORM            .gAPI                                   : Normalised By Techlog 
RHOB_NORM          .g/cm3                                  : Normalized By Techlog 
TNPH_NORM          .v/v                                    : Normalised By Techlog 
~Ascii
# ...
2904.6     84.45036   2.526213   0.2724657 
2904.7     84.23496   2.517604   0.2654983 
2904.8     84.01304   2.509205   0.2595262 
2904.9     83.66057   2.50762    0.2585309 
2905       83.39295   2.522445   0.2635076 
2905.1     82.70106   2.548193   0.2754517 
2905.2     82.36164   2.539114   0.2893865 
2905.3     81.39561   2.519593   0.2973493 
2905.4     81.80029   2.480942   0.2953586 
2905.5     81.86557   2.454993   0.2913772 
2905.6     81.57185   2.430408   0.2893865 
2905.7     81.25854   2.410027   0.2893865 
2905.8     79.99225   2.388672   0.2933679 
2905.9     79.20898   2.350252   0.2923725 
2906       77.62286   2.303694   0.2943632 
2906.1     74.90099   2.25043    0.3013306 
2906.2     74.90099   2.182534   0.3262142 
2906.3     74.28742   2.120577   0.3222328 
2906.4     71.01073   2.068091   0.3391537 
2906.5     69.6596    1.987354   0.3610512 
2906.6     66.38291   1.934003   0.3849395 
2906.7     60.69767   1.88808    0.435702  
2906.8     57.79957   1.861508   0.409823  
2906.9     49.63397   1.843508   0.4307252 
2907       45.76983   1.809942   0.4605855 
2907.1     38.08072   1.79988    0.4914412 
2907.2     25.98571   1.804674   0.5123433 
2907.3     23.12024   1.812244   0.4964179 
2907.4     16.74964   1.818034   0.4785017 
2907.5     16.78227   1.817231   0.4675529 
2907.6     16.59298   1.81371    0.4585949 
2907.7     17.63734   1.810898   0.441674  
2907.8     17.49374   1.805393   0.4466507 
2907.9     18.54463   1.800009   0.438688  
2908       18.77962   1.80184    0.4317206 
2908.1     20.30047   1.810706   0.4227625 
2908.2     23.39439   1.821625   0.4048463 
2908.3     25.21549   1.835498   0.4118137 
2908.4     30.20232   1.857488   0.4108184 
2908.5     32.89155   1.890251   0.4138044 
2908.6     38.14599   1.923392   0.4177858 
2908.7     46.54005   1.928633   0.403851  
2908.8     48.83111   1.914007   0.4197765 
2908.9     55.27352   1.936442   0.3968836 
2909       56.83353   2.024303   0.3789674 
2909.1     60.07105   2.147337   0.3262142 
2909.2     65.59312   2.283529   0.3461211 
2909.3     67.57088   2.401474   0.3222328 
2909.4     74.09161   2.440073   0.302326  
2909.5     75.5276    2.421072   0.2873958 
2909.6     76.70251   2.360551   0.2824191 
2909.7     75.08375   2.310589   0.2754517 
2909.8     74.53545   2.261719   0.2824191 
2909.9     71.2392    2.197549   0.2953586 
2910       70.30579   2.114515   0.3102887 
2910.1     67.82544   2.074404   0.3192468 
2910.2     64.77721   2.053974   0.3172561 
2910.3     -9999      2.051731   0.3073027 
2910.4     -9999      2.120646   0.2943632 
2910.5     -9999      2.263049   0.2764471 
2910.6     -9999      2.378324   0.2326519 
2910.7     -9999      2.490249   0.2485774 
2910.8     -9999      2.524349   0.2286706 
2910.9     -9999      2.540151   0.2087637 
2911       -9999      2.527719   0.1948289 
2911.1     -9999      2.489536   0.1878615 
2911.2     -9999      2.458729   0.1898522 
2911.3     -9999      2.414308   0.1908475 
2911.4     -9999      2.403324   0.1898522 
2911.5     -9999      2.407847   0.1868662 
2911.6     -9999      2.392584   0.1868662 
2911.7     -9999      2.377563   0.1888569 
2911.8     -9999      2.385621   0.1888569 
2911.9     -9999      2.416786   0.1878615 
2912       -9999      2.44717    0.1878615 
2912.1     -9999      2.440781   0.1868662 
2912.2     -9999      2.411854   0.1848755 
2912.3     -9999      2.408963   0.1848755 
2912.4     -9999      2.433071   0.1868662 
2912.5     -9999      2.442637   0.1948289 
2912.6     -9999      2.454085   0.1928382 
2912.7     -9999      2.453982   0.1958243 
2912.8     -9999      2.467962   0.1988103 
2912.9     -9999      2.489602   0.200801  
2913       -9999      2.480796   0.200801  
2913.1     -9999      2.478781   0.200801  
2913.2     -9999      2.480413   0.200801  
2913.3     -9999      2.482039   0.2027917 
2913.4     -9999      2.517751   0.2107544 
2913.5     -9999      2.545086   0.2346426 
2913.6     -9999      2.566683   0.2316566 
2913.7     -9999      2.596963   0.2465868 
2913.8     -9999      2.608132   0.2575355 
2913.9     -9999      2.577414   0.2645029 
2914       -9999      2.537685   0.2635076 
2914.1     -9999      2.496163   0.2645029 
2914.2     -9999      2.469562   0.2535542 
2914.3     -9999      2.456451   0.2455914 
2914.4     -9999      2.451043   0.238624  
2914.5     -9999      2.437236   0.2376287 
2914.6     -9999      2.442422   0.2376287 
2914.7     -9999      2.476422   0.2396194 
2914.8     -9999      2.485504   0.2406147 
2914.9     -9999      2.481658   0.238624  
2915       -9999      2.518374   0.2406147 
2915.1     -9999      2.554916   0.2426054 
2915.2     -9999      2.550274   0.2455914 
2915.3     -9999      2.538529   0.2465868 
2915.4     -9999      2.552522   0.2495728 
2915.5     -9999      2.597377   0.2475821 
2915.6     -9999      2.62863    0.2505681 
2915.7     -9999      2.616517   0.2505681 
2915.8     -9999      2.591825   0.2436007 
2915.9     -9999      2.569771   0.2167265 
2916       -9999      2.529814   0.2256846 
2916.1     -9999      2.503031   0.2147358 
2916.2     -9999      2.489339   0.1988103 
2916.3     -9999      2.473324   0.1958243 
2916.4     -9999      2.464658   0.1948289 
2916.5     -9999      2.445091   0.1938336 
2916.6     -9999      2.447019   0.1988103 
2916.7     -9999      2.47033    0.203787  
2916.8     -9999      2.466425   0.2057777 
2916.9     -9999      2.458468   0.2047824 
2917       -9999      2.448054   0.2027917 
2917.1     -9999      2.460179   0.2017963 
2917.2     -9999      2.468311   0.1988103 
2917.3     -9999      2.464178   0.1968196 
2917.4     -9999      2.470446   0.1978149 
2917.5     -9999      2.447114   0.1978149 
2917.6     -9999      2.442932   0.2017963 
2917.7     -9999      2.445488   0.2057777 
2917.8     -9999      2.455758   0.2087637 
2917.9     -9999      2.460091   0.2117497 
2918       -9999      2.464393   0.2087637 
2918.1     -9999      2.46856    0.2127451 
2918.2     -9999      2.450051   0.2187172 
2918.3     -9999      2.450237   0.2226985 
2918.4     -9999      2.44784    0.2246892 
2918.5     -9999      2.431699   0.2266799 
2918.6     -9999      2.454316   0.2266799 
2918.7     -9999      2.508705   0.2266799 
2918.8     -9999      2.539485   0.2276752 
2918.9     -9999      2.530439   0.2376287 
2919       -9999      2.494061   0.2336473 
2919.1     -9999      2.477761   0.238624  
2919.2     -9999      2.450364   0.2455914 
2919.3     -9999      2.375551   0.2555448 
2919.4     -9999      2.288285   0.2744564 
2919.5     -9999      2.22195    0.2784377 
2919.6     -9999      2.194267   0.2873958 
2919.7     -9999      2.218422   0.2824191 
2919.8     -9999      2.216788   0.2605216 
2919.9     -9999      2.22316    0.2177218 
2920       -9999      2.302794   0.2226985 
2920.1     -9999      2.334787   0.2167265 
2920.2     -9999      2.341024   0.2177218 
2920.3     -9999      2.375058   0.2246892 
2920.4     -9999      2.394061   0.2495728 
2920.5     -9999      2.378196   0.2396194 
2920.6     -9999      2.382339   0.2555448 
2920.7     -9999      2.365813   0.2774424 
2920.8     -9999      2.354289   0.302326  
2920.9     -9999      2.363902   0.337163  
2921       -9999      2.326159   0.3272096 
2921.1     -9999      2.296668   0.3262142 
2921.2     -9999      2.3062     0.3222328 
2921.3     -9999      2.311589   0.3122794 
2921.4     -9999      2.299348   0.2854051 
2921.5     -9999      2.322814   0.2893865 
2921.6     -9999      2.381359   0.2794331 
2921.7     -9999      2.46884    0.2794331 
2921.8     -9999      2.522421   0.2873958 
2921.9     -9999      2.542134   0.2973493 
2922       -9999      2.569304   0.2933679 
2922.1     -9999      2.582034   0.2854051 
2922.2     -9999      2.579764   0.2794331 
2922.3     -9999      2.586846   0.2744564 
2922.4     -9999      2.626094   0.2555448 
2922.5     -9999      2.614027   0.2605216 
2922.6     -9999      2.572777   0.2545495 
2922.7     -9999      2.538219   0.2525588 
