~Version
 VERS              .         2.0                           : CWLS LOG ASCII STANDARD - VERSION 2.0
 WRAP              .         NO                            : ONE LINE PER DEPTH STEP
 DLM               .         SPACE                         : DELIMITING CHARACTER(SPACE TAB OR COMMA)
~Well Information
#_______________________________________________________________________________
#
#PARAMETER_NAME    .UNIT     VALUE                         : DESCRIPTION
#_______________________________________________________________________________
STRT               .m        2759                          : First reference value
STOP               .m        2936.8                        : Last reference value
STEP               .m        0.1                           : Step increment
NULL               .         -9999                         : Missing value
COMP               .                                       : Company
WELL               .         303                           : Well name
FLD                .                                       : Field
LOC                .                                       : Location
CNTY               .                                       : County
STAT               .                                       : State
CTRY               .                                       : Country
SRVC               .                                       : Service Company
DATE               .                                       : Date
API                .                                       : API number
Cartographic_reference_system .         GCS_WGS_1984                  : GEOGCS["GCS_WGS_1984",DATUM["D_WGS_1984",SPHEROID["WGS_1984",6378137.0,298.257223563]],PRIMEM["Greenwich",0.0],UNIT["Degree",0.0174532925199433],AUTHORITY["EPSG",4326]]
EREF               .m        138.34                        : 
HZCS               .GCS_WGS_1984 World_Mercator                : PROJCS["World_Mercator",GEOGCS["GCS_WGS_1984",DATUM["D_WGS_1984",SPHEROID["WGS_1984",6378137.0,298.257223563]],PRIMEM["Greenwich",0.0],UNIT["Degree",0.0174532925199433]],PROJECTION["Mercator"],PARAMETER["False_Easting",0.0],PARAMETER["False_Northing",0.0],PARAMETER["Central_Meridian",0.0],PARAMETER["Standard_Parallel_1",0.0],UNIT["Meter",1.0],AUTHORITY["ESRI",54004]]
LATI               .dega     2.2598774867                  : GCS_WGS_1984
LONG               .dega     1.9740478369                  : GCS_WGS_1984
PROJECT_UPGRADE_TIME .         2014-05-27T11_38_46           : 
Pad                .         Pad3                          : 
X                  .m        219750                        : 
Y                  .m        249950                        : 
group              .         Pad3                          : 
Интер-р            .         Ярышев                        : 
Куст               .         3                             : 
Статус             .         Проверено                     : 
Тип                .         Нагнетательные                : 
~Parameter Information Block
#_______________________________________________________________________________
#
#PARAMETER_NAME    .UNIT     VALUE                         : DESCRIPTION
#_______________________________________________________________________________
SET                .         LQC                           : 
PROJECT_UPGRADE_TIME .         2014-05-27T11_38_46           : 
TLFamily_GR_NORM   .         Gamma Ray                     : 
TLFamily_MD        .         Measured Depth                : 
TLFamily_RHOB_NORM .         Bulk Density                  : 
TLFamily_TNPH_NORM .         Neutron Porosity              : 
~Curve Information
#_______________________________________________________________________________
#
#LOGNAME           .UNIT     LOG_ID                        : DESCRIPTION
#_______________________________________________________________________________
MD                 .m                                      :  
GR_NORM            .gAPI                                   : Normalised By Techlog 
RHOB_NORM          .g/cm3                                  : Normalized By Techlog 
TNPH_NORM          .v/v                                    : Normalised By Techlog 
~Ascii
# ...
2831.8     109.6391   2.345566   0.2834145 
2831.9     105.912    2.3576     0.2824191 
2832       105.1157   2.38112    0.2774424 
2832.1     104.0844   2.382068   0.2714703 
2832.2     102.6418   2.388352   0.2694797 
2832.3     101.4017   2.387422   0.2694797 
2832.4     99.14975   2.377562   0.2724657 
2832.5     97.71376   2.368812   0.2764471 
2832.6     95.89265   2.372763   0.2764471 
2832.7     94.16946   2.366344   0.2724657 
2832.8     93.24258   2.365498   0.2684843 
2832.9     90.91235   2.361189   0.2694797 
2833       90.27921   2.349453   0.273461  
2833.1     87.96203   2.358742   0.2804284 
2833.2     84.23496   2.369805   0.2834145 
2833.3     84.28065   2.386537   0.2744564 
2833.4     83.24283   2.394868   0.2724657 
2833.5     83.54961   2.380188   0.2625122 
2833.6     84.02609   2.372094   0.2535542 
2833.7     84.70493   2.374324   0.2475821 
2833.8     84.79631   2.372787   0.2416101 
2833.9     84.44384   2.366272   0.2426054 
2834       84.38509   2.363204   0.2455914 
2834.1     86.85892   2.356344   0.2505681 
2834.2     88.07952   2.357834   0.2605216 
2834.3     91.0429    2.36267    0.2854051 
2834.4     92.27655   2.358736   0.2824191 
2834.5     93.98016   2.379248   0.2923725 
2834.6     95.9057    2.413918   0.2983446 
2834.7     95.8796    2.433782   0.2993399 
2834.8     95.1616    2.430217   0.2883912 
2834.9     94.18904   2.398798   0.2903819 
2835       92.49848   2.365251   0.2864005 
2835.1     90.36406   2.35323    0.2864005 
2835.2     90.20088   2.345958   0.2864005 
2835.3     90.65127   2.340523   0.2794331 
2835.4     91.51939   2.35677    0.2784377 
2835.5     93.49715   2.352473   0.2744564 
2835.6     98.00748   2.346052   0.2744564 
2835.7     98.33384   2.362832   0.2804284 
2835.8     99.31947   2.371369   0.2953586 
2835.9     99.00616   2.372246   0.2963539 
2836       97.92915   2.354265   0.3003353 
2836.1     96.31692   2.344522   0.3013306 
2836.2     95.53365   2.341942   0.2963539 
2836.3     93.30785   2.347558   0.2844098 
2836.4     92.54417   2.339458   0.2774424 
2836.5     91.29093   2.340204   0.2694797 
2836.6     90.58599   2.336452   0.2664936 
2836.7     90.95152   2.346336   0.2764471 
2836.8     91.95019   2.338452   0.2764471 
2836.9     93.06635   2.325119   0.2883912 
2837       94.4697    2.320519   0.2983446 
2837.1     96.4801    2.326542   0.3033213 
2837.2     97.00229   2.346962   0.305312  
2837.3     98.86908   2.34751    0.305312  
2837.4     99.93303   2.334711   0.3033213 
2837.5     102.3742   2.325706   0.3003353 
2837.6     104.9982   2.304355   0.2973493 
2837.7     106.0164   2.276058   0.2933679 
2837.8     106.878    2.255879   0.2933679 
2837.9     107.0608   2.259837   0.2913772 
2838       107.348    2.259488   0.2913772 
2838.1     107.237    2.259879   0.2963539 
2838.2     107.459    2.26402    0.3122794 
2838.3     107.955    2.266339   0.3152654 
2838.4     107.6026   2.289269   0.3242235 
2838.5     107.2762   2.312665   0.3292002 
2838.6     105.1744   2.320432   0.3272096 
2838.7     103.9342   2.339243   0.3152654 
2838.8     100.0048   2.348298   0.3152654 
2838.9     98.68632   2.341553   0.3112841 
2839       96.38219   2.336054   0.3112841 
2839.1     93.33396   2.329513   0.3142701 
2839.2     92.52459   2.331138   0.3192468 
2839.3     91.73479   2.338133   0.3152654 
2839.4     92.22433   2.329564   0.3182515 
2839.5     94.28694   2.288805   0.3212375 
2839.6     98.6341    2.255067   0.3222328 
2839.7     99.65234   2.247938   0.3222328 
2839.8     103.5752   2.255752   0.3252189 
2839.9     104.2606   2.262689   0.3262142 
2840       105.7945   2.27476    0.3222328 
2840.1     104.7175   2.300691   0.3112841 
2840.2     104.0648   2.317767   0.2883912 
2840.3     98.25552   2.321372   0.2903819 
2840.4     96.21249   2.338869   0.2864005 
2840.5     92.13948   2.369258   0.2844098 
2840.6     86.03649   2.400383   0.2844098 
2840.7     84.69188   2.395677   0.2903819 
2840.8     80.34472   2.383837   0.2883912 
2840.9     79.60061   2.387563   0.2943632 
2841       79.20245   2.366964   0.2993399 
2841.1     81.55879   2.351923   0.3033213 
2841.2     81.88515   2.34012    0.3092934 
2841.3     83.88902   2.332652   0.3092934 
2841.4     84.41772   2.302419   0.3122794 
2841.5     86.278     2.276688   0.3132748 
2841.6     91.25177   2.269534   0.3212375 
2841.7     93.74519   2.275611   0.3510978 
2841.8     99.91997   2.282225   0.3481117 
2841.9     102.0283   2.295493   0.3640372 
2842       105.6705   2.302706   0.3700093 
2842.1     111.5972   2.302204   0.3660279 
2842.2     113.327    2.301145   0.3471164 
2842.3     118.2877   2.307925   0.3501024 
2842.4     119.9456   2.312417   0.3461211 
2842.5     121.9168   2.311254   0.3471164 
2842.6     122.7393   2.311796   0.3461211 
2842.7     122.0408   2.304278   0.334177  
2842.8     118.3856   2.288446   0.3351723 
2842.9     115.7616   2.286065   0.3252189 
2843       111.3231   2.27566    0.3162608 
2843.1     105.2136   2.274298   0.3102887 
2843.2     103.1444   2.283807   0.305312  
2843.3     96.41483   2.310609   0.3092934 
2843.4     94.65247   2.355544   0.3043167 
2843.5     90.51419   2.400956   0.2963539 
2843.6     85.64486   2.407346   0.2923725 
2843.7     85.55347   2.370567   0.3003353 
2843.8     86.75449   2.350672   0.2963539 
2843.9     87.25709   2.358095   0.3033213 
2844       89.65912   2.368939   0.3112841 
2844.1     94.31306   2.358201   0.3202422 
2844.2     95.95792   2.331584   0.3321863 
2844.3     102.0609   2.302666   0.3292002 
2844.4     103.2097   2.269303   0.3311909 
2844.5     107.3349   2.27609    0.3331816 
2844.6     112.6612   2.290701   0.3381583 
2844.7     115.0175   2.294636   0.3520931 
2844.8     120.5592   2.287952   0.3520931 
2844.9     123.1244   2.282879   0.3550792 
2845       128.4833   2.26426    0.3510978 
2845.1     138.7376   2.225033   0.3421397 
2845.2     141.6422   2.225128   0.3351723 
2845.3     151.3613   2.242663   0.334177  
2845.4     153.7046   2.239183   0.337163  
2845.5     156.6223   2.215713   0.343135  
2845.6     156.805    2.211737   0.3481117 
2845.7     155.5257   2.220824   0.3530885 
2845.8     152.1119   2.237413   0.3520931 
2845.9     151.5832   2.251399   0.3530885 
2846       150.3235   2.253768   0.3540838 
2846.1     149.0833   2.255744   0.3530885 
2846.2     148.6655   2.265341   0.3550792 
2846.3     148.8157   2.259146   0.3560745 
2846.4     149.4814   2.243862   0.3650326 
2846.5     151.7268   2.221241   0.3739907 
2846.6     157.3533   2.19919    0.3799627 
2846.7     159.7814   2.185459   0.3789674 
2846.8     166.2304   2.181664   0.3809581 
2846.9     167.5228   2.181314   0.3829488 
2847       169.2329   2.186253   0.3879255 
2847.1     166.7722   2.199063   0.3879255 
2847.2     165.1338   2.202934   0.3769767 
2847.3     157.5034   2.202927   0.3819534 
2847.4     155.9238   2.197877   0.3789674 
2847.5     153.2085   2.209865   0.3779721 
2847.6     153.1889   2.212765   0.3789674 
2847.7     155.7607   2.202539   0.3819534 
2847.8     163.7762   2.200162   0.3739907 
2847.9     166.1194   2.189347   0.3660279 
2848       170.9496   2.160409   0.3600559 
2848.1     174.2589   2.149511   0.3590605 
2848.2     171.3543   2.164412   0.3570698 
2848.3     159.8598   2.187392   0.3650326 
2848.4     153.7633   2.2205     0.3590605 
2848.5     141.3289   2.274186   0.3501024 
2848.6     123.392    2.310745   0.3391537 
2848.7     119.0971   2.332464   0.3242235 
2848.8     107.6221   2.339663   0.3262142 
2848.9     105.2071   2.340595   0.3242235 
2849       100.9839   2.333608   0.3262142 
2849.1     96.93049   2.329099   0.3292002 
2849.2     95.80127   2.319869   0.3232282 
2849.3     94.60025   2.320177   0.3212375 
2849.4     93.44493   2.32885    0.3182515 
2849.5     93.2948    2.333744   0.3232282 
2849.6     93.62117   2.343216   0.3351723 
2849.7     93.64728   2.340994   0.3391537 
2849.8     94.89398   2.345869   0.3381583 
2849.9     94.82218   2.353475   0.3282049 
