~Version
 VERS              .         2.0                           : CWLS LOG ASCII STANDARD - VERSION 2.0
 WRAP              .         NO                            : ONE LINE PER DEPTH STEP
 DLM               .         SPACE                         : DELIMITING CHARACTER(SPACE TAB OR COMMA)
~Well Information
#_______________________________________________________________________________
#
#PARAMETER_NAME    .UNIT     VALUE                         : DESCRIPTION
#_______________________________________________________________________________
STRT               .m        2759                          : First reference value
STOP               .m        2936.8                        : Last reference value
STEP               .m        0.1                           : Step increment
NULL               .         -9999                         : Missing value
COMP               .                                       : Company
WELL               .         303                           : Well name
FLD                .                                       : Field
LOC                .                                       : Location
CNTY               .                                       : County
STAT               .                                       : State
CTRY               .                                       : Country
SRVC               .                                       : Service Company
DATE               .                                       : Date
API                .                                       : API number
Cartographic_reference_system .         GCS_WGS_1984                  : GEOGCS["GCS_WGS_1984",DATUM["D_WGS_1984",SPHEROID["WGS_1984",6378137.0,298.257223563]],PRIMEM["Greenwich",0.0],UNIT["Degree",0.0174532925199433],AUTHORITY["EPSG",4326]]
EREF               .m        138.34                        : 
HZCS               .GCS_WGS_1984 World_Mercator                : PROJCS["World_Mercator",GEOGCS["GCS_WGS_1984",DATUM["D_WGS_1984",SPHEROID["WGS_1984",6378137.0,298.257223563]],PRIMEM["Greenwich",0.0],UNIT["Degree",0.0174532925199433]],PROJECTION["Mercator"],PARAMETER["False_Easting",0.0],PARAMETER["False_Northing",0.0],PARAMETER["Central_Meridian",0.0],PARAMETER["Standard_Parallel_1",0.0],UNIT["Meter",1.0],AUTHORITY["ESRI",54004]]
LATI               .dega     2.2598774867                  : GCS_WGS_1984
LONG               .dega     1.9740478369                  : GCS_WGS_1984
PROJECT_UPGRADE_TIME .         2014-05-27T11_38_46           : 
Pad                .         Pad3                          : 
X                  .m        219750                        : 
Y                  .m        249950                        : 
group              .         Pad3                          : 
Интер-р            .         Ярышев                        : 
Куст               .         3                             : 
Статус             .         Проверено                     : 
Тип                .         Нагнетательные                : 
~Parameter Information Block
#_______________________________________________________________________________
#
#PARAMETER_NAME    .UNIT     VALUE                         : DESCRIPTION
#_______________________________________________________________________________
SET                .         LQC                           : 
PROJECT_UPGRADE_TIME .         2014-05-27T11_38_46           : 
TLFamily_GR_NORM   .         Gamma Ray                     : 
TLFamily_MD        .         Measured Depth                : 
TLFamily_RHOB_NORM .         Bulk Density                  : 
TLFamily_TNPH_NORM .         Neutron Porosity              : 
~Curve Information
#_______________________________________________________________________________
#
#LOGNAME           .UNIT     LOG_ID                        : DESCRIPTION
#_______________________________________________________________________________
MD                 .m                                      :  
GR_NORM            .gAPI                                   : Normalised By Techlog 
RHOB_NORM          .g/cm3                                  : Normalized By Techlog 
TNPH_NORM          .v/v                                    : Normalised By Techlog 
~Ascii
# ...
2795.4     58.73297   2.476928   0.2057777 
2795.5     61.3504    2.486062   0.2097591 
2795.6     65.34508   2.501055   0.2087637 
2795.7     66.3307    2.494636   0.206773  
2795.8     67.23146   2.505723   0.2017963 
2795.9     67.67531   2.514795   0.1958243 
2796       67.19882   2.51831    0.1908475 
2796.1     67.60352   2.528643   0.1908475 
2796.2     67.5056    2.526891   0.1928382 
2796.3     67.72753   2.517035   0.1978149 
2796.4     67.49255   2.528233   0.203787  
2796.5     67.18577   2.554837   0.203787  
2796.6     66.0696    2.558645   0.200801  
2796.7     66.31112   2.553022   0.1968196 
2796.8     66.09572   2.555179   0.1948289 
2796.9     65.79546   2.540079   0.1978149 
2797       66.5722    2.506528   0.1978149 
2797.1     69.01993   2.488866   0.2027917 
2797.2     70.20136   2.505862   0.2097591 
2797.3     72.53812   2.513881   0.2197125 
2797.4     75.20124   2.496551   0.2316566 
2797.5     75.24041   2.497701   0.2326519 
2797.6     72.4859    2.513108   0.2316566 
2797.7     71.4089    2.519225   0.2286706 
2797.8     68.47816   2.527894   0.2246892 
2797.9     67.55782   2.542779   0.2256846 
2798       67.44686   2.546774   0.2246892 
2798.1     71.36321   2.513204   0.2276752 
2798.2     72.38146   2.484643   0.2346426 
2798.3     75.86049   2.485823   0.2426054 
2798.4     81.19327   2.511349   0.2565402 
2798.5     83.47128   2.530778   0.2545495 
2798.6     87.4529    2.545245   0.2585309 
2798.7     88.2166    2.532885   0.2585309 
2798.8     88.92806   2.547985   0.2565402 
2798.9     89.07166   2.552844   0.2505681 
2799       89.52205   2.507221   0.2505681 
2799.1     88.14479   2.503907   0.2505681 
2799.2     88.07952   2.523029   0.2535542 
2799.3     87.60303   2.538689   0.2605216 
2799.4     88.79752   2.544065   0.2744564 
2799.5     89.6787    2.56407    0.270475  
2799.6     93.03371   2.563592   0.2664936 
2799.7     94.30653   2.576342   0.2575355 
2799.8     95.97751   2.57715    0.2505681 
2799.9     97.26991   2.562671   0.2535542 
2800       97.09367   2.550168   0.2535542 
2800.1     95.8078    2.546233   0.2635076 
2800.2     95.42921   2.54378    0.2754517 
2800.3     94.72427   2.534936   0.2883912 
2800.4     95.35088   2.53355    0.2983446 
2800.5     95.76863   2.538163   0.2923725 
2800.6     97.73987   2.537892   0.2873958 
2800.7     97.86388   2.525906   0.2844098 
2800.8     98.67326   2.538131   0.2844098 
2800.9     99.29988   2.550747   0.2834145 
2801       98.32732   2.54883    0.2844098 
2801.1     95.95139   2.550559   0.2794331 
2801.2     94.98536   2.535522   0.270475  
2801.3     92.75304   2.512383   0.2615169 
2801.4     88.54295   2.51337    0.2455914 
2801.5     87.46596   2.548878   0.2455914 
2801.6     85.02477   2.561026   0.2406147 
2801.7     85.12267   2.563448   0.2426054 
2801.8     86.21925   2.577453   0.2485774 
2801.9     87.17223   2.597914   0.2565402 
2802       87.40069   2.606762   0.2625122 
2802.1     82.95562   2.619628   0.2635076 
2802.2     81.43477   2.602194   0.2575355 
2802.3     77.64896   2.617095   0.2426054 
2802.4     73.73914   2.635898   0.2147358 
2802.5     72.66214   2.648394   0.2197125 
2802.6     69.56168   2.671657   0.2137404 
2802.7     69.8032    2.668663   0.2117497 
2802.8     70.35802   2.670493   0.2157311 
2802.9     75.07722   2.649117   0.2396194 
2803       77.87089   2.646491   0.2286706 
2803.1     85.14225   2.661953   0.2396194 
2803.2     86.69574   2.638443   0.2485774 
2803.3     89.54816   2.578274   0.2585309 
2803.4     92.68777   2.555343   0.273461  
2803.5     93.48409   2.553283   0.2744564 
2803.6     96.4801    2.534833   0.2774424 
2803.7     97.26337   2.534506   0.2744564 
2803.8     99.1367    2.538856   0.2714703 
2803.9     103.5948   2.527921   0.2714703 
2804       104.8742   2.539987   0.2714703 
2804.1     111.5581   2.538171   0.2714703 
2804.2     112.6481   2.525045   0.2694797 
2804.3     115.6507   2.498888   0.267489  
2804.4     117.7655   2.504526   0.2635076 
2804.5     117.7002   2.523457   0.2664936 
2804.6     116.0554   2.523736   0.267489  
2804.7     115.383    2.511216   0.2684843 
2804.8     113.229    2.486397   0.2664936 
2804.9     109.5934   2.486372   0.2595262 
2805       108.1835   2.497414   0.2595262 
2805.1     104.0256   2.539477   0.2595262 
2805.2     102.6288   2.593906   0.2615169 
2805.3     100.1288   2.604699   0.2605216 
2805.4     97.08061   2.612448   0.2515635 
2805.5     95.89265   2.614609   0.2555448 
2805.6     92.13948   2.590956   0.2545495 
2805.7     91.59772   2.611034   0.2545495 
2805.8     89.41108   2.632135   0.2545495 
2805.9     86.51951   2.650541   0.2585309 
2806       86.72186   2.67595    0.2555448 
2806.1     88.08605   2.694847   0.2595262 
2806.2     88.32103   2.698662   0.2645029 
2806.3     89.49594   2.674724   0.2635076 
2806.4     90.25963   2.629892   0.2505681 
2806.5     90.63168   2.631291   0.2505681 
2806.6     91.00374   2.637058   0.2426054 
2806.7     91.83922   2.61612    0.2406147 
2806.8     92.76609   2.588272   0.2426054 
2806.9     94.74386   2.56308    0.2505681 
2807       95.35741   2.566969   0.2515635 
2807.1     96.37567   2.553339   0.2565402 
2807.2     96.74773   2.533682   0.2595262 
2807.3     96.1211    2.51647    0.2615169 
2807.4     96.08194   2.527253   0.2595262 
2807.5     96.32345   2.539182   0.2575355 
2807.6     99.22156   2.558278   0.2575355 
2807.7     100.9121   2.568011   0.2605216 
2807.8     103.523    2.544137   0.2635076 
2807.9     106.1666   2.541461   0.2654983 
2808       107.9942   2.551005   0.2625122 
2808.1     112.9484   2.514279   0.2585309 
2808.2     115.2068   2.478184   0.2555448 
2808.3     120.7028   2.457351   0.2585309 
2808.4     131.5837   2.444679   0.2754517 
2808.5     135.8395   2.42527    0.2714703 
2808.6     148.3196   2.423605   0.2794331 
2808.7     150.7543   2.412033   0.2844098 
2808.8     155.1667   2.393604   0.2873958 
2808.9     158.3128   2.389334   0.2903819 
2809       157.2685   2.382689   0.2963539 
2809.1     151.7072   2.413026   0.2983446 
2809.2     149.7882   2.44357    0.2943632 
2809.3     144.462    2.46272    0.2883912 
2809.4     138.7506   2.476197   0.2804284 
2809.5     137.7585   2.498936   0.2854051 
2809.6     137.1645   2.523329   0.2854051 
2809.7     138.1501   2.513375   0.2834145 
2809.8     139.671    2.527766   0.2824191 
2809.9     143.8549   2.540056   0.2953586 
2810       145.8327   2.515777   0.2864005 
2810.1     152.5754   2.477172   0.2903819 
2810.2     154.6902   2.438289   0.2913772 
2810.3     158.9394   2.411026   0.2893865 
2810.4     165.0163   2.386495   0.2933679 
2810.5     166.3871   2.37595    0.2913772 
2810.6     169.8922   2.367019   0.2943632 
2810.7     169.5723   2.366127   0.2943632 
2810.8     169.259    2.375305   0.2943632 
2810.9     167.3988   2.392093   0.2933679 
2811       165.3688   2.409982   0.2963539 
2811.1     159.801    2.435077   0.2973493 
2811.2     156.9225   2.422685   0.2983446 
2811.3     153.5479   2.409329   0.302326  
2811.4     150.7151   2.417492   0.308298  
2811.5     150.7543   2.447871   0.3102887 
2811.6     148.1825   2.474431   0.3112841 
2811.7     147.941    2.473078   0.3102887 
2811.8     146.9032   2.44654    0.3112841 
2811.9     147.5755   2.435326   0.3182515 
2812       148.8026   2.434471   0.3162608 
2812.1     152.125    2.435053   0.3202422 
2812.2     153.8873   2.42587    0.3222328 
2812.3     156.4852   2.396304   0.3232282 
2812.4     161.2501   2.365251   0.3222328 
2812.5     162.8819   2.341782   0.3162608 
2812.6     170.7342   2.320376   0.3112841 
2812.7     173.0644   2.320829   0.3092934 
2812.8     177.7184   2.3318     0.3142701 
2812.9     182.0068   2.346319   0.3282049 
2813       183.149    2.37634    0.3282049 
2813.1     186.0014   2.389549   0.3331816 
2813.2     186.3931   2.380271   0.3351723 
2813.3     186.243    2.372947   0.3381583 
2813.4     184.1934   2.379358   0.337163  
2813.5     182.7509   2.397428   0.3391537 
