~Version
 VERS              .         2.0                           : CWLS LOG ASCII STANDARD - VERSION 2.0
 WRAP              .         NO                            : ONE LINE PER DEPTH STEP
 DLM               .         SPACE                         : DELIMITING CHARACTER(SPACE TAB OR COMMA)
~Well Information
#_______________________________________________________________________________
#
#PARAMETER_NAME    .UNIT     VALUE                         : DESCRIPTION
#_______________________________________________________________________________
STRT               .m        2759                          : First reference value
STOP               .m        2936.8                        : Last reference value
STEP               .m        0.1                           : Step increment
NULL               .         -9999                         : Missing value
COMP               .                                       : Company
WELL               .         303                           : Well name
FLD                .                                       : Field
LOC                .                                       : Location
CNTY               .                                       : County
STAT               .                                       : State
CTRY               .                                       : Country
SRVC               .                                       : Service Company
DATE               .                                       : Date
API                .                                       : API number
Cartographic_reference_system .         GCS_WGS_1984                  : GEOGCS["GCS_WGS_1984",DATUM["D_WGS_1984",SPHEROID["WGS_1984",6378137.0,298.257223563]],PRIMEM["Greenwich",0.0],UNIT["Degree",0.0174532925199433],AUTHORITY["EPSG",4326]]
EREF               .m        138.34                        : 
HZCS               .GCS_WGS_1984 World_Mercator                : PROJCS["World_Mercator",GEOGCS["GCS_WGS_1984",DATUM["D_WGS_1984",SPHEROID["WGS_1984",6378137.0,298.257223563]],PRIMEM["Greenwich",0.0],UNIT["Degree",0.0174532925199433]],PROJECTION["Mercator"],PARAMETER["False_Easting",0.0],PARAMETER["False_Northing",0.0],PARAMETER["Central_Meridian",0.0],PARAMETER["Standard_Parallel_1",0.0],UNIT["Meter",1.0],AUTHORITY["ESRI",54004]]
LATI               .dega     2.2598774867                  : GCS_WGS_1984
LONG               .dega     1.9740478369                  : GCS_WGS_1984
PROJECT_UPGRADE_TIME .         2014-05-27T11_38_46           : 
Pad                .         Pad3                          : 
X                  .m        219750                        : 
Y                  .m        249950                        : 
group              .         Pad3                          : 
Интер-р            .         Ярышев                        : 
Куст               .         3                             : 
Статус             .         Проверено                     : 
Тип                .         Нагнетательные                : 
~Parameter Information Block
#_______________________________________________________________________________
#
#PARAMETER_NAME    .UNIT     VALUE                         : DESCRIPTION
#_______________________________________________________________________________
SET                .         LQC                           : 
PROJECT_UPGRADE_TIME .         2014-05-27T11_38_46           : 
TLFamily_GR_NORM   .         Gamma Ray                     : 
TLFamily_MD        .         Measured Depth                : 
TLFamily_RHOB_NORM .         Bulk Density                  : 
TLFamily_TNPH_NORM .         Neutron Porosity              : 
~Curve Information
#_______________________________________________________________________________
#
#LOGNAME           .UNIT     LOG_ID                        : DESCRIPTION
#_______________________________________________________________________________
MD                 .m                                      :  
GR_NORM            .gAPI                                   : Normalised By Techlog 
RHOB_NORM          .g/cm3                                  : Normalized By Techlog 
TNPH_NORM          .v/v                                    : Normalised By Techlog 
~Ascii
# ...
2868.2     101.7868   2.446815   0.3122794 
2868.3     101.2972   2.475451   0.3122794 
2868.4     98.71243   2.504832   0.308298  
2868.5     94.8744    2.50605    0.2993399 
2868.6     92.87053   2.488221   0.2754517 
2868.7     88.62782   2.512209   0.2824191 
2868.8     87.2375    2.540481   0.2694797 
2868.9     84.32635   2.56631    0.2555448 
2869       79.50923   2.613756   0.2396194 
2869.1     77.66202   2.632939   0.2137404 
2869.2     75.20777   2.612082   0.2167265 
2869.3     74.4963    2.596533   0.2107544 
2869.4     74.39838   2.586338   0.2087637 
2869.5     73.77177   2.591243   0.2077684 
2869.6     74.77697   2.618138   0.1978149 
2869.7     77.57716   2.645568   0.200801  
2869.8     80.2664    2.667801   0.1918429 
2869.9     86.36938   2.677494   0.1848755 
2870       98.73853   2.647646   0.1838802 
2870.1     103.2946   2.643447   0.1888569 
2870.2     118.242    2.606947   0.1888569 
2870.3     121.8189   2.591992   0.1918429 
2870.4     128.3331   2.578022   0.1928382 
2870.5     130.1999   2.569144   0.1928382 
2870.6     125.6439   2.525369   0.1868662 
2870.7     106.7279   2.491424   0.1928382 
2870.8     97.09367   2.460928   0.1908475 
2870.9     78.50404   2.44034    0.1868662 
2871       54.71217   2.421032   0.1818895 
2871.1     50.53473   2.415089   0.1739267 
2871.2     41.37699   2.424965   0.174922  
2871.3     39.78434   2.423677   0.1709407 
2871.4     37.78046   2.406418   0.1679547 
2871.5     36.40321   2.396424   0.1649686 
2871.6     36.39669   2.399682   0.1639733 
2871.7     36.25961   2.405663   0.1629779 
2871.8     36.351     2.395022   0.1619826 
2871.9     36.31183   2.385958   0.1599919 
2872       36.18781   2.391397   0.1580012 
2872.1     36.7818    2.38163    0.1580012 
2872.2     36.78832   2.378962   0.1580012 
2872.3     37.70214   2.384458   0.1609873 
2872.4     38.16557   2.390033   0.1639733 
2872.5     38.17863   2.386713   0.1629779 
2872.6     37.70214   2.394886   0.1580012 
2872.7     36.84706   2.395771   0.1589966 
2872.8     35.78965   2.379989   0.1570059 
2872.9     35.38496   2.357091   0.1550152 
2873       35.65258   2.336309   0.1530245 
2873.1     35.86798   2.329744   0.1480478 
2873.2     36.82749   2.336195   0.1480478 
2873.3     37.01678   2.336898   0.1460571 
2873.4     37.46063   2.329579   0.1460571 
2873.5     38.07419   2.324176   0.1460571 
2873.6     38.30265   2.335783   0.1470525 
2873.7     40.09764   2.343724   0.1480478 
2873.8     40.4958    2.334564   0.1470525 
2873.9     41.42268   2.337765   0.1440664 
2874       42.23206   2.348927   0.1430711 
2874.1     42.08193   2.364167   0.1450618 
2874.2     42.31691   2.365227   0.1460571 
2874.3     42.12762   2.357285   0.1520292 
2874.4     42.03624   2.370959   0.1560105 
2874.5     40.95271   2.371218   0.1570059 
2874.6     40.86786   2.365761   0.1550152 
2874.7     39.55588   2.36983    0.1540198 
2874.8     39.2491    2.391214   0.1520292 
2874.9     39.13813   2.388514   0.1510338 
2875       39.1055    2.377129   0.1530245 
2875.1     39.22952   2.366175   0.1599919 
2875.2     38.30917   2.347028   0.1589966 
2875.3     38.64206   2.342363   0.1619826 
2875.4     38.64206   2.349523   0.1639733 
2875.5     38.55068   2.362542   0.1639733 
2875.6     37.6695    2.366263   0.1639733 
2875.7     37.96323   2.374267   0.1639733 
2875.8     37.55854   2.372763   0.1649686 
2875.9     37.65645   2.380098   0.1669593 
2876       37.78699   2.402669   0.1679547 
2876.1     38.59637   2.401642   0.165964  
2876.2     38.44624   2.391869   0.165964  
2876.3     38.52457   2.365657   0.1639733 
2876.4     38.21127   2.343723   0.1639733 
2876.5     37.85879   2.342021   0.165964  
2876.6     37.75436   2.355763   0.16895   
2876.7     37.57159   2.373484   0.1699453 
2876.8     37.17996   2.362024   0.16895   
2876.9     36.97108   2.346717   0.16895   
2877       36.54029   2.35507    0.1709407 
2877.1     36.65778   2.352871   0.16895   
2877.2     36.37711   2.351788   0.1709407 
2877.3     36.91234   2.345327   0.1739267 
2877.4     36.99067   2.326626   0.1769127 
2877.5     37.02983   2.30806    0.1798988 
2877.6     37.02983   2.306649   0.1798988 
2877.7     37.19954   2.311787   0.1798988 
2877.8     37.87837   2.309414   0.1789034 
2877.9     38.53762   2.328297   0.1779081 
2878       39.54282   2.360766   0.174922  
2878.1     40.52192   2.379694   0.1729314 
2878.2     41.5467    2.407299   0.1679547 
2878.3     43.02838   2.425597   0.1639733 
2878.4     43.73985   2.443437   0.1619826 
2878.5     49.00082   2.4818     0.165964  
2878.6     49.6666    2.508448   0.1669593 
2878.7     52.27098   2.490314   0.1709407 
2878.8     52.78011   2.473746   0.1739267 
2878.9     53.92891   2.4794     0.1769127 
2879       55.15602   2.492539   0.1848755 
2879.1     55.18214   2.49986    0.1828848 
2879.2     55.31921   2.474645   0.1868662 
2879.3     55.17561   2.454411   0.1888569 
2879.4     54.71217   2.453415   0.1888569 
2879.5     53.82447   2.456889   0.1888569 
2879.6     54.03334   2.463501   0.1858708 
2879.7     53.15869   2.473011   0.1848755 
2879.8     53.55033   2.476502   0.1848755 
2879.9     53.01509   2.52115    0.1848755 
2880       51.93809   2.546671   0.1828848 
2880.1     51.50077   2.562365   0.1838802 
2880.2     50.13004   2.558694   0.1838802 
2880.3     48.83764   2.558549   0.1868662 
2880.4     47.4147    2.546985   0.1918429 
2880.5     46.4095    2.517944   0.203787  
2880.6     46.77503   2.4684     0.2027917 
2880.7     46.44214   2.432631   0.206773  
2880.8     46.30507   2.413233   0.2087637 
2880.9     45.25418   2.4116     0.2077684 
2881       43.88345   2.412691   0.2047824 
2881.1     43.43307   2.394599   0.2057777 
2881.2     42.78687   2.386913   0.2077684 
2881.3     42.17331   2.398543   0.2107544 
2881.4     41.69029   2.409653   0.2107544 
2881.5     41.14853   2.408588   0.2057777 
2881.6     40.71773   2.411145   0.2057777 
2881.7     40.52192   2.394325   0.2047824 
2881.8     40.30651   2.388473   0.2057777 
2881.9     40.55455   2.384809   0.2047824 
2882       41.37699   2.390473   0.1988103 
2882.1     41.66418   2.39738    0.1968196 
2882.2     41.85348   2.401943   0.1948289 
2882.3     42.01666   2.401299   0.1948289 
2882.4     41.63155   2.386271   0.1968196 
2882.5     40.82217   2.380236   0.1948289 
2882.6     40.35221   2.389142   0.1948289 
2882.7     40.11722   2.393053   0.1948289 
2882.8     40.31957   2.379033   0.1948289 
2882.9     41.03757   2.356653   0.1968196 
2883       40.54802   2.33548    0.1988103 
2883.1     40.57413   2.329944   0.1988103 
2883.2     38.77914   2.335367   0.1988103 
2883.3     39.05328   2.359029   0.1988103 
2883.4     39.22299   2.374919   0.1998056 
2883.5     39.54282   2.375615   0.1988103 
2883.6     39.58852   2.370294   0.1988103 
2883.7     40.44359   2.365841   0.1958243 
2883.8     40.27388   2.34892    0.1918429 
2883.9     40.67204   2.324509   0.1888569 
2884       40.89397   2.335687   0.1838802 
2884.1     40.95924   2.353054   0.1838802 
2884.2     40.76995   2.357897   0.1828848 
2884.3     40.60677   2.367418   0.1828848 
2884.4     40.57413   2.37324    0.1838802 
2884.5     41.24644   2.381805   0.1868662 
2884.6     41.26602   2.380833   0.1878615 
2884.7     41.41615   2.390661   0.1888569 
2884.8     41.55975   2.380522   0.1888569 
2884.9     40.93313   2.377121   0.1888569 
2885       39.69948   2.385916   0.1878615 
2885.1     39.26215   2.395237   0.1898522 
2885.2     38.77261   2.404332   0.1878615 
2885.3     38.55068   2.430624   0.1828848 
2885.4     37.80657   2.451077   0.1769127 
2885.5     36.46849   2.436264   0.171936  
2885.6     36.22698   2.426513   0.1709407 
2885.7     36.40321   2.425923   0.1709407 
2885.8     36.88623   2.422801   0.171936  
2885.9     37.46063   2.416644   0.1739267 
2886       38.92926   2.402805   0.1759174 
2886.1     38.97495   2.394026   0.1769127 
2886.2     40.28041   2.408767   0.1798988 
2886.3     40.44359   2.424338   0.1848755 
