~Version
 VERS              .         2.0                           : CWLS LOG ASCII STANDARD - VERSION 2.0
 WRAP              .         NO                            : ONE LINE PER DEPTH STEP
 DLM               .         SPACE                         : DELIMITING CHARACTER(SPACE TAB OR COMMA)
~Well Information
#_______________________________________________________________________________
#
#PARAMETER_NAME    .UNIT     VALUE                         : DESCRIPTION
#_______________________________________________________________________________
STRT               .m        2759                          : First reference value
STOP               .m        2936.8                        : Last reference value
STEP               .m        0.1                           : Step increment
NULL               .         -9999                         : Missing value
COMP               .                                       : Company
WELL               .         303                           : Well name
FLD                .                                       : Field
LOC                .                                       : Location
CNTY               .                                       : County
STAT               .                                       : State
CTRY               .                                       : Country
SRVC               .                                       : Service Company
DATE               .                                       : Date
API                .                                       : API number
Cartographic_reference_system .         GCS_WGS_1984                  : GEOGCS["GCS_WGS_1984",DATUM["D_WGS_1984",SPHEROID["WGS_1984",6378137.0,298.257223563]],PRIMEM["Greenwich",0.0],UNIT["Degree",0.0174532925199433],AUTHORITY["EPSG",4326]]
EREF               .m        138.34                        : 
HZCS               .GCS_WGS_1984 World_Mercator                : PROJCS["World_Mercator",GEOGCS["GCS_WGS_1984",DATUM["D_WGS_1984",SPHEROID["WGS_1984",6378137.0,298.257223563]],PRIMEM["Greenwich",0.0],UNIT["Degree",0.0174532925199433]],PROJECTION["Mercator"],PARAMETER["False_Easting",0.0],PARAMETER["False_Northing",0.0],PARAMETER["Central_Meridian",0.0],PARAMETER["Standard_Parallel_1",0.0],UNIT["Meter",1.0],AUTHORITY["ESRI",54004]]
LATI               .dega     2.2598774867                  : GCS_WGS_1984
LONG               .dega     1.9740478369                  : GCS_WGS_1984
PROJECT_UPGRADE_TIME .         2014-05-27T11_38_46           : 
Pad                .         Pad3                          : 
X                  .m        219750                        : 
Y                  .m        249950                        : 
group              .         Pad3                          : 
Интер-р            .         Ярышев                        : 
Куст               .         3                             : 
Статус             .         Проверено                     : 
Тип                .         Нагнетательные                : 
~Parameter Information Block
#_______________________________________________________________________________
#
#PARAMETER_NAME    .UNIT     VALUE                         : DESCRIPTION
#_______________________________________________________________________________
SET                .         LQC                           : 
PROJECT_UPGRADE_TIME .         2014-05-27T11_38_46           : 
TLFamily_GR_NORM   .         Gamma Ray                     : 
TLFamily_MD        .         Measured Depth                : 
TLFamily_RHOB_NORM .         Bulk Density                  : 
TLFamily_TNPH_NORM .         Neutron Porosity              : 
~Curve Information
#_______________________________________________________________________________
#
#LOGNAME           .UNIT     LOG_ID                        : DESCRIPTION
#_______________________________________________________________________________
MD                 .m                                      :  
GR_NORM            .gAPI                                   : Normalised By Techlog 
RHOB_NORM          .g/cm3                                  : Normalized By Techlog 
TNPH_NORM          .v/v                                    : Normalised By Techlog 
~Ascii
# ...
2886.4     40.13028   2.437057   0.1898522 
2886.5     39.15772   2.432783   0.1918429 
2886.6     38.65512   2.439052   0.1918429 
2886.7     38.23737   2.424335   0.1878615 
2886.8     38.38097   2.409704   0.1848755 
2886.9     38.80524   2.420599   0.1818895 
2887       39.5363    2.431938   0.1789034 
2887.1     39.71906   2.450109   0.1789034 
2887.2     39.50366   2.451862   0.1779081 
2887.3     39.36006   2.43048    0.1789034 
2887.4     38.5311    2.424952   0.1808941 
2887.5     37.57812   2.433205   0.1848755 
2887.6     37.30397   2.432225   0.1838802 
2887.7     37.91754   2.423408   0.1878615 
2887.8     38.15252   2.394559   0.1918429 
2887.9     38.92273   2.359922   0.1938336 
2888       39.62768   2.355046   0.1948289 
2888.1     39.94751   2.356113   0.1918429 
2888.2     40.45664   2.357037   0.1908475 
2888.3     40.4697    2.363578   0.1888569 
2888.4     41.16159   2.377054   0.1878615 
2888.5     43.05449   2.370015   0.1918429 
2888.6     43.48529   2.358607   0.1908475 
2888.7     44.92781   2.365687   0.1958243 
2888.8     45.91996   2.390911   0.200801  
2888.9     47.46039   2.39784    0.200801  
2889       49.67966   2.396017   0.1928382 
2889.1     50.18879   2.404868   0.1918429 
2889.2     51.87934   2.433834   0.1868662 
2889.3     52.63651   2.448492   0.1848755 
2889.4     53.09341   2.443324   0.1858708 
2889.5     53.30229   2.431277   0.1878615 
2889.6     52.81927   2.445218   0.1878615 
2889.7     53.43283   2.438592   0.1888569 
2889.8     53.66129   2.437308   0.1888569 
2889.9     53.50463   2.437841   0.1868662 
2890       51.57909   2.444286   0.1868662 
2890.1     52.36889   2.437753   0.1858708 
2890.2     52.61692   2.431645   0.1918429 
2890.3     53.06731   2.420801   0.2027917 
2890.4     54.13125   2.421669   0.2167265 
2890.5     56.76173   2.420602   0.2346426 
2890.6     57.36877   2.41544    0.2316566 
2890.7     61.07626   2.426709   0.235638  
2890.8     61.07626   2.428385   0.2396194 
2890.9     61.85299   2.432439   0.2406147 
2891       64.11143   2.494546   0.2406147 
2891.1     68.06695   2.553594   0.2465868 
2891.2     69.66613   2.560325   0.2426054 
2891.3     72.32925   2.57778    0.2515635 
2891.4     72.94933   2.57211    0.2635076 
2891.5     72.46632   2.564739   0.2744564 
2891.6     72.27051   2.56258    0.2804284 
2891.7     72.06816   2.569015   0.2824191 
2891.8     73.13863   2.533327   0.2824191 
2891.9     73.13863   2.505913   0.2834145 
2892       73.80441   2.514423   0.2814238 
2892.1     75.56024   2.505907   0.2684843 
2892.2     75.87354   2.51751    0.2694797 
2892.3     76.29782   2.52301    0.2635076 
2892.4     76.18033   2.504183   0.2605216 
2892.5     75.56024   2.493144   0.2625122 
2892.6     73.68692   2.505205   0.270475  
2892.7     73.39319   2.504577   0.270475  
2892.8     70.39718   2.48936    0.2764471 
2892.9     69.66613   2.487982   0.2814238 
2893       69.03951   2.479769   0.2834145 
2893.1     71.37627   2.464441   0.3033213 
2893.2     73.11252   2.433738   0.2854051 
2893.3     78.12545   2.412643   0.2973493 
2893.4     80.2207    2.37009    0.3112841 
2893.5     84.0522    2.314162   0.3292002 
2893.6     89.1761    2.25819    0.3650326 
2893.7     90.20741   2.196409   0.3580652 
2893.8     90.43587   2.14462    0.3670233 
2893.9     89.19569   2.093185   0.372     
2894       86.35633   2.048369   0.3729953 
2894.1     82.01569   2.067983   0.3710046 
2894.2     81.59795   2.131578   0.3510978 
2894.3     81.57185   2.180023   0.3650326 
2894.4     81.63058   2.216978   0.3530885 
2894.5     82.43997   2.321746   0.340149  
2894.6     82.19193   2.4049     0.3252189 
2894.7     81.87862   2.442565   0.2983446 
2894.8     80.0053    2.470034   0.305312  
2894.9     79.49618   2.491068   0.2953586 
2895       78.45181   2.483218   0.2873958 
2895.1     77.43356   2.48004    0.2834145 
2895.2     75.97146   2.494001   0.2794331 
2895.3     73.06683   2.506624   0.2754517 
2895.4     71.01073   2.538314   0.2694797 
2895.5     68.1518    2.560564   0.2635076 
2895.6     64.29419   2.518064   0.2575355 
2895.7     63.34121   2.487089   0.2376287 
2895.8     61.29818   2.475013   0.2455914 
2895.9     61.25249   2.471843   0.2376287 
2896       61.23943   2.486588   0.2306613 
2896.1     61.9248    2.498147   0.2296659 
2896.2     63.19761   2.460038   0.2406147 
2896.3     66.36986   2.418674   0.235638  
2896.4     67.30978   2.42338    0.2406147 
2896.5     68.93507   2.43189    0.2436007 
2896.6     69.6596    2.455168   0.2436007 
2896.7     69.92068   2.479452   0.2416101 
2896.8     69.50294   2.506831   0.238624  
2896.9     69.58127   2.532325   0.2406147 
2897       69.03951   2.52066    0.2585309 
2897.1     67.21188   2.522238   0.2764471 
2897.2     67.362     2.547748   0.2764471 
2897.3     67.76669   2.535279   0.273461  
2897.4     67.71447   2.499678   0.2774424 
2897.5     69.26797   2.461055   0.2834145 
2897.6     72.69477   2.415169   0.2913772 
2897.7     73.76524   2.36054    0.3013306 
2897.8     76.83305   2.302634   0.2963539 
2897.9     76.70904   2.236036   0.2953586 
2898       77.00929   2.181799   0.2973493 
2898.1     77.08109   2.20793    0.2993399 
2898.2     77.66855   2.258798   0.2873958 
2898.3     78.78471   2.323013   0.2973493 
2898.4     79.80296   2.428478   0.2903819 
2898.5     81.35645   2.477642   0.2824191 
2898.6     84.01956   2.458076   0.2744564 
2898.7     83.92166   2.433569   0.2694797 
2898.8     84.11095   2.441602   0.2684843 
2898.9     82.26373   2.463981   0.2694797 
2899       79.42438   2.451575   0.2694797 
2899.1     73.52374   2.422546   0.2694797 
2899.2     71.92455   2.39678    0.2664936 
2899.3     65.41688   2.414396   0.270475  
2899.4     63.52398   2.441435   0.2654983 
2899.5     60.24729   2.460187   0.2565402 
2899.6     57.31002   2.462681   0.2465868 
2899.7     56.59203   2.45889    0.2276752 
2899.8     55.07117   2.480685   0.2296659 
2899.9     54.67954   2.500787   0.2197125 
2900       53.88974   2.497805   0.2117497 
2900.1     52.79316   2.487647   0.2077684 
2900.2     53.07383   2.496042   0.2127451 
2900.3     54.05292   2.497813   0.2127451 
2900.4     54.7187    2.481765   0.2137404 
2900.5     56.35052   2.458387   0.2226985 
2900.6     58.83088   2.486174   0.2316566 
2900.7     58.83088   2.508092   0.2366333 
2900.8     59.23557   2.501772   0.235638  
2900.9     58.75255   2.502775   0.2346426 
2901       58.32175   2.505285   0.2326519 
2901.1     57.3035    2.521529   0.2336473 
2901.2     57.72777   2.514489   0.2346426 
2901.3     56.63771   2.468695   0.2346426 
2901.4     57.33614   2.445367   0.2316566 
2901.5     57.86484   2.441602   0.2266799 
2901.6     59.92093   2.439331   0.2226985 
2901.7     60.19507   2.437308   0.2217032 
2901.8     61.33735   2.45238    0.2276752 
2901.9     61.6376    2.458234   0.2256846 
2902       62.3556    2.460131   0.2316566 
2902.1     63.65452   2.426091   0.2396194 
2902.2     64.07227   2.397203   0.2465868 
2902.3     65.12315   2.422585   0.2505681 
2902.4     66.0696    2.446503   0.2515635 
2902.5     67.25105   2.449823   0.2485774 
2902.6     69.17005   2.440685   0.2485774 
2902.7     69.41156   2.434568   0.2525588 
2902.8     71.58514   2.453718   0.2605216 
2902.9     71.85928   2.454977   0.2615169 
2903       73.82399   2.446198   0.2684843 
2903.1     76.81347   2.465596   0.2764471 
2903.2     77.15942   2.479614   0.2864005 
2903.3     79.13718   2.447226   0.302326  
2903.4     79.45049   2.436457   0.2993399 
2903.5     80.40347   2.438471   0.2983446 
2903.6     81.27159   2.453049   0.3073027 
2903.7     81.51963   2.46044    0.308298  
2903.8     81.77419   2.444023   0.308298  
2903.9     82.22457   2.441124   0.3063073 
2904       82.0875    2.443736   0.3033213 
2904.1     82.21152   2.44576    0.2953586 
2904.2     82.74022   2.448675   0.2864005 
2904.3     83.60835   2.472782   0.2804284 
2904.4     83.56919   2.487469   0.2794331 
2904.5     83.81722   2.502792   0.2774424 
