~Version
 VERS              .         2.0                           : CWLS LOG ASCII STANDARD - VERSION 2.0
 WRAP              .         NO                            : ONE LINE PER DEPTH STEP
 DLM               .         SPACE                         : DELIMITING CHARACTER(SPACE TAB OR COMMA)
~Well Information
#_______________________________________________________________________________
#
#PARAMETER_NAME    .UNIT     VALUE                         : DESCRIPTION
#_______________________________________________________________________________
STRT               .m        2759                          : First reference value
STOP               .m        2936.8                        : Last reference value
STEP               .m        0.1                           : Step increment
NULL               .         -9999                         : Missing value
COMP               .                                       : Company
WELL               .         303                           : Well name
FLD                .                                       : Field
LOC                .                                       : Location
CNTY               .                                       : County
STAT               .                                       : State
CTRY               .                                       : Country
SRVC               .                                       : Service Company
DATE               .                                       : Date
API                .                                       : API number
Cartographic_reference_system .         GCS_WGS_1984                  : GEOGCS["GCS_WGS_1984",DATUM["D_WGS_1984",SPHEROID["WGS_1984",6378137.0,298.257223563]],PRIMEM["Greenwich",0.0],UNIT["Degree",0.0174532925199433],AUTHORITY["EPSG",4326]]
EREF               .m        138.34                        : 
HZCS               .GCS_WGS_1984 World_Mercator                : PROJCS["World_Mercator",GEOGCS["GCS_WGS_1984",DATUM["D_WGS_1984",SPHEROID["WGS_1984",6378137.0,298.257223563]],PRIMEM["Greenwich",0.0],UNIT["Degree",0.0174532925199433]],PROJECTION["Mercator"],PARAMETER["False_Easting",0.0],PARAMETER["False_Northing",0.0],PARAMETER["Central_Meridian",0.0],PARAMETER["Standard_Parallel_1",0.0],UNIT["Meter",1.0],AUTHORITY["ESRI",54004]]
LATI               .dega     2.2598774867                  : GCS_WGS_1984
LONG               .dega     1.9740478369                  : GCS_WGS_1984
PROJECT_UPGRADE_TIME .         2014-05-27T11_38_46           : 
Pad                .         Pad3                          : 
X                  .m        219750                        : 
Y                  .m        249950                        : 
group              .         Pad3                          : 
Интер-р            .         Ярышев                        : 
Куст               .         3                             : 
Статус             .         Проверено                     : 
Тип                .         Нагнетательные                : 
~Parameter Information Block
#_______________________________________________________________________________
#
#PARAMETER_NAME    .UNIT     VALUE                         : DESCRIPTION
#_______________________________________________________________________________
SET                .         LQC                           : 
PROJECT_UPGRADE_TIME .         2014-05-27T11_38_46           : 
TLFamily_GR_NORM   .         Gamma Ray                     : 
TLFamily_MD        .         Measured Depth                : 
TLFamily_RHOB_NORM .         Bulk Density                  : 
TLFamily_TNPH_NORM .         Neutron Porosity              : 
~Curve Information
#_______________________________________________________________________________
#
#LOGNAME           .UNIT     LOG_ID                        : DESCRIPTION
#_______________________________________________________________________________
MD                 .m                                      :  
GR_NORM            .gAPI                                   : Normalised By Techlog 
RHOB_NORM          .g/cm3                                  : Normalized By Techlog 
TNPH_NORM          .v/v                                    : Normalised By Techlog 
~Ascii
# ...
2813.6     178.8215   2.415766   0.3381583 
2813.7     176.6218   2.427626   0.337163  
2813.8     172.4378   2.426306   0.3391537 
2813.9     166.1521   2.432988   0.340149  
2814       164.5594   2.429891   0.3421397 
2814.1     159.4551   2.426449   0.3351723 
2814.2     158.1496   2.426115   0.3222328 
2814.3     155.2189   2.432998   0.3112841 
2814.4     150.6172   2.455122   0.3003353 
2814.5     148.7961   2.453774   0.305312  
2814.6     142.2949   2.421885   0.3013306 
2814.7     139.808    2.424695   0.2973493 
2814.8     134.9909   2.474797   0.2943632 
2814.9     129.371    2.489175   0.2923725 
2815       127.7392   2.483497   0.2893865 
2815.1     124.1687   2.503477   0.2854051 
2815.2     123.9207   2.520186   0.2814238 
2815.3     123.4703   2.493758   0.2784377 
2815.4     124.8149   2.489568   0.2834145 
2815.5     126.7274   2.503931   0.2814238 
2815.6     132.504    2.492706   0.2903819 
2815.7     135.8199   2.464114   0.3043167 
2815.8     141.6487   2.455423   0.3182515 
2815.9     150.9044   2.44483    0.3361676 
2816       154.279    2.414898   0.3331816 
2816.1     165.78     2.381367   0.3351723 
2816.2     168.8805   2.363518   0.3421397 
2816.3     175.5317   2.370079   0.3520931 
2816.4     183.4362   2.374642   0.3520931 
2816.5     185.055    2.394336   0.3530885 
2816.6     189.5131   2.405585   0.3550792 
2816.7     191.7846   2.397135   0.3610512 
2816.8     195.4464   2.401602   0.3710046 
2816.9     202.0977   2.379995   0.3680186 
2817       206.1707   2.336795   0.372     
2817.1     218.5594   2.319651   0.374986  
2817.2     223.853    2.31359    0.3729953 
2817.3     234.6361   2.318663   0.3640372 
2817.4     247.5405   2.304519   0.3620466 
2817.5     249.466    2.306387   0.3580652 
2817.6     250.9999   2.321619   0.3550792 
2817.7     251.0717   2.336815   0.3510978 
2817.8     250.5495   2.346426   0.3421397 
2817.9     251.1304   2.360229   0.3411444 
2818       251.3589   2.368119   0.337163  
2818.1     253.0038   2.356575   0.3381583 
2818.2     252.6578   2.355428   0.3421397 
2818.3     253.3432   2.341758   0.3421397 
2818.4     253.9959   2.318805   0.3421397 
2818.5     254.8314   2.329465   0.3391537 
2818.6     256.6852   2.347549   0.3381583 
2818.7     257.7295   2.343592   0.337163  
2818.8     260.1903   2.343447   0.3301956 
2818.9     264.1784   2.357695   0.3321863 
2819       264.0479   2.376555   0.3282049 
2819.1     267.429    2.350441   0.3282049 
2819.2     268.1797   2.316505   0.3301956 
2819.3     270.5099   2.306761   0.3292002 
2819.4     271.4367   2.304412   0.3252189 
2819.5     272.0438   2.286375   0.3172561 
2819.6     273.1143   2.278656   0.3132748 
2819.7     276.2017   2.290634   0.3162608 
2819.8     280.0789   2.295983   0.3282049 
2819.9     280.8817   2.30452    0.3282049 
2820       280.2159   2.310728   0.3351723 
2820.1     274.9223   2.303001   0.343135  
2820.2     275.4314   2.300715   0.3530885 
2820.3     276.887    2.298412   0.3670233 
2820.4     282.7615   2.289715   0.3670233 
2820.5     283.8777   2.277588   0.372     
2820.6     286.0252   2.292979   0.374986  
2820.7     284.8307   2.309378   0.374986  
2820.8     282.8333   2.304977   0.372     
2820.9     276.4366   2.282016   0.3729953 
2821       273.5973   2.258022   0.3759814 
2821.1     262.7816   2.245236   0.3789674 
2821.2     257.599    2.253973   0.3759814 
2821.3     249.6161   2.269917   0.3660279 
2821.4     242.3774   2.275221   0.3650326 
2821.5     240.0145   2.270036   0.3660279 
2821.6     233.8332   2.260381   0.372     
2821.7     232.0643   2.252352   0.3799627 
2821.8     227.9717   2.246049   0.406837  
2821.9     227.5605   2.24221    0.4018603 
2822       229.5318   2.251602   0.4177858 
2822.1     235.3279   2.254047   0.4287345 
2822.2     236.6987   2.242443   0.4307252 
2822.3     237.9519   2.231526   0.4297299 
2822.4     238.2195   2.227592   0.4237578 
2822.5     238.1543   2.242687   0.4167904 
2822.6     240.243    2.231781   0.409823  
2822.7     241.7573   2.211026   0.4058416 
2822.8     244.9883   2.204281   0.3909115 
2822.9     250.7976   2.202266   0.3909115 
2823       253.2975   2.20769    0.374986  
2823.1     259.3222   2.211538   0.3650326 
2823.2     260.8038   2.211323   0.369014  
2823.3     261.6981   2.218931   0.3859348 
2823.4     260.5688   2.227095   0.3869301 
2823.5     258.2256   2.218445   0.3899162 
2823.6     256.1434   2.210439   0.3849395 
2823.7     254.8118   2.216261   0.3769767 
2823.8     251.2936   2.225742   0.3640372 
2823.9     249.6096   2.230728   0.3650326 
2824       240.3539   2.23053    0.3550792 
2824.1     239.3749   2.221711   0.3471164 
2824.2     234.8058   2.205185   0.3441304 
2824.3     230.5043   2.20295    0.3501024 
2824.4     228.0239   2.220886   0.3461211 
2824.5     223.605    2.234004   0.3491071 
2824.6     221.5098   2.232729   0.3510978 
2824.7     219.049    2.249223   0.3520931 
2824.8     217.2409   2.263782   0.3620466 
2824.9     217.5999   2.251645   0.3620466 
2825       217.7827   2.24103    0.3710046 
2825.1     217.7957   2.22532    0.3759814 
2825.2     218.3506   2.215874   0.3769767 
2825.3     218.0372   2.219162   0.3759814 
2825.4     218.0699   2.208514   0.3769767 
2825.5     214.8128   2.194514   0.3779721 
2825.6     215.0412   2.189152   0.3779721 
2825.7     213.0374   2.180543   0.3789674 
2825.8     210.0805   2.174112   0.3729953 
2825.9     208.031    2.171993   0.3779721 
2826       201.1643   2.175339   0.3700093 
2826.1     197.2414   2.199748   0.3590605 
2826.2     189.9178   2.215964   0.3501024 
2826.3     180.1008   2.2359     0.3351723 
2826.4     177.6335   2.248054   0.334177  
2826.5     171.0214   2.249825   0.3321863 
2826.6     169.9901   2.261942   0.334177  
2826.7     167.0789   2.268298   0.3391537 
2826.8     165.2644   2.27237    0.340149  
2826.9     165.656    2.274552   0.3421397 
2827       168.6781   2.290884   0.3421397 
2827.1     169.0175   2.322431   0.343135  
2827.2     171.2368   2.333192   0.3451257 
2827.3     175.4208   2.32126    0.3550792 
2827.4     175.4599   2.31805    0.3570698 
2827.5     174.8137   2.329681   0.3620466 
2827.6     172.8621   2.31264    0.3610512 
2827.7     170.0097   2.300279   0.3560745 
2827.8     166.7199   2.293393   0.3471164 
2827.9     166.2369   2.288384   0.3471164 
2828       162.9472   2.276568   0.3411444 
2828.1     161.2893   2.269789   0.3351723 
2828.2     157.0661   2.286952   0.3311909 
2828.3     148.5937   2.312019   0.3311909 
2828.4     145.3954   2.306771   0.3331816 
2828.5     136.2442   2.294286   0.3321863 
2828.6     134.3513   2.293784   0.3282049 
2828.7     130.0955   2.292079   0.3232282 
2828.8     123.7575   2.308657   0.3192468 
2828.9     122.6348   2.32113    0.3232282 
2829       118.2289   2.319157   0.3282049 
2829.1     117.2694   2.309056   0.3311909 
2829.2     115.3635   2.303743   0.3272096 
2829.3     113.8948   2.315532   0.3063073 
2829.4     113.5815   2.323417   0.3043167 
2829.5     114.9914   2.32945    0.2933679 
2829.6     115.3504   2.337496   0.2873958 
2829.7     116.0031   2.355957   0.2834145 
2829.8     116.7146   2.370182   0.2804284 
2829.9     116.7864   2.366455   0.2824191 
2830       117.537    2.345024   0.2834145 
2830.1     117.9744   2.350234   0.2864005 
2830.2     118.3595   2.373148   0.2893865 
2830.3     119.1362   2.389445   0.2864005 
2830.4     119.7041   2.381234   0.2893865 
2830.5     119.332    2.362439   0.2873958 
2830.6     117.7851   2.368716   0.2844098 
2830.7     113.3922   2.386477   0.2794331 
2830.8     111.1403   2.393229   0.2654983 
2830.9     104.6327   2.378718   0.2744564 
2831       102.6027   2.410381   0.273461  
2831.1     98.45786   2.466066   0.2724657 
2831.2     95.4488    2.467971   0.2724657 
2831.3     96.57149   2.442518   0.2804284 
2831.4     103.0008   2.429559   0.2714703 
2831.5     106.741    2.40964    0.2744564 
2831.6     111.0294   2.364247   0.2784377 
2831.7     111.2448   2.353988   0.2824191 
