~Version
 VERS              .         2.0                           : CWLS LOG ASCII STANDARD - VERSION 2.0
 WRAP              .         NO                            : ONE LINE PER DEPTH STEP
 DLM               .         SPACE                         : DELIMITING CHARACTER(SPACE TAB OR COMMA)
~Well Information
#_______________________________________________________________________________
#
#PARAMETER_NAME    .UNIT     VALUE                         : DESCRIPTION
#_______________________________________________________________________________
STRT               .m        2924                          : First reference value
STOP               .m        3124.8                        : Last reference value
STEP               .m        0.2                           : Step increment
NULL               .         -9999                         : Missing value
COMP               .                                       : Company
WELL               .         304                           : Well name
FLD                .                                       : Field
LOC                .                                       : Location
CNTY               .                                       : County
STAT               .                                       : State
CTRY               .                                       : Country
SRVC               .                                       : Service Company
DATE               .                                       : Date
API                .                                       : API number
Cartographic_reference_system .         GCS_WGS_1984                  : ESRI,PE_10_3_1- <?xml version="1.0" encoding="utf-16"?><ILateBoundCoordinateReferenceSystem name="GCS_WGS_1984"><AuthorityCode>EPSG,4326</AuthorityCode></ILateBoundCoordinateReferenceSystem>
EREF               .m        138.34                        : 
HZCS               .GCS_WGS_1984 WGS_1984_World_Mercator       : ESRI,PE_10_3_1- <?xml version="1.0" encoding="utf-16"?><ILateBoundCoordinateReferenceSystem name="WGS_1984_World_Mercator"><AuthorityCode>EPSG,3395</AuthorityCode></ILateBoundCoordinateReferenceSystem>
LATI               .dega     2.2599678524                  : GCS_WGS_1984
LONG               .dega     1.9741376684                  : GCS_WGS_1984
PROJECT_UPGRADE_TIME .         2014-05-27T11_38_46           : 
Pad                .         Pad3                          : 
X                  .m        219760                        : 
Y                  .m        249960                        : 
group              .         Pad3                          : 
Интер-р            .         Старостина                    : 
Куст               .         3                             : 
Статус             .         Не проверено                  : 
Тип                .         Эксплуатация                  : 
~Parameter Information Block
#_______________________________________________________________________________
#
#PARAMETER_NAME    .UNIT     VALUE                         : DESCRIPTION
#_______________________________________________________________________________
SET                .         LQC                           : 
PROJECT_UPGRADE_TIME .         2014-05-27T11_38_46           : 
TLFamily_GR_NORM   .         Gamma Ray                     : 
TLFamily_MD        .         Measured Depth                : 
TLFamily_RHOB_NORM .         Bulk Density                  : 
TLFamily_TNPH_NORM .         Neutron Porosity              : 
~Curve Information
#_______________________________________________________________________________
#
#LOGNAME           .UNIT     LOG_ID                        : DESCRIPTION
#_______________________________________________________________________________
MD                 .m                                      :  
GR_NORM            .gAPI                                   : Normalised By Techlog 
RHOB_NORM          .g/cm3                                  : Normalized By Techlog 
TNPH_NORM          .v/v                                    : Normalised By Techlog 
~Ascii
# ...
3069.6     56.28575   2.053911   0.1881342 
3069.8     32.00891   1.922223   0.1527949 
3070       19.64699   1.795291   0.1184652 
3070.2     12.19438   1.763312   0.1103876 
3070.4     19.94756   2.383377   0.1315912 
3070.6     33.17265   2.597226   0.16895   
3070.8     54.85226   2.545076   0.2042894 
3071       66.40495   2.530562   0.2911233 
3071.2     74.82864   2.482183   0.3072785 
3071.4     68.0157    2.442087   0.2870845 
3071.6     58.32809   2.463734   0.282036  
3071.8     46.02782   2.456928   0.2779973 
3072       60.13151   2.409698   0.3042494 
3072.2     96.62384   2.408796   0.3032396 
3072.4     103.4522   2.525232   0.2779973 
3072.6     98.63535   2.569183   0.2870845 
3072.8     87.77628   2.568035   0.3062688 
3073       82.09627   2.574595   0.315356  
3073.2     79.40655   2.566477   0.3183851 
3073.4     72.82483   2.555817   0.3133366 
3073.6     70.32779   2.522936   0.2628518 
3073.8     73.17164   2.551471   0.2305415 
3074       75.85366   2.559917   0.248716  
3074.2     71.74586   2.546798   0.2426579 
3074.4     68.65538   2.53499    0.2376094 
3074.6     70.07346   2.535892   0.2638615 
3074.8     72.11579   2.513343   0.2860748 
3075       73.58011   2.492351   0.2880942 
3075.2     77.59542   2.458076   0.3113172 
3075.4     77.22549   2.362549   0.3092979 
3075.6     76.43938   2.377965   0.2547742 
3075.8     77.28715   2.488743   0.2164057 
3076       75.76888   2.561311   0.2174154 
3076.2     78.19656   2.565657   0.225493  
3076.4     84.03841   2.588534   0.2426579 
3076.6     92.16924   2.590092   0.2618421 
3076.8     92.09988   2.539008   0.2365997 
3077       81.69551   2.517279   0.2153961 
3077.2     67.8924    2.4689     0.2204445 
3077.4     59.85406   2.433887   0.2376094 
3077.6     58.97547   2.45865    0.2507354 
3077.8     62.57461   2.415519   0.2376094 
3078       60.54769   2.4484     0.2133767 
3078.2     53.44189   2.451763   0.1992409 
3078.4     50.46702   2.458404   0.1982312 
3078.6     46.47482   2.458404   0.1992409 
3078.8     44.81783   2.495303   0.1830858 
3079       45.28795   2.4484     0.1780373 
3079.2     49.48823   2.438315   0.1982312 
3079.4     57.22599   2.384689   0.2204445 
3079.6     63.08326   2.367961   0.2325609 
3079.8     65.88859   2.337786   0.2446772 
3080       67.03693   2.344428   0.2729487 
3080.2     74.86717   2.354513   0.2729487 
3080.4     82.35831   2.364599   0.2557839 
3080.6     84.4623    2.371241   0.2567936 
3080.8     86.21948   2.354513   0.258813  
3081       85.06344   2.354513   0.2658809 
3081.2     80.63966   2.351152   0.282036  
3081.4     78.62815   2.280798   0.282036  
3081.6     80.65508   2.270712   0.3012203 
3081.8     83.26002   2.304249   0.3113172 
3082       82.72054   2.331062   0.2931427 
3082.2     84.07695   2.334424   0.2850651 
3082.4     88.32348   2.310973   0.2749681 
3082.6     89.2406    2.304249   0.2628518 
3082.8     88.4622    2.170183   0.2648712 
3083       80.88628   2.029393   0.2880942 
3083.2     62.97537   1.88188    0.358773  
3083.4     33.08017   1.879748   0.4102675 
3083.6     14.91493   1.836945   0.4284421 
3083.8     9.45842    1.834814   0.4880142 
3084       7.593341   1.866301   0.5415281 
3084.2     7.608756   1.854329   0.5667706 
3084.4     7.778307   1.828418   0.5294117 
3084.6     7.261943   1.817758   0.5021499 
3084.8     8.70314    1.823826   0.5041693 
3085       16.17887   1.826286   0.5324408 
3085.2     29.95116   1.839569   0.4809463 
3085.4     56.39365   1.876632   0.4082481 
3085.6     71.31427   2.019554   0.4375293 
3085.8     72.37012   2.041775   0.4476263 
3086       75.67639   2.070802   0.3850251 
3086.2     78.04242   2.249065   0.3567536 
3086.4     78.56649   2.416258   0.3345403 
3086.6     81.02501   2.450861   0.3123269 
3086.8     83.54517   2.502191   0.282036  
3087       79.94604   2.53048    0.258813  
3087.2     74.73615   2.47669    0.2406385 
3087.4     69.84995   2.386575   0.2275124 
3087.6     64.63236   2.303429   0.2295318 
3087.8     58.84445   2.185435   0.2628518 
3088       55.55359   2.138122   0.3466566 
3088.2     56.94084   2.083184   0.4132966 
3088.4     64.55529   2.066457   0.3870445 
3088.6     79.41426   2.204458   0.305259  
3088.8     88.70882   2.515557   0.2719391 
3089       92.03822   2.543846   0.2376094 
3089.2     93.48712   2.460536   0.2365997 
3089.4     95.48322   2.4771     0.2376094 
3089.6     95.72984   2.467588   0.2234736 
3089.8     89.98046   2.527364   0.225493  
3090       80.94794   2.536138   0.2305415 
3090.2     78.71293   2.530644   0.2315512 
3090.4     78.0116    2.561229   0.2426579 
3090.6     82.28123   2.556801   0.2527548 
3090.8     86.84374   2.562869   0.2386191 
3091       84.53166   2.553767   0.2315512 
3091.2     74.7901    2.499239   0.2406385 
3091.4     67.96946   2.476526   0.2477064 
3091.6     72.41637   2.574103   0.245687  
3091.8     73.10228   2.537532   0.2416482 
3092       70.00409   2.498337   0.2547742 
3092.2     74.72845   2.496779   0.2840554 
3092.4     88.59322   2.509325   0.2840554 
3092.6     94.98226   2.515803   0.2578033 
3092.8     90.04983   2.462504   0.2426579 
3093       80.17725   2.451435   0.2184251 
3093.2     72.51655   2.470294   0.2315512 
3093.4     69.42607   2.478904   0.258813  
3093.6     67.72284   2.486693   0.282036  
3093.8     67.69971   2.479068   0.33555   
3094       70.80561   2.435937   0.33555   
3094.2     71.64567   2.385591   0.2648712 
3094.4     74.62825   2.423637   0.2537645 
3094.6     81.09437   2.437085   0.2810263 
3094.8     82.1271    2.398382   0.2578033 
3095       64.34721   2.378785   0.2103476 
3095.2     42.12041   2.414208   0.1750082 
3095.4     35.93945   2.459388   0.1669306 
3095.6     37.75058   2.413388   0.192173  
3095.8     44.59433   2.378621   0.212367  
3096       62.39735   2.405434   0.2275124 
3096.2     84.60873   2.491367   0.2416482 
3096.4     89.82632   2.550159   0.2749681 
3096.6     80.87858   2.590338   0.3537245 
3096.8     77.66479   2.513507   0.3446372 
3097       74.48953   2.415192   0.2658809 
3097.2     66.72094   2.427573   0.2265027 
3097.4     68.74016   2.518427   0.2133767 
3097.6     78.21968   2.586894   0.2204445 
3097.8     78.85165   2.647655   0.2133767 
3098       70.23531   2.676764   0.1931827 
3098.2     56.86377   2.763599   0.1679403 
3098.4     49.5576    2.767043   0.1376494 
3098.6     45.16465   2.817881   0.1194749 
3098.8     42.90651   2.794922   0.1245233 
3099       41.49614   2.695541   0.125533  
3099.2     45.03363   2.658724   0.1376494 
3099.4     47.23781   2.625023   0.1568336 
3099.6     46.62126   2.602146   0.1628918 
3099.8     45.86597   2.561475   0.1628918 
3100       44.64058   2.556063   0.1709694 
3100.2     50.04313   2.53294    0.179047  
3100.4     62.30487   2.507111   0.1911633 
3100.6     69.79601   2.508423   0.2063088 
3100.8     68.96366   2.482183   0.2164057 
3101       73.76508   2.484316   0.2325609 
3101.2     80.18495   2.482758   0.2800166 
3101.4     76.4548    2.373701   0.3244433 
3101.6     65.5649    2.285554   0.30223   
3101.8     54.47462   2.286865   0.2507354 
3102       46.35922   2.382885   0.2113573 
3102.2     51.17606   2.433067   0.1820761 
3102.4     55.59212   2.448975   0.1830858 
3102.6     55.9004    2.47382    0.1871245 
3102.8     55.85416   2.463324   0.1931827 
3103       58.4514    2.453321   0.1952021 
3103.2     58.70573   2.419784   0.2002506 
3103.4     58.39745   2.382229   0.2265027 
3103.6     63.40696   2.339918   0.2578033 
3103.8     70.46651   2.373947   0.2628518 
3104       81.71864   2.570741   0.2648712 
3104.2     86.85915   2.638389   0.2810263 
3104.4     86.40445   2.555325   0.2668906 
3104.6     85.48733   2.576071   0.2325609 
3104.8     83.23689   2.589108   0.2184251 
3105       85.15593   2.555407   0.2184251 
3105.2     85.81872   2.515557   0.2143864 
3105.4     78.35841   2.497927   0.2083282 
3105.6     66.17374   2.52023    0.2174154 
3105.8     60.70953   2.47423    0.258813  
