~Version
 VERS              .         2.0                           : CWLS LOG ASCII STANDARD - VERSION 2.0
 WRAP              .         NO                            : ONE LINE PER DEPTH STEP
 DLM               .         SPACE                         : DELIMITING CHARACTER(SPACE TAB OR COMMA)
~Well Information
#_______________________________________________________________________________
#
#PARAMETER_NAME    .UNIT     VALUE                         : DESCRIPTION
#_______________________________________________________________________________
STRT               .m        2924                          : First reference value
STOP               .m        3124.8                        : Last reference value
STEP               .m        0.2                           : Step increment
NULL               .         -9999                         : Missing value
COMP               .                                       : Company
WELL               .         304                           : Well name
FLD                .                                       : Field
LOC                .                                       : Location
CNTY               .                                       : County
STAT               .                                       : State
CTRY               .                                       : Country
SRVC               .                                       : Service Company
DATE               .                                       : Date
API                .                                       : API number
Cartographic_reference_system .         GCS_WGS_1984                  : ESRI,PE_10_3_1- <?xml version="1.0" encoding="utf-16"?><ILateBoundCoordinateReferenceSystem name="GCS_WGS_1984"><AuthorityCode>EPSG,4326</AuthorityCode></ILateBoundCoordinateReferenceSystem>
EREF               .m        138.34                        : 
HZCS               .GCS_WGS_1984 WGS_1984_World_Mercator       : ESRI,PE_10_3_1- <?xml version="1.0" encoding="utf-16"?><ILateBoundCoordinateReferenceSystem name="WGS_1984_World_Mercator"><AuthorityCode>EPSG,3395</AuthorityCode></ILateBoundCoordinateReferenceSystem>
LATI               .dega     2.2599678524                  : GCS_WGS_1984
LONG               .dega     1.9741376684                  : GCS_WGS_1984
PROJECT_UPGRADE_TIME .         2014-05-27T11_38_46           : 
Pad                .         Pad3                          : 
X                  .m        219760                        : 
Y                  .m        249960                        : 
group              .         Pad3                          : 
Интер-р            .         Старостина                    : 
Куст               .         3                             : 
Статус             .         Не проверено                  : 
Тип                .         Эксплуатация                  : 
~Parameter Information Block
#_______________________________________________________________________________
#
#PARAMETER_NAME    .UNIT     VALUE                         : DESCRIPTION
#_______________________________________________________________________________
SET                .         LQC                           : 
PROJECT_UPGRADE_TIME .         2014-05-27T11_38_46           : 
TLFamily_GR_NORM   .         Gamma Ray                     : 
TLFamily_MD        .         Measured Depth                : 
TLFamily_RHOB_NORM .         Bulk Density                  : 
TLFamily_TNPH_NORM .         Neutron Porosity              : 
~Curve Information
#_______________________________________________________________________________
#
#LOGNAME           .UNIT     LOG_ID                        : DESCRIPTION
#_______________________________________________________________________________
MD                 .m                                      :  
GR_NORM            .gAPI                                   : Normalised By Techlog 
RHOB_NORM          .g/cm3                                  : Normalized By Techlog 
TNPH_NORM          .v/v                                    : Normalised By Techlog 
~Ascii
# ...
3033.2     67.46851   2.640931   0.2234736 
3033.4     85.62605   2.626991   0.2598227 
3033.6     104.7161   2.562623   0.2880942 
3033.8     116.7158   2.493581   0.2891039 
3034       121.3939   2.474886   0.2709294 
3034.2     120.708    2.504815   0.2749681 
3034.4     121.5249   2.417078   0.2951621 
3034.6     117.9566   2.435035   0.3113172 
3034.8     106.6274   2.417734   0.3072785 
3035       97.98797   2.356973   0.30223   
3035.2     101.2095   2.300887   0.3072785 
3035.4     103.5755   2.307611   0.2992009 
3035.6     102.5428   2.307611   0.2931427 
3035.8     106.7893   2.186911   0.3103075 
3036       110.635    2.193635   0.3628118 
3036.2     110.3191   2.213724   0.4011802 
3036.4     108.7623   2.28416    0.3678603 
3036.6     108.5927   2.28744    0.3244433 
3036.8     108.4077   2.458896   0.2870845 
3037       101.9725   2.506865   0.2830457 
3037.2     95.56799   2.540812   0.3315112 
3037.4     96.23079   2.541222   0.3809863 
3037.6     101.2326   2.556309   0.3607924 
3037.8     103.5524   2.58919    0.325453  
3038       102.4118   2.551636   0.3082882 
3038.2     103.3751   2.500961   0.292133  
3038.4     105.1554   2.528922   0.2729487 
3038.6     105.3173   2.538762   0.2668906 
3038.8     103.4984   2.52433    0.2830457 
3039       102.5351   2.553276   0.3002106 
3039.2     106.3731   2.528758   0.3002106 
3039.4     107.8914   2.559671   0.305259  
3039.6     102.2884   2.556391   0.2961718 
3039.8     103.1516   2.538352   0.2709294 
3040       107.8528   2.507767   0.26891   
3040.2     111.2516   2.472836   0.2769876 
3040.4     111.0358   2.512605   0.2779973 
3040.6     99.81451   2.525478   0.2850651 
3040.8     73.85756   2.549504   0.2729487 
3041       65.53407   2.640685   0.2769876 
3041.2     84.59332   2.649131   0.3123269 
3041.4     99.2442    2.609116   0.3395888 
3041.6     109.2709   2.574923   0.3315112 
3041.8     113.7641   2.520313   0.305259  
3042       112.8161   2.520313   0.2850651 
3042.2     109.8644   2.484479   0.2749681 
3042.4     111.4289   2.465784   0.2850651 
3042.6     116.7004   2.457174   0.2901136 
3042.8     113.371    2.434051   0.30223   
3043       110.504    2.435855   0.3214142 
3043.2     114.2804   2.45455    0.325453  
3043.4     114.7197   2.465292   0.3092979 
3043.6     112.0762   2.446269   0.2880942 
3043.8     108.4309   2.3441     0.2668906 
3044       100.2461   2.279568   0.258813  
3044.2     96.55448   2.452664   0.2860748 
3044.4     99.60643   2.423309   0.325453  
3044.6     98.40414   2.364599   0.3365597 
3044.8     96.91671   2.357875   0.2981912 
3045       98.29625   2.367961   0.2648712 
3045.2     98.71242   2.371241   0.2870845 
3045.4     97.30976   2.434953   0.2911233 
3045.6     98.63535   2.361237   0.2971815 
3045.8     106.8818   2.337786   0.3163657 
3046       109.6177   2.304249   0.3002106 
3046.2     107.6756   2.451763   0.3002106 
3046.4     107.5677   2.491941   0.2981912 
3046.6     105.8336   2.531792   0.2931427 
3046.8     105.4329   2.540074   0.305259  
3047       106.7585   2.560737   0.3133366 
3047.2     103.7682   2.548356   0.2931427 
3047.4     103.1516   2.573283   0.2729487 
3047.6     104.2614   2.553767   0.2981912 
3047.8     100.1074   2.52228    0.3234336 
3048       97.17104   2.563443   0.3133366 
3048.2     104.1381   2.58714    0.3224239 
3048.4     105.5176   2.559097   0.3224239 
3048.6     103.4137   2.521214   0.2901136 
3048.8     101.4715   2.557703   0.2739585 
3049       101.302    2.573283   0.2658809 
3049.2     94.72023   2.630681   0.2335706 
3049.4     79.36801   2.708661   0.2012603 
3049.6     67.12941   2.748019   0.1699597 
3049.8     61.58041   2.745314   0.1618821 
3050       69.27964   2.719976   0.1780373 
3050.2     93.73374   2.670696   0.1871245 
3050.4     131.3821   2.572463   0.1941924 
3050.6     138.8655   2.48858    0.1891439 
3050.8     90.88218   2.485217   0.16895   
3051       61.03322   2.505389   0.1649112 
3051.2     46.12801   2.502027   0.1739985 
3051.4     42.94505   2.498665   0.1770276 
3051.6     42.6753    2.555653   0.1618821 
3051.8     38.58292   2.555653   0.1406785 
3052       35.8932    2.555653   0.1447173 
3052.2     38.85266   2.54893    0.1538046 
3052.4     39.93934   2.535564   0.1527949 
3052.6     37.91242   2.535564   0.1477464 
3052.8     37.53478   2.542206   0.1467367 
3053       38.95285   2.542206   0.1538046 
3053.2     40.15514   2.495303   0.1699597 
3053.4     42.92193   2.498665   0.1840955 
3053.6     38.18987   2.515393   0.1719791 
3053.8     37.05695   2.515393   0.158853  
3054       38.35942   2.52884    0.16895   
3054.2     37.30357   2.478576   0.1830858 
3054.4     38.59063   2.478576   0.1901536 
3054.6     41.84295   2.48858    0.1861148 
3054.8     43.47683   2.495303   0.1709694 
3055       43.32269   2.505389   0.1729888 
3055.2     43.35352   2.505389   0.1750082 
3055.4     44.77159   2.505389   0.1830858 
3055.6     45.51146   2.478576   0.1952021 
3055.8     43.40746   2.46849    0.2002506 
3056       42.68301   2.461766   0.20227   
3056.2     43.83905   2.455042   0.2032797 
3056.4     45.63477   2.465128   0.1952021 
3056.6     48.58652   2.485217   0.1891439 
3056.8     51.91592   2.485217   0.1840955 
3057       49.5653    2.485217   0.1760179 
3057.2     46.18196   2.481856   0.1830858 
3057.4     46.48253   2.478576   0.1911633 
3057.6     46.31298   2.461766   0.1901536 
3057.8     46.65208   2.475214   0.1901536 
3058       46.30527   2.487185   0.1901536 
3058.2     43.6695    2.47792    0.20227   
3058.4     43.75428   2.442415   0.2083282 
3058.6     43.21479   2.445613   0.1952021 
3058.8     42.39785   2.449057   0.1770276 
3059       44.34      2.488169   0.1699597 
3059.2     41.96627   2.454961   0.1911633 
3059.4     38.71394   2.41593    0.1982312 
3059.6     36.57141   2.435035   0.1840955 
3059.8     36.48664   2.462832   0.1750082 
3060       37.49625   2.484233   0.1669306 
3060.2     37.98949   2.462996   0.1659209 
3060.4     39.12241   2.430935   0.1820761 
3060.6     40.28616   2.413634   0.1972215 
3060.8     38.29006   2.433067   0.2052991 
3061       36.39415   2.433887   0.2073185 
3061.2     39.26114   2.436921   0.2042894 
3061.4     41.0029    2.427163   0.2073185 
3061.6     41.42678   2.461028   0.2002506 
3061.8     40.01641   2.471196   0.1881342 
3062       38.52897   2.469474   0.1901536 
3062.2     36.34791   2.455206   0.192173  
3062.4     36.50976   2.460864   0.1851052 
3062.6     38.8912    2.450368   0.1750082 
3062.8     38.15904   2.48366    0.1760179 
3063       37.08007   2.500141   0.1911633 
3063.2     36.54058   2.505307   0.1941924 
3063.4     38.32859   2.544174   0.1851052 
3063.6     40.40176   2.554505   0.1750082 
3063.8     38.5521    2.542124   0.1830858 
3064       35.4462    2.500387   0.192173  
3064.2     35.86238   2.511211   0.192173  
3064.4     38.23611   2.523674   0.1982312 
3064.6     39.67731   2.526216   0.20227   
3064.8     42.14352   2.521461   0.1871245 
3065       43.84676   2.519328   0.1810664 
3065.2     45.65789   2.531792   0.1911633 
3065.4     45.68871   2.494483   0.192173  
3065.6     47.03743   2.490219   0.1840955 
3065.8     48.57882   2.524658   0.179047  
3066       50.14332   2.501617   0.1760179 
3066.2     50.47472   2.53991    0.1851052 
3066.4     50.14332   2.514081   0.2073185 
3066.6     48.43238   2.512605   0.1972215 
3066.8     44.19357   2.452255   0.1820761 
3067       42.85256   2.439627   0.1982312 
3067.2     42.5597    2.423719   0.2224639 
3067.4     42.32079   2.454714   0.2275124 
3067.6     45.65018   2.471278   0.2275124 
3067.8     51.87738   2.47833    0.2244833 
3068       57.1181    2.508177   0.2466966 
3068.2     65.4493    2.567215   0.2699197 
3068.4     67.53787   2.624531   0.2608324 
3068.6     62.28945   2.60928    0.2426579 
3068.8     55.95435   2.574513   0.2396288 
3069       60.43979   2.536548   0.2527548 
3069.2     64.27784   2.399612   0.2315512 
3069.4     64.1237    2.229139   0.2042894 
