~Version
 VERS              .         2.0                           : CWLS LOG ASCII STANDARD - VERSION 2.0
 WRAP              .         NO                            : ONE LINE PER DEPTH STEP
 DLM               .         SPACE                         : DELIMITING CHARACTER(SPACE TAB OR COMMA)
~Well Information
#_______________________________________________________________________________
#
#PARAMETER_NAME    .UNIT     VALUE                         : DESCRIPTION
#_______________________________________________________________________________
STRT               .m        2924                          : First reference value
STOP               .m        3124.8                        : Last reference value
STEP               .m        0.2                           : Step increment
NULL               .         -9999                         : Missing value
COMP               .                                       : Company
WELL               .         304                           : Well name
FLD                .                                       : Field
LOC                .                                       : Location
CNTY               .                                       : County
STAT               .                                       : State
CTRY               .                                       : Country
SRVC               .                                       : Service Company
DATE               .                                       : Date
API                .                                       : API number
Cartographic_reference_system .         GCS_WGS_1984                  : ESRI,PE_10_3_1- <?xml version="1.0" encoding="utf-16"?><ILateBoundCoordinateReferenceSystem name="GCS_WGS_1984"><AuthorityCode>EPSG,4326</AuthorityCode></ILateBoundCoordinateReferenceSystem>
EREF               .m        138.34                        : 
HZCS               .GCS_WGS_1984 WGS_1984_World_Mercator       : ESRI,PE_10_3_1- <?xml version="1.0" encoding="utf-16"?><ILateBoundCoordinateReferenceSystem name="WGS_1984_World_Mercator"><AuthorityCode>EPSG,3395</AuthorityCode></ILateBoundCoordinateReferenceSystem>
LATI               .dega     2.2599678524                  : GCS_WGS_1984
LONG               .dega     1.9741376684                  : GCS_WGS_1984
PROJECT_UPGRADE_TIME .         2014-05-27T11_38_46           : 
Pad                .         Pad3                          : 
X                  .m        219760                        : 
Y                  .m        249960                        : 
group              .         Pad3                          : 
Интер-р            .         Старостина                    : 
Куст               .         3                             : 
Статус             .         Не проверено                  : 
Тип                .         Эксплуатация                  : 
~Parameter Information Block
#_______________________________________________________________________________
#
#PARAMETER_NAME    .UNIT     VALUE                         : DESCRIPTION
#_______________________________________________________________________________
SET                .         LQC                           : 
PROJECT_UPGRADE_TIME .         2014-05-27T11_38_46           : 
TLFamily_GR_NORM   .         Gamma Ray                     : 
TLFamily_MD        .         Measured Depth                : 
TLFamily_RHOB_NORM .         Bulk Density                  : 
TLFamily_TNPH_NORM .         Neutron Porosity              : 
~Curve Information
#_______________________________________________________________________________
#
#LOGNAME           .UNIT     LOG_ID                        : DESCRIPTION
#_______________________________________________________________________________
MD                 .m                                      :  
GR_NORM            .gAPI                                   : Normalised By Techlog 
RHOB_NORM          .g/cm3                                  : Normalized By Techlog 
TNPH_NORM          .v/v                                    : Normalised By Techlog 
~Ascii
# ...
3106       59.49954   2.420439   0.3264627 
3106.2     60.94845   2.312613   0.3476663 
3106.4     57.46491   2.217824   0.3113172 
3106.6     55.64607   2.260708   0.2880942 
3106.8     57.18747   2.378293   0.2699197 
3107       57.42637   2.320075   0.2517451 
3107.2     55.91582   2.239471   0.2668906 
3107.4     55.26073   2.174447   0.3103075 
3107.6     63.08326   2.211838   0.3133366 
3107.8     67.26814   2.389117   0.2800166 
3108       66.25082   2.420029   0.23559   
3108.2     61.98117   2.438315   0.2204445 
3108.4     63.60733   2.414454   0.2386191 
3108.6     65.21809   2.417652   0.2416482 
3108.8     63.42237   2.389198   0.245687  
3109       66.91361   2.398874   0.2618421 
3109.2     73.86526   2.372307   0.2679003 
3109.4     79.19847   2.281618   0.2719391 
3109.6     81.17144   2.163049   0.2931427 
3109.8     75.78429   2.053173   0.3315112 
3110       58.08917   1.994545   0.4042093 
3110.2     37.70433   1.897788   0.4506554 
3110.4     33.75838   1.857199   0.3769475 
3110.6     51.16064   1.886882   0.3032396 
3110.8     67.66118   2.155588   0.2567936 
3111       75.94614   2.506783   0.2113573 
3111.2     72.07726   2.501453   0.1911633 
3111.4     68.83264   2.391412   0.2012603 
3111.6     67.15253   2.223154   0.2153961 
3111.8     66.43578   2.231353   0.2113573 
3112       67.09858   2.307037   0.2204445 
3112.2     68.62455   2.175677   0.2275124 
3112.4     68.46271   2.051451   0.2133767 
3112.6     62.52066   2.371569   0.2073185 
3112.8     56.35511   2.450287   0.2083282 
3113       56.64027   2.440365   0.2214542 
3113.2     67.43768   2.489563   0.2426579 
3113.4     77.86517   2.60354    0.2699197 
3113.6     89.12499   2.605918   0.282036  
3113.8     94.50444   2.5896     0.2931427 
3114       95.62965   2.583779   0.2992009 
3114.2     95.80691   2.615429   0.2931427 
3114.4     92.60853   2.628713   0.2759778 
3114.6     83.21378   2.592306   0.2729487 
3114.8     70.85186   2.537532   0.2436676 
3115       53.21839   2.475378   0.1972215 
3115.2     40.84876   2.40158    0.1750082 
3115.4     35.26894   2.4065     0.1739985 
3115.6     33.79692   2.420029   0.1558239 
3115.8     33.09558   2.470376   0.1326009 
3116       34.35952   2.565493   0.1336106 
3116.2     40.21679   2.613461   0.1578433 
3116.4     49.81963   2.60436    0.1861148 
3116.6     60.64787   2.555325   0.2194348 
3116.8     65.85005   2.602392   0.2497257 
3117       73.87298   2.588124   0.2668906 
3117.2     80.92482   2.587304   0.2598227 
3117.4     76.40085   2.51818    0.2426579 
3117.6     70.1197    2.373127   0.2365997 
3117.8     71.32198   2.145912   0.2386191 
3118       70.86727   1.925749   0.2345803 
3118.2     69.81913   2.248491   0.2345803 
3118.4     67.72284   2.471688   0.2325609 
3118.6     65.96566   2.407402   0.2234736 
3118.8     66.50514   2.20372    0.2416482 
3119       70.8904    2.048417   0.2507354 
3119.2     80.16183   2.58304    0.2517451 
3119.4     86.11158   2.602884   0.2719391 
3119.6     88.60863   2.536876   0.2628518 
3119.8     88.9092    2.54114    0.2406385 
3120       82.21188   2.519902   0.2446772 
3120.2     79.32178   2.330652   0.2608324 
3120.4     79.63776   2.214544   0.2638615 
3120.6     75.52996   2.127462   0.2537645 
3120.8     76.94804   2.068014   0.2608324 
3121       78.95184   2.568527   0.3092979 
3121.2     78.75146   2.571233   0.3274724 
3121.4     82.70512   2.580253   0.3082882 
3121.6     83.22919   2.48202    0.2911233 
3121.8     83.11359   2.445613   0.2648712 
3122       84.70122   2.570577   0.2709294 
3122.2     83.46811   2.620021   0.2759778 
3122.4     74.52036   2.684963   0.2800166 
3122.6     73.81903   2.67537    0.2709294 
3122.8     77.77268   2.635683   0.2557839 
3123       66.00419   2.556391   0.2598227 
3123.2     63.86166   2.444137   0.2941524 
3123.4     71.93853   2.281454   0.3496857 
3123.6     75.63016   2.194618   0.3830057 
3123.8     72.4549    2.177973   0.3678603 
3124       73.93462   2.4147     0.2679003 
3124.2     73.60323   2.670286   0.2497257 
3124.4     69.33359   2.687013   0.2891039 
3124.6     67.51475   2.715302   0.2759778 
3124.8     72.69381   2.713088   0.2517451 
