~Version
 VERS              .         2.0                           : CWLS LOG ASCII STANDARD - VERSION 2.0
 WRAP              .         NO                            : ONE LINE PER DEPTH STEP
 DLM               .         SPACE                         : DELIMITING CHARACTER(SPACE TAB OR COMMA)
~Well Information
#_______________________________________________________________________________
#
#PARAMETER_NAME    .UNIT     VALUE                         : DESCRIPTION
#_______________________________________________________________________________
STRT               .m        2924                          : First reference value
STOP               .m        3124.8                        : Last reference value
STEP               .m        0.2                           : Step increment
NULL               .         -9999                         : Missing value
COMP               .                                       : Company
WELL               .         304                           : Well name
FLD                .                                       : Field
LOC                .                                       : Location
CNTY               .                                       : County
STAT               .                                       : State
CTRY               .                                       : Country
SRVC               .                                       : Service Company
DATE               .                                       : Date
API                .                                       : API number
Cartographic_reference_system .         GCS_WGS_1984                  : ESRI,PE_10_3_1- <?xml version="1.0" encoding="utf-16"?><ILateBoundCoordinateReferenceSystem name="GCS_WGS_1984"><AuthorityCode>EPSG,4326</AuthorityCode></ILateBoundCoordinateReferenceSystem>
EREF               .m        138.34                        : 
HZCS               .GCS_WGS_1984 WGS_1984_World_Mercator       : ESRI,PE_10_3_1- <?xml version="1.0" encoding="utf-16"?><ILateBoundCoordinateReferenceSystem name="WGS_1984_World_Mercator"><AuthorityCode>EPSG,3395</AuthorityCode></ILateBoundCoordinateReferenceSystem>
LATI               .dega     2.2599678524                  : GCS_WGS_1984
LONG               .dega     1.9741376684                  : GCS_WGS_1984
PROJECT_UPGRADE_TIME .         2014-05-27T11_38_46           : 
Pad                .         Pad3                          : 
X                  .m        219760                        : 
Y                  .m        249960                        : 
group              .         Pad3                          : 
Интер-р            .         Старостина                    : 
Куст               .         3                             : 
Статус             .         Не проверено                  : 
Тип                .         Эксплуатация                  : 
~Parameter Information Block
#_______________________________________________________________________________
#
#PARAMETER_NAME    .UNIT     VALUE                         : DESCRIPTION
#_______________________________________________________________________________
SET                .         LQC                           : 
PROJECT_UPGRADE_TIME .         2014-05-27T11_38_46           : 
TLFamily_GR_NORM   .         Gamma Ray                     : 
TLFamily_MD        .         Measured Depth                : 
TLFamily_RHOB_NORM .         Bulk Density                  : 
TLFamily_TNPH_NORM .         Neutron Porosity              : 
~Curve Information
#_______________________________________________________________________________
#
#LOGNAME           .UNIT     LOG_ID                        : DESCRIPTION
#_______________________________________________________________________________
MD                 .m                                      :  
GR_NORM            .gAPI                                   : Normalised By Techlog 
RHOB_NORM          .g/cm3                                  : Normalized By Techlog 
TNPH_NORM          .v/v                                    : Normalised By Techlog 
~Ascii
2924.0     77.96535   2.569511   0.2709294 
2924.2     79.93833   2.623383   0.2598227 
2924.4     81.81112   2.604688   0.2446772 
2924.6     82.65887   2.567789   0.2517451 
2924.8     81.27934   2.605344   0.2477064 
2925       76.91721   2.625187   0.2345803 
2925.2     73.64948   2.61256    0.2275124 
2925.4     74.03482   2.633961   0.2244833 
2925.6     73.78049   2.620103   0.225493  
2925.8     70.99829   2.588534   0.2315512 
2926       69.4569    2.559835   0.2376094 
2926.2     69.86536   2.550406   0.23559   
2926.4     71.91541   2.5395     0.2315512 
2926.6     71.86147   2.454714   0.2335706 
2926.8     73.241     2.482512   0.2325609 
2927       73.81903   2.60436    0.2244833 
2927.2     75.4606    2.543436   0.2204445 
2927.4     74.48182   2.5354     0.2204445 
2927.6     72.48573   2.564919   0.2345803 
2927.8     71.92312   2.552948   0.2376094 
2928       72.67069   2.582631   0.2244833 
2928.2     77.60313   2.581319   0.2285221 
2928.4     82.33519   2.577957   0.2345803 
2928.6     80.69361   2.586156   0.2285221 
2928.8     77.4567    2.614527   0.2436676 
2929       76.51645   2.613298   0.2628518 
2929.2     77.7804    2.602884   0.2557839 
2929.4     78.07326   2.59903    0.2527548 
2929.6     73.95004   2.578777   0.2557839 
2929.8     72.37783   2.607148   0.2547742 
2930       77.21008   2.554751   0.2517451 
2930.2     78.79771   2.540484   0.2598227 
2930.4     77.75727   2.606492   0.2769876 
2930.6     76.5704    2.60272    0.2830457 
2930.8     75.41436   2.607148   0.2709294 
2931       76.16193   2.612231   0.2557839 
2931.2     76.00009   2.553685   0.2466966 
2931.4     77.6879    2.572217   0.2477064 
2931.6     79.96146   2.582631   0.2406385 
2931.8     80.00769   2.618135   0.2305415 
2932       77.92683   2.588944   0.2315512 
2932.2     74.99048   2.578202   0.2275124 
2932.4     72.97897   2.580498   0.2265027 
2932.6     74.25062   2.625269   0.2295318 
2932.8     73.09457   2.637159   0.225493  
2933       74.65908   2.697509   0.2426579 
2933.2     74.21208   2.733506   0.2497257 
2933.4     74.63596   2.726864   0.2204445 
2933.6     75.69952   2.712269   0.2275124 
2933.8     82.5741    2.635355   0.2466966 
2934       84.41606   2.650443   0.258813  
2934.2     79.95374   2.643883   0.2810263 
2934.4     75.76118   2.591322   0.26891   
2934.6     76.16964   2.583122   0.2497257 
2934.8     76.5704    2.626909   0.23559   
2935       77.98077   2.678486   0.2335706 
2935.2     80.56259   2.674632   0.2578033 
2935.4     79.15993   2.616004   0.2759778 
2935.6     76.09257   2.58427    0.2608324 
2935.8     77.44128   2.576317   0.2527548 
2936       75.49143   2.639537   0.2547742 
2936.2     72.79401   2.624531   0.2567936 
2936.4     73.93462   2.642406   0.2537645 
2936.6     73.98087   2.638225   0.2507354 
2936.8     72.347     2.599522   0.2446772 
2937       72.37783   2.600342   0.2527548 
2937.2     70.02721   2.602884   0.2648712 
2937.4     70.18906   2.619529   0.2537645 
2937.6     67.12941   2.625187   0.2477064 
2937.8     70.73625   2.583287   0.2709294 
2938       76.97887   2.578121   0.2679003 
2938.2     76.58582   2.575907   0.2517451 
2938.4     75.72264   2.534744   0.2608324 
2938.6     76.04633   2.556719   0.2628518 
2938.8     75.29875   2.575743   0.2477064 
2939       73.44909   2.623383   0.2426579 
2939.2     71.04453   2.607886   0.2466966 
2939.4     72.58591   2.618464   0.258813  
2939.6     74.58971   2.684553   0.2598227 
2939.8     74.46641   2.694147   0.2638615 
2940       75.00589   2.653476   0.2598227 
2940.2     75.67639   2.587304   0.2527548 
2940.4     78.48943   2.575907   0.2578033 
2940.6     80.9017    2.607312   0.2608324 
2940.8     74.39705   2.601408   0.2477064 
2941       70.00409   2.614527   0.2426579 
2941.2     72.78629   2.623629   0.2386191 
2941.4     76.32378   2.621825   0.2295318 
2941.6     77.98847   2.615757   0.2345803 
2941.8     76.20818   2.637569   0.2436676 
2942       78.25051   2.617725   0.2537645 
2942.2     78.56649   2.598866   0.258813  
2942.4     74.21208   2.612396   0.2557839 
2942.6     70.13511   2.633715   0.245687  
2942.8     68.2392    2.581155   0.2426579 
2943       69.47231   2.582057   0.2466966 
2943.2     70.86727   2.607558   0.2406385 
2943.4     71.59172   2.617069   0.2376094 
2943.6     72.09267   2.617397   0.2416482 
2943.8     69.94244   2.628713   0.2527548 
2944       71.98477   2.646178   0.2578033 
2944.2     75.1292    2.721698   0.2557839 
2944.4     76.07716   2.660364   0.2608324 
2944.6     76.6783    2.65733    0.2537645 
2944.8     72.60903   2.60723    0.248716  
2945       69.81142   2.5855     0.2567936 
2945.2     73.47221   2.59493    0.2426579 
2945.4     74.95966   2.584024   0.2325609 
2945.6     72.88649   2.565575   0.2436676 
2945.8     72.47031   2.591568   0.2396288 
2946       73.67259   2.566067   0.2325609 
2946.2     75.62244   2.549995   0.2426579 
2946.4     74.41246   2.582384   0.2638615 
2946.6     73.02521   2.579679   0.2860748 
2946.8     71.67649   2.600834   0.2709294 
2947       71.48383   2.575661   0.2416482 
2947.2     75.05984   2.586812   0.2446772 
2947.4     77.73415   2.642489   0.2507354 
2947.6     78.93643   2.633797   0.2376094 
2947.8     76.39314   2.599522   0.2063088 
2948       75.92302   2.645605   0.2113573 
2948.2     74.55889   2.61297    0.2406385 
2948.4     73.77278   2.623711   0.2507354 
2948.6     74.62825   2.599358   0.258813  
2948.8     77.37192   2.595012   0.2648712 
2949       75.85366   2.566641   0.26891   
2949.2     73.50304   2.550241   0.2648712 
2949.4     74.26603   2.533596   0.2608324 
2949.6     73.10228   2.559999   0.2567936 
2949.8     74.55118   2.598128   0.2527548 
2950       76.36231   2.601736   0.245687  
2950.2     73.39514   2.624203   0.2426579 
2950.4     71.92312   2.61502    0.2537645 
2950.6     72.33929   2.581892   0.2648712 
2950.8     75.86136   2.5436     0.2537645 
2951       81.08666   2.577137   0.2517451 
2951.2     82.94404   2.577301   0.2648712 
2951.4     81.39494   2.581483   0.2416482 
2951.6     78.71293   2.642079   0.2345803 
2951.8     76.73995   2.658232   0.248716  
2952       75.64557   2.640275   0.2658809 
2952.2     72.02331   2.647655   0.2638615 
2952.4     70.18135   2.645769   0.2466966 
2952.6     70.40485   2.650606   0.2557839 
2952.8     71.11389   2.623547   0.2648712 
2953       71.73045   2.672336   0.2477064 
2953.2     70.48963   2.667908   0.245687  
2953.4     72.5628    2.687997   0.2658809 
2953.6     74.59743   2.700461   0.2779973 
2953.8     77.44128   2.678322   0.2658809 
2954       76.08486   2.652738   0.2628518 
2954.2     76.24671   2.617725   0.2779973 
2954.4     79.15993   2.635847   0.2870845 
2954.6     81.32558   2.619529   0.2810263 
2954.8     80.96336   2.624449   0.2850651 
2955       82.07315   2.577301   0.2810263 
2955.2     79.26783   2.567707   0.245687  
2955.4     77.14841   2.562541   0.2446772 
2955.6     79.14452   2.608542   0.2699197 
2955.8     79.75336   2.623629   0.26891   
2956       75.32188   2.575169   0.26891   
2956.2     80.06164   2.580991   0.2860748 
2956.4     88.51615   2.575907   0.2628518 
2956.6     91.99197   2.561721   0.2537645 
2956.8     88.18475   2.517771   0.2769876 
2957       84.20797   2.535564   0.2749681 
2957.2     86.48922   2.528676   0.2810263 
2957.4     88.03831   2.540402   0.2840554 
2957.6     87.53737   2.621825   0.2679003 
2957.8     88.231     2.639701   0.2658809 
2958       89.05563   2.634453   0.2396288 
2958.2     82.4585    2.601818   0.2315512 
2958.4     77.2409    2.60764    0.2466966 
2958.6     80.50864   2.53868    0.2386191 
2958.8     85.9035    2.490055   0.2315512 
2959       84.24651   2.492269   0.245687  
2959.2     77.54918   2.510637   0.2507354 
2959.4     74.42016   2.5313     0.2386191 
2959.6     78.32758   2.560081   0.2386191 
2959.8     83.76868   2.59042    0.245687  
2960       83.37563   2.593044   0.2466966 
2960.2     77.87288   2.605918   0.248716  
