~Version
 VERS              .         2.0                           : CWLS LOG ASCII STANDARD - VERSION 2.0
 WRAP              .         NO                            : ONE LINE PER DEPTH STEP
 DLM               .         SPACE                         : DELIMITING CHARACTER(SPACE TAB OR COMMA)
~Well Information
#_______________________________________________________________________________
#
#PARAMETER_NAME    .UNIT     VALUE                         : DESCRIPTION
#_______________________________________________________________________________
STRT               .m        2924                          : First reference value
STOP               .m        3124.8                        : Last reference value
STEP               .m        0.2                           : Step increment
NULL               .         -9999                         : Missing value
COMP               .                                       : Company
WELL               .         304                           : Well name
FLD                .                                       : Field
LOC                .                                       : Location
CNTY               .                                       : County
STAT               .                                       : State
CTRY               .                                       : Country
SRVC               .                                       : Service Company
DATE               .                                       : Date
API                .                                       : API number
Cartographic_reference_system .         GCS_WGS_1984                  : ESRI,PE_10_3_1- <?xml version="1.0" encoding="utf-16"?><ILateBoundCoordinateReferenceSystem name="GCS_WGS_1984"><AuthorityCode>EPSG,4326</AuthorityCode></ILateBoundCoordinateReferenceSystem>
EREF               .m        138.34                        : 
HZCS               .GCS_WGS_1984 WGS_1984_World_Mercator       : ESRI,PE_10_3_1- <?xml version="1.0" encoding="utf-16"?><ILateBoundCoordinateReferenceSystem name="WGS_1984_World_Mercator"><AuthorityCode>EPSG,3395</AuthorityCode></ILateBoundCoordinateReferenceSystem>
LATI               .dega     2.2599678524                  : GCS_WGS_1984
LONG               .dega     1.9741376684                  : GCS_WGS_1984
PROJECT_UPGRADE_TIME .         2014-05-27T11_38_46           : 
Pad                .         Pad3                          : 
X                  .m        219760                        : 
Y                  .m        249960                        : 
group              .         Pad3                          : 
Интер-р            .         Старостина                    : 
Куст               .         3                             : 
Статус             .         Не проверено                  : 
Тип                .         Эксплуатация                  : 
~Parameter Information Block
#_______________________________________________________________________________
#
#PARAMETER_NAME    .UNIT     VALUE                         : DESCRIPTION
#_______________________________________________________________________________
SET                .         LQC                           : 
PROJECT_UPGRADE_TIME .         2014-05-27T11_38_46           : 
TLFamily_GR_NORM   .         Gamma Ray                     : 
TLFamily_MD        .         Measured Depth                : 
TLFamily_RHOB_NORM .         Bulk Density                  : 
TLFamily_TNPH_NORM .         Neutron Porosity              : 
~Curve Information
#_______________________________________________________________________________
#
#LOGNAME           .UNIT     LOG_ID                        : DESCRIPTION
#_______________________________________________________________________________
MD                 .m                                      :  
GR_NORM            .gAPI                                   : Normalised By Techlog 
RHOB_NORM          .g/cm3                                  : Normalized By Techlog 
TNPH_NORM          .v/v                                    : Normalised By Techlog 
~Ascii
# ...
2960.4     72.70923   2.59124    0.2517451 
2960.6     70.95975   2.5896     0.2446772 
2960.8     71.79981   2.626581   0.2315512 
2961       75.63016   2.657412   0.2073185 
2961.2     74.85946   2.641095   0.2002506 
2961.4     71.76128   2.592634   0.2012603 
2961.6     69.46461   2.604524   0.2063088 
2961.8     68.95595   2.561803   0.2012603 
2962       65.10248   2.55098    0.2012603 
2962.2     65.41076   2.582548   0.2063088 
2962.4     68.31627   2.615757   0.212367  
2962.6     69.79601   2.611166   0.2234736 
2962.8     70.38943   2.568527   0.2345803 
2963       75.20627   2.594192   0.2386191 
2963.2     81.99609   2.570331   0.2224639 
2963.4     81.88048   2.498255   0.2042894 
2963.6     75.11378   2.561229   0.1992409 
2963.8     73.95775   2.534252   0.2032797 
2964       79.29865   2.545403   0.2143864 
2964.2     83.16753   2.576727   0.2244833 
2964.4     83.129     2.574923   0.2234736 
2964.6     83.82262   2.558031   0.2174154 
2964.8     85.96515   2.533432   0.2194348 
2965       86.35821   2.558933   0.2265027 
2965.2     85.37172   2.572791   0.2275124 
2965.4     83.94593   2.552291   0.2063088 
2965.6     79.24471   2.548274   0.2002506 
2965.8     75.32958   2.552701   0.2285221 
2966       74.1196    2.580498   0.2416482 
2966.2     78.65897   2.556555   0.2234736 
2966.4     80.5703    2.567051   0.2083282 
2966.6     79.87667   2.557293   0.2325609 
2966.8     81.97296   2.575333   0.2527548 
2967       87.06725   2.603212   0.2244833 
2967.2     93.21738   2.606656   0.2093379 
2967.4     93.83393   2.643554   0.212367  
2967.6     90.11148   2.603458   0.1992409 
2967.8     84.64727   2.564427   0.2032797 
2968       79.40655   2.535728   0.2164057 
2968.2     71.29115   2.511211   0.2244833 
2968.4     68.63226   2.494729   0.2305415 
2968.6     67.94634   2.497517   0.2174154 
2968.8     66.42808   2.463324   0.2093379 
2969       65.74216   2.500305   0.2073185 
2969.2     62.32799   2.48858    0.1851052 
2969.4     59.81553   2.491695   0.1750082 
2969.6     60.50144   2.518672   0.1709694 
2969.8     58.84445   2.546551   0.1659209 
2970       55.17595   2.606      0.1649112 
2970.2     51.64618   2.675698   0.1639015 
2970.4     48.33219   2.711285   0.1639015 
2970.6     44.5635    2.796562   0.1679403 
2970.8     41.27264   2.728422   0.1780373 
2971       41.26493   2.683651   0.1760179 
2971.2     44.98738   2.653476   0.179047  
2971.4     47.20698   2.588944   0.1992409 
2971.6     52.54789   2.506373   0.2052991 
2971.8     58.26643   2.488825   0.2153961 
2972       61.31837   2.482347   0.2345803 
2972.2     59.05254   2.480626   0.2285221 
2972.4     56.84835   2.468408   0.2113573 
2972.6     58.32809   2.468818   0.2032797 
2972.8     64.74796   2.495385   0.2032797 
2973       71.23721   2.491039   0.2052991 
2973.2     77.48753   2.5231     0.2083282 
2973.4     84.39294   2.54893    0.2194348 
2973.6     95.7915    2.559261   0.2315512 
2973.8     97.16332   2.504159   0.2406385 
2974       87.60673   2.502847   0.2517451 
2974.2     71.1216    2.480052   0.248716  
2974.4     62.02741   2.424047   0.2416482 
2974.6     56.40136   2.405844   0.2477064 
2974.8     54.24342   2.428885   0.2345803 
2975       53.09508   2.418553   0.212367  
2975.2     52.14713   2.45824    0.212367  
2975.4     49.70403   2.493499   0.2234736 
2975.6     48.0085    2.507193   0.2204445 
2975.8     47.0066    2.530398   0.2133767 
2976       47.43819   2.588288   0.2103476 
2976.2     48.25513   2.575169   0.1992409 
2976.4     48.40156   2.572955   0.1881342 
2976.6     48.1164    2.609444   0.1982312 
2976.8     47.16845   2.54934    0.2052991 
2977       48.27054   2.474148   0.2052991 
2977.2     54.99869   2.455534   0.2083282 
2977.4     61.38774   2.433805   0.2052991 
2977.6     68.34711   2.47628    0.2012603 
2977.8     73.1331    2.529578   0.2052991 
2978       80.82462   2.543518   0.2143864 
2978.2     86.16553   2.564591   0.2103476 
2978.4     78.49713   2.520394   0.1972215 
2978.6     60.64787   2.529004   0.1760179 
2978.8     45.65789   2.606492   0.1517852 
2979       36.95676   2.747937   0.1376494 
2979.2     37.3344    2.747199   0.1416882 
2979.4     52.64037   2.618709   0.1628918 
2979.6     67.51475   2.507275   0.1810664 
2979.8     73.32578   2.483086   0.1881342 
2980       76.60893   2.52392    0.1760179 
2980.2     72.75547   2.54483    0.1739985 
2980.4     70.46651   2.529578   0.1931827 
2980.6     71.49153   2.551061   0.2214542 
2980.8     73.85756   2.584844   0.2396288 
2981       76.40855   2.608706   0.2285221 
2981.2     76.53186   2.581975   0.212367  
2981.4     73.04833   2.551717   0.1941924 
2981.6     75.39124   2.591896   0.1952021 
2981.8     71.32969   2.575825   0.2083282 
2982       63.92332   2.58919    0.2184251 
2982.2     60.00049   2.540156   0.2002506 
2982.4     57.03332   2.53253    0.1810664 
2982.6     55.85416   2.536958   0.1881342 
2982.8     55.36863   2.540074   0.1941924 
2983       61.99659   2.531628   0.1972215 
2983.2     68.54749   2.539664   0.2194348 
2983.4     72.29305   2.539336   0.225493  
2983.6     79.70712   2.537696   0.2153961 
2983.8     91.41396   2.598866   0.2174154 
2984       95.63735   2.577219   0.2315512 
2984.2     92.99388   2.551061   0.2426579 
2984.4     90.69721   2.548766   0.2527548 
2984.6     92.06905   2.522936   0.2477064 
2984.8     96.59302   2.487267   0.2325609 
2985       99.1209    2.453485   0.2436676 
2985.2     98.3579    2.533104   0.2628518 
2985.4     97.7953    2.568527   0.248716  
2985.6     98.62765   2.538434   0.2416482 
2985.8     99.76827   2.52966    0.248716  
2986       98.68159   2.537368   0.2537645 
2986.2     93.67208   2.531792   0.2527548 
2986.4     91.85325   2.532776   0.245687  
2986.6     92.31567   2.5436     0.2517451 
2986.8     93.48712   2.544994   0.2618421 
2987       98.6893    2.572381   0.2547742 
2987.2     102.9667   2.570085   0.2648712 
2987.4     102.5042   2.514491   0.2709294 
2987.6     97.17104   2.555981   0.2396288 
2987.8     92.87827   2.571069   0.2396288 
2988       88.58551   2.577793   0.2507354 
2988.2     91.28294   2.586894   0.2618421 
2988.4     97.87236   2.556883   0.2830457 
2988.6     102.851    2.520722   0.2709294 
2988.8     103.1593   2.498993   0.2557839 
2989       105.7566   2.517524   0.2830457 
2989.2     109.2863   2.525068   0.3092979 
2989.4     115.3363   2.552948   0.2941524 
2989.6     120.0529   2.555981   0.2800166 
2989.8     120.392    2.53417    0.2830457 
2990       119.7446   2.502355   0.2830457 
2990.2     118.1339   2.560819   0.282036  
2990.4     112.1302   2.586566   0.2769876 
2990.6     111.2978   2.563525   0.2911233 
2990.8     115.7139   2.549093   0.325453  
2991       117.9798   2.540812   0.2911233 
2991.2     111.6832   2.58304    0.245687  
2991.4     97.68739   2.583369   0.258813  
2991.6     92.33879   2.651344   0.2769876 
2991.8     95.2366    2.602392   0.2699197 
2992       94.54297   2.647244   0.245687  
2992.2     94.45819   2.661676   0.2285221 
2992.4     100.5158   2.674714   0.2265027 
2992.6     100.6237   2.701035   0.2285221 
2992.8     96.60843   2.650032   0.2295318 
2993       93.37152   2.61379    0.2244833 
2993.2     92.81661   2.623383   0.2244833 
2993.4     95.25971   2.615347   0.2416482 
2993.6     100.2461   2.634535   0.2759778 
2993.8     107.113    2.631993   0.3032396 
2994       129.8022   2.586976   0.3133366 
2994.2     152.792    2.600834   0.3274724 
2994.4     169.8243   2.534908   0.3416081 
2994.6     159.6203   2.484972   0.3305015 
2994.8     145.008    2.497271   0.3082882 
2995       145.7787   2.504815   0.292133  
2995.2     147.0195   2.486612   0.2800166 
2995.4     138.9889   2.525888   0.2810263 
2995.6     138.8116   2.540812   0.2961718 
2995.8     167.8205   2.572955   0.3103075 
2996       181.0995   2.513425   0.305259  
2996.2     181.1997   2.454797   0.3113172 
2996.4     173.2539   2.432903   0.3193948 
2996.6     158.3487   2.427655   0.2981912 
