~Version
 VERS              .         2.0                           : CWLS LOG ASCII STANDARD - VERSION 2.0
 WRAP              .         NO                            : ONE LINE PER DEPTH STEP
 DLM               .         SPACE                         : DELIMITING CHARACTER(SPACE TAB OR COMMA)
~Well Information
#_______________________________________________________________________________
#
#PARAMETER_NAME    .UNIT     VALUE                         : DESCRIPTION
#_______________________________________________________________________________
STRT               .m        2924                          : First reference value
STOP               .m        3124.8                        : Last reference value
STEP               .m        0.2                           : Step increment
NULL               .         -9999                         : Missing value
COMP               .                                       : Company
WELL               .         304                           : Well name
FLD                .                                       : Field
LOC                .                                       : Location
CNTY               .                                       : County
STAT               .                                       : State
CTRY               .                                       : Country
SRVC               .                                       : Service Company
DATE               .                                       : Date
API                .                                       : API number
Cartographic_reference_system .         GCS_WGS_1984                  : ESRI,PE_10_3_1- <?xml version="1.0" encoding="utf-16"?><ILateBoundCoordinateReferenceSystem name="GCS_WGS_1984"><AuthorityCode>EPSG,4326</AuthorityCode></ILateBoundCoordinateReferenceSystem>
EREF               .m        138.34                        : 
HZCS               .GCS_WGS_1984 WGS_1984_World_Mercator       : ESRI,PE_10_3_1- <?xml version="1.0" encoding="utf-16"?><ILateBoundCoordinateReferenceSystem name="WGS_1984_World_Mercator"><AuthorityCode>EPSG,3395</AuthorityCode></ILateBoundCoordinateReferenceSystem>
LATI               .dega     2.2599678524                  : GCS_WGS_1984
LONG               .dega     1.9741376684                  : GCS_WGS_1984
PROJECT_UPGRADE_TIME .         2014-05-27T11_38_46           : 
Pad                .         Pad3                          : 
X                  .m        219760                        : 
Y                  .m        249960                        : 
group              .         Pad3                          : 
Интер-р            .         Старостина                    : 
Куст               .         3                             : 
Статус             .         Не проверено                  : 
Тип                .         Эксплуатация                  : 
~Parameter Information Block
#_______________________________________________________________________________
#
#PARAMETER_NAME    .UNIT     VALUE                         : DESCRIPTION
#_______________________________________________________________________________
SET                .         LQC                           : 
PROJECT_UPGRADE_TIME .         2014-05-27T11_38_46           : 
TLFamily_GR_NORM   .         Gamma Ray                     : 
TLFamily_MD        .         Measured Depth                : 
TLFamily_RHOB_NORM .         Bulk Density                  : 
TLFamily_TNPH_NORM .         Neutron Porosity              : 
~Curve Information
#_______________________________________________________________________________
#
#LOGNAME           .UNIT     LOG_ID                        : DESCRIPTION
#_______________________________________________________________________________
MD                 .m                                      :  
GR_NORM            .gAPI                                   : Normalised By Techlog 
RHOB_NORM          .g/cm3                                  : Normalized By Techlog 
TNPH_NORM          .v/v                                    : Normalised By Techlog 
~Ascii
# ...
2996.8     155.5973   2.431099   0.3002106 
2997       159.2273   2.429623   0.305259  
2997.2     166.3485   2.438971   0.2951621 
2997.4     176.5216   2.470786   0.2800166 
2997.6     185.9087   2.459798   0.2870845 
2997.8     196.0972   2.450615   0.2941524 
2998       202.2705   2.416176   0.2880942 
2998.2     201.4536   2.403548   0.282036  
2998.4     192.8218   2.420439   0.2870845 
2998.6     186.1322   2.416422   0.3204045 
2998.8     177.9012   2.432001   0.3325209 
2999       169.1692   2.432493   0.30223   
2999.2     157.8015   2.446761   0.2668906 
2999.4     150.6263   2.414946   0.2648712 
2999.6     142.6034   2.447827   0.2901136 
2999.8     128.862    2.47505    0.3062688 
3000       127.3206   2.502191   0.2971815 
3000.2     135.5901   2.518508   0.2931427 
3000.4     141.7094   2.510555   0.2941524 
3000.6     156.5221   2.499649   0.282036  
3000.8     179.6121   2.464554   0.2830457 
3001       186.2324   2.41962    0.3012203 
3001.2     188.4674   2.374275   0.3183851 
3001.4     196.5674   2.359679   0.3042494 
3001.6     234.3699   2.368617   0.3224239 
3001.8     255.4329   2.375095   0.371899  
3002       252.5351   2.381245   0.3971415 
3002.2     251.1941   2.347708   0.392093  
3002.4     255.0013   2.346724   0.3405984 
3002.6     259.9492   2.363205   0.3113172 
3002.8     259.5947   2.331882   0.3264627 
3003       267.0242   2.329914   0.3496857 
3003.2     280.1028   2.332866   0.3416081 
3003.4     288.3878   2.352136   0.3264627 
3003.6     290.5457   2.358039   0.3072785 
3003.8     274.4228   2.35763    0.3032396 
3004       282.0681   2.354349   0.3517051 
3004.2     314.7378   2.311301   0.3931027 
3004.4     328.7259   2.320895   0.3830057 
3004.6     337.0339   2.334834   0.3405984 
3004.8     332.1323   2.333358   0.2911233 
3005       312.2176   2.293589   0.2850651 
3005.2     298.0368   2.301133   0.3123269 
3005.4     287.9176   2.332374   0.3658409 
3005.6     268.4037   2.327946   0.3739184 
3005.8     240.4506   2.326634   0.3405984 
3006       227.8729   2.301215   0.358773  
3006.2     239.6414   2.32442    0.3729087 
3006.4     252.0187   2.306873   0.3688699 
3006.6     258.7315   2.288916   0.3840154 
3006.8     257.298    2.285226   0.3759378 
3007       264.8431   2.283668   0.358773  
3007.2     280.966    2.2653     0.3517051 
3007.4     282.8542   2.255707   0.3628118 
3007.6     282.939    2.243079   0.348676  
3007.8     278.1298   2.242013   0.315356  
3008       267.5714   2.238897   0.3123269 
3008.2     258.6159   2.248901   0.3426178 
3008.4     249.5448   2.281044   0.3668506 
3008.6     234.2928   2.298427   0.3931027 
3008.8     229.1754   2.290637   0.4173354 
3009       229.3527   2.276698   0.4092578 
3009.2     231.6262   2.266612   0.4092578 
3009.4     236.6743   2.248245   0.3900736 
3009.6     240.5431   2.260381   0.3971415 
3009.8     232.104    2.260626   0.381996  
3010       207.0873   2.267432   0.3274724 
3010.2     177.3463   2.250049   0.3204045 
3010.4     167.2502   2.263988   0.3365597 
3010.6     184.5445   2.294983   0.33555   
3010.8     193.685    2.300887   0.3335305 
3011       190.7486   2.302117   0.3173754 
3011.2     179.2961   2.311629   0.3163657 
3011.4     172.8531   2.330242   0.3476663 
3011.6     161.9093   2.327044   0.3506954 
3011.8     152.923    2.34533    0.3133366 
3012       135.4514   2.317533   0.2840554 
3012.2     126.4497   2.327044   0.2769876 
3012.4     125.4632   2.34533    0.305259  
3012.6     123.4594   2.363615   0.3123269 
3012.8     119.3593   2.352381   0.2961718 
3013       116.8545   2.355006   0.3002106 
3013.2     123.9295   2.384525   0.2830457 
3013.4     134.7655   2.406336   0.2840554 
3013.6     137.3473   2.431837   0.2931427 
3013.8     139.9599   2.446351   0.2992009 
3014       143.166    2.39625    0.292133  
3014.2     129.8176   2.421751   0.2860748 
3014.4     113.9722   2.433887   0.2699197 
3014.6     112.9394   2.451189   0.2729487 
3014.8     128.0758   2.455124   0.2880942 
3015       120.0298   2.489481   0.2870845 
3015.2     109.479    2.434789   0.2891039 
3015.4     108.7623   2.379031   0.2961718 
3015.6     104.5389   2.375751   0.282036  
3015.8     98.01109   2.377965   0.2860748 
3016       95.69901   2.363451   0.3062688 
3016.2     93.56419   2.339098   0.315356  
3016.4     93.017     2.363451   0.2901136 
3016.6     93.78769   2.376079   0.2628518 
3016.8     96.43118   2.369847   0.2628518 
3017       95.0208    2.365747   0.2598227 
3017.2     93.65667   2.390757   0.2608324 
3017.4     94.63545   2.39994    0.2638615 
3017.6     97.38683   2.408386   0.2598227 
3017.8     98.18835   2.376079   0.2648712 
3018       97.17104   2.384115   0.2668906 
3018.2     94.38883   2.393544   0.2648712 
3018.4     96.31557   2.395348   0.2850651 
3018.6     104.0148   2.392068   0.2901136 
3018.8     109.2401   2.393954   0.2628518 
3019       106.0032   2.384771   0.248716  
3019.2     96.76257   2.372799   0.245687  
3019.4     91.62204   2.383131   0.2517451 
3019.6     93.00929   2.422489   0.2547742 
3019.8     99.70661   2.410518   0.2628518 
3020       101.0322   2.402646   0.2870845 
3020.2     103.5524   2.413634   0.292133  
3020.4     108.5542   2.40076    0.2830457 
3020.6     115.1898   2.387887   0.2850651 
3020.8     117.2784   2.345494   0.3123269 
3021       114.5271   2.354513   0.3517051 
3021.2     114.6966   2.343608   0.3557439 
3021.4     113.1552   2.345822   0.325453  
3021.6     102.8279   2.337458   0.3092979 
3021.8     91.1288    2.333522   0.305259  
3022       87.09807   2.32811    0.3244433 
3022.2     95.89169   2.334342   0.3264627 
3022.4     108.7931   2.350004   0.3204045 
3022.6     123.1049   2.344428   0.3234336 
3022.8     122.6347   2.334752   0.2810263 
3023       108.9318   2.339426   0.2547742 
3023.2     89.4641    2.345986   0.2578033 
3023.4     81.17915   2.391084   0.2739585 
3023.6     78.51254   2.421177   0.2830457 
3023.8     79.47591   2.421505   0.2769876 
3024       81.0096    2.406664   0.2911233 
3024.2     89.53346   2.379687   0.3092979 
3024.4     98.32707   2.346806   0.3305015 
3024.6     115.8989   2.334998   0.3678603 
3024.8     129.0238   2.304167   0.3567536 
3025       131.544    2.314909   0.3274724 
3025.2     131.043    2.322617   0.3284821 
3025.4     126.8736   2.338934   0.3092979 
3025.6     119.1975   2.367715   0.2840554 
3025.8     104.2845   2.375341   0.292133  
3026       95.19035   2.414946   0.2992009 
3026.2     89.14041   2.423227   0.305259  
3026.4     90.71262   2.423146   0.3092979 
3026.6     96.12289   2.387476   0.2971815 
3026.8     98.71242   2.373701   0.3103075 
3027       104.4464   2.377063   0.3446372 
3027.2     125.0701   2.35189    0.3618021 
3027.4     143.9752   2.318516   0.3557439 
3027.6     167.2502   2.300067   0.3284821 
3027.8     176.2904   2.293999   0.3193948 
3028       164.6992   2.315647   0.3294918 
3028.2     148.0599   2.298755   0.3315112 
3028.4     148.2141   2.258085   0.3506954 
3028.6     166.5566   2.246769   0.3759378 
3028.8     188.1283   2.223645   0.3900736 
3029       187.6273   2.233157   0.3678603 
3029.2     167.9438   2.230287   0.3476663 
3029.4     147.7054   2.26653    0.3456469 
3029.6     164.3986   2.300805   0.3395888 
3029.8     188.5444   2.295557   0.3436275 
3030       194.4865   2.266612   0.3466566 
3030.2     163.52     2.271532   0.3456469 
3030.4     131.4438   2.27637    0.3557439 
3030.6     104.7007   2.312695   0.3638214 
3030.8     98.85886   2.28416    0.3506954 
3031       102.7817   2.280798   0.33555   
3031.2     107.2363   2.294163   0.3244433 
3031.4     104.6699   2.304249   0.3103075 
3031.6     102.5351   2.310973   0.3042494 
3031.8     102.7663   2.317615   0.3002106 
3032       102.9744   2.300887   0.2992009 
3032.2     101.4715   2.409452   0.3113172 
3032.4     100.1151   2.435117   0.3012203 
3032.6     92.59312   2.48161    0.2446772 
3032.8     77.69561   2.52843    0.1992409 
3033       60.74036   2.641095   0.1952021 
