~Version
 VERS              .         2.0                           : CWLS LOG ASCII STANDARD - VERSION 2.0
 WRAP              .         NO                            : ONE LINE PER DEPTH STEP
 DLM               .         SPACE                         : DELIMITING CHARACTER(SPACE TAB OR COMMA)
~Well Information
#_______________________________________________________________________________
#
#PARAMETER_NAME    .UNIT     VALUE                         : DESCRIPTION
#_______________________________________________________________________________
STRT               .m        3054                          : First reference value
STOP               .m        3263.8                        : Last reference value
STEP               .m        0.2                           : Step increment
NULL               .         -9999                         : Missing value
COMP               .                                       : Company
WELL               .         305                           : Well name
FLD                .                                       : Field
LOC                .                                       : Location
CNTY               .                                       : County
STAT               .                                       : State
CTRY               .                                       : Country
SRVC               .                                       : Service Company
DATE               .                                       : Date
API                .                                       : API number
Cartographic_reference_system .         GCS_WGS_1984                  : GEOGCS["GCS_WGS_1984",DATUM["D_WGS_1984",SPHEROID["WGS_1984",6378137.0,298.257223563]],PRIMEM["Greenwich",0.0],UNIT["Degree",0.0174532925199433],AUTHORITY["EPSG",4326]]
EREF               .m        138.34                        : 
HZCS               .GCS_WGS_1984 World_Mercator                : PROJCS["World_Mercator",GEOGCS["GCS_WGS_1984",DATUM["D_WGS_1984",SPHEROID["WGS_1984",6378137.0,298.257223563]],PRIMEM["Greenwich",0.0],UNIT["Degree",0.0174532925199433]],PROJECTION["Mercator"],PARAMETER["False_Easting",0.0],PARAMETER["False_Northing",0.0],PARAMETER["Central_Meridian",0.0],PARAMETER["Standard_Parallel_1",0.0],UNIT["Meter",1.0],AUTHORITY["ESRI",54004]]
LATI               .dega     2.2598774867                  : GCS_WGS_1984
LONG               .dega     1.9740478369                  : GCS_WGS_1984
PROJECT_UPGRADE_TIME .         2014-05-27T11_38_46           : 
Pad                .         Pad3                          : 
X                  .m        219750                        : 
Y                  .m        249950                        : 
group              .         Pad3                          : 
Интер-р            .         Пузин                         : 
Куст               .         3                             : 
Статус             .         Не проверено                  : 
Тип                .         Разведка                      : 
~Parameter Information Block
#_______________________________________________________________________________
#
#PARAMETER_NAME    .UNIT     VALUE                         : DESCRIPTION
#_______________________________________________________________________________
SET                .         LQC                           : 
PROJECT_UPGRADE_TIME .         2014-05-27T11_38_46           : 
TLFamily_GR_NORM   .         Gamma Ray                     : 
TLFamily_MD        .         Measured Depth                : 
TLFamily_RHOB_NORM .         Bulk Density                  : 
TLFamily_TNPH_NORM .         Neutron Porosity              : 
~Curve Information
#_______________________________________________________________________________
#
#LOGNAME           .UNIT     LOG_ID                        : DESCRIPTION
#_______________________________________________________________________________
MD                 .m                                      :  
GR_NORM            .gAPI                                   : Normalised By Techlog 
RHOB_NORM          .g/cm3                                  : Normalized By Techlog 
TNPH_NORM          .v/v                                    : Normalised By Techlog 
~Ascii
# ...
3236       59.69106   2.297187   0.2625094 
3236.2     61.05819   2.284583   0.3100133 
3236.4     66.73003   2.260238   0.307696  
3236.6     76.04054   2.355373   0.2520817 
3236.8     84.72006   2.490909   0.2034193 
3237       82.33635   2.437213   0.2022606 
3237.2     83.64038   2.468291   0.2034193 
3237.4     83.99093   2.471572   0.2034193 
3237.6     80.91313   2.440493   0.2126883 
3237.8     79.9316    2.438594   0.2080538 
3238       77.12022   2.432033   0.2080538 
3238.2     77.87039   2.414595   0.2034193 
3238.4     79.64416   2.407689   0.2312264 
3238.6     81.31275   2.414422   0.254399  
3238.8     83.03745   2.478133   0.2671439 
3239       78.87296   2.48901    0.285682  
3239.2     81.00428   2.490391   0.2613508 
3239.4     81.06036   2.511801   0.2613508 
3239.6     81.1515    2.459658   0.2567163 
3239.8     79.44083   2.449126   0.2497645 
3240       72.07937   2.457414   0.2404954 
3240.2     64.34631   2.47537    0.1999433 
3240.4     59.22834   2.455342   0.1987847 
3240.6     61.47183   2.505585   0.2115297 
3240.8     65.13855   2.513182   0.2115297 
3241       69.05766   2.511974   0.2184814 
3241.2     72.46497   2.486593   0.2706198 
3241.4     76.74864   2.4695     0.2833648 
3241.6     78.95007   2.491082   0.2625094 
3241.8     86.52888   2.536318   0.2509231 
3242       94.28297   2.55203    0.2509231 
3242.2     91.82915   2.526477   0.2717784 
3242.4     86.1503    2.509038   0.2914752 
3242.6     81.34081   2.523715   0.3042201 
3242.8     86.39568   2.546333   0.3366618 
3243       95.67815   2.478651   0.3100133 
3243.2     103.9791   2.463457   0.3111719 
3243.4     101.0135   2.423918   0.2949511 
3243.6     92.49519   2.353819   0.2787302 
3243.8     88.80042   2.310309   0.2671439 
3244       86.32557   2.296842   0.2428127 
3244.2     79.56704   2.370567   0.2242746 
3244.4     73.41144   2.488837   0.2370195 
3244.6     69.26097   2.526995   0.2150056 
3244.8     70.47387   2.505585   0.2092124 
3245       72.30372   2.500751   0.2265919 
3245.2     68.21635   2.476061   0.2277505 
3245.4     69.19086   2.481068   0.2370195 
3245.6     72.11442   2.451371   0.2567163 
3245.8     68.38461   2.484176   0.2462886 
3246       69.82185   2.486075   0.2462886 
3246.2     68.08314   2.486766   0.2891579 
3246.4     62.31314   2.438076   0.2891579 
3246.6     63.35777   2.44222    0.2729371 
3246.8     58.70252   2.485384   0.2822061 
3247       60.22389   2.548059   0.254399  
3247.2     56.99886   2.596921   0.2173228 
3247.4     58.9479    2.611425   0.2254332 
3247.6     67.5433    2.606763   0.2683026 
3247.8     71.67974   2.55203    0.2729371 
3248       69.90598   2.547369   0.2706198 
3248.2     78.70469   2.504722   0.2555576 
3248.4     84.66399   2.537182   0.2578749 
3248.6     85.83481   2.577756   0.2451299 
3248.8     79.39176   2.539426   0.2555576 
3249       70.29859   2.487457   0.2590335 
3249.2     59.04605   2.474334   0.2462886 
3249.4     57.33538   2.474852   0.2335436 
3249.6     56.3819    2.426853   0.2347023 
3249.8     54.0052    2.389559   0.2381782 
3250       52.63807   2.400955   0.2242746 
3250.2     50.94843   2.41563    0.2045779 
3250.4     52.52589   2.476061   0.2045779 
3250.6     51.0536    2.429789   0.2022606 
3250.8     54.1384    2.456378   0.2277505 
3251       59.29845   2.472263   0.2277505 
3251.2     65.06844   2.462075   0.2532403 
3251.4     63.97474   2.463284   0.2683026 
3251.6     64.10093   2.464493   0.2613508 
3251.8     66.87025   2.462939   0.2381782 
3252       69.42223   2.467255   0.2393368 
3252.2     71.25909   2.489183   0.2404954 
3252.4     71.03474   2.491082   0.2335436 
3252.6     72.76643   2.518189   0.2740957 
3252.8     71.0137    2.49937    0.2995856 
3253       67.94993   2.511283   0.254399  
3253.2     68.61597   2.504895   0.2335436 
3253.4     66.44258   2.493327   0.2335436 
3253.6     66.49866   2.549613   0.2138469 
3253.8     65.70644   2.632489   0.2428127 
3254       70.29158   2.605036   0.2509231 
3254.2     75.43761   2.562735   0.2729371 
3254.4     80.70982   2.50265    0.3111719 
3254.6     83.21272   2.451026   0.3158064 
3254.8     82.50462   2.45068    0.2972683 
3255       90.13951   2.512146   0.2613508 
3255.2     90.86164   2.548923   0.2775716 
3255.4     87.889     2.519398   0.2775716 
3255.6     80.98325   2.497643   0.2625094 
3255.8     77.50582   2.471226   0.2358609 
3256       70.22147   2.411141   0.2150056 
3256.2     64.29023   2.39543    0.2289091 
3256.4     64.4024    2.380236   0.2509231 
3256.6     62.70576   2.400609   0.2312264 
3256.8     59.69807   2.590533   0.2347023 
3257       58.79366   2.707768   0.2347023 
3257.2     60.67258   2.689984   0.2625094 
3257.4     65.69241   2.669092   0.2961097 
3257.6     65.6223    2.67151    0.2729371 
3257.8     66.35845   2.655798   0.2590335 
3258       64.6548    2.624374   0.263668  
3258.2     61.89249   2.608489   0.2509231 
3258.4     64.08691   2.542534   0.263668  
3258.6     66.91232   2.625583   0.254399  
3258.8     66.44258   2.645438   0.2613508 
3259       62.86701   2.612978   0.2683026 
3259.2     62.82494   2.593468   0.2683026 
3259.4     62.56554   2.614187   0.276413  
3259.6     63.66625   2.631108   0.3158064 
3259.8     66.73705   2.618504   0.3065374 
3260       71.11185   2.662704   0.2706198 
3260.2     75.58483   -9999      0.2671439 
3260.4     75.36749   -9999      0.2752543 
3260.6     76.37006   -9999      0.2810475 
3260.8     75.13613   -9999      0.3227582 
3261       71.04876   -9999      0.3262341 
3261.2     73.50259   -9999      0.3262341 
3261.4     74.97488   -9999      0.3181237 
3261.6     78.79583   -9999      0.3019029 
3261.8     77.51985   -9999      0.3192823 
3262       68.23738   -9999      0.3146478 
3262.2     61.07922   -9999      0.360993  
3262.4     50.03701   -9999      0.3957519 
3262.6     38.4129    -9999      0.3424549 
3262.8     30.08392   -9999      0.2717784 
3263       28.19096   -9999      0.2393368 
3263.2     29.72636   -9999      0.2173228 
3263.4     31.21267   -9999      0.210371  
3263.6     29.33374   -9999      0.2289091 
3263.8     30.16103   -9999      0.2335436 
