~Version
 VERS              .         2.0                           : CWLS LOG ASCII STANDARD - VERSION 2.0
 WRAP              .         NO                            : ONE LINE PER DEPTH STEP
 DLM               .         SPACE                         : DELIMITING CHARACTER(SPACE TAB OR COMMA)
~Well Information
#_______________________________________________________________________________
#
#PARAMETER_NAME    .UNIT     VALUE                         : DESCRIPTION
#_______________________________________________________________________________
STRT               .m        3054                          : First reference value
STOP               .m        3263.8                        : Last reference value
STEP               .m        0.2                           : Step increment
NULL               .         -9999                         : Missing value
COMP               .                                       : Company
WELL               .         305                           : Well name
FLD                .                                       : Field
LOC                .                                       : Location
CNTY               .                                       : County
STAT               .                                       : State
CTRY               .                                       : Country
SRVC               .                                       : Service Company
DATE               .                                       : Date
API                .                                       : API number
Cartographic_reference_system .         GCS_WGS_1984                  : GEOGCS["GCS_WGS_1984",DATUM["D_WGS_1984",SPHEROID["WGS_1984",6378137.0,298.257223563]],PRIMEM["Greenwich",0.0],UNIT["Degree",0.0174532925199433],AUTHORITY["EPSG",4326]]
EREF               .m        138.34                        : 
HZCS               .GCS_WGS_1984 World_Mercator                : PROJCS["World_Mercator",GEOGCS["GCS_WGS_1984",DATUM["D_WGS_1984",SPHEROID["WGS_1984",6378137.0,298.257223563]],PRIMEM["Greenwich",0.0],UNIT["Degree",0.0174532925199433]],PROJECTION["Mercator"],PARAMETER["False_Easting",0.0],PARAMETER["False_Northing",0.0],PARAMETER["Central_Meridian",0.0],PARAMETER["Standard_Parallel_1",0.0],UNIT["Meter",1.0],AUTHORITY["ESRI",54004]]
LATI               .dega     2.2598774867                  : GCS_WGS_1984
LONG               .dega     1.9740478369                  : GCS_WGS_1984
PROJECT_UPGRADE_TIME .         2014-05-27T11_38_46           : 
Pad                .         Pad3                          : 
X                  .m        219750                        : 
Y                  .m        249950                        : 
group              .         Pad3                          : 
Интер-р            .         Пузин                         : 
Куст               .         3                             : 
Статус             .         Не проверено                  : 
Тип                .         Разведка                      : 
~Parameter Information Block
#_______________________________________________________________________________
#
#PARAMETER_NAME    .UNIT     VALUE                         : DESCRIPTION
#_______________________________________________________________________________
SET                .         LQC                           : 
PROJECT_UPGRADE_TIME .         2014-05-27T11_38_46           : 
TLFamily_GR_NORM   .         Gamma Ray                     : 
TLFamily_MD        .         Measured Depth                : 
TLFamily_RHOB_NORM .         Bulk Density                  : 
TLFamily_TNPH_NORM .         Neutron Porosity              : 
~Curve Information
#_______________________________________________________________________________
#
#LOGNAME           .UNIT     LOG_ID                        : DESCRIPTION
#_______________________________________________________________________________
MD                 .m                                      :  
GR_NORM            .gAPI                                   : Normalised By Techlog 
RHOB_NORM          .g/cm3                                  : Normalized By Techlog 
TNPH_NORM          .v/v                                    : Normalised By Techlog 
~Ascii
3054.0     48.05292   1.423884   0.2891579 
3054.2     46.16698   1.911297   0.2822061 
3054.4     44.72974   2.554965   0.3007442 
3054.6     42.34603   2.649064   0.3007442 
3054.8     40.41802   2.557037   0.2961097 
3055       43.26446   2.911504   0.316965  
3055.2     55.4845    2.511974   0.3204409 
3055.4     67.95694   2.293734   0.2937924 
3055.6     76.73462   2.433242   0.2625094 
3055.8     75.48668   2.48383    0.2625094 
3056       76.69956   2.572058   0.276413  
3056.2     77.44273   2.596921   0.2845234 
3056.4     76.28592   2.570332   0.2740957 
3056.6     72.39486   2.551512   0.254399  
3056.8     76.26488   2.54098    0.2810475 
3057       77.76523   2.554448   0.2810475 
3057.2     76.74164   2.592432   0.3007442 
3057.4     78.64159   2.610389   0.3019029 
3057.6     77.27446   2.545469   0.2903165 
3057.8     81.88765   2.471744   0.2810475 
3058       83.05147   2.383516   0.2683026 
3058.2     80.0578    2.404753   0.2601921 
3058.4     79.10432   2.453788   0.2740957 
3058.6     78.07371   2.482104   0.307696  
3058.8     76.7206    2.528376   0.3158064 
3059       79.57404   2.563944   0.3215996 
3059.2     80.51351   2.540289   0.3111719 
3059.4     83.35995   2.501096   0.2984269 
3059.6     86.65508   2.443429   0.2659853 
3059.8     86.73921   2.430134   0.2683026 
3060       84.12414   2.404581   0.2601921 
3060.2     86.42372   2.439975   0.223116  
3060.4     80.6327    2.449126   0.2092124 
3060.6     81.64928   2.476579   0.2648267 
3060.8     83.68946   2.433414   0.2659853 
3061       79.38475   2.398883   0.3227582 
3061.2     77.89143   2.427889   0.3227582 
3061.4     77.16228   2.47468    0.2961097 
3061.6     81.60722   2.476061   0.2775716 
3061.8     84.92339   2.492809   0.2740957 
3062       86.58497   2.486248   0.2914752 
3062.2     83.66843   2.464493   0.2914752 
3062.4     83.00941   2.465874   0.2601921 
3062.6     82.46255   2.456033   0.2601921 
3062.8     83.96289   2.460176   0.2717784 
3063       84.8042    2.444637   0.2995856 
3063.2     84.27838   2.427544   0.2949511 
3063.4     84.49572   2.533211   0.2845234 
3063.6     89.02478   2.569814   0.2845234 
3063.8     86.57095   2.606072   0.2613508 
3064       83.81566   2.495053   0.2625094 
3064.2     85.65953   2.457069   0.2486058 
3064.4     86.80231   2.463802   0.2370195 
3064.6     82.40646   2.518362   0.2358609 
3064.8     83.57729   2.579828   0.2474472 
3065       85.27393   2.551858   0.2462886 
3065.2     84.84627   2.4935     0.2335436 
3065.4     84.50974   2.504895   0.2254332 
3065.6     82.46255   2.540462   0.2451299 
3065.8     82.77805   2.509038   0.2532403 
3066       82.85516   2.512492   0.2961097 
3066.2     79.25155   2.502478   0.2961097 
3066.4     79.63013   2.449472   0.2891579 
3066.6     79.14638   2.436695   0.2984269 
3066.8     77.48479   2.456378   0.3042201 
3067       75.52173   2.540117   0.3042201 
3067.2     74.2177    2.573612   0.2833648 
3067.4     76.64348   2.591051   0.2822061 
3067.6     78.78181   2.580174   0.3053787 
3067.8     79.36372   2.566361   0.3192823 
3068       78.85893   2.59554    0.285682  
3068.2     85.56138   2.539772   0.285682  
3068.4     87.46835   2.537527   0.2752543 
3068.6     90.49006   2.543397   0.2532403 
3068.8     90.55315   2.510075   0.2451299 
3069       90.448     2.514909   0.232385  
3069.2     87.80488   2.521988   0.254399  
3069.4     87.6296    2.500578   0.2972683 
3069.6     85.26692   2.515945   0.2961097 
3069.8     83.24777   2.520089   0.2717784 
3070       82.08396   2.559455   0.2833648 
3070.2     83.87875   2.564634   0.2833648 
3070.4     81.60722   2.497988   0.2659853 
3070.6     81.04634   2.555311   0.276413  
3070.8     84.69202   2.55652    0.276413  
3071       85.87687   2.523197   0.3134891 
3071.2     82.39944   2.494017   0.2903165 
3071.4     80.59764   2.472608   0.2845234 
3071.6     84.27838   2.531829   0.2868406 
3071.8     83.57729   2.565843   0.3007442 
3072       81.98581   2.602619   0.3065374 
3072.2     82.49059   2.588461   0.2949511 
3072.4     85.64551   2.485039   0.2671439 
3072.6     88.22553   2.438249   0.3042201 
3072.8     85.02154   2.423918   0.2972683 
3073       81.50205   2.442393   0.285682  
3073.2     80.34525   2.415286   0.2648267 
3073.4     81.13047   2.414249   0.2903165 
3073.6     84.43963   2.391804   0.2903165 
3073.8     84.678     2.458277   0.2949511 
3074       83.98392   2.547023   0.2740957 
3074.2     81.87363   2.572404   0.2961097 
3074.4     81.15852   2.540635   0.2949511 
3074.6     75.97043   2.497988   0.2949511 
3074.8     75.76711   2.474507   0.2879993 
3075       76.04755   2.452061   0.2659853 
3075.2     79.24453   2.487457   0.2706198 
3075.4     80.5065    2.508866   0.2706198 
3075.6     79.58105   2.47537    0.3030615 
3075.8     80.33123   2.427544   0.3100133 
3076       79.07627   2.451371   0.3215996 
3076.2     82.28027   2.452579   0.3366618 
3076.4     79.77737   2.403544   0.3215996 
3076.6     77.6811    2.442738   0.2926338 
3076.8     82.00684   2.54357    0.2810475 
3077       85.04958   2.575166   0.2775716 
3077.2     84.21529   2.542534   0.2752543 
3077.4     85.82079   2.523024   0.276413  
3077.6     82.08396   2.540289   0.3378204 
3077.8     84.00495   2.558074   0.3494067 
3078       84.27136   2.577066   0.3030615 
3078.2     85.15475   2.587425   0.2775716 
3078.4     86.74623   2.600374   0.3192823 
3078.6     89.72587   2.565152   0.3007442 
3078.8     87.72775   2.534764   0.2972683 
3079       83.79462   2.558074   0.3019029 
3079.2     84.61491   2.590706   0.2949511 
3079.4     84.34148   2.580174   0.2810475 
3079.6     81.06036   2.527686   0.2740957 
3079.8     76.30695   2.491255   0.2578749 
3080       75.09406   2.468291   0.2706198 
3080.2     77.25343   2.485903   0.2474472 
3080.4     78.50137   2.482449   0.2439713 
3080.6     83.66142   2.451026   0.2381782 
3080.8     84.07506   2.466392   0.2196401 
3081       80.89211   2.488147   0.2289091 
3081.2     79.24453   2.486593   0.232385  
3081.4     78.80284   2.407343   0.2601921 
3081.6     82.56771   2.404753   0.2926338 
3081.8     80.61166   2.423055   0.2706198 
3082       74.14058   2.450335   0.2833648 
3082.2     80.18399   2.520952   0.2833648 
3082.4     80.54856   2.58708    0.2879993 
3082.6     80.5065    2.554448   0.2787302 
3082.8     83.40902   2.533729   0.2891579 
3083       82.95332   2.534937   0.3019029 
3083.2     80.44341   2.536664   0.2729371 
3083.4     80.20503   2.534592   0.2578749 
3083.6     82.08396   2.473989   0.2717784 
3083.8     79.18143   2.500924   0.2717784 
3084       79.46889   2.531312   0.2625094 
3084.2     77.44273   2.5156     0.2497645 
3084.4     72.39486   2.524232   0.2625094 
3084.6     70.83843   2.530448   0.2659853 
3084.8     75.64091   2.499542   0.2659853 
3085       78.64861   2.485039   0.2439713 
3085.2     81.88765   2.428062   0.2393368 
3085.4     80.99726   2.423055   0.2613508 
3085.6     81.4039    2.453615   0.276413  
3085.8     82.59576   2.45845    0.2903165 
3086       78.8379    2.44222    0.2810475 
3086.2     81.6633    2.453788   0.2787302 
3086.4     84.64996   2.454824   0.2787302 
3086.6     82.53265   2.438249   0.3030615 
3086.8     82.07695   2.452061   0.316965  
3087       82.52565   2.515772   0.3204409 
3087.2     81.2076    2.556347   0.2659853 
3087.4     78.36816   2.544779   0.2694612 
3087.6     78.16486   2.519571   0.2972683 
3087.8     76.65049   2.516635   0.3007442 
3088       78.61355   2.508175   0.3007442 
3088.2     77.91946   2.51111    0.3343445 
3088.4     80.79395   2.625928   0.3401377 
3088.6     81.38988   2.597957   0.3227582 
3088.8     86.39568   2.556692   0.2891579 
3089       86.97758   2.469327   0.2891579 
3089.2     87.29308   2.482622   0.2903165 
3089.4     87.58754   2.531312   0.2752543 
3089.6     88.15542   2.532866   0.2972683 
3089.8     84.72006   2.508693   0.3181237 
3090       79.6722    2.47468    0.3204409 
3090.2     78.27702   2.43445    0.3123305 
