~Version
 VERS              .         2.0                           : CWLS LOG ASCII STANDARD - VERSION 2.0
 WRAP              .         NO                            : ONE LINE PER DEPTH STEP
 DLM               .         SPACE                         : DELIMITING CHARACTER(SPACE TAB OR COMMA)
~Well Information
#_______________________________________________________________________________
#
#PARAMETER_NAME    .UNIT     VALUE                         : DESCRIPTION
#_______________________________________________________________________________
STRT               .m        3054                          : First reference value
STOP               .m        3263.8                        : Last reference value
STEP               .m        0.2                           : Step increment
NULL               .         -9999                         : Missing value
COMP               .                                       : Company
WELL               .         305                           : Well name
FLD                .                                       : Field
LOC                .                                       : Location
CNTY               .                                       : County
STAT               .                                       : State
CTRY               .                                       : Country
SRVC               .                                       : Service Company
DATE               .                                       : Date
API                .                                       : API number
Cartographic_reference_system .         GCS_WGS_1984                  : GEOGCS["GCS_WGS_1984",DATUM["D_WGS_1984",SPHEROID["WGS_1984",6378137.0,298.257223563]],PRIMEM["Greenwich",0.0],UNIT["Degree",0.0174532925199433],AUTHORITY["EPSG",4326]]
EREF               .m        138.34                        : 
HZCS               .GCS_WGS_1984 World_Mercator                : PROJCS["World_Mercator",GEOGCS["GCS_WGS_1984",DATUM["D_WGS_1984",SPHEROID["WGS_1984",6378137.0,298.257223563]],PRIMEM["Greenwich",0.0],UNIT["Degree",0.0174532925199433]],PROJECTION["Mercator"],PARAMETER["False_Easting",0.0],PARAMETER["False_Northing",0.0],PARAMETER["Central_Meridian",0.0],PARAMETER["Standard_Parallel_1",0.0],UNIT["Meter",1.0],AUTHORITY["ESRI",54004]]
LATI               .dega     2.2598774867                  : GCS_WGS_1984
LONG               .dega     1.9740478369                  : GCS_WGS_1984
PROJECT_UPGRADE_TIME .         2014-05-27T11_38_46           : 
Pad                .         Pad3                          : 
X                  .m        219750                        : 
Y                  .m        249950                        : 
group              .         Pad3                          : 
Интер-р            .         Пузин                         : 
Куст               .         3                             : 
Статус             .         Не проверено                  : 
Тип                .         Разведка                      : 
~Parameter Information Block
#_______________________________________________________________________________
#
#PARAMETER_NAME    .UNIT     VALUE                         : DESCRIPTION
#_______________________________________________________________________________
SET                .         LQC                           : 
PROJECT_UPGRADE_TIME .         2014-05-27T11_38_46           : 
TLFamily_GR_NORM   .         Gamma Ray                     : 
TLFamily_MD        .         Measured Depth                : 
TLFamily_RHOB_NORM .         Bulk Density                  : 
TLFamily_TNPH_NORM .         Neutron Porosity              : 
~Curve Information
#_______________________________________________________________________________
#
#LOGNAME           .UNIT     LOG_ID                        : DESCRIPTION
#_______________________________________________________________________________
MD                 .m                                      :  
GR_NORM            .gAPI                                   : Normalised By Techlog 
RHOB_NORM          .g/cm3                                  : Normalized By Techlog 
TNPH_NORM          .v/v                                    : Normalised By Techlog 
~Ascii
# ...
3126.8     79.56704   2.54357    0.2347023 
3127       89.81701   2.582073   0.2775716 
3127.2     95.5239    2.621094   0.3111719 
3127.4     98.35632   2.620575   0.2868406 
3127.6     100.074    2.601065   0.2520817 
3127.8     102.2123   2.560318   0.2752543 
3128       103.944    2.534074   0.2798888 
3128.2     102.9905   2.516635   0.2822061 
3128.4     100.088    2.530966   0.3030615 
3128.6     102.1773   2.525441   0.3181237 
3128.8     100.3965   2.520779   0.3111719 
3129       100.3194   2.534074   0.2914752 
3129.2     100.691    2.519053   0.2694612 
3129.4     102.654    2.456896   0.2555576 
3129.6     104.9256   2.48832    0.263668  
3129.8     104.0702   2.482622   0.3134891 
3130       108.0665   2.496952   0.3436135 
3130.2     114.0117   2.492809   0.3934346 
3130.4     120.4407   2.510592   0.3748966 
3130.6     124.0373   2.469672   0.3436135 
3130.8     122.551    2.449299   0.3343445 
3131       119.0946   2.462421   0.3123305 
3131.2     122.1444   2.461903   0.2798888 
3131.4     117.6644   2.460867   0.2775716 
3131.6     115.5121   2.448436   0.2961097 
3131.8     112.294    2.454824   0.3215996 
3132       107.5547   2.501269   0.3215996 
3132.2     100.705    2.531484   0.3262341 
3132.4     95.46782   2.471226   0.3007442 
3132.6     98.63676   2.47537    0.2694612 
3132.8     102.2684   2.448263   0.2567163 
3133       104.0001   2.455515   0.2474472 
3133.2     103.6986   2.463457   0.2474472 
3133.4     111.2564   2.528376   0.2567163 
3133.6     120.5599   2.530966   0.2706198 
3133.8     135.2969   2.527168   0.2775716 
3134       152.9995   2.519571   0.285682  
3134.2     168.6339   2.462766   0.3285514 
3134.4     186.2453   2.422537   0.3158064 
3134.6     186.708    2.402336   0.3146478 
3134.8     176.9067   2.42012    0.3134891 
3135       179.5639   2.418221   0.3088546 
3135.2     175.7079   2.422019   0.2984269 
3135.4     179.0311   2.456723   0.2752543 
3135.6     177.0049   2.463802   0.3030615 
3135.8     179.8934   2.443429   0.2984269 
3136       182.2981   2.480205   0.2984269 
3136.2     188.5028   2.482104   0.2752543 
3136.4     189.1058   2.516463   0.2613508 
3136.6     182.4314   2.512664   0.2949511 
3136.8     182.9642   2.468637   0.3436135 
3137       175.785    2.415458   0.3285514 
3137.2     170.1833   2.391113   0.2914752 
3137.4     163.4878   2.344841   0.2833648 
3137.6     161.7281   2.413213   0.2601921 
3137.8     157.0097   2.438249   0.2798888 
3138       164.904    2.439803   0.2798888 
3138.2     174.3828   2.460349   0.2937924 
3138.4     178.5333   2.467773   0.2972683 
3138.6     189.1268   2.52406    0.2972683 
3138.8     198.7318   2.499715   0.2879993 
3139       201.2276   2.476061   0.2706198 
3139.2     203.2748   2.488147   0.2775716 
3139.4     207.1869   2.394394   0.3146478 
3139.6     205.6095   2.321877   0.3239168 
3139.8     200.5336   2.305475   0.3158064 
3140       188.9305   2.309446   0.3192823 
3140.2     178.9399   2.382653   0.316965  
3140.4     172.9035   2.431688   0.3030615 
3140.6     162.6325   2.371948   0.2937924 
3140.8     156.7012   2.362279   0.3019029 
3141       153.2028   2.353647   0.3030615 
3141.2     148.1269   2.383862   0.2740957 
3141.4     151.3449   2.347258   0.3019029 
3141.6     152.691    2.347258   0.3215996 
3141.8     162.5343   2.378682   0.3447722 
3142       174.3478   2.43445    0.3227582 
3142.2     187.2619   2.437386   0.3285514 
3142.4     203.6674   2.446018   0.3285514 
3142.6     222.6881   2.427544   0.3540412 
3142.8     237.383    2.40907    0.316965  
3143       238.2383   2.419947   0.3007442 
3143.2     253.9288   2.399401   0.3007442 
3143.4     277.5276   2.353474   0.2868406 
3143.6     281.1592   2.418048   0.3470894 
3143.8     279.6238   2.411141   0.3818483 
3144       279.8762   2.389387   0.3818483 
3144.2     282.8839   2.388005   0.3748966 
3144.4     280.9068   2.35451    0.3934346 
3144.6     275.0036   2.344323   0.3934346 
3144.8     260.9958   2.384898   0.3528826 
3145       237.6354   2.459831   0.3412963 
3145.2     232.4543   2.462075   0.3204409 
3145.4     258.1494   2.396638   0.3227582 
3145.6     302.7459   2.296152   0.3679448 
3145.8     327.3121   2.282339   0.3470894 
3146       328.2937   2.27267    0.3470894 
3146.2     308.8033   2.32464    0.3100133 
3146.4     297.4877   2.320669   0.2903165 
3146.6     284.0688   2.306684   0.2949511 
3146.8     271.4771   2.287691   0.3494067 
3147       257.8058   2.266799   0.3934346 
3147.2     254.5668   2.206024   0.3934346 
3147.4     262.9378   2.192729   0.4409385 
3147.6     268.4765   2.228815   0.4444144 
3147.8     272.5638   2.241419   0.4131314 
3148       269.9347   2.270598   0.3969105 
3148.2     278.1586   2.246081   0.4305108 
3148.4     282.9821   2.232268   0.3899587 
3148.6     280.5703   2.198082   0.3551999 
3148.8     279.105    2.191003   0.3551999 
3149       279.3083   2.276814   0.3308686 
3149.2     272.8232   2.324467   0.3494067 
3149.4     259.3693   2.277677   0.3551999 
3149.6     252.8771   2.251951   0.3378204 
3149.8     248.0466   2.266454   0.3482481 
3150       244.1275   2.192557   0.32971   
3150.2     240.1313   2.18237    0.3482481 
3150.4     232.6997   2.174945   0.3482481 
3150.6     229.0891   2.141795   0.3343445 
3150.8     228.2127   2.155262   0.360993  
3151       229.3345   2.186168   0.4038623 
3151.2     216.5816   2.241246   0.4096555 
3151.4     200.8841   2.244354   0.3586757 
3151.6     182.4524   2.298569   0.3308686 
3151.8     174.8806   2.277159   0.3470894 
3152       175.5607   2.215002   0.370262  
3152.2     179.1923   2.244527   0.3424549 
3152.4     173.7448   2.275432   0.360993  
3152.6     170.8283   2.301849   0.3980692 
3152.8     166.8461   2.293389   0.3494067 
3153       166.9162   2.248843   0.3575171 
3153.2     163.3476   2.231923   0.370262  
3153.4     148.7439   2.239347   0.3366618 
3153.6     135.5423   2.292526   0.3366618 
3153.8     132.17     2.334309   0.3366618 
3154       131.4339   2.297187   0.3459308 
3154.2     126.9118   2.28113    0.3273927 
3154.4     126.414    2.328956   0.338979  
3154.6     123.2661   2.367632   0.3239168 
3154.8     124.1075   2.39612    0.3158064 
3155       127.003    2.365732   0.2891579 
3155.2     127.5989   2.328438   0.2903165 
3155.4     120.5038   2.369531   0.2810475 
3155.6     120.2514   2.449817   0.2694612 
3155.8     105.4233   2.515945   0.2683026 
3156       84.60088   2.515254   0.2300678 
3156.2     74.12656   2.553239   0.2150056 
3156.4     74.07748   2.519916   0.2034193 
3156.6     66.44959   2.492118   0.2150056 
3156.8     64.58469   2.5358     0.2219573 
3157       76.93092   2.583109   0.2358609 
3157.2     95.7763    2.501096   0.2798888 
3157.4     117.8397   2.417703   0.2995856 
3157.6     116.1921   2.384207   0.2787302 
3157.8     108.438    2.393703   0.2822061 
3158       102.03     2.40717    0.2613508 
3158.2     93.83427   2.39871    0.2706198 
3158.4     94.84385   2.412523   0.2625094 
3158.6     96.24603   2.416839   0.2486058 
3158.8     97.7674    2.365387   0.2126883 
3159       94.18482   2.39025    0.2312264 
3159.2     95.35564   2.402681   0.2335436 
3159.4     99.84965   2.39543    0.285682  
3159.6     102.1282   2.385933   0.2914752 
3159.8     104.0913   2.429443   0.2903165 
3160       100.6138   2.364006   0.3053787 
3160.2     102.5839   2.348984   0.3215996 
3160.4     102.7452   2.380581   0.2961097 
3160.6     107.8211   2.393013   0.3007442 
3160.8     108.7465   2.373847   0.3007442 
3161       106.1875   2.38248    0.3030615 
3161.2     101.4481   2.415976   0.2926338 
3161.4     102.5979   2.443947   0.2995856 
3161.6     103.4603   2.393876   0.3065374 
3161.8     109.7841   2.37074    0.3308686 
3162       112.8199   2.357618   0.3343445 
3162.2     113.3246   2.348294   0.3366618 
3162.4     120.5179   2.331719   0.3424549 
3162.6     119.6976   2.281821   0.3366618 
3162.8     111.8874   2.218628   0.3366618 
3163       111.2564   2.27526    0.3250754 
