~Version
 VERS              .         2.0                           : CWLS LOG ASCII STANDARD - VERSION 2.0
 WRAP              .         NO                            : ONE LINE PER DEPTH STEP
 DLM               .         SPACE                         : DELIMITING CHARACTER(SPACE TAB OR COMMA)
~Well Information
#_______________________________________________________________________________
#
#PARAMETER_NAME    .UNIT     VALUE                         : DESCRIPTION
#_______________________________________________________________________________
STRT               .m        3054                          : First reference value
STOP               .m        3263.8                        : Last reference value
STEP               .m        0.2                           : Step increment
NULL               .         -9999                         : Missing value
COMP               .                                       : Company
WELL               .         305                           : Well name
FLD                .                                       : Field
LOC                .                                       : Location
CNTY               .                                       : County
STAT               .                                       : State
CTRY               .                                       : Country
SRVC               .                                       : Service Company
DATE               .                                       : Date
API                .                                       : API number
Cartographic_reference_system .         GCS_WGS_1984                  : GEOGCS["GCS_WGS_1984",DATUM["D_WGS_1984",SPHEROID["WGS_1984",6378137.0,298.257223563]],PRIMEM["Greenwich",0.0],UNIT["Degree",0.0174532925199433],AUTHORITY["EPSG",4326]]
EREF               .m        138.34                        : 
HZCS               .GCS_WGS_1984 World_Mercator                : PROJCS["World_Mercator",GEOGCS["GCS_WGS_1984",DATUM["D_WGS_1984",SPHEROID["WGS_1984",6378137.0,298.257223563]],PRIMEM["Greenwich",0.0],UNIT["Degree",0.0174532925199433]],PROJECTION["Mercator"],PARAMETER["False_Easting",0.0],PARAMETER["False_Northing",0.0],PARAMETER["Central_Meridian",0.0],PARAMETER["Standard_Parallel_1",0.0],UNIT["Meter",1.0],AUTHORITY["ESRI",54004]]
LATI               .dega     2.2598774867                  : GCS_WGS_1984
LONG               .dega     1.9740478369                  : GCS_WGS_1984
PROJECT_UPGRADE_TIME .         2014-05-27T11_38_46           : 
Pad                .         Pad3                          : 
X                  .m        219750                        : 
Y                  .m        249950                        : 
group              .         Pad3                          : 
Интер-р            .         Пузин                         : 
Куст               .         3                             : 
Статус             .         Не проверено                  : 
Тип                .         Разведка                      : 
~Parameter Information Block
#_______________________________________________________________________________
#
#PARAMETER_NAME    .UNIT     VALUE                         : DESCRIPTION
#_______________________________________________________________________________
SET                .         LQC                           : 
PROJECT_UPGRADE_TIME .         2014-05-27T11_38_46           : 
TLFamily_GR_NORM   .         Gamma Ray                     : 
TLFamily_MD        .         Measured Depth                : 
TLFamily_RHOB_NORM .         Bulk Density                  : 
TLFamily_TNPH_NORM .         Neutron Porosity              : 
~Curve Information
#_______________________________________________________________________________
#
#LOGNAME           .UNIT     LOG_ID                        : DESCRIPTION
#_______________________________________________________________________________
MD                 .m                                      :  
GR_NORM            .gAPI                                   : Normalised By Techlog 
RHOB_NORM          .g/cm3                                  : Normalized By Techlog 
TNPH_NORM          .v/v                                    : Normalised By Techlog 
~Ascii
# ...
3163.2     115.3508   2.289936   0.2961097 
3163.4     111.8453   2.318424   0.3088546 
3163.6     108.3329   2.322913   0.2868406 
3163.8     106.3277   2.281648   0.2868406 
3164       106.1455   2.335517   0.3019029 
3164.2     110.8778   2.34087    0.3100133 
3164.4     116.3954   2.35192    0.3100133 
3164.6     112.4413   2.350884   0.3111719 
3164.8     108.41     2.434105   0.3181237 
3165       98.58067   2.405098   0.307696  
3165.2     95.04015   2.436004   0.3262341 
3165.4     93.66601   2.427889   0.3262341 
3165.6     94.3671    2.385243   0.3412963 
3165.8     96.04973   2.32533    0.3667862 
3166       96.70875   2.389214   0.3494067 
3166.2     101.5393   2.355718   0.360993  
3166.4     112.3992   2.296842   0.3412963 
3166.6     118.078    2.247635   0.3459308 
3166.8     123.189    2.32533    0.3575171 
3167       132.7589   2.313072   0.3969105 
3167.2     131.3077   2.327748   0.3644689 
3167.4     122.7403   2.343978   0.3192823 
3167.6     113.0372   2.422883   0.2937924 
3167.8     109.048    2.441184   0.2937924 
3168       99.32383   2.438767   0.2937924 
3168.2     100.2913   2.43186    0.2972683 
3168.4     105.9071   2.4253     0.3470894 
3168.6     108.445    2.385416   0.3725793 
3168.8     114.0117   2.293389   0.3725793 
3169       124.5421   2.256267   0.3366618 
3169.2     129.3446   2.23434    0.3227582 
3169.4     138.7953   2.189104   0.3691034 
3169.6     155.6286   2.158025   0.3667862 
3169.8     170.1272   2.203779   0.3598343 
3170       172.3216   2.254886   0.3320272 
3170.2     171.1858   2.240728   0.3250754 
3170.4     168.2272   2.256095   0.2879993 
3170.6     162.4222   2.194974   0.2972683 
3170.8     160.6624   2.194629   0.3019029 
3171       170.681    2.214484   0.3470894 
3171.2     188.9375   2.20965    0.3772138 
3171.4     193.8171   2.174773   0.3436135 
3171.6     189.4142   2.175464   0.3656275 
3171.8     175.3784   2.206542   0.3517239 
3172       170.2323   2.204125   0.3285514 
3172.2     159.4215   2.217074   0.3760552 
3172.4     154.1703   2.251951   0.3517239 
3172.6     157.9562   2.242627   0.3459308 
3172.8     157.3603   2.267145   0.3621516 
3173       135.5844   2.279231   0.3494067 
3173.2     112.4553   2.323604   0.2868406 
3173.4     104.1684   2.351402   0.2868406 
3173.6     106.3418   2.323776   0.2868406 
3173.8     107.5406   2.322741   0.3007442 
3174       108.7956   2.378337   0.3088546 
3174.2     107.2742   2.398538   0.2949511 
3174.4     105.4654   2.432551   0.3192823 
3174.6     103.9721   2.403027   0.3250754 
3174.8     102.5418   2.419947   0.316965  
3175       103.0186   2.404926   0.2972683 
3175.2     102.8503   2.431343   0.2903165 
3175.4     108.7746   2.436177   0.2683026 
3175.6     110.345    2.477787   0.2358609 
3175.8     111.5369   2.443774   0.2138469 
3176       117.2648   2.411141   0.2335436 
3176.2     118.022    2.371603   0.2613508 
3176.4     121.6957   2.465356   0.276413  
3176.6     121.6045   2.500751   0.2289091 
3176.8     117.8607   2.476234   0.2648267 
3177       111.7612   2.474507   0.2706198 
3177.2     112.4413   2.48832    0.2729371 
3177.4     111.6701   2.45845    0.2914752 
3177.6     114.0117   2.418393   0.3876415 
3177.8     110.5834   2.409242   0.3679448 
3178       113.9206   2.374538   0.3343445 
3178.2     115.5752   2.401645   0.3215996 
3178.4     115.1405   2.45068    0.3517239 
3178.6     110.969    2.454133   0.3517239 
3178.8     108.5152   2.430479   0.338979  
3179       107.4565   2.474161   0.2995856 
3179.2     104.1824   2.458623   0.3100133 
3179.4     100.1161   2.467946   0.2903165 
3179.6     102.4998   2.524578   0.2590335 
3179.8     105.227    2.578274   0.2416541 
3180       103.5935   2.598475   0.285682  
3180.2     105.185    2.586907   0.2961097 
3180.4     103.8879   2.551512   0.3192823 
3180.6     103.944    2.557555   0.3042201 
3180.8     103.923    2.523197   0.3030615 
3181       105.851    2.518707   0.3007442 
3181.2     105.9772   2.553066   0.2926338 
3181.4     109.5878   2.533211   0.2879993 
3181.6     109.9314   2.497643   0.2706198 
3181.8     110.4432   2.497298   0.2671439 
3182       108.2698   2.508348   0.2590335 
3182.2     104.9536   2.48573    0.2752543 
3182.4     102.2123   2.497816   0.2822061 
3182.6     98.08289   2.481413   0.2903165 
3182.8     100.4947   2.521988   0.2903165 
3183       97.47995   2.558074   0.2798888 
3183.2     93.09812   2.478306   0.2798888 
3183.4     84.34148   2.512664   0.2578749 
3183.6     72.19855   2.504377   0.2242746 
3183.8     68.74918   2.48901    0.2161642 
3184       89.43842   2.469845   0.2474472 
3184.2     102.2404   2.521988   0.2625094 
3184.4     107.6738   2.478823   0.3158064 
3184.6     111.1022   2.509557   0.3320272 
3184.8     108.7675   2.544088   0.2937924 
3185       110.8077   2.56239    0.2949511 
3185.2     111.4387   2.537182   0.3725793 
3185.4     118.709    2.484521   0.3864829 
3185.6     119.0386   2.394912   0.3378204 
3185.8     119.4312   2.400609   0.3019029 
3186       117.7696   2.483312   0.3065374 
3186.2     119.0596   2.525614   0.2961097 
3186.4     114.811    2.561009   0.2868406 
3186.6     111.9505   2.594849   0.3042201 
3186.8     112.1047   2.569814   0.3378204 
3187       109.3915   2.508175   0.3691034 
3187.2     105.2761   2.473298   0.3621516 
3187.4     106.7624   2.467255   0.3308686 
3187.6     108.2067   2.473126   0.2949511 
3187.8     105.0658   2.492981   0.2740957 
3188       106.8255   2.504895   0.3123305 
3188.2     102.5559   2.49937    0.3123305 
3188.4     100.9363   2.544951   0.3227582 
3188.6     102.3245   2.579655   0.3181237 
3188.8     99.79356   2.5377     0.3158064 
3189       98.32127   2.52924    0.2949511 
3189.2     103.5865   2.504204   0.2949511 
3189.4     106.8255   2.477269   0.3030615 
3189.6     103.4533   2.481758   0.2995856 
3189.8     106.9167   2.45845    0.3007442 
3190       110.8358   2.432206   0.2961097 
3190.2     108.1646   2.514909   0.2833648 
3190.4     105.1289   2.525269   0.3285514 
3190.6     106.1805   2.519916   0.3598343 
3190.8     103.4463   2.49747    0.3598343 
3191       103.3271   2.48642    0.3992278 
3191.2     98.34931   2.455687   0.3621516 
3191.4     100.067    2.462766   0.3864829 
3191.6     101.988    2.492463   0.4003864 
3191.8     108.6133   2.436522   0.3691034 
3192       106.5801   2.418566   0.338979  
3192.2     104.3016   2.423746   0.338979  
3192.4     107.2392   2.408724   0.3262341 
3192.6     111.4317   2.428407   0.3378204 
3192.8     108.1225   2.470363   0.3250754 
3193       106.2576   2.468118   0.338979  
3193.2     108.9148   2.451716   0.3505653 
3193.4     104.3226   2.486075   0.3505653 
3193.6     103.1728   2.477442   0.3343445 
3193.8     102.4787   2.506449   0.3053787 
3194       99.80057   2.562217   0.2683026 
3194.2     104.575    2.611597   0.2671439 
3194.4     107.8912   2.635079   0.2648267 
3194.6     109.3424   2.653898   0.2115297 
3194.8     112.5114   2.678589   0.210371  
3195       105.2831   2.67479    0.2080538 
3195.2     80.39433   2.662014   0.179088  
3195.4     51.47425   2.61177    0.1686603 
3195.6     36.67419   2.504722   0.1756121 
3195.8     32.00491   2.412695   0.1559154 
3196       34.19933   2.357963   0.147805  
3196.2     34.43069   2.329302   0.1929916 
3196.4     35.45428   2.336035   0.1895157 
3196.6     37.43838   2.34674    0.1895157 
3196.8     35.62255   2.449126   0.2138469 
3197       35.47532   2.441357   0.2045779 
3197.2     36.3587    2.444292   0.1987847 
3197.4     36.98968   2.400609   0.1779294 
3197.6     34.27645   2.395775   0.1663431 
3197.8     34.12221   2.435659   0.1617085 
3198       34.20634   2.480205   0.1651844 
3198.2     36.52695   2.465874   0.1732948 
3198.4     38.0974    2.443947   0.1895157 
3198.6     39.13502   2.437386   0.201102  
3198.8     38.11143   2.50265    0.1964675 
3199       40.41802   2.507657   0.1628672 
3199.2     38.51105   2.451544   0.1640258 
3199.4     37.71881   2.499888   0.1663431 
