~Version
 VERS              .         2.0                           : CWLS LOG ASCII STANDARD - VERSION 2.0
 WRAP              .         NO                            : ONE LINE PER DEPTH STEP
 DLM               .         SPACE                         : DELIMITING CHARACTER(SPACE TAB OR COMMA)
~Well Information
#_______________________________________________________________________________
#
#PARAMETER_NAME    .UNIT     VALUE                         : DESCRIPTION
#_______________________________________________________________________________
STRT               .m        3054                          : First reference value
STOP               .m        3263.8                        : Last reference value
STEP               .m        0.2                           : Step increment
NULL               .         -9999                         : Missing value
COMP               .                                       : Company
WELL               .         305                           : Well name
FLD                .                                       : Field
LOC                .                                       : Location
CNTY               .                                       : County
STAT               .                                       : State
CTRY               .                                       : Country
SRVC               .                                       : Service Company
DATE               .                                       : Date
API                .                                       : API number
Cartographic_reference_system .         GCS_WGS_1984                  : GEOGCS["GCS_WGS_1984",DATUM["D_WGS_1984",SPHEROID["WGS_1984",6378137.0,298.257223563]],PRIMEM["Greenwich",0.0],UNIT["Degree",0.0174532925199433],AUTHORITY["EPSG",4326]]
EREF               .m        138.34                        : 
HZCS               .GCS_WGS_1984 World_Mercator                : PROJCS["World_Mercator",GEOGCS["GCS_WGS_1984",DATUM["D_WGS_1984",SPHEROID["WGS_1984",6378137.0,298.257223563]],PRIMEM["Greenwich",0.0],UNIT["Degree",0.0174532925199433]],PROJECTION["Mercator"],PARAMETER["False_Easting",0.0],PARAMETER["False_Northing",0.0],PARAMETER["Central_Meridian",0.0],PARAMETER["Standard_Parallel_1",0.0],UNIT["Meter",1.0],AUTHORITY["ESRI",54004]]
LATI               .dega     2.2598774867                  : GCS_WGS_1984
LONG               .dega     1.9740478369                  : GCS_WGS_1984
PROJECT_UPGRADE_TIME .         2014-05-27T11_38_46           : 
Pad                .         Pad3                          : 
X                  .m        219750                        : 
Y                  .m        249950                        : 
group              .         Pad3                          : 
Интер-р            .         Пузин                         : 
Куст               .         3                             : 
Статус             .         Не проверено                  : 
Тип                .         Разведка                      : 
~Parameter Information Block
#_______________________________________________________________________________
#
#PARAMETER_NAME    .UNIT     VALUE                         : DESCRIPTION
#_______________________________________________________________________________
SET                .         LQC                           : 
PROJECT_UPGRADE_TIME .         2014-05-27T11_38_46           : 
TLFamily_GR_NORM   .         Gamma Ray                     : 
TLFamily_MD        .         Measured Depth                : 
TLFamily_RHOB_NORM .         Bulk Density                  : 
TLFamily_TNPH_NORM .         Neutron Porosity              : 
~Curve Information
#_______________________________________________________________________________
#
#LOGNAME           .UNIT     LOG_ID                        : DESCRIPTION
#_______________________________________________________________________________
MD                 .m                                      :  
GR_NORM            .gAPI                                   : Normalised By Techlog 
RHOB_NORM          .g/cm3                                  : Normalized By Techlog 
TNPH_NORM          .v/v                                    : Normalised By Techlog 
~Ascii
# ...
3199.6     36.64614   2.55652    0.1686603 
3199.8     35.29303   2.511801   0.179088  
3200       34.86536   2.449472   0.1756121 
3200.2     35.55945   2.448954   0.1732948 
3200.4     35.26499   2.432724   0.1895157 
3200.6     36.64614   2.458623   0.2092124 
3200.8     37.48745   2.432551   0.2207987 
3201       39.17008   2.361934   0.2578749 
3201.2     40.53019   2.334481   0.2289091 
3201.4     40.0815    2.338107   0.2184814 
3201.6     41.35748   2.316352   0.2150056 
3201.8     39.40845   2.351575   0.2161642 
3202       40.87373   2.363143   0.2080538 
3202.2     41.02797   2.363488   0.2219573 
3202.4     42.75967   2.404063   0.2126883 
3202.6     41.60988   2.415112   0.1941502 
3202.8     42.82978   2.400437   0.1744535 
3203       43.81131   2.475715   0.1605499 
3203.2     44.0006    2.508003   0.1582327 
3203.4     45.26958   2.549613   0.169819  
3203.6     45.75333   2.570332   0.1686603 
3203.8     43.25745   2.608144   0.1651844 
3204       44.7648    2.636288   0.1709776 
3204.2     48.49461   2.740572   0.1709776 
3204.4     51.951     2.741609   0.1814053 
3204.6     48.97135   2.671682   0.1686603 
3204.8     49.58831   2.688257   0.1605499 
3205       51.75469   2.662704   0.1605499 
3205.2     48.91526   2.701897   0.1651844 
3205.4     48.49461   2.642503   0.179088  
3205.6     47.98982   2.569987   0.1802467 
3205.8     48.64885   2.51888    0.1663431 
3206       49.1326    2.469672   0.1964675 
3206.2     47.72341   2.422537   0.2045779 
3206.4     46.67177   2.479169   0.2115297 
3206.6     46.13193   2.490909   0.2173228 
3206.8     48.22118   2.431343   0.2312264 
3207       47.77248   2.439803   0.2370195 
3207.2     48.92228   2.500578   0.2347023 
3207.4     47.76547   2.524578   0.2242746 
3207.6     51.29197   2.50783    0.2347023 
3207.8     52.17535   2.470018   0.2138469 
3208       48.97836   2.452061   0.2161642 
3208.2     48.93629   2.463975   0.2289091 
3208.4     49.1256    2.492809   0.2474472 
3208.6     45.72529   2.447572   0.2486058 
3208.8     45.2836    2.429271   0.2439713 
3209       45.06627   2.452752   0.2370195 
3209.2     44.48436   2.495571   0.2265919 
3209.4     44.0006    2.45586    0.2242746 
3209.6     44.11979   2.489183   0.2289091 
3209.8     42.76668   2.490564   0.2219573 
3210       44.74376   2.478823   0.2138469 
3210.2     44.67365   2.438421   0.2092124 
3210.4     43.97957   2.45327    0.2057365 
3210.6     44.91203   2.461558   0.2080538 
3210.8     43.18734   2.433069   0.1987847 
3211       43.83234   2.445846   0.2022606 
3211.2     44.90501   2.415112   0.2022606 
3211.4     45.50094   2.297878   0.2150056 
3211.6     46.17399   2.322223   0.2068951 
3211.8     45.60611   2.355546   0.2196401 
3212       43.93751   2.333446   0.2242746 
3212.2     44.6386    2.395602   0.2312264 
3212.4     43.29951   2.40976    0.2312264 
3212.6     44.35115   2.42081    0.232385  
3212.8     42.67554   2.41563    0.232385  
3213       44.1899    2.357618   0.2277505 
3213.2     43.8043    2.404408   0.2265919 
3213.4     47.43596   2.442565   0.2289091 
3213.6     51.34105   2.436004   0.2196401 
3213.8     52.70818   2.441875   0.2254332 
3214       50.44365   2.418738   0.2381782 
3214.2     47.7164    2.473471   0.2347023 
3214.4     49.97392   2.504377   0.2161642 
3214.6     51.34105   2.51301    0.2289091 
3214.8     58.6254    2.549786   0.232385  
3215       59.08812   2.509211   0.2196401 
3215.2     60.69362   2.454824   0.2289091 
3215.4     60.74971   2.440148   0.2265919 
3215.6     66.02193   2.431343   0.2439713 
3215.8     72.71736   2.45586    0.2555576 
3216       78.29806   2.492809   0.2683026 
3216.2     79.37074   2.543915   0.2868406 
3216.4     82.14706   2.544088   0.2972683 
3216.6     79.43383   2.521643   0.3239168 
3216.8     82.06993   2.486075   0.3065374 
3217       85.43518   2.509902   0.2961097 
3217.2     86.76025   2.493154   0.2995856 
3217.4     83.26881   2.454479   0.3030615 
3217.6     84.23631   2.296842   0.3100133 
3217.8     84.63593   2.197046   0.3772138 
3218       91.19115   2.134026   0.3783725 
3218.2     95.79733   2.263346   0.3355031 
3218.4     85.77872   2.368668   0.2706198 
3218.6     82.35037   2.423227   0.254399  
3218.8     80.43639   2.432724   0.2404954 
3219       74.04943   2.465356   0.2219573 
3219.2     70.91555   2.512319   0.2161642 
3219.4     67.62743   2.511628   0.1941502 
3219.6     62.32716   2.484176   0.1756121 
3219.8     65.86768   2.486248   0.1929916 
3220       73.95128   2.528549   0.2138469 
3220.2     81.73341   2.580174   0.2289091 
3220.4     82.33635   2.547714   0.3181237 
3220.6     82.02086   2.523887   0.3250754 
3220.8     83.99093   2.523369   0.2787302 
3221       86.66209   2.550994   0.2833648 
3221.2     86.44476   2.504377   0.2937924 
3221.4     85.09866   2.485384   0.3065374 
3221.6     81.81754   2.44809    0.285682  
3221.8     80.43639   2.459658   0.2798888 
3222       81.83857   2.506794   0.2879993 
3222.2     76.83979   2.54098    0.3042201 
3222.4     76.08961   2.486075   0.276413  
3222.6     76.81876   2.471054   0.263668  
3222.8     76.28592   2.443083   0.2625094 
3223       74.68042   2.438076   0.2659853 
3223.2     77.48479   2.414422   0.2752543 
3223.4     79.7353    2.47537    0.2798888 
3223.6     84.52376   2.508693   0.3019029 
3223.8     84.99349   2.49419    0.2914752 
3224       85.65252   2.514909   0.2879993 
3224.2     84.20827   2.486593   0.2822061 
3224.4     86.27649   2.430306   0.2289091 
3224.6     86.11524   2.418393   0.2242746 
3224.8     87.29308   2.475715   0.2497645 
3225       89.10891   2.524578   0.3146478 
3225.2     91.89925   2.472608   0.3204409 
3225.4     93.44167   2.440839   0.2926338 
3225.6     98.03381   2.493327   0.2567163 
3225.8     95.20841   2.416839   0.2509231 
3226       91.70996   2.48642    0.2289091 
3226.2     89.34727   2.563081   0.2289091 
3226.4     85.42817   2.607626   0.2451299 
3226.6     79.38475   2.586389   0.2300678 
3226.8     70.29859   2.567397   0.232385  
3227       60.37112   2.524578   0.2439713 
3227.2     57.60881   2.486248   0.2451299 
3227.4     54.11036   2.472608   0.2370195 
3227.6     56.64131   2.528376   0.2370195 
3227.8     58.10659   2.526995   0.223116  
3228       66.97541   2.493154   0.2451299 
3228.2     76.02652   2.458277   0.2706198 
3228.4     79.13235   2.423573   0.2659853 
3228.6     82.79907   2.393876   0.263668  
3228.8     84.49572   2.31946    0.2578749 
3229       88.19048   2.359517   0.2532403 
3229.2     91.52067   2.445846   0.2613508 
3229.4     95.35564   2.436004   0.2984269 
3229.6     94.22688   2.457759   0.2822061 
3229.8     95.6501    2.484866   0.2961097 
3230       92.97894   2.491082   0.2810475 
3230.2     92.79665   2.510938   0.2810475 
3230.4     91.01588   2.408379   0.3030615 
3230.6     86.78127   2.416494   0.2717784 
3230.8     85.33703   2.417703   0.2659853 
3231       83.08652   2.392667   0.2984269 
3231.2     83.00239   2.355546   0.3273927 
3231.4     83.80865   2.252469   0.3250754 
3231.6     78.29806   2.148702   0.3100133 
3231.8     77.49881   1.907844   0.3065374 
3232       72.50002   1.669231   0.3366618 
3232.2     55.82103   1.431826   0.3853242 
3232.4     34.78124   1.14297    0.458318  
3232.6     23.57777   1.005189   0.5707051 
3232.8     23.26929   0.9195502  0.4166072 
3233       21.03982   0.9209315  0.3691034 
3233.2     22.79255   0.958053   0.3691034 
3233.4     25.646     1.006743   0.3656275 
3233.6     25.008     0.9988002  0.4281936 
3233.8     26.75373   0.9335356  0.4641111 
3234       33.06356   0.9967284  0.4594766 
3234.2     40.94384   1.103431   0.3308686 
3234.4     53.08677   1.466358   0.3447722 
3234.6     60.05563   1.980188   0.3192823 
3234.8     72.03029   2.551858   0.2625094 
3235       83.92783   2.519225   0.2671439 
3235.2     78.86594   2.452924   0.2740957 
3235.4     73.37639   2.402681   0.2578749 
3235.6     68.60194   2.382998   0.2567163 
3235.8     63.25261   2.323949   0.2601921 
