~Version
 VERS              .         2.0                           : CWLS LOG ASCII STANDARD - VERSION 2.0
 WRAP              .         NO                            : ONE LINE PER DEPTH STEP
 DLM               .         SPACE                         : DELIMITING CHARACTER(SPACE TAB OR COMMA)
~Well Information
#_______________________________________________________________________________
#
#PARAMETER_NAME    .UNIT     VALUE                         : DESCRIPTION
#_______________________________________________________________________________
STRT               .m        3054                          : First reference value
STOP               .m        3263.8                        : Last reference value
STEP               .m        0.2                           : Step increment
NULL               .         -9999                         : Missing value
COMP               .                                       : Company
WELL               .         305                           : Well name
FLD                .                                       : Field
LOC                .                                       : Location
CNTY               .                                       : County
STAT               .                                       : State
CTRY               .                                       : Country
SRVC               .                                       : Service Company
DATE               .                                       : Date
API                .                                       : API number
Cartographic_reference_system .         GCS_WGS_1984                  : GEOGCS["GCS_WGS_1984",DATUM["D_WGS_1984",SPHEROID["WGS_1984",6378137.0,298.257223563]],PRIMEM["Greenwich",0.0],UNIT["Degree",0.0174532925199433],AUTHORITY["EPSG",4326]]
EREF               .m        138.34                        : 
HZCS               .GCS_WGS_1984 World_Mercator                : PROJCS["World_Mercator",GEOGCS["GCS_WGS_1984",DATUM["D_WGS_1984",SPHEROID["WGS_1984",6378137.0,298.257223563]],PRIMEM["Greenwich",0.0],UNIT["Degree",0.0174532925199433]],PROJECTION["Mercator"],PARAMETER["False_Easting",0.0],PARAMETER["False_Northing",0.0],PARAMETER["Central_Meridian",0.0],PARAMETER["Standard_Parallel_1",0.0],UNIT["Meter",1.0],AUTHORITY["ESRI",54004]]
LATI               .dega     2.2598774867                  : GCS_WGS_1984
LONG               .dega     1.9740478369                  : GCS_WGS_1984
PROJECT_UPGRADE_TIME .         2014-05-27T11_38_46           : 
Pad                .         Pad3                          : 
X                  .m        219750                        : 
Y                  .m        249950                        : 
group              .         Pad3                          : 
Интер-р            .         Пузин                         : 
Куст               .         3                             : 
Статус             .         Не проверено                  : 
Тип                .         Разведка                      : 
~Parameter Information Block
#_______________________________________________________________________________
#
#PARAMETER_NAME    .UNIT     VALUE                         : DESCRIPTION
#_______________________________________________________________________________
SET                .         LQC                           : 
PROJECT_UPGRADE_TIME .         2014-05-27T11_38_46           : 
TLFamily_GR_NORM   .         Gamma Ray                     : 
TLFamily_MD        .         Measured Depth                : 
TLFamily_RHOB_NORM .         Bulk Density                  : 
TLFamily_TNPH_NORM .         Neutron Porosity              : 
~Curve Information
#_______________________________________________________________________________
#
#LOGNAME           .UNIT     LOG_ID                        : DESCRIPTION
#_______________________________________________________________________________
MD                 .m                                      :  
GR_NORM            .gAPI                                   : Normalised By Techlog 
RHOB_NORM          .g/cm3                                  : Normalized By Techlog 
TNPH_NORM          .v/v                                    : Normalised By Techlog 
~Ascii
# ...
3090.4     80.41535   2.430479   0.3123305 
3090.6     78.48735   2.521124   0.3007442 
3090.8     81.68433   2.564634   0.2706198 
3091       80.45041   2.502823   0.2370195 
3091.2     78.99915   2.492981   0.2451299 
3091.4     79.26556   2.477442   0.2683026 
3091.6     79.19546   2.456205   0.2822061 
3091.8     79.50394   2.442565   0.2694612 
3092       79.27258   2.489183   0.2671439 
3092.2     81.35483   2.490046   0.2439713 
3092.4     82.4976    2.513355   0.2439713 
3092.6     82.28728   2.544779   0.2381782 
3092.8     81.0183    2.542189   0.2659853 
3093       79.65117   2.520261   0.2671439 
3093.2     81.62825   2.527513   0.2625094 
3093.4     79.91057   2.541326   0.2740957 
3093.6     79.33568   2.60659    0.2659853 
3093.8     79.93861   2.603482   0.2659853 
3094       79.9316    2.540808   0.254399  
3094.2     79.8615    2.504204   0.2926338 
3094.4     81.17955   2.488492   0.2694612 
3094.6     84.91637   2.521643   0.2567163 
3094.8     86.44476   2.566534   0.2532403 
3095       86.21339   2.555656   0.2509231 
3095.2     83.80164   2.531139   0.2601921 
3095.4     85.97502   2.533211   0.2810475 
3095.6     83.37397   2.547541   0.2590335 
3095.8     82.86918   2.543225   0.2509231 
3096       84.17321   2.5358     0.2833648 
3096.2     83.89278   2.478478   0.2694612 
3096.4     83.1356    2.462075   0.2590335 
3096.6     83.14962   2.458277   0.2532403 
3096.8     83.395     2.505413   0.2486058 
3097       85.09866   2.523542   0.2486058 
3097.2     82.34336   2.573267   0.2358609 
3097.4     82.12602   2.624719   0.2462886 
3097.6     79.56002   2.601238   0.2509231 
3097.8     79.46187   2.531139   0.2428127 
3098       78.42426   2.536837   0.2474472 
3098.2     82.44151   2.571368   0.2335436 
3098.4     87.74879   2.61436    0.2381782 
3098.6     85.10567   2.602619   0.2740957 
3098.8     85.08463   2.590878   0.2914752 
3099       86.45878   2.580346   0.2949511 
3099.2     85.33002   2.558074   0.3181237 
3099.4     82.19614   2.495571   0.3100133 
3099.6     83.12859   2.520607   0.3100133 
3099.8     83.93484   2.518535   0.2995856 
3100       86.06617   2.535973   0.2717784 
3100.2     87.0547    2.556865   0.2683026 
3100.4     89.66277   2.560663   0.2740957 
3100.6     87.3772    2.539254   0.2717784 
3100.8     85.91193   2.529757   0.2578749 
3101       90.16756   2.537182   0.2509231 
3101.2     90.61626   2.571713   0.2462886 
3101.4     87.20895   2.578965   0.2671439 
3101.6     87.14584   2.565498   0.3134891 
3101.8     88.40081   2.573095   0.2949511 
3102       89.73989   2.576375   0.2659853 
3102.2     87.91705   2.553066   0.2810475 
3102.4     82.93228   2.51629    0.2879993 
3102.6     81.17955   2.505413   0.2937924 
3102.8     81.38287   2.484003   0.2752543 
3103       79.64416   2.462766   0.316965  
3103.2     83.38799   2.547369   0.3482481 
3103.4     87.69971   2.508003   0.3528826 
3103.6     88.61814   2.461903   0.3864829 
3103.8     87.53145   2.444464   0.3551999 
3104       88.90559   2.475025   0.3215996 
3104.2     88.96168   2.475715   0.3019029 
3104.4     88.63918   2.512319   0.3204409 
3104.6     89.9993    2.520779   0.3598343 
3104.8     90.40593   2.480723   0.3459308 
3105       91.6048    2.440666   0.32971   
3105.2     93.63797   2.478823   0.307696  
3105.4     92.04649   2.487802   0.2937924 
3105.6     87.55949   2.529757   0.2903165 
3105.8     83.57027   2.540462   0.2937924 
3106       86.69715   2.557555   0.2833648 
3106.2     90.56017   2.530275   0.2972683 
3106.4     87.32112   2.530275   0.3042201 
3106.6     87.79787   2.551512   0.3146478 
3106.8     89.50152   2.498679   0.3134891 
3107       87.01263   2.474852   0.2995856 
3107.2     85.36507   2.494708   0.3030615 
3107.4     86.3466    2.485557   0.3019029 
3107.6     83.98392   2.560491   0.2671439 
3107.8     83.85772   2.574303   0.254399  
3108       86.83036   2.506621   0.2659853 
3108.2     91.4786    2.496262   0.2775716 
3108.4     96.97517   2.563253   0.2601921 
3108.6     96.51244   2.533038   0.2648267 
3108.8     96.63163   2.475025   0.2648267 
3109       98.75594   2.456378   0.2601921 
3109.2     98.93122   2.483312   0.2381782 
3109.4     95.25749   2.499197   0.254399  
3109.6     90.52512   2.51629    0.2381782 
3109.8     87.98716   2.536664   0.2289091 
3110       85.37909   2.59744    0.201102  
3110.2     83.31788   2.596576   0.1895157 
3110.4     80.32422   2.55652    0.1871984 
3110.6     78.92204   2.484866   0.1779294 
3110.8     75.06602   2.573612   0.1756121 
3111       70.22849   2.617986   0.1675017 
3111.2     57.39148   2.668056   0.1663431 
3111.4     49.82669   2.638877   0.1535981 
3111.6     44.28104   2.635769   0.1628672 
3111.8     43.97256   2.651309   0.169819  
3112       46.15296   2.648546   0.1721362 
3112.2     47.42895   2.609525   0.1675017 
3112.4     50.73811   2.524232   0.1686603 
3112.6     55.26015   2.501787   0.1802467 
3112.8     59.59991   2.47537    0.210371  
3113       61.82238   2.480032   0.2393368 
3113.2     62.62864   2.47468    0.2393368 
3113.4     63.32272   2.484176   0.2196401 
3113.6     66.21123   2.522161   0.2242746 
3113.8     68.18129   2.503686   0.2439713 
3114       70.43881   2.461212   0.2706198 
3114.2     74.0915    2.454479   0.2532403 
3114.4     67.78868   2.520089   0.2520817 
3114.6     61.07221   2.561872   0.232385  
3114.8     65.65034   2.549613   0.2265919 
3115       63.77142   2.474852   0.2300678 
3115.2     66.97541   2.424954   0.2381782 
3115.4     70.95761   2.506449   0.2683026 
3115.6     79.91759   2.599684   0.2833648 
3115.8     89.97125   2.60918    0.276413  
3116       94.19884   2.572404   0.276413  
3116.2     94.24792   2.488492   0.2903165 
3116.4     93.74313   2.477787   0.2903165 
3116.6     89.48048   2.494363   0.2833648 
3116.8     88.94064   2.472608   0.2833648 
3117       91.71697   2.4695     0.2961097 
3117.2     90.37788   2.454479   0.2613508 
3117.4     91.5417    2.438421   0.2335436 
3117.6     89.14397   2.440666   0.2138469 
3117.8     84.43262   2.459658   0.2173228 
3118       81.57217   2.500233   0.2126883 
3118.2     74.91178   2.430824   0.2080538 
3118.4     70.71925   2.454133   0.1987847 
3118.6     67.8027    2.443256   0.2184814 
3118.8     67.12263   2.424436   0.1999433 
3119       67.10161   2.460694   0.1860398 
3119.2     66.98242   2.479341   0.1709776 
3119.4     64.87914   2.478823   0.157074  
3119.6     63.29467   2.552203   0.1547568 
3119.8     55.14798   2.604518   0.1547568 
3120       46.13193   2.669783   0.1304255 
3120.2     44.37218   2.667366   0.125791  
3120.4     47.44998   2.670301   0.1373773 
3120.6     47.77949   2.713638   0.1640258 
3120.8     48.0389    2.710185   0.1605499 
3121       50.76615   2.63905    0.1837225 
3121.2     54.2015    2.530621   0.2207987 
3121.4     56.67636   2.50265    0.2601921 
3121.6     62.76184   2.520261   0.2404954 
3121.8     65.6153    2.542189   0.232385  
3122       71.70078   2.550477   0.232385  
3122.2     75.5007    2.571541   0.2289091 
3122.4     76.84679   2.530275   0.2289091 
3122.6     70.9436    2.480895   0.2289091 
3122.8     70.36169   2.443601   0.2393368 
3123       72.64024   2.497298   0.2347023 
3123.2     79.21649   2.502132   0.2659853 
3123.4     87.7558    2.523197   0.2845234 
3123.6     91.61181   2.526304   0.2659853 
3123.8     96.02869   2.474161   0.2601921 
3124       97.89359   2.496089   0.2671439 
3124.2     97.80947   2.531484   0.2601921 
3124.4     95.2645    2.509038   0.2937924 
3124.6     93.014     2.461212   0.2775716 
3124.8     85.77872   2.450853   0.2416541 
3125       73.71992   2.468291   0.2126883 
3125.2     63.68729   2.502995   0.1941502 
3125.4     54.23656   2.481586   0.1675017 
3125.6     51.10267   2.531139   0.1628672 
3125.8     49.63739   2.600547   0.1628672 
3126       49.84772   2.649064   0.1605499 
3126.2     50.87833   2.68774    0.1605499 
3126.4     56.83761   2.669955   0.157074  
3126.6     66.37247   2.634388   0.1941502 
