~Version
 VERS              .         2.0                           : CWLS LOG ASCII STANDARD - VERSION 2.0
 WRAP              .         NO                            : ONE LINE PER DEPTH STEP
 DLM               .         SPACE                         : DELIMITING CHARACTER(SPACE TAB OR COMMA)
~Well Information
#_______________________________________________________________________________
#
#PARAMETER_NAME    .UNIT     VALUE                         : DESCRIPTION
#_______________________________________________________________________________
STRT               .m        2685                          : First reference value
STOP               .m        2884.8                        : Last reference value
STEP               .m        0.2                           : Step increment
NULL               .         -9999                         : Missing value
COMP               .                                       : Company
WELL               .         306                           : Well name
FLD                .                                       : Field
LOC                .                                       : Location
CNTY               .                                       : County
STAT               .                                       : State
CTRY               .                                       : Country
SRVC               .                                       : Service Company
DATE               .                                       : Date
API                .                                       : API number
Cartographic_reference_system .         GCS_WGS_1984                  : GEOGCS["GCS_WGS_1984",DATUM["D_WGS_1984",SPHEROID["WGS_1984",6378137.0,298.257223563]],PRIMEM["Greenwich",0.0],UNIT["Degree",0.0174532925199433],AUTHORITY["EPSG",4326]]
EREF               .m        138.34                        : 
HZCS               .GCS_WGS_1984 World_Mercator                : PROJCS["World_Mercator",GEOGCS["GCS_WGS_1984",DATUM["D_WGS_1984",SPHEROID["WGS_1984",6378137.0,298.257223563]],PRIMEM["Greenwich",0.0],UNIT["Degree",0.0174532925199433]],PROJECTION["Mercator"],PARAMETER["False_Easting",0.0],PARAMETER["False_Northing",0.0],PARAMETER["Central_Meridian",0.0],PARAMETER["Standard_Parallel_1",0.0],UNIT["Meter",1.0],AUTHORITY["ESRI",54004]]
LATI               .dega     2.2598774867                  : GCS_WGS_1984
LONG               .dega     1.9740478369                  : GCS_WGS_1984
PROJECT_UPGRADE_TIME .         2014-05-27T11_38_46           : 
Pad                .         Pad3                          : 
X                  .m        219750                        : 
Y                  .m        249950                        : 
group              .         Pad3                          : 
Интер-р            .         Ярышев                        : 
Куст               .         3                             : 
Статус             .         Не проверено                  : 
Тип                .         Разведка                      : 
~Parameter Information Block
#_______________________________________________________________________________
#
#PARAMETER_NAME    .UNIT     VALUE                         : DESCRIPTION
#_______________________________________________________________________________
SET                .         LQC                           : 
PROJECT_UPGRADE_TIME .         2014-05-27T11_38_46           : 
TLFamily_GR_NORM   .         Gamma Ray                     : 
TLFamily_MD        .         Measured Depth                : 
TLFamily_RHOB_NORM .         Bulk Density                  : 
TLFamily_TNPH_NORM .         Neutron Porosity              : 
~Curve Information
#_______________________________________________________________________________
#
#LOGNAME           .UNIT     LOG_ID                        : DESCRIPTION
#_______________________________________________________________________________
MD                 .m                                      :  
GR_NORM            .gAPI                                   : Normalised By Techlog 
RHOB_NORM          .g/cm3                                  : Normalized By Techlog 
TNPH_NORM          .v/v                                    : Normalised By Techlog 
~Ascii
2685.0     36.81054   -9999      0.2707146 
2685.2     33.50261   -9999      0.2685845 
2685.4     26.18435   -9999      0.3697634 
2685.6     20.49146   -9999      0.3569829 
2685.8     19.56851   -9999      0.3090561 
2686       23.68504   -9999      0.2749748 
2686.2     31.15031   -9999      0.2345033 
2686.4     38.53392   -9999      0.2408935 
2686.6     41.2946    -9999      0.2728447 
2686.8     41.98069   -9999      0.254739  
2687       40.20013   -9999      0.2888203 
2687.2     40.04494   -9999      0.2504789 
2687.4     40.36348   -9999      0.2653894 
2687.6     41.30277   -9999      0.3186415 
2687.8     37.61914   -9999      0.3292919 
2688       38.50941   -9999      0.2717797 
2688.2     39.94693   -9999      0.2707146 
2688.4     41.68665   -9999      0.2494138 
2688.6     42.74029   -9999      0.3079911 
2688.8     42.69128   -9999      0.3250317 
2689       40.68203   -9999      0.306926  
2689.2     40.7882    -9999      0.2739097 
2689.4     40.24097   -9999      0.3431374 
2689.6     40.11029   -9999      0.333552  
2689.8     40.28181   -9999      0.359113  
2690       40.50234   -9999      0.3388772 
2690.2     42.38091   -9999      0.2696496 
2690.4     40.87805   -9999      0.2930805 
2690.6     40.32265   -9999      0.2760398 
2690.8     39.40786   -9999      0.254739  
2691       39.37519   -9999      0.3452675 
2691.2     40.0041    -9999      0.3995846 
2691.4     39.26901   -9999      0.358048  
2691.6     38.59926   -9999      0.3229016 
2691.8     37.96218   -9999      0.333552  
2692       40.55134   -9999      0.3037309 
2692.2     41.07407   -9999      0.2739097 
2692.4     41.90718   -9999      0.2973407 
2692.6     40.15929   -9999      0.2984057 
2692.8     39.6774    -9999      0.2664545 
2693       39.1465    -9999      0.2941455 
2693.2     37.38227   -9999      0.3026659 
2693.4     37.3251    -9999      0.3133163 
2693.6     38.83612   -9999      0.3271618 
2693.8     41.12308   -9999      0.3271618 
2694       42.11954   -9999      0.305861  
2694.2     41.87451   -9999      0.2941455 
2694.4     45.92569   -9999      0.3175764 
2694.6     42.80563   -9999      0.2952106 
2694.8     41.35994   -9999      0.2579342 
2695       38.8933    -9999      0.3101211 
2695.2     41.14759   -9999      0.3303569 
2695.4     39.35069   -9999      0.3133163 
2695.6     38.47675   -9999      0.3346171 
2695.8     40.35532   -9999      0.3165114 
2696       36.99839   -9999      0.2984057 
2696.2     39.08115   -9999      0.2909504 
2696.4     39.27718   -9999      0.2792349 
2696.6     41.09858   -9999      0.2909504 
2696.8     42.16038   -9999      0.304796  
2697       39.30985   -9999      0.2792349 
2697.2     36.42665   -9999      0.2621943 
2697.4     37.97852   -9999      0.2760398 
2697.6     36.57367   -9999      0.2973407 
2697.8     30.74193   -9999      0.2994707 
2698       25.10621   -9999      0.2930805 
2698.2     30.16202   -9999      0.2994707 
2698.4     44.46367   -9999      0.3495277 
2698.6     64.70324   -9999      0.2824301 
2698.8     71.61311   -9999      0.2398285 
2699       75.28042   -9999      0.2515439 
2699.2     71.67846   -9999      0.2760398 
2699.4     75.01089   -9999      0.2568691 
2699.6     75.06806   -9999      0.2589992 
2699.8     72.79744   -9999      0.2430236 
2700       70.81268   -9999      0.2174626 
2700.2     72.46256   -9999      0.2313081 
2700.4     78.09011   -9999      0.2941455 
2700.6     80.06669   -9999      0.3005358 
2700.8     80.54042   -9999      0.2760398 
2701       77.90225   -9999      0.2632594 
2701.2     75.45194   -9999      0.2589992 
2701.4     77.65722   -9999      0.2685845 
2701.6     79.3316    -9999      0.2803    
2701.8     79.53579   -9999      0.2962756 
2702       79.9115    -9999      0.2472837 
2702.2     81.46337   -9999      0.2621943 
2702.4     87.14809   -9999      0.2866902 
2702.6     87.08275   -9999      0.3229016 
2702.8     88.38142   -9999      0.2984057 
2703       88.04654   -9999      0.2866902 
2703.2     87.10725   -9999      0.3154463 
2703.4     84.00352   -9999      0.306926  
2703.6     80.25455   -9999      0.2973407 
2703.8     78.12278   -9999      0.2728447 
2704       73.5652    -9999      0.252609  
2704.2     73.80206   -9999      0.228113  
2704.4     74.47998   -9999      0.2483488 
2704.6     76.80779   -9999      0.2952106 
2704.8     78.75986   -9999      0.2494138 
2705       77.06097   -9999      0.2600642 
2705.2     75.98283   -9999      0.2707146 
2705.4     75.54178   -9999      0.2696496 
2705.6     74.10427   -9999      0.2685845 
2705.8     75.72964   -9999      0.2643244 
2706       69.45684   -9999      0.2707146 
2706.2     69.8979    -9999      0.252609  
2706.4     75.68063   -9999      0.2483488 
2706.6     81.74107   -9999      0.305861  
2706.8     82.60685   -9999      0.3037309 
2707       79.28259   -9999      0.2856252 
2707.2     80.18921   -9999      0.2749748 
2707.4     79.23359   -9999      0.2696496 
2707.6     80.46691   -9999      0.3090561 
2707.8     83.5298    -9999      0.304796  
2708       82.36999   -9999      0.3154463 
2708.2     79.3071    -9999      0.2952106 
2708.4     81.97794   -9999      0.2941455 
2708.6     82.14129   -9999      0.2803    
2708.8     83.65231   -9999      0.2739097 
2709       82.92539   -9999      0.2845601 
2709.2     80.50775   -9999      0.2792349 
2709.4     75.9175    -9999      0.2994707 
2709.6     68.68908   -9999      0.2760398 
2709.8     72.11951   -9999      0.2579342 
2710       73.27934   -9999      0.2717797 
2710.2     77.19167   -9999      0.2259829 
2710.4     81.72473   -9999      0.2398285 
2710.6     84.40374   -9999      0.2707146 
2710.8     83.39911   -9999      0.3016008 
2711       78.57201   -9999      0.3165114 
2711.2     77.54287   -9999      0.304796  
2711.4     77.13449   -9999      0.254739  
2711.6     76.99564   -9999      0.252609  
2711.8     77.37135   -9999      0.2323732 
2712       74.52899   -9999      0.2291781 
2712.2     74.17778   -9999      0.2259829 
2712.4     74.40647   -9999      0.2494138 
2712.6     72.74026   -9999      0.2611293 
2712.8     70.33895   -9999      0.2771049 
2713       73.77757   -9999      0.2909504 
2713.2     75.62346   -9999      0.2771049 
2713.4     79.78082   2.555784   0.2621943 
2713.6     79.20908   2.483156   0.2568691 
2713.8     79.61747   2.361245   0.2696496 
2714       82.12495   2.330118   0.2845601 
2714.2     83.29294   2.442253   0.2643244 
2714.4     81.90443   2.436267   0.253674  
2714.6     84.55893   2.572345   0.2579342 
2714.8     82.48434   2.429284   0.253674  
2715       81.38169   2.364437   0.2664545 
2715.2     75.80315   2.383193   0.2419585 
2715.4     73.44268   2.41412    0.227048  
2715.6     75.97467   2.412922   0.2238528 
2715.8     71.20473   2.487546   0.2387634 
2716       74.82303   2.592896   0.2611293 
2716.2     76.66893   2.555784   0.2494138 
2716.4     71.88265   2.578929   0.2643244 
2716.6     73.06697   2.533437   0.2834951 
2716.8     73.36101   2.488543   0.3079911 
2717       74.23495   2.487546   0.3197065 
2717.2     75.88483   2.381597   0.2579342 
2717.4     77.44486   2.310764   0.2451537 
2717.6     74.66784   2.303781   0.2781699 
2717.8     70.52682   2.483156   0.2568691 
2718       75.19057   2.427289   0.2589992 
2718.2     75.28858   2.371022   0.253674  
2718.4     74.48815   2.41412    0.2707146 
2718.6     73.82656   2.415317   0.2451537 
2718.8     74.3738    2.480562   0.2185276 
2719       71.88265   2.51947    0.2142675 
2719.2     70.46964   2.490938   0.2195927 
2719.4     64.6869    2.497722   0.2451537 
2719.6     67.8233    2.458016   0.252609  
2719.8     72.53606   2.456819   0.2153325 
2720       77.79607   2.546407   0.1940317 
2720.2     81.31635   2.563765   0.2408935 
2720.4     83.31744   2.432875   0.2462187 
2720.6     82.13312   2.299989   0.2888203 
2720.8     79.13557   2.440856   0.2632594 
2721       78.40865   2.48156    0.228113  
2721.2     77.59188   2.463403   0.2238528 
