~Version
 VERS              .         2.0                           : CWLS LOG ASCII STANDARD - VERSION 2.0
 WRAP              .         NO                            : ONE LINE PER DEPTH STEP
 DLM               .         SPACE                         : DELIMITING CHARACTER(SPACE TAB OR COMMA)
~Well Information
#_______________________________________________________________________________
#
#PARAMETER_NAME    .UNIT     VALUE                         : DESCRIPTION
#_______________________________________________________________________________
STRT               .m        2685                          : First reference value
STOP               .m        2884.8                        : Last reference value
STEP               .m        0.2                           : Step increment
NULL               .         -9999                         : Missing value
COMP               .                                       : Company
WELL               .         306                           : Well name
FLD                .                                       : Field
LOC                .                                       : Location
CNTY               .                                       : County
STAT               .                                       : State
CTRY               .                                       : Country
SRVC               .                                       : Service Company
DATE               .                                       : Date
API                .                                       : API number
Cartographic_reference_system .         GCS_WGS_1984                  : GEOGCS["GCS_WGS_1984",DATUM["D_WGS_1984",SPHEROID["WGS_1984",6378137.0,298.257223563]],PRIMEM["Greenwich",0.0],UNIT["Degree",0.0174532925199433],AUTHORITY["EPSG",4326]]
EREF               .m        138.34                        : 
HZCS               .GCS_WGS_1984 World_Mercator                : PROJCS["World_Mercator",GEOGCS["GCS_WGS_1984",DATUM["D_WGS_1984",SPHEROID["WGS_1984",6378137.0,298.257223563]],PRIMEM["Greenwich",0.0],UNIT["Degree",0.0174532925199433]],PROJECTION["Mercator"],PARAMETER["False_Easting",0.0],PARAMETER["False_Northing",0.0],PARAMETER["Central_Meridian",0.0],PARAMETER["Standard_Parallel_1",0.0],UNIT["Meter",1.0],AUTHORITY["ESRI",54004]]
LATI               .dega     2.2598774867                  : GCS_WGS_1984
LONG               .dega     1.9740478369                  : GCS_WGS_1984
PROJECT_UPGRADE_TIME .         2014-05-27T11_38_46           : 
Pad                .         Pad3                          : 
X                  .m        219750                        : 
Y                  .m        249950                        : 
group              .         Pad3                          : 
Интер-р            .         Ярышев                        : 
Куст               .         3                             : 
Статус             .         Не проверено                  : 
Тип                .         Разведка                      : 
~Parameter Information Block
#_______________________________________________________________________________
#
#PARAMETER_NAME    .UNIT     VALUE                         : DESCRIPTION
#_______________________________________________________________________________
SET                .         LQC                           : 
PROJECT_UPGRADE_TIME .         2014-05-27T11_38_46           : 
TLFamily_GR_NORM   .         Gamma Ray                     : 
TLFamily_MD        .         Measured Depth                : 
TLFamily_RHOB_NORM .         Bulk Density                  : 
TLFamily_TNPH_NORM .         Neutron Porosity              : 
~Curve Information
#_______________________________________________________________________________
#
#LOGNAME           .UNIT     LOG_ID                        : DESCRIPTION
#_______________________________________________________________________________
MD                 .m                                      :  
GR_NORM            .gAPI                                   : Normalised By Techlog 
RHOB_NORM          .g/cm3                                  : Normalized By Techlog 
TNPH_NORM          .v/v                                    : Normalised By Techlog 
~Ascii
# ...
2721.4     77.32234   2.487346   0.2558041 
2721.6     80.17287   2.535233   0.253674  
2721.8     79.65831   2.530644   0.2696496 
2722       78.89871   2.497323   0.2771049 
2722.2     79.03756   2.539423   0.2728447 
2722.4     76.13802   2.647368   0.2803    
2722.6     77.13449   2.733564   0.2877553 
2722.8     74.35747   2.52785    0.3079911 
2723       75.24775   2.529247   0.2621943 
2723.2     76.59542   2.58292    0.2430236 
2723.4     74.65151   2.456819   0.2430236 
2723.6     76.1952    2.444248   0.2717797 
2723.8     79.6338    2.398756   0.2984057 
2724       80.13203   2.399355   0.3026659 
2724.2     77.53471   2.497323   0.2696496 
2724.4     80.09937   2.547803   0.2579342 
2724.6     84.46909   2.508496   0.2632594 
2724.8     82.29648   2.568753   0.2430236 
2725       75.45194   2.652954   0.2355683 
2725.2     73.71222   2.588706   0.2291781 
2725.4     68.54207   2.592497   0.2345033 
2725.6     68.95045   2.536031   0.2504789 
2725.8     68.68091   2.487346   0.2366333 
2726       70.46147   2.521466   0.253674  
2726.2     72.71576   2.48176    0.2696496 
2726.4     75.45194   2.467394   0.2739097 
2726.6     77.96759   2.398956   0.2803    
2726.8     79.99318   2.424096   0.2568691 
2727       79.09473   2.423098   0.2558041 
2727.2     82.10861   2.305178   0.2675195 
2727.4     80.10753   2.393967   0.3016008 
2727.6     83.53796   2.543214   0.3527228 
2727.8     82.59051   2.598084   0.3378122 
2728       78.37598   2.565162   0.3101211 
2728.2     77.67356   2.574739   0.3154463 
2728.4     77.73889   2.538825   0.2600642 
2728.6     76.07269   2.473778   0.2611293 
2728.8     80.27905   2.505503   0.2675195 
2729       76.12986   2.540021   0.2494138 
2729.2     73.12415   2.526653   0.2355683 
2729.4     75.6888    2.467792   0.2419585 
2729.6     72.72393   2.468791   0.2366333 
2729.8     74.82303   2.40973    0.2398285 
2730       75.1824    2.328921   0.2259829 
2730.2     71.73563   2.364238   0.252609  
2730.4     77.60822   2.503309   0.252609  
2730.6     75.63163   2.475175   0.2621943 
2730.8     76.58725   2.399953   0.2760398 
2731       79.37244   2.340494   0.2749748 
2731.2     77.74706   2.348475   0.2664545 
2731.4     79.32343   2.488344   0.2717797 
2731.6     80.31989   2.502909   0.2472837 
2731.8     78.68635   2.464001   0.2355683 
2732       77.69805   2.379202   0.2600642 
2732.2     80.34439   2.356855   0.2653894 
2732.4     80.49141   2.496126   0.2387634 
2732.6     79.27443   2.644774   0.2398285 
2732.8     78.77619   2.547604   0.228113  
2733       82.39449   2.461807   0.228113  
2733.2     83.74216   2.555984   0.252609  
2733.4     80.22188   2.628213   0.2717797 
2733.6     77.27333   2.56197    0.2856252 
2733.8     75.88483   2.472182   0.2845601 
2734       75.86033   2.482957   0.2707146 
2734.2     75.54995   2.465199   0.2558041 
2734.4     71.997     2.573543   0.2643244 
2734.6     77.86958   2.555984   0.2589992 
2734.8     77.77973   2.449636   0.2621943 
2735       77.5102    2.4648     0.2760398 
2735.2     76.78328   2.427887   0.2664545 
2735.4     75.52544   2.33391    0.2962756 
2735.6     76.1707    2.386385   0.2600642 
2735.8     79.3561    2.452629   0.253674  
2736       79.42961   2.567557   0.2653894 
2736.2     77.73889   2.5492     0.2834951 
2736.4     76.70977   2.427887   0.252609  
2736.6     77.31417   2.441255   0.2483488 
2736.8     77.59188   2.5067     0.253674  
2737       80.13203   2.370822   0.2877553 
2737.2     77.10181   2.38       0.306926  
2737.4     76.05635   2.538825   0.2920154 
2737.6     73.17315   2.480562   0.3122512 
2737.8     75.19874   2.364437   0.2803    
2738       77.88592   2.283429   0.2898854 
2738.2     82.14945   2.357454   0.2856252 
2738.4     85.56355   2.39297    0.2621943 
2738.6     81.90443   2.346679   0.2653894 
2738.8     82.62318   2.23215    0.3005358 
2739       81.23467   2.208406   0.2739097 
2739.2     77.60822   2.390775   0.2600642 
2739.4     78.40048   2.510691   0.2387634 
2739.6     79.82166   2.508696   0.2504789 
2739.8     85.84126   2.51508    0.2430236 
2740       87.24611   2.628812   0.2504789 
2740.2     84.21589   2.60008    0.2739097 
2740.4     84.74678   2.449037   0.281365  
2740.6     81.55322   2.330916   0.2589992 
2740.8     81.68389   2.370423   0.2408935 
2741       82.86822   2.483356   0.2249179 
2741.2     78.40048   2.66313    0.2355683 
2741.4     80.12386   2.606863   0.2834951 
2741.6     80.04219   2.475375   0.2472837 
2741.8     78.10645   2.501912   0.2611293 
2742       82.28831   2.440058   0.2398285 
2742.2     82.48434   2.416913   0.253674  
2742.4     78.3188    2.503907   0.2398285 
2742.6     76.88945   2.461607   0.2227878 
2742.8     79.41328   2.487945   0.2387634 
2743       86.63353   2.547803   0.2685845 
2743.2     84.68961   2.487546   0.2834951 
2743.4     84.32207   2.475574   0.2611293 
2743.6     84.62428   2.456419   0.2653894 
2743.8     89.81893   2.540621   0.305861  
2744       87.4748    2.535831   0.3016008 
2744.2     89.70458   2.53224    0.2728447 
2744.4     91.60766   2.530644   0.2803    
2744.6     90.58669   2.523261   0.2675195 
2744.8     91.82819   2.426091   0.2739097 
2745       86.75604   2.563167   0.2781699 
2745.2     82.24747   2.640584   0.2941455 
2745.4     83.52163   2.52406    0.2749748 
2745.6     84.87747   2.43926    0.2504789 
2745.8     84.49359   2.501912   0.2430236 
2746       81.18566   2.500316   0.2366333 
2746.2     80.38523   2.491736   0.2291781 
2746.4     80.6221    2.499717   0.2206577 
2746.6     78.21262   2.479964   0.2398285 
2746.8     66.63082   2.521066   0.2408935 
2747       59.1492    2.546207   0.2132024 
2747.2     53.52982   2.404343   0.1823163 
2747.4     52.03513   2.312759   0.175926  
2747.6     44.30848   2.474377   0.174861  
2747.8     44.86389   2.608859   0.1642106 
2748       52.03513   2.514283   0.1812512 
2748.2     61.31364   2.495926   0.2195927 
2748.4     65.4465    2.522663   0.2408935 
2748.6     69.74271   2.389977   0.2440886 
2748.8     70.69834   2.437464   0.2483488 
2749       69.46501   2.514083   0.2078772 
2749.2     60.9951    2.474177   0.1982919 
2749.4     60.22734   2.507299   0.2046821 
2749.6     61.2728    2.527651   0.2163976 
2749.8     60.10483   2.490539   0.202552  
2750       50.07489   2.42649    0.2036171 
2750.2     47.09367   2.395963   0.1876415 
2750.4     51.85545   2.348076   0.2121374 
2750.6     58.65914   2.396561   0.2217228 
2750.8     62.47346   2.496325   0.2089423 
2751       71.36809   2.5492     0.2355683 
2751.2     76.26871   2.529446   0.2462187 
2751.4     80.63844   2.357853   0.2515439 
2751.6     83.58698   2.473978   0.2376984 
2751.8     82.19846   2.60407    0.2792349 
2752       81.80641   2.551594   0.2345033 
2752.2     88.11189   2.606066   0.228113  
2752.4     88.91232   2.525656   0.2174626 
2752.6     93.61691   2.429284   0.2185276 
2752.8     90.21915   2.5067     0.2057472 
2753       90.0803    2.594094   0.2195927 
2753.2     96.32043   2.494729   0.2004219 
2753.4     89.73725   2.43507    0.1855114 
2753.6     85.24502   2.342888   0.1982919 
2753.8     80.42607   2.385986   0.2004219 
2754       67.44759   2.432875   0.1929667 
2754.2     54.94284   2.51987    0.1823163 
2754.4     51.32454   2.560174   0.1546252 
2754.6     54.4201    2.569552   0.1652756 
2754.8     62.95536   2.555385   0.1876415 
2755       62.86551   2.55778    0.1887065 
2755.2     64.85843   2.538026   0.1801862 
2755.4     71.00871   2.471783   0.1961618 
2755.6     75.01089   2.437464   0.2142675 
2755.8     71.19656   2.412922   0.2259829 
2756       66.92486   2.483156   0.2078772 
2756.2     65.13612   2.603472   0.2110724 
2756.4     63.0697    2.627016   0.1982919 
2756.6     60.04765   2.613448   0.2078772 
2756.8     54.81215   2.562768   0.174861  
2757       46.42392   2.571547   0.1716658 
2757.2     42.48709   2.497522   0.1652756 
2757.4     42.99348   2.500515   0.1642106 
2757.6     43.95728   2.441455   0.1674057 
