~Version
 VERS              .         2.0                           : CWLS LOG ASCII STANDARD - VERSION 2.0
 WRAP              .         NO                            : ONE LINE PER DEPTH STEP
 DLM               .         SPACE                         : DELIMITING CHARACTER(SPACE TAB OR COMMA)
~Well Information
#_______________________________________________________________________________
#
#PARAMETER_NAME    .UNIT     VALUE                         : DESCRIPTION
#_______________________________________________________________________________
STRT               .m        2685                          : First reference value
STOP               .m        2884.8                        : Last reference value
STEP               .m        0.2                           : Step increment
NULL               .         -9999                         : Missing value
COMP               .                                       : Company
WELL               .         306                           : Well name
FLD                .                                       : Field
LOC                .                                       : Location
CNTY               .                                       : County
STAT               .                                       : State
CTRY               .                                       : Country
SRVC               .                                       : Service Company
DATE               .                                       : Date
API                .                                       : API number
Cartographic_reference_system .         GCS_WGS_1984                  : GEOGCS["GCS_WGS_1984",DATUM["D_WGS_1984",SPHEROID["WGS_1984",6378137.0,298.257223563]],PRIMEM["Greenwich",0.0],UNIT["Degree",0.0174532925199433],AUTHORITY["EPSG",4326]]
EREF               .m        138.34                        : 
HZCS               .GCS_WGS_1984 World_Mercator                : PROJCS["World_Mercator",GEOGCS["GCS_WGS_1984",DATUM["D_WGS_1984",SPHEROID["WGS_1984",6378137.0,298.257223563]],PRIMEM["Greenwich",0.0],UNIT["Degree",0.0174532925199433]],PROJECTION["Mercator"],PARAMETER["False_Easting",0.0],PARAMETER["False_Northing",0.0],PARAMETER["Central_Meridian",0.0],PARAMETER["Standard_Parallel_1",0.0],UNIT["Meter",1.0],AUTHORITY["ESRI",54004]]
LATI               .dega     2.2598774867                  : GCS_WGS_1984
LONG               .dega     1.9740478369                  : GCS_WGS_1984
PROJECT_UPGRADE_TIME .         2014-05-27T11_38_46           : 
Pad                .         Pad3                          : 
X                  .m        219750                        : 
Y                  .m        249950                        : 
group              .         Pad3                          : 
Интер-р            .         Ярышев                        : 
Куст               .         3                             : 
Статус             .         Не проверено                  : 
Тип                .         Разведка                      : 
~Parameter Information Block
#_______________________________________________________________________________
#
#PARAMETER_NAME    .UNIT     VALUE                         : DESCRIPTION
#_______________________________________________________________________________
SET                .         LQC                           : 
PROJECT_UPGRADE_TIME .         2014-05-27T11_38_46           : 
TLFamily_GR_NORM   .         Gamma Ray                     : 
TLFamily_MD        .         Measured Depth                : 
TLFamily_RHOB_NORM .         Bulk Density                  : 
TLFamily_TNPH_NORM .         Neutron Porosity              : 
~Curve Information
#_______________________________________________________________________________
#
#LOGNAME           .UNIT     LOG_ID                        : DESCRIPTION
#_______________________________________________________________________________
MD                 .m                                      :  
GR_NORM            .gAPI                                   : Normalised By Techlog 
RHOB_NORM          .g/cm3                                  : Normalized By Techlog 
TNPH_NORM          .v/v                                    : Normalised By Techlog 
~Ascii
# ...
2794.2     95.23412   2.330916   0.333552  
2794.4     104.676    2.264873   0.3442025 
2794.6     106.6526   2.284826   0.3548529 
2794.8     109.5113   2.36743    0.3761536 
2795       106.1462   2.478168   0.3473976 
2795.2     89.08383   2.530843   0.3101211 
2795.4     82.70486   2.610655   0.2781699 
2795.6     83.38277   2.613647   0.2504789 
2795.8     89.01033   2.526853   0.2920154 
2796       94.64605   2.417711   0.3292919 
2796.2     103.3528   2.378404   0.3516577 
2796.4     114.951    2.32952    0.3516577 
2796.6     123.1187   2.279239   0.3569829 
2796.8     128.2398   2.312161   0.3452675 
2797       129.4241   2.245319   0.3367472 
2797.2     125.2994   2.215589   0.3388772 
2797.4     112.7538   2.437664   0.3175764 
2797.6     103.1405   2.494928   0.3569829 
2797.8     95.75685   2.433474   0.358048  
2798       98.54204   2.295999   0.359113  
2798.2     104.3819   2.209404   0.3399423 
2798.4     111.0795   2.265072   0.3111862 
2798.6     117.4993   2.411925   0.3101211 
2798.8     130.5023   2.468192   0.3239667 
2799       151.6974   2.361644   0.3367472 
2799.2     173.7258   2.207608   0.3729585 
2799.4     177.5646   2.208007   0.3921293 
2799.6     171.0222   2.222972   0.4326008 
2799.8     162.9362   2.343487   0.4219504 
2800       169.0293   2.38858    0.358048  
2800.2     184.4826   2.086894   0.3782837 
2800.4     197.2242   2.162515   0.4656171 
2800.6     191.1311   2.32533    0.4677472 
2800.8     176.4129   2.289215   0.4326008 
2801       166.9384   2.161717   0.3782837 
2801.2     172.2801   2.151741   0.359113  
2801.4     185.0707   2.165308   0.3410073 
2801.6     180.1782   2.241927   0.3505927 
2801.8     135.4682   2.28283    0.3079911 
2802       111.0386   2.282032   0.3133163 
2802.2     96.06722   2.256293   0.3239667 
2802.4     97.15353   2.216787   0.3399423 
2802.6     99.85704   2.222972   0.3527228 
2802.8     96.76148   2.267467   0.3473976 
2803       98.73806   2.267467   0.2834951 
2803.2     104.1941   2.344086   0.3122512 
2803.4     101.8908   2.319743   0.3367472 
2803.6     98.74623   2.305577   0.2898854 
2803.8     99.5385    2.274051   0.2451537 
2804       107.0936   2.436068   0.2334382 
2804.2     112.664    2.543813   0.2249179 
2804.4     111.447    2.505903   0.2440886 
2804.6     109.5439   2.546007   0.2866902 
2804.8     109.1029   2.470387   0.3005358 
2805       109.985    2.439859   0.3260967 
2805.2     101.7764   2.559575   0.3463325 
2805.4     101.8908   2.48156    0.3559179 
2805.6     109.3234   2.375411   0.3442025 
2805.8     114.1505   2.520468   0.3260967 
2806       111.0305   2.569153   0.3271618 
2806.2     111.0958   2.427488   0.3122512 
2806.4     111.3898   2.40155    0.2803    
2806.6     107.2896   2.414718   0.2685845 
2806.8     100.8453   2.345881   0.2707146 
2807       98.23166   2.414917   0.2653894 
2807.2     99.46499   2.559775   0.2579342 
2807.4     99.15462   2.582721   0.254739  
2807.6     104.0716   2.641182   0.2611293 
2807.8     105.6806   2.661534   0.2728447 
2808       108.0492   2.524259   0.2877553 
2808.2     109.013    2.585514   0.2664545 
2808.4     109.4786   2.571946   0.3143813 
2808.6     111.6349   2.503508   0.3356821 
2808.8     108.3269   2.585315   0.3250317 
2809       108.5801   2.627415   0.3111862 
2809.2     105.4764   2.510292   0.3239667 
2809.4     103.2058   2.420903   0.2962756 
2809.6     109.0539   2.416115   0.2515439 
2809.8     115.3267   2.47298    0.2675195 
2810       116.9439   2.531242   0.281365  
2810.2     114.9265   2.48176    0.2430236 
2810.4     105.3866   2.441255   0.2430236 
2810.6     111.3735   2.458814   0.281365  
2810.8     114.4119   2.397559   0.3165114 
2811       114.4446   2.402547   0.3644382 
2811.2     112.9825   2.551395   0.2973407 
2811.4     114.0035   2.560373   0.2941455 
2811.6     113.7748   2.56177    0.2941455 
2811.8     113.0806   2.585315   0.2962756 
2812       105.0027   2.559575   0.3122512 
2812.2     92.83282   2.522064   0.3250317 
2812.4     87.76884   2.517874   0.2803    
2812.6     101.8663   2.564763   0.254739  
2812.8     117.0991   2.441255   0.2685845 
2813       113.6196   2.310165   0.3378122 
2813.2     112.5496   2.33391    0.2941455 
2813.4     110.7283   2.396761   0.2898854 
2813.6     107.6      2.407735   0.2845601 
2813.8     110.3117   2.375012   0.2877553 
2814       108.1473   2.378404   0.2611293 
2814.2     106.8894   2.403944   0.281365  
2814.4     102.6667   2.347477   0.2632594 
2814.6     101.0005   2.395364   0.2728447 
2814.8     104.3411   2.569951   0.3079911 
2815       104.4718   2.672309   0.3207715 
2815.2     108.4413   2.633201   0.2856252 
2815.4     109.1927   2.475375   0.2941455 
2815.6     105.8521   2.466396   0.3175764 
2815.8     108.2289   2.517874   0.306926  
2816       107.3305   2.51967    0.3016008 
2816.2     107.9594   2.374014   0.2376984 
2816.4     108.1636   2.424296   0.2504789 
2816.6     104.725    2.440856   0.2408935 
2816.8     100.535    2.455621   0.2451537 
2817       97.65176   2.463802   0.2387634 
2817.2     98.51754   2.522264   0.2568691 
2817.4     99.19545   2.612251   0.2845601 
2817.6     101.172    2.598284   0.2696496 
2817.8     95.19328   2.500515   0.228113  
2818       102.4707   2.506302   0.2291781 
2818.2     98.75439   2.423298   0.2376984 
2818.4     97.29238   2.406538   0.2206577 
2818.6     91.26461   2.485551   0.2078772 
2818.8     70.33895   2.546207   0.1929667 
2819       40.84538   2.644974   0.1961618 
2819.2     34.57258   2.534435   0.202552  
2819.4     34.55625   2.449236   0.2142675 
2819.6     37.93768   2.371022   0.2185276 
2819.8     34.80128   2.30837    0.1919016 
2820       30.73376   2.412922   0.2132024 
2820.2     31.54237   2.445246   0.2057472 
2820.4     34.92379   2.542017   0.2057472 
2820.6     31.64855   2.51987    0.1897715 
2820.8     32.62867   2.347877   0.202552  
2821       32.78386   2.345881   0.1642106 
2821.2     34.28671   2.458615   0.1418447 
2821.4     33.96817   2.442054   0.1439748 
2821.6     33.30659   2.490938   0.1375845 
2821.8     33.3556    2.551794   0.1450398 
2822       35.21783   2.492334   0.150365  
2822.2     34.84212   2.399355   0.1801862 
2822.4     37.90501   2.427688   0.1855114 
2822.6     38.01935   2.455422   0.201487  
2822.8     38.63193   2.497323   0.1812512 
2823       39.93876   2.428286   0.1855114 
2823.2     37.92134   2.403744   0.1663406 
2823.4     38.88513   2.404343   0.1620805 
2823.6     43.36103   2.512287   0.1663406 
2823.8     45.81951   2.546007   0.1855114 
2824       51.06318   2.495926   0.1982919 
2824.2     56.7969    2.474177   0.176991  
2824.4     57.20529   2.504306   0.174861  
2824.6     52.60687   2.549599   0.1950967 
2824.8     46.93848   2.609457   0.1961618 
2825       42.09504   2.567158   0.174861  
2825.2     38.15004   2.532839   0.150365  
2825.4     36.31231   2.502311   0.1365195 
2825.6     34.96463   2.487147   0.1311943 
2825.8     35.17699   2.560373   0.1386496 
2826       36.99022   2.602274   0.1248041 
2826.2     38.00302   2.581923   0.1162837 
2826.4     35.91209   2.516477   0.1365195 
2826.6     34.55625   2.577134   0.1684707 
2826.8     38.23171   2.50271    0.202552  
2827       38.46858   2.563765   0.2387634 
2827.2     40.59218   2.549599   0.2430236 
2827.4     41.83367   2.538026   0.2302431 
2827.6     40.73103   2.486748   0.2142675 
2827.8     40.64935   2.410528   0.2036171 
2828       42.69128   2.425493   0.1812512 
2828.2     43.22218   2.548402   0.1855114 
2828.4     42.76479   2.662532   0.1961618 
2828.6     41.32727   2.734361   0.2132024 
2828.8     42.08687   2.607861   0.1982919 
2829       41.30277   2.378005   0.1844463 
2829.2     42.0297    2.325729   0.1897715 
2829.4     42.11137   2.376409   0.2036171 
2829.6     39.10566   2.44804    0.1908366 
2829.8     40.36348   2.451232   0.1865764 
2830       41.23743   2.472382   0.1940317 
2830.2     40.21646   2.525656   0.202552  
2830.4     39.45687   2.467992   0.2121374 
