~Version
 VERS              .         2.0                           : CWLS LOG ASCII STANDARD - VERSION 2.0
 WRAP              .         NO                            : ONE LINE PER DEPTH STEP
 DLM               .         SPACE                         : DELIMITING CHARACTER(SPACE TAB OR COMMA)
~Well Information
#_______________________________________________________________________________
#
#PARAMETER_NAME    .UNIT     VALUE                         : DESCRIPTION
#_______________________________________________________________________________
STRT               .m        2685                          : First reference value
STOP               .m        2884.8                        : Last reference value
STEP               .m        0.2                           : Step increment
NULL               .         -9999                         : Missing value
COMP               .                                       : Company
WELL               .         306                           : Well name
FLD                .                                       : Field
LOC                .                                       : Location
CNTY               .                                       : County
STAT               .                                       : State
CTRY               .                                       : Country
SRVC               .                                       : Service Company
DATE               .                                       : Date
API                .                                       : API number
Cartographic_reference_system .         GCS_WGS_1984                  : GEOGCS["GCS_WGS_1984",DATUM["D_WGS_1984",SPHEROID["WGS_1984",6378137.0,298.257223563]],PRIMEM["Greenwich",0.0],UNIT["Degree",0.0174532925199433],AUTHORITY["EPSG",4326]]
EREF               .m        138.34                        : 
HZCS               .GCS_WGS_1984 World_Mercator                : PROJCS["World_Mercator",GEOGCS["GCS_WGS_1984",DATUM["D_WGS_1984",SPHEROID["WGS_1984",6378137.0,298.257223563]],PRIMEM["Greenwich",0.0],UNIT["Degree",0.0174532925199433]],PROJECTION["Mercator"],PARAMETER["False_Easting",0.0],PARAMETER["False_Northing",0.0],PARAMETER["Central_Meridian",0.0],PARAMETER["Standard_Parallel_1",0.0],UNIT["Meter",1.0],AUTHORITY["ESRI",54004]]
LATI               .dega     2.2598774867                  : GCS_WGS_1984
LONG               .dega     1.9740478369                  : GCS_WGS_1984
PROJECT_UPGRADE_TIME .         2014-05-27T11_38_46           : 
Pad                .         Pad3                          : 
X                  .m        219750                        : 
Y                  .m        249950                        : 
group              .         Pad3                          : 
Интер-р            .         Ярышев                        : 
Куст               .         3                             : 
Статус             .         Не проверено                  : 
Тип                .         Разведка                      : 
~Parameter Information Block
#_______________________________________________________________________________
#
#PARAMETER_NAME    .UNIT     VALUE                         : DESCRIPTION
#_______________________________________________________________________________
SET                .         LQC                           : 
PROJECT_UPGRADE_TIME .         2014-05-27T11_38_46           : 
TLFamily_GR_NORM   .         Gamma Ray                     : 
TLFamily_MD        .         Measured Depth                : 
TLFamily_RHOB_NORM .         Bulk Density                  : 
TLFamily_TNPH_NORM .         Neutron Porosity              : 
~Curve Information
#_______________________________________________________________________________
#
#LOGNAME           .UNIT     LOG_ID                        : DESCRIPTION
#_______________________________________________________________________________
MD                 .m                                      :  
GR_NORM            .gAPI                                   : Normalised By Techlog 
RHOB_NORM          .g/cm3                                  : Normalized By Techlog 
TNPH_NORM          .v/v                                    : Normalised By Techlog 
~Ascii
# ...
2830.6     40.57584   2.491337   0.1919016 
2830.8     44.79855   2.563566   0.1908366 
2831       45.28044   2.616641   0.228113  
2831.2     42.04603   2.357853   0.2451537 
2831.4     40.80454   2.460809   0.2589992 
2831.6     38.59926   2.587709   0.2696496 
2831.8     40.55134   2.607661   0.2366333 
2832       45.12526   2.5069     0.2419585 
2832.2     49.9687    2.536829   0.252609  
2832.4     55.89029   2.499119   0.2408935 
2832.6     56.06998   2.486947   0.2355683 
2832.8     52.77023   2.474177   0.2227878 
2833       53.55433   2.406737   0.2121374 
2833.2     51.22653   2.393169   0.2195927 
2833.4     53.79936   2.567158   0.252609  
2833.6     55.78411   2.640783   0.2302431 
2833.8     56.15982   2.579329   0.2291781 
2834       59.92514   2.600678   0.2110724 
2834.2     69.32616   2.657344   0.1982919 
2834.4     75.76231   2.668119   0.1844463 
2834.6     74.93738   2.537228   0.1961618 
2834.8     78.5965    2.533238   0.2174626 
2835       78.75169   2.631804   0.2259829 
2835.2     73.5407    2.489741   0.2057472 
2835.4     63.12688   2.453426   0.2163976 
2835.6     49.1601    2.468192   0.2195927 
2835.8     41.63765   2.586312   0.2078772 
2836       42.62594   2.623025   0.2057472 
2836.2     49.80535   2.500914   0.227048  
2836.4     65.17696   2.294802   0.2504789 
2836.6     76.49741   2.229557   0.2866902 
2836.8     78.17178   2.226563   0.2621943 
2837       77.73073   2.367829   0.1993569 
2837.2     75.77048   2.516477   0.1929667 
2837.4     73.29567   2.43507    0.2142675 
2837.6     75.27225   2.314955   0.227048  
2837.8     73.89191   2.342689   0.2195927 
2838       68.77076   2.298194   0.2440886 
2838.2     65.48734   2.412124   0.2515439 
2838.4     63.3474    2.478966   0.2504789 
2838.6     67.28423   2.438063   0.2259829 
2838.8     72.70759   2.55339    0.2163976 
2839       73.41001   2.500715   0.2632594 
2839.2     68.56656   2.500715   0.2664545 
2839.4     65.83038   2.49852    0.2462187 
2839.6     68.48489   2.571547   0.253674  
2839.8     71.79281   2.558777   0.2749748 
2840       70.01225   2.488344   0.2675195 
2840.2     62.3101    2.436068   0.2366333 
2840.4     59.47591   2.412922   0.2376984 
2840.6     56.42119   2.526653   0.2249179 
2840.8     53.70951   2.638189   0.2185276 
2841       51.55324   2.555585   0.2100073 
2841.2     55.56358   2.520867   0.2408935 
2841.4     63.11054   2.544212   0.2834951 
2841.6     64.22952   2.585115   0.2824301 
2841.8     77.98393   2.511689   0.3165114 
2842       79.68281   2.385986   0.3463325 
2842.2     80.95697   2.467992   0.359113  
2842.4     82.86822   2.486947   0.3026659 
2842.6     83.08875   2.435868   0.253674  
2842.8     74.28396   2.437265   0.2302431 
2843       72.19302   2.550197   0.2345033 
2843.2     78.75169   2.590502   0.2185276 
2843.4     84.07703   2.493931   0.2643244 
2843.6     82.39449   2.406538   0.2973407 
2843.8     71.98884   2.393967   0.2749748 
2844       61.2483    2.511689   0.2685845 
2844.2     58.97768   2.504905   0.2419585 
2844.4     52.3455    2.453825   0.2376984 
2844.6     51.21836   2.602873   0.2600642 
2844.8     51.05501   2.551195   0.2419585 
2845       57.3033    2.508297   0.2153325 
2845.2     63.15955   2.385587   0.2195927 
2845.4     74.5535    2.387582   0.2440886 
2845.6     77.19167   2.510492   0.2845601 
2845.8     78.78436   2.567756   0.2685845 
2846       81.41436   2.512686   0.2707146 
2846.2     82.13312   2.466795   0.254739  
2846.4     84.70595   2.417312   0.2366333 
2846.6     83.12958   2.409132   0.2739097 
2846.8     85.31036   2.362043   0.3101211 
2847       86.30682   2.386385   0.2909504 
2847.2     92.49794   2.303781   0.3303569 
2847.4     94.04163   2.415516   0.3165114 
2847.6     95.54449   2.49413    0.2866902 
2847.8     88.12822   2.508895   0.2941455 
2848       86.02094   2.504506   0.2930805 
2848.2     86.6662    2.437265   0.2792349 
2848.4     77.28967   2.323135   0.3143813 
2848.6     64.70324   2.293804   0.3708284 
2848.8     45.80317   2.073725   0.4176902 
2849       27.70354   1.238103   0.4453813 
2849.2     23.52985   0.6650593  0.5018284 
2849.4     19.09478   0.7516543  0.4315358 
2849.6     16.93851   0.8376507  0.464552  
2849.8     20.94885   0.7376874  0.4262106 
2850       30.64392   0.7145422  0.4070399 
2850.2     46.92215   0.8861359  0.3633732 
2850.4     58.43861   1.165275   0.3740236 
2850.6     66.61449   1.571115   0.3910643 
2850.8     70.61666   2.259485   0.3697634 
2851       67.0147    2.466795   0.3197065 
2851.2     62.46529   2.447441   0.3154463 
2851.4     61.82821   2.481959   0.3079911 
2851.6     53.3093    2.357853   0.2930805 
2851.8     52.92542   2.311762   0.3122512 
2852       61.95073   2.051578   0.2962756 
2852.2     76.79961   1.883575   0.3399423 
2852.4     82.45167   2.080509   0.3633732 
2852.6     87.43396   2.350869   0.3207715 
2852.8     86.42117   2.428885   0.2771049 
2853       87.08275   2.501513   0.2856252 
2853.2     83.48896   2.566559   0.2685845 
2853.4     81.47971   2.43507    0.2621943 
2853.6     79.65014   2.513484   0.228113  
2853.8     71.7438    2.535831   0.227048  
2854       60.80725   2.512088   0.1897715 
2854.2     55.01635   2.581124   0.1972268 
2854.4     48.26165   2.587909   0.1737959 
2854.6     45.96653   2.68448    0.1695358 
2854.8     44.86389   2.711815   0.1695358 
2855       45.50914   2.556782   0.1397146 
2855.2     42.94448   2.469987   0.1514301 
2855.4     38.96681   2.356456   0.1439748 
2855.6     38.32156   2.609258   0.1088284 
2855.8     39.01582   2.687872   0.09072275
2856       41.24559   2.713411   0.08965772
2856.2     45.06808   2.672707   0.1066984 
2856.4     48.62104   2.691264   0.1258691 
2856.6     57.21346   2.618037   0.1546252 
2856.8     69.97958   2.523261   0.2089423 
2857       77.55104   2.639985   0.2323732 
2857.2     78.77619   2.568155   0.2185276 
2857.4     82.2638    2.432077   0.2089423 
2857.6     89.52489   2.288816   0.2291781 
2857.8     91.673     2.355858   0.2515439 
2858       87.1971    2.38858    0.2643244 
2858.2     85.6289    2.39736    0.2398285 
2858.4     87.49113   2.34229    0.2259829 
2858.6     69.10563   2.419108   0.228113  
2858.8     50.31992   2.468791   0.2249179 
2859       51.96162   2.516278   0.2100073 
2859.2     65.73238   2.504506   0.2195927 
2859.4     77.05281   2.413521   0.2504789 
2859.6     76.05635   2.445645   0.2685845 
2859.8     67.74162   2.503907   0.2760398 
2860       65.46284   2.556582   0.2483488 
2860.2     59.19004   2.57853    0.2387634 
2860.4     57.22979   2.570749   0.2430236 
2860.6     54.32209   2.390376   0.227048  
2860.8     52.72939   2.479565   0.2142675 
2861       52.08414   2.514482   0.2302431 
2861.2     55.56358   2.477968   0.252609  
2861.4     57.33597   2.543015   0.227048  
2861.6     54.42827   2.48994    0.2376984 
2861.8     55.18787   2.465199   0.2355683 
2862       54.01989   2.639785   0.2291781 
2862.2     53.93821   2.691264   0.2323732 
2862.4     57.15628   2.489541   0.2100073 
2862.6     59.53308   2.375012   0.1982919 
2862.8     62.34277   2.458814   0.2195927 
2863       57.03377   2.691264   0.2621943 
2863.2     52.14131   2.632602   0.281365  
2863.4     56.11082   2.422101   0.2472837 
2863.6     61.14212   2.437265   0.2142675 
2863.8     61.67302   2.526055   0.201487  
2864       55.1797    2.572944   0.2163976 
2864.2     52.49253   2.492933   0.2366333 
2864.4     50.94883   2.349672   0.2153325 
2864.6     52.95808   2.461807   0.1823163 
2864.8     53.587     2.514682   0.1982919 
2865       56.87042   2.379402   0.1865764 
2865.2     61.04411   2.412124   0.2004219 
2865.4     61.32181   2.413721   0.2046821 
2865.6     65.80589   2.432676   0.2323732 
2865.8     74.42281   2.453825   0.2685845 
2866       76.44023   2.592697   0.2430236 
2866.2     77.73889   2.59569    0.2302431 
2866.4     77.4612    2.549001   0.2355683 
2866.6     73.7449    2.534235   0.2238528 
2866.8     60.96243   2.616042   0.228113  
