~Version
 VERS              .         2.0                           : CWLS LOG ASCII STANDARD - VERSION 2.0
 WRAP              .         NO                            : ONE LINE PER DEPTH STEP
 DLM               .         SPACE                         : DELIMITING CHARACTER(SPACE TAB OR COMMA)
~Well Information
#_______________________________________________________________________________
#
#PARAMETER_NAME    .UNIT     VALUE                         : DESCRIPTION
#_______________________________________________________________________________
STRT               .m        2685                          : First reference value
STOP               .m        2884.8                        : Last reference value
STEP               .m        0.2                           : Step increment
NULL               .         -9999                         : Missing value
COMP               .                                       : Company
WELL               .         306                           : Well name
FLD                .                                       : Field
LOC                .                                       : Location
CNTY               .                                       : County
STAT               .                                       : State
CTRY               .                                       : Country
SRVC               .                                       : Service Company
DATE               .                                       : Date
API                .                                       : API number
Cartographic_reference_system .         GCS_WGS_1984                  : GEOGCS["GCS_WGS_1984",DATUM["D_WGS_1984",SPHEROID["WGS_1984",6378137.0,298.257223563]],PRIMEM["Greenwich",0.0],UNIT["Degree",0.0174532925199433],AUTHORITY["EPSG",4326]]
EREF               .m        138.34                        : 
HZCS               .GCS_WGS_1984 World_Mercator                : PROJCS["World_Mercator",GEOGCS["GCS_WGS_1984",DATUM["D_WGS_1984",SPHEROID["WGS_1984",6378137.0,298.257223563]],PRIMEM["Greenwich",0.0],UNIT["Degree",0.0174532925199433]],PROJECTION["Mercator"],PARAMETER["False_Easting",0.0],PARAMETER["False_Northing",0.0],PARAMETER["Central_Meridian",0.0],PARAMETER["Standard_Parallel_1",0.0],UNIT["Meter",1.0],AUTHORITY["ESRI",54004]]
LATI               .dega     2.2598774867                  : GCS_WGS_1984
LONG               .dega     1.9740478369                  : GCS_WGS_1984
PROJECT_UPGRADE_TIME .         2014-05-27T11_38_46           : 
Pad                .         Pad3                          : 
X                  .m        219750                        : 
Y                  .m        249950                        : 
group              .         Pad3                          : 
Интер-р            .         Ярышев                        : 
Куст               .         3                             : 
Статус             .         Не проверено                  : 
Тип                .         Разведка                      : 
~Parameter Information Block
#_______________________________________________________________________________
#
#PARAMETER_NAME    .UNIT     VALUE                         : DESCRIPTION
#_______________________________________________________________________________
SET                .         LQC                           : 
PROJECT_UPGRADE_TIME .         2014-05-27T11_38_46           : 
TLFamily_GR_NORM   .         Gamma Ray                     : 
TLFamily_MD        .         Measured Depth                : 
TLFamily_RHOB_NORM .         Bulk Density                  : 
TLFamily_TNPH_NORM .         Neutron Porosity              : 
~Curve Information
#_______________________________________________________________________________
#
#LOGNAME           .UNIT     LOG_ID                        : DESCRIPTION
#_______________________________________________________________________________
MD                 .m                                      :  
GR_NORM            .gAPI                                   : Normalised By Techlog 
RHOB_NORM          .g/cm3                                  : Normalized By Techlog 
TNPH_NORM          .v/v                                    : Normalised By Techlog 
~Ascii
# ...
2757.8     46.69345   2.533238   0.1706008 
2758       48.09013   2.654551   0.1674057 
2758.2     53.87286   2.687073   0.1801862 
2758.4     59.42691   2.590303   0.2057472 
2758.6     63.16772   2.489741   0.2398285 
2758.8     65.96107   2.551395   0.2504789 
2759       69.93057   2.543015   0.2483488 
2759.2     74.56166   2.4225     0.2291781 
2759.4     84.20772   2.378005   0.2408935 
2759.6     90.0803    2.315553   0.2600642 
2759.8     86.55185   2.427488   0.2568691 
2760       80.9733    2.477769   0.2653894 
2760.2     74.64334   2.467194   0.2302431 
2760.4     75.28858   2.531841   0.2206577 
2760.6     86.33132   2.486947   0.2408935 
2760.8     85.42471   2.407336   0.254739  
2761       67.60278   2.49413    0.2472837 
2761.2     55.26955   2.543015   0.2068122 
2761.4     52.81107   2.606066   0.1919016 
2761.6     53.77486   2.490938   0.1897715 
2761.8     54.27308   2.442253   0.2163976 
2762       57.45032   2.531242   0.2302431 
2762.2     62.89001   2.575937   0.2355683 
2762.4     73.7449    2.434072   0.2408935 
2762.6     75.34576   2.331515   0.2334382 
2762.8     75.82765   2.459213   0.2174626 
2763       83.74216   2.467194   0.2313081 
2763.2     90.20281   2.483156   0.2462187 
2763.4     93.07784   2.622826   0.2792349 
2763.6     96.46744   2.588706   0.2888203 
2763.8     98.32967   2.408134   0.2771049 
2764       102.585    2.365036   0.2664545 
2764.2     99.0566    2.506102   0.2472837 
2764.4     104.4881   2.549001   0.2664545 
2764.6     108.4985   2.511689   0.2621943 
2764.8     109.1274   2.557181   0.253674  
2765       97.6681    2.604868   0.2664545 
2765.2     93.48623   2.636394   0.2749748 
2765.4     95.43831   2.616042   0.2717797 
2765.6     99.83253   2.559974   0.2685845 
2765.8     99.46499   2.548202   0.2781699 
2766       102.6667   2.512287   0.2834951 
2766.2     112.0024   2.382395   0.3111862 
2766.4     121.8445   2.360048   0.3154463 
2766.6     129.0076   2.433075   0.3282268 
2766.8     131.1393   2.416115   0.3420724 
2767       125.4791   2.468791   0.3154463 
2767.2     117.875    2.511489   0.3175764 
2767.4     113.0724   2.536231   0.332487  
2767.6     112.6885   2.565561   0.3079911 
2767.8     101.7846   2.503508   0.2515439 
2768       91.96704   2.430282   0.2398285 
2768.2     96.38577   2.44784    0.2643244 
2768.4     95.8222    2.480363   0.2632594 
2768.6     94.20499   2.511689   0.2685845 
2768.8     95.47915   2.536829   0.2600642 
2769       95.16877   2.581124   0.2579342 
2769.2     96.83499   2.68867    0.2760398 
2769.4     109.013    2.550197   0.2664545 
2769.6     125.1933   2.487546   0.2781699 
2769.8     147.9076   2.418908   0.2792349 
2770       171.8308   2.36304    0.2856252 
2770.2     177.3114   2.527451   0.306926  
2770.4     156.2714   2.549599   0.2611293 
2770.6     138.2616   2.497722   0.2643244 
2770.8     144.2485   2.48595    0.2781699 
2771       144.42     2.459412   0.2930805 
2771.2     134.6841   2.499119   0.3346171 
2771.4     158.2071   2.489541   0.3495277 
2771.6     187.864    2.38858    0.333552  
2771.8     185.1769   2.321738   0.3388772 
2772       180.603    2.291211   0.305861  
2772.2     174.7059   2.449835   0.2685845 
2772.4     173.1458   2.509694   0.3016008 
2772.6     161.6294   2.542616   0.2962756 
2772.8     157.4557   2.48156    0.2898854 
2773       167.2488   2.438063   0.3037309 
2773.2     175.2531   2.381796   0.3037309 
2773.4     182.6367   2.416115   0.2717797 
2773.6     196.579    2.454025   0.2888203 
2773.8     198.5964   2.495327   0.2994707 
2774       203.9708   2.611253   0.2952106 
2774.2     199.9441   2.501713   0.2866902 
2774.4     187.8314   2.402746   0.3165114 
2774.6     177.4339   2.36324    0.3420724 
2774.8     171.79     2.415117   0.3165114 
2775       164.2757   2.499318   0.3218366 
2775.2     149.239    2.464401   0.2930805 
2775.4     139.0702   2.513484   0.2462187 
2775.6     139.7971   2.546207   0.2760398 
2775.8     146.4048   2.465598   0.3239667 
2776       155.2014   2.552991   0.3292919 
2776.2     165.0108   2.533637   0.3452675 
2776.4     187.717    2.294802   0.3516577 
2776.6     206.0699   2.267666   0.3516577 
2776.8     209.6555   2.367031   0.3516577 
2777       224.0551   2.403944   0.3644382 
2777.2     252.9933   2.368029   0.3697634 
2777.4     284.1041   2.442054   0.3367472 
2777.6     284.6758   2.419707   0.3143813 
2777.8     273.8128   2.362043   0.305861  
2778       277.0635   2.260882   0.2952106 
2778.2     289.6745   2.382395   0.3079911 
2778.4     296.1678   2.47318    0.333552  
2778.6     298.2179   2.252901   0.3484626 
2778.8     300.0393   2.216188   0.3356821 
2779       319.8868   2.205015   0.3133163 
2779.2     320.0747   2.148349   0.3431374 
2779.4     316.1624   2.231153   0.3910643 
2779.6     305.2666   2.346879   0.3921293 
2779.8     288.3431   2.360646   0.3207715 
2780       279.8651   2.326926   0.3218366 
2780.2     258.7516   2.310165   0.3761536 
2780.4     239.7453   2.378803   0.3111862 
2780.6     246.304    2.452828   0.2888203 
2780.8     257.1588   2.411526   0.3239667 
2781       266.4455   2.353662   0.3633732 
2781.2     275.5035   2.338299   0.4400561 
2781.4     285.754    2.251704   0.4059748 
2781.6     284.8719   2.170297   0.3686984 
2781.8     285.3293   2.20282    0.3644382 
2782       281.1964   2.244122   0.3250317 
2782.2     271.8444   2.263676   0.3527228 
2782.4     251.5721   2.31256    0.3740236 
2782.6     244.5479   2.180473   0.3868041 
2782.8     244.2375   2.100662   0.463487  
2783       243.1757   2.256892   0.4262106 
2783.2     237.9076   2.273852   0.3963895 
2783.4     246.2141   2.251106   0.3612431 
2783.6     241.3625   2.1689     0.3665683 
2783.8     223.418    2.095074   0.4017147 
2784       201.692    2.109441   0.384674  
2784.2     185.8793   2.121811   0.3527228 
2784.4     185.4627   2.219779   0.3111862 
2784.6     186.8431   2.22377    0.3197065 
2784.8     184.3274   2.213195   0.3601781 
2785       177.1644   2.238934   0.3410073 
2785.2     168.7761   2.347877   0.2984057 
2785.4     172.2719   2.420106   0.2888203 
2785.6     160.1102   2.379003   0.3303569 
2785.8     140.0013   2.3381     0.3793488 
2786       130.5431   2.31236    0.3676333 
2786.2     121.8935   2.441056   0.3356821 
2786.4     116.5273   2.446643   0.3303569 
2786.6     121.1339   2.349672   0.3431374 
2786.8     122.5633   2.408333   0.2898854 
2787       130.4859   2.32513    0.2994707 
2787.2     135.9501   2.279039   0.3133163 
2787.4     132.0133   2.351268   0.2653894 
2787.6     137.1753   2.36743    0.3250317 
2787.8     141.1203   2.357254   0.3143813 
2788       135.7214   2.273852   0.2909504 
2788.2     126.2305   2.369226   0.2856252 
2788.4     105.8848   2.467992   0.3037309 
2788.6     104.4473   2.475774   0.3037309 
2788.8     101.172    2.429284   0.3175764 
2789       101.5968   2.41412    0.3197065 
2789.2     96.59812   2.398556   0.304796  
2789.4     94.16415   2.49413    0.2856252 
2789.6     94.94008   2.523062   0.2739097 
2789.8     100.0122   2.454624   0.3250317 
2790       96.13256   2.402547   0.3495277 
2790.2     92.87366   2.542217   0.2994707 
2790.4     91.74651   2.439859   0.2632594 
2790.6     100.0776   2.482957   0.2739097 
2790.8     99.35064   2.622227   0.2717797 
2791       97.1617    2.412723   0.2611293 
2791.2     97.86412   2.219979   0.2696496 
2791.4     102.2992   2.37581    0.2994707 
2791.6     108.523    2.454624   0.2707146 
2791.8     109.5848   2.390376   0.2962756 
2792       107.5592   2.369625   0.3175764 
2792.2     102.2992   2.285025   0.3079911 
2792.4     103.9327   2.349672   0.3346171 
2792.6     107.5837   2.432277   0.3175764 
2792.8     111.8472   2.327325   0.2994707 
2793       111.5695   2.249709   0.2984057 
2793.2     110.2219   2.279239   0.333552  
2793.4     106.8323   2.251704   0.3505927 
2793.6     102.4462   2.2535     0.3931943 
2793.8     104.8802   2.383991   0.3612431 
2794       99.45683   2.352067   0.3282268 
