~Version
 VERS              .         2.0                           : CWLS LOG ASCII STANDARD - VERSION 2.0
 WRAP              .         NO                            : ONE LINE PER DEPTH STEP
 DLM               .         SPACE                         : DELIMITING CHARACTER(SPACE TAB OR COMMA)
~Well Information
#_______________________________________________________________________________
#
#PARAMETER_NAME    .UNIT     VALUE                         : DESCRIPTION
#_______________________________________________________________________________
STRT               .m        2622                          : First reference value
STOP               .m        2791.800085                   : Last reference value
STEP               .m        0.2000001                     : Step increment
NULL               .         -9999                         : Missing value
COMP               .                                       : Company
WELL               .         307                           : Well name
FLD                .                                       : Field
LOC                .                                       : Location
CNTY               .                                       : County
STAT               .                                       : State
CTRY               .                                       : Country
SRVC               .                                       : Service Company
DATE               .                                       : Date
API                .                                       : API number
Cartographic_reference_system .         GCS_WGS_1984                  : GEOGCS["GCS_WGS_1984",DATUM["D_WGS_1984",SPHEROID["WGS_1984",6378137.0,298.257223563]],PRIMEM["Greenwich",0.0],UNIT["Degree",0.0174532925199433],AUTHORITY["EPSG",4326]]
EREF               .m        138.34                        : 
HZCS               .GCS_WGS_1984 World_Mercator                : PROJCS["World_Mercator",GEOGCS["GCS_WGS_1984",DATUM["D_WGS_1984",SPHEROID["WGS_1984",6378137.0,298.257223563]],PRIMEM["Greenwich",0.0],UNIT["Degree",0.0174532925199433]],PROJECTION["Mercator"],PARAMETER["False_Easting",0.0],PARAMETER["False_Northing",0.0],PARAMETER["Central_Meridian",0.0],PARAMETER["Standard_Parallel_1",0.0],UNIT["Meter",1.0],AUTHORITY["ESRI",54004]]
LATI               .dega     2.2598774867                  : GCS_WGS_1984
LONG               .dega     1.9740478369                  : GCS_WGS_1984
PROJECT_UPGRADE_TIME .         2014-05-27T11_38_46           : 
Pad                .         Pad3                          : 
X                  .m        219750                        : 
Y                  .m        249950                        : 
group              .         Pad3                          : 
Интер-р            .         Старостина                    : 
Куст               .         3                             : 
Статус             .         Не проверено                  : 
Тип                .         Разведка                      : 
~Parameter Information Block
#_______________________________________________________________________________
#
#PARAMETER_NAME    .UNIT     VALUE                         : DESCRIPTION
#_______________________________________________________________________________
SET                .         LQC                           : 
PROJECT_UPGRADE_TIME .         2014-05-27T11_38_46           : 
TLFamily_GR_NORM   .         Gamma Ray                     : 
TLFamily_MD        .         Measured Depth                : 
TLFamily_RHOB_NORM .         Bulk Density                  : 
TLFamily_TNPH_NORM .         Neutron Porosity              : 
~Curve Information
#_______________________________________________________________________________
#
#LOGNAME           .UNIT     LOG_ID                        : DESCRIPTION
#_______________________________________________________________________________
MD                 .m                                      :  
GR_NORM            .gAPI                                   : Normalised By Techlog 
RHOB_NORM          .g/cm3                                  : Normalized By Techlog 
TNPH_NORM          .v/v                                    : Normalised By Techlog 
~Ascii
# ...
2729.400054 37.743     2.474293   0.2244571 
2729.600054 36.93687   2.456739   0.2244571 
2729.800054 37.2799    2.453739   0.2161281 
2730.000054 38.34331   2.445183   0.2149382 
2730.200054 36.61098   2.486024   0.2208875 
2730.400054 35.60761   2.504107   0.2232672 
2730.600054 38.34331   2.545831   0.2161281 
2730.800054 39.58681   2.601491   0.2113686 
2731.000054 40.77028   2.575117   0.2101787 
2731.200055 41.14761   2.511958   0.2101787 
2731.400055 42.93997   2.470058   0.2101787 
2731.600055 44.57795   2.477733   0.2196976 
2731.800055 45.13539   2.504107   0.2232672 
2732.000055 46.36174   2.480996   0.2185078 
2732.200055 47.45087   2.461414   0.2161281 
2732.400055 47.00492   2.417926   0.2173179 
2732.600055 46.17306   2.406636   0.2292165 
2732.800055 47.49375   2.448182   0.2327861 
2733.000056 47.87108   2.486907   0.2292165 
2733.200056 49.20035   2.516545   0.2399253 
2733.400056 51.53297   2.522455   0.2458746 
2733.600056 55.39212   2.515928   0.2363557 
2733.800056 60.34038   2.604932   0.2494442 
2734.000056 68.23875   2.696141   0.2565834 
2734.200056 75.06513   2.669237   0.2553935 
2734.400056 78.04095   2.641274   0.2625327 
2734.600056 77.54355   2.611459   0.2744313 
2734.800056 71.73769   2.542832   0.2672921 
2735.000057 60.40041   2.527836   0.2494442 
2735.200057 48.29131   2.441478   0.2351658 
2735.400057 43.48025   2.445536   0.2220774 
2735.600057 47.15071   2.527571   0.2185078 
2735.800057 59.50852   2.610312   0.2482543 
2736.000057 77.59501   2.573088   0.2958488 
2736.200057 86.45387   2.507989   0.3351143 
2736.400057 82.32888   2.397285   0.3434433 
2736.600057 75.74261   2.379026   0.3184562 
2736.800057 80.98247   2.383965   0.302988  
2737.000057 92.13966   2.318425   0.3006083 
2737.200058 91.71944   2.405842   0.2827604 
2737.400058 82.10591   2.532952   0.2589631 
2737.600058 69.97964   2.550418   0.233976  
2737.800058 58.15354   2.564443   0.2304064 
2738.000058 51.12991   2.561709   0.2173179 
2738.200058 47.95684   2.618428   0.2030396 
2738.400058 47.74245   2.600609   0.2018497 
2738.600058 48.41137   2.562679   0.1947105 
2738.800058 50.38381   2.552799   0.1935207 
2739.000058 53.05948   2.561356   0.2006598 
2739.200059 55.43499   2.493434   0.2066091 
2739.400059 58.03348   2.46997    0.2256469 
2739.600059 63.0675    2.431775   0.2494442 
2739.800059 69.51655   2.41872    0.2875198 
2740.000059 75.06513   2.439714   0.3148866 
2740.200059 76.36866   2.470323   0.3053677 
2740.400059 76.72885   2.499697   0.2827604 
2740.600059 79.94479   2.516898   0.2672921 
2740.800059 80.53652   2.4069     0.2732414 
2741.00006 81.96012   2.308369   0.28514   
2741.20006 83.10928   2.2842     0.2744313 
2741.40006 79.89333   2.465295   0.2553935 
2741.60006 77.32058   2.540538   0.2399253 
2741.80006 77.73222   2.563561   0.2518239 
2742.00006 81.83147   2.57891    0.2696719 
2742.20006 86.92554   2.582967   0.28514   
2742.40006 89.40396   2.586584   0.2958488 
2742.60006 83.47804   2.534805   0.2815705 
2742.80006 71.12023   2.525543   0.2649124 
2743.000061 61.34375   2.52616    0.2601529 
2743.200061 57.69044   2.55227    0.242305  
2743.400061 57.15017   2.582438   0.2244571 
2743.600061 59.60286   2.552094   0.2292165 
2743.800061 63.13611   2.559592   0.2434949 
2744.000061 65.92326   2.603609   0.2494442 
2744.200061 68.74472   2.586584   0.2494442 
2744.400061 72.62959   2.612341   0.2637225 
2744.600061 78.85566   2.608813   0.2744313 
2744.800061 86.0508    2.541332   0.2780009 
2745.000061 91.06768   2.569383   0.28514   
2745.200062 91.78805   2.549977   0.2934691 
2745.400062 94.5752    2.55377    0.2982285 
2745.600062 97.07936   2.496874   0.2970387 
2745.800062 94.52375   2.492287   0.294659  
2746.000062 94.2922    2.500491   0.3065576 
2746.200062 92.75712   2.4675     0.3232156 
2746.400062 87.49155   2.387847   0.3244055 
2746.600062 82.89489   2.301048   0.3220258 
2746.800062 80.21065   2.214602   0.3244055 
2747.000062 77.99807   2.111573   0.3386839 
2747.200063 71.5576    2.01313    0.3434433 
2747.400063 57.8105    1.918481   0.3589115 
2747.600063 36.0021    1.79728    0.3910378 
2747.800063 16.40627   1.742061   0.4659991 
2748.000063 8.816631   1.707659   0.518353  
2748.200063 5.514927   1.708717   0.4790876 
2748.400063 3.370963   1.716039   0.4767079 
2748.600063 5.935144   1.714715   0.5005051 
2748.800063 13.30181   1.724066   0.5005051 
2749.000064 25.47952   1.744442   0.467189  
2749.200064 41.91087   1.773022   0.432683  
2749.400064 57.98203   1.857969   0.4017466 
2749.600064 70.05683   1.978816   0.3648608 
2749.800064 81.91724   2.251297   0.3303548 
2750.000064 88.13474   2.523955   0.3125069 
2750.200064 87.38006   2.515134   0.3136967 
2750.400064 82.41464   2.415633   0.3255954 
2750.600064 76.47157   2.292844   0.3541521 
2750.800064 72.64674   2.172349   0.3886581 
2751.000065 73.65012   2.129568   0.380329  
2751.200065 78.8042    2.182405   0.3244055 
2751.400065 82.61189   2.498903   0.2827604 
2751.600065 82.92062   2.573617   0.2577732 
2751.800065 80.03055   2.616928   0.2446847 
2752.000065 76.08566   2.570441   0.2470645 
2752.200065 70.51134   2.606078   0.2625327 
2752.400065 68.93339   2.622662   0.2637225 
2752.600065 72.68105   2.590024   0.2565834 
2752.800065 73.77017   2.596023   0.2577732 
2753.000065 71.24888   2.58676    0.2553935 
2753.200066 71.29176   2.536745   0.2482543 
2753.400066 78.22962   2.571059   0.2434949 
2753.600066 86.07653   2.567795   0.2399253 
2753.800066 82.87774   2.580674   0.250634  
2754.000066 74.18182   2.51875    0.2518239 
2754.200066 67.53552   2.496169   0.2375456 
2754.400066 64.11375   2.574852   0.242305  
2754.600066 66.19769   2.631924   0.2458746 
2754.800066 69.11348   2.60405    0.242305  
2755.000066 69.60231   2.583761   0.2470645 
2755.200067 69.30215   2.571059   0.2553935 
2755.400067 72.32943   2.535157   0.2637225 
2755.600067 79.5503    2.524308   0.2589631 
2755.800067 83.26365   2.507459   0.250634  
2756.000067 80.90529   2.486201   0.242305  
2756.200067 78.69272   2.477821   0.2375456 
2756.400067 77.99807   2.470852   0.2482543 
2756.600067 79.66179   2.338802   0.2756211 
2756.800067 81.51418   2.388817   0.2744313 
2757.000068 82.19167   2.42216    0.2613428 
2757.200068 83.59811   2.437068   0.2577732 
2757.400068 80.46792   2.434422   0.2565834 
2757.600068 68.62466   2.397638   0.2363557 
2757.800068 56.91861   2.450035   0.2196976 
2758.000068 51.66161   2.451093   0.2256469 
2758.200068 54.44876   2.428776   0.2315963 
2758.400068 60.88066   2.423748   0.2351658 
2758.600068 65.83751   2.407606   0.2565834 
2758.800068 70.05683   2.372674   0.2803806 
2759.000068 69.02773   2.388023   0.2922792 
2759.200069 67.86141   2.357061   0.2791907 
2759.400069 67.93859   2.333156   0.2518239 
2759.600069 72.04642   2.4675     0.2399253 
2759.800069 79.97051   2.569118   0.2577732 
2760.000069 80.40789   2.608019   0.2672921 
2760.200069 75.75977   2.616223   0.2625327 
2760.400069 67.0467    2.649213   0.2458746 
2760.600069 54.96332   2.634835   0.2304064 
2760.800069 49.69774   2.550682   0.2113686 
2761.000069 50.59821   2.503578   0.2030396 
2761.20007 50.10939   2.465207   0.1959004 
2761.40007 48.08548   2.443684   0.2030396 
2761.60007 45.2726    2.403813   0.2113686 
2761.80007 43.21439   2.397373   0.2089889 
2762.00007 45.2726    2.422337   0.1982801 
2762.20007 49.05455   2.475263   0.2042294 
2762.40007 52.74218   2.5311     0.2161281 
2762.60007 56.16394   2.538598   0.2101787 
2762.80007 60.91497   2.588701   0.2089889 
2763.000071 65.97472   2.550418   0.2208875 
2763.200071 70.28838   2.503578   0.2220774 
2763.400071 75.7169    2.490259   0.2220774 
2763.600071 82.89489   2.533217   0.2304064 
2763.800071 87.2943    2.588701   0.2458746 
2764.000071 91.53934   2.589848   0.2577732 
2764.200071 95.36418   2.607842   0.2625327 
2764.400071 90.07288   2.604402   0.2625327 
2764.600071 85.31328   2.57838    0.2672921 
2764.800071 85.70777   2.60405    0.2744313 
2765.000072 90.97334   2.652741   0.2661023 
