~Version
 VERS              .         2.0                           : CWLS LOG ASCII STANDARD - VERSION 2.0
 WRAP              .         NO                            : ONE LINE PER DEPTH STEP
 DLM               .         SPACE                         : DELIMITING CHARACTER(SPACE TAB OR COMMA)
~Well Information
#_______________________________________________________________________________
#
#PARAMETER_NAME    .UNIT     VALUE                         : DESCRIPTION
#_______________________________________________________________________________
STRT               .m        2622                          : First reference value
STOP               .m        2791.800085                   : Last reference value
STEP               .m        0.2000001                     : Step increment
NULL               .         -9999                         : Missing value
COMP               .                                       : Company
WELL               .         307                           : Well name
FLD                .                                       : Field
LOC                .                                       : Location
CNTY               .                                       : County
STAT               .                                       : State
CTRY               .                                       : Country
SRVC               .                                       : Service Company
DATE               .                                       : Date
API                .                                       : API number
Cartographic_reference_system .         GCS_WGS_1984                  : GEOGCS["GCS_WGS_1984",DATUM["D_WGS_1984",SPHEROID["WGS_1984",6378137.0,298.257223563]],PRIMEM["Greenwich",0.0],UNIT["Degree",0.0174532925199433],AUTHORITY["EPSG",4326]]
EREF               .m        138.34                        : 
HZCS               .GCS_WGS_1984 World_Mercator                : PROJCS["World_Mercator",GEOGCS["GCS_WGS_1984",DATUM["D_WGS_1984",SPHEROID["WGS_1984",6378137.0,298.257223563]],PRIMEM["Greenwich",0.0],UNIT["Degree",0.0174532925199433]],PROJECTION["Mercator"],PARAMETER["False_Easting",0.0],PARAMETER["False_Northing",0.0],PARAMETER["Central_Meridian",0.0],PARAMETER["Standard_Parallel_1",0.0],UNIT["Meter",1.0],AUTHORITY["ESRI",54004]]
LATI               .dega     2.2598774867                  : GCS_WGS_1984
LONG               .dega     1.9740478369                  : GCS_WGS_1984
PROJECT_UPGRADE_TIME .         2014-05-27T11_38_46           : 
Pad                .         Pad3                          : 
X                  .m        219750                        : 
Y                  .m        249950                        : 
group              .         Pad3                          : 
Интер-р            .         Старостина                    : 
Куст               .         3                             : 
Статус             .         Не проверено                  : 
Тип                .         Разведка                      : 
~Parameter Information Block
#_______________________________________________________________________________
#
#PARAMETER_NAME    .UNIT     VALUE                         : DESCRIPTION
#_______________________________________________________________________________
SET                .         LQC                           : 
PROJECT_UPGRADE_TIME .         2014-05-27T11_38_46           : 
TLFamily_GR_NORM   .         Gamma Ray                     : 
TLFamily_MD        .         Measured Depth                : 
TLFamily_RHOB_NORM .         Bulk Density                  : 
TLFamily_TNPH_NORM .         Neutron Porosity              : 
~Curve Information
#_______________________________________________________________________________
#
#LOGNAME           .UNIT     LOG_ID                        : DESCRIPTION
#_______________________________________________________________________________
MD                 .m                                      :  
GR_NORM            .gAPI                                   : Normalised By Techlog 
RHOB_NORM          .g/cm3                                  : Normalized By Techlog 
TNPH_NORM          .v/v                                    : Normalised By Techlog 
~Ascii
# ...
2765.200072 98.47722   2.59911    0.2601529 
2765.400072 101.8304   2.556504   0.2542036 
2765.600072 100.0552   2.573441   0.2482543 
2765.800072 98.66589   2.590377   0.2518239 
2766.000072 96.09313   2.569471   0.2553935 
2766.200072 91.89096   2.590112   0.2542036 
2766.400072 84.8073    2.560121   0.2577732 
2766.600072 73.91597   2.552182   0.2446847 
2766.800072 62.95602   2.577057   0.2375456 
2767.000072 57.53608   2.564178   0.242305  
2767.200073 57.03868   2.546801   0.2268368 
2767.400073 59.14834   2.52466    0.2196976 
2767.600073 63.68497   2.558798   0.2280267 
2767.800073 65.76032   2.548036   0.2387354 
2768.000073 62.20992   2.514516   0.2589631 
2768.200073 59.79153   2.504637   0.2732414 
2768.400073 56.12106   2.430629   0.2744313 
2768.600073 54.80895   2.300695   0.2863299 
2768.800073 55.45215   2.224217   0.3220258 
2769.000073 58.17069   2.160088   0.337494  
2769.200074 63.21329   2.221394   0.3077475 
2769.400074 67.16676   2.368793   0.2625327 
2769.600074 65.44302   2.423219   0.2280267 
2769.800074 62.7159    2.446506   0.2256469 
2770.000074 62.20992   2.424983   0.2399253 
2770.200074 64.49967   2.375938   0.2518239 
2770.400074 69.92819   2.348593   0.2744313 
2770.600074 76.13712   2.256855   0.2863299 
2770.800074 77.39777   2.13239    0.3101271 
2771.000074 69.94534   1.997164   0.3529622 
2771.200075 56.15536   1.921127   0.3838986 
2771.400075 40.45297   1.832035   0.4124553 
2771.600075 34.86151   1.759173   0.4005567 
2771.800075 44.44074   1.885931   0.3434433 
2772.000075 59.72292   2.278025   0.2898995 
2772.200075 67.14961   2.558269   0.2553935 
2772.400075 68.20444   2.594699   0.2411152 
2772.600075 71.42039   2.589936   0.2244571 
2772.800075 71.15453   2.532423   0.2101787 
2773.000076 68.85621   2.548389   0.2161281 
2773.200076 66.41209   2.524925   0.2304064 
2773.400076 66.2663    2.553593   0.2399253 
2773.600076 72.08931   2.604755   0.2518239 
2773.800076 76.66882   2.64886    0.2542036 
2774.000076 84.21558   2.684938   0.2720516 
2774.200076 94.37796   2.69473    0.3017981 
2774.400076 99.16329   2.666767   0.3255954 
2774.600076 99.34338   2.616575   0.3303548 
2774.800076 100.1752   2.567001   0.3077475 
2775.000076 93.05727   2.54442    0.2958488 
2775.200077 80.12489   2.535687   0.3089373 
2775.400077 68.31593   2.466618   0.3148866 
2775.600077 54.45734   2.397638   0.2898995 
2775.800077 43.50597   2.397285   0.2708617 
2776.000077 38.28328   2.398608   0.2494442 
2776.200077 36.73104   2.415633   0.2173179 
2776.400077 37.29706   2.425336   0.2006598 
2776.600077 38.88359   2.405048   0.2018497 
2776.800077 40.35863   2.405489   0.2006598 
2777.000077 39.95557   2.421719   0.1947105 
2777.200078 43.70322   2.471117   0.1899511 
2777.400078 54.0457    2.511693   0.2042294 
2777.600078 64.8084    2.64198    0.207799  
2777.800078 72.50952   2.620721   0.2149382 
2778.000078 75.97417   2.625044   0.2327861 
2778.200078 79.23299   2.535157   0.2411152 
2778.400078 81.7543    2.625573   0.2387354 
2778.600078 82.26027   2.632453   0.2399253 
2778.800078 82.66334   2.638628   0.2553935 
2779.000079 80.92244   2.593553   0.2613428 
2779.200079 79.4817    2.522985   0.2530138 
2779.400079 81.83147   2.561268   0.2553935 
2779.600079 86.10226   2.591083   0.2672921 
2779.800079 85.29613   2.599551   0.2791907 
2780.000079 83.76105   2.588966   0.276811  
2780.200079 82.50897   2.636158   0.2720516 
2780.400079 83.76105   2.636511   0.2803806 
2780.600079 86.29092   2.666414   0.28514   
2780.800079 87.43152   2.649037   0.2756211 
2781.00008 86.28235   2.622221   0.2613428 
2781.20008 86.78832   2.628131   0.2649124 
2781.40008 87.86888   2.598581   0.2910894 
2781.60008 88.21192   2.551124   0.3255954 
2781.80008 89.23245   2.603344   0.345823  
2782.00008 88.28053   2.596905   0.3517724 
2782.20008 86.13657   2.562855   0.3493926 
2782.40008 82.90346   2.585525   0.3363041 
2782.60008 77.60358   2.546007   0.3267852 
2782.80008 75.21949   2.550594   0.3125069 
2783.00008 76.7117    2.603432   0.2887096 
2783.200081 78.67556   2.607666   0.2637225 
2783.400081 78.10098   2.574499   0.2613428 
2783.600081 76.37724   2.573176   0.2708617 
2783.800081 71.30032   2.549183   0.2601529 
2784.000081 67.28683   2.569471   0.2553935 
2784.200081 67.81853   2.476586   0.2530138 
2784.400081 66.0862    2.460267   0.2661023 
2784.600081 62.0041    2.440508   0.2720516 
2784.800081 57.2445    2.419249   0.2601529 
2785.000081 57.15874   2.416603   0.2446847 
2785.200082 63.79645   2.433804   0.2399253 
2785.400082 70.19405   2.421631   0.2434949 
2785.600082 71.93494   2.513546   0.2399253 
2785.800082 70.58853   2.558445   0.2387354 
2786.000082 67.47549   2.533217   0.250634  
2786.200082 66.29203   2.494493   0.2780009 
2786.400082 66.24057   2.429305   0.3065576 
2786.600082 66.84089   2.446859   0.3160765 
2786.800082 69.40507   2.563561   0.294659  
2787.000083 68.02435   2.599375   0.268482  
2787.200083 61.62676   2.62522    0.2553935 
2787.400083 56.94434   2.563032   0.242305  
2787.600083 57.22735   2.556151   0.2256469 
2787.800083 58.83961   2.541509   0.2125584 
2788.000083 61.17224   2.531806   0.2149382 
2788.200083 64.94562   2.502961   0.2149382 
2788.400083 65.76891   2.516192   0.2256469 
2788.600083 68.20444   2.533481   0.2411152 
2788.800083 70.4599    2.498815   0.250634  
2789.000084 72.96404   2.507548   0.268482  
2789.200084 74.85931   2.485054   0.2791907 
2789.400084 70.51993   2.473851   0.2625327 
2789.600084 59.33701   2.494316   0.2542036 
2789.800084 52.03038   2.477115   0.2470645 
2790.000084 49.63771   2.485848   0.2375456 
2790.200084 50.4953    2.451446   0.2363557 
2790.400084 53.9771    2.493081   0.2399253 
2790.600084 54.44876   2.50596    0.2530138 
2790.800084 52.49347   2.528806   0.2672921 
2791.000084 50.40954   2.523602   0.2553935 
2791.200085 49.44904   2.519809   0.2304064 
2791.400085 49.82638   2.486642   0.2256469 
2791.600085 48.42852   2.357679   0.2315963 
2791.800085 47.87966   2.282347   0.2292165 
