~Version
 VERS              .         2.0                           : CWLS LOG ASCII STANDARD - VERSION 2.0
 WRAP              .         NO                            : ONE LINE PER DEPTH STEP
 DLM               .         SPACE                         : DELIMITING CHARACTER(SPACE TAB OR COMMA)
~Well Information
#_______________________________________________________________________________
#
#PARAMETER_NAME    .UNIT     VALUE                         : DESCRIPTION
#_______________________________________________________________________________
STRT               .m        2622                          : First reference value
STOP               .m        2791.800085                   : Last reference value
STEP               .m        0.2000001                     : Step increment
NULL               .         -9999                         : Missing value
COMP               .                                       : Company
WELL               .         307                           : Well name
FLD                .                                       : Field
LOC                .                                       : Location
CNTY               .                                       : County
STAT               .                                       : State
CTRY               .                                       : Country
SRVC               .                                       : Service Company
DATE               .                                       : Date
API                .                                       : API number
Cartographic_reference_system .         GCS_WGS_1984                  : GEOGCS["GCS_WGS_1984",DATUM["D_WGS_1984",SPHEROID["WGS_1984",6378137.0,298.257223563]],PRIMEM["Greenwich",0.0],UNIT["Degree",0.0174532925199433],AUTHORITY["EPSG",4326]]
EREF               .m        138.34                        : 
HZCS               .GCS_WGS_1984 World_Mercator                : PROJCS["World_Mercator",GEOGCS["GCS_WGS_1984",DATUM["D_WGS_1984",SPHEROID["WGS_1984",6378137.0,298.257223563]],PRIMEM["Greenwich",0.0],UNIT["Degree",0.0174532925199433]],PROJECTION["Mercator"],PARAMETER["False_Easting",0.0],PARAMETER["False_Northing",0.0],PARAMETER["Central_Meridian",0.0],PARAMETER["Standard_Parallel_1",0.0],UNIT["Meter",1.0],AUTHORITY["ESRI",54004]]
LATI               .dega     2.2598774867                  : GCS_WGS_1984
LONG               .dega     1.9740478369                  : GCS_WGS_1984
PROJECT_UPGRADE_TIME .         2014-05-27T11_38_46           : 
Pad                .         Pad3                          : 
X                  .m        219750                        : 
Y                  .m        249950                        : 
group              .         Pad3                          : 
Интер-р            .         Старостина                    : 
Куст               .         3                             : 
Статус             .         Не проверено                  : 
Тип                .         Разведка                      : 
~Parameter Information Block
#_______________________________________________________________________________
#
#PARAMETER_NAME    .UNIT     VALUE                         : DESCRIPTION
#_______________________________________________________________________________
SET                .         LQC                           : 
PROJECT_UPGRADE_TIME .         2014-05-27T11_38_46           : 
TLFamily_GR_NORM   .         Gamma Ray                     : 
TLFamily_MD        .         Measured Depth                : 
TLFamily_RHOB_NORM .         Bulk Density                  : 
TLFamily_TNPH_NORM .         Neutron Porosity              : 
~Curve Information
#_______________________________________________________________________________
#
#LOGNAME           .UNIT     LOG_ID                        : DESCRIPTION
#_______________________________________________________________________________
MD                 .m                                      :  
GR_NORM            .gAPI                                   : Normalised By Techlog 
RHOB_NORM          .g/cm3                                  : Normalized By Techlog 
TNPH_NORM          .v/v                                    : Normalised By Techlog 
~Ascii
# ...
2693.600036 111.2638   2.320013   0.345823  
2693.800036 114.5655   2.320631   0.3255954 
2694.000036 111.5039   2.333156   0.2982285 
2694.200036 103.5884   2.348946   0.2839502 
2694.400036 96.39328   2.391022   0.2780009 
2694.600036 96.7449    2.385553   0.2827604 
2694.800036 100.0466   2.38273    0.2887096 
2695.000037 104.3174   2.382995   0.2970387 
2695.200037 112.7474   2.364912   0.311317  
2695.400037 127.7295   2.298843   0.3422534 
2695.600037 134.2043   2.264088   0.3363041 
2695.800037 133.5782   2.338802   0.3232156 
2696.000037 130.6538   2.318072   0.3160765 
2696.200037 126.2973   2.343036   0.3160765 
2696.400037 115.1744   2.354415   0.3184562 
2696.600037 105.4408   2.351592   0.3148866 
2696.800037 102.8338   2.37832    0.3148866 
2697.000037 103.6399   2.335362   0.329165  
2697.200038 110.0975   2.330245   0.3434433 
2697.400038 122.9785   2.338714   0.3422534 
2697.600038 138.8867   2.316926   0.3327346 
2697.800038 154.6662   2.275555   0.3303548 
2698.000038 171.3891   2.249357   0.3446332 
2698.200038 178.8673   2.254561   0.3767595 
2698.400038 178.7644   2.23639    0.3672405 
2698.600038 177.5381   2.235243   0.3612912 
2698.800038 178.7387   2.235067   0.3779493 
2699.000038 183.5068   2.22704    0.372     
2699.200039 195.3501   2.207986   0.3410636 
2699.400039 203.2828   2.20287    0.3315447 
2699.600039 197.7428   2.211073   0.329165  
2699.800039 188.8239   2.249004   0.3327346 
2700.000039 183.8585   2.229774   0.3398737 
2700.200039 190.5133   2.207457   0.3482027 
2700.400039 196.0104   2.210544   0.3648608 
2700.600039 180.1451   2.202782   0.3517724 
2700.800039 143.8607   2.265323   0.3315447 
2701.00004 114.7028   2.27529    0.3339244 
2701.20004 103.0653   2.320983   0.3339244 
2701.40004 100.6126   2.318602   0.3148866 
2701.60004 101.0243   2.312074   0.2994184 
2701.80004 102.2849   2.363501   0.2958488 
2702.00004 103.9572   2.398079   0.3006083 
2702.20004 107.0874   2.417485   0.2958488 
2702.40004 107.8592   2.422249   0.2732414 
2702.60004 105.8953   2.456562   0.2565834 
2702.80004 107.1903   2.505342   0.2577732 
2703.000041 106.4871   2.4907     0.2672921 
2703.200041 110.0546   2.488053   0.276811  
2703.400041 117.8415   2.491758   0.2934691 
2703.600041 125.5684   2.495375   0.3244055 
2703.800041 130.894    2.52519    0.3255954 
2704.000041 128.3727   2.497492   0.311317  
2704.200041 121.7435   2.454004   0.3101271 
2704.400041 117.7214   2.47147    0.2958488 
2704.600041 115.8004   2.427894   0.2780009 
2704.800041 114.7885   2.445095   0.2791907 
2705.000041 116.5551   2.439802   0.2898995 
2705.200042 119.2994   2.443507   0.2994184 
2705.400042 116.8982   2.434863   0.2970387 
2705.600042 115.9462   2.453828   0.294659  
2705.800042 115.4831   2.497668   0.2922792 
2706.000042 115.7919   2.491052   0.2875198 
2706.200042 113.9138   2.503755   0.2863299 
2706.400042 111.2467   2.51875    0.2744313 
2706.600042 112.4644   2.52766    0.2780009 
2706.800042 113.888    2.539303   0.2887096 
2707.000042 113.8109   2.477997   0.2994184 
2707.200043 114.3511   2.49661    0.3136967 
2707.400043 113.2963   2.511693   0.3101271 
2707.600043 114.5141   2.48179    0.2875198 
2707.800043 118.6734   2.515839   0.2756211 
2708.000043 117.1469   2.519633   0.276811  
2708.200043 113.6565   2.517956   0.2661023 
2708.400043 114.5398   2.526954   0.2696719 
2708.600043 116.4093   2.513546   0.2815705 
2708.800043 114.6256   2.522367   0.2910894 
2709.000044 112.4644   2.524837   0.2887096 
2709.200044 109.48     2.494581   0.2696719 
2709.400044 93.67474   2.54195    0.2470645 
2709.600044 75.0394    2.571324   0.2208875 
2709.800044 75.48534   2.606078   0.2125584 
2710.000044 96.38471   2.584114   0.2434949 
2710.200044 114.5227   2.475439   0.2887096 
2710.400044 119.9512   2.475528   0.3041779 
2710.600044 119.9512   2.494845   0.2958488 
2710.800044 118.9821   2.438744   0.2994184 
2711.000045 120.3971   2.471911   0.3089373 
2711.200045 122.0608   2.530835   0.3148866 
2711.400045 121.3662   2.555357   0.311317  
2711.600045 116.1692   2.530923   0.3065576 
2711.800045 114.9343   2.540097   0.302988  
2712.000045 118.4075   2.516457   0.3006083 
2712.200045 116.8381   2.547683   0.3006083 
2712.400045 112.473    2.565943   0.294659  
2712.600045 108.7425   2.552623   0.2934691 
2712.800045 108.3395   2.533217   0.3089373 
2713.000045 108.914    2.553682   0.3244055 
2713.200046 108.4595   2.547595   0.3172663 
2713.400046 107.945    2.520779   0.2875198 
2713.600046 106.6071   2.528806   0.2530138 
2713.800046 106.2041   2.547683   0.242305  
2714.000046 109.5229   2.572735   0.2756211 
2714.200046 112.1042   2.534628   0.3041779 
2714.400046 112.3444   2.502784   0.2970387 
2714.600046 114.0938   2.520691   0.2803806 
2714.800046 116.3579   2.485584   0.2791907 
2715.000046 114.7456   2.52272    0.2982285 
2715.200047 111.8384   2.517604   0.3053677 
2715.400047 110.6807   2.530482   0.3077475 
2715.600047 113.9566   2.516457   0.3279751 
2715.800047 117.9873   2.52519    0.329165  
2716.000047 118.7248   2.542655   0.3077475 
2716.200047 116.3493   2.542744   0.2887096 
2716.400047 112.7646   2.538421   0.28514   
2716.600047 108.6053   2.550859   0.2839502 
2716.800047 105.9211   2.627866   0.2720516 
2717.000048 100.3125   2.680263   0.2458746 
2717.200048 92.36263   2.684938   0.2268368 
2717.400048 92.23399   2.700375   0.2196976 
2717.600048 97.15654   2.686526   0.2018497 
2717.800048 103.1082   2.611547   0.1851916 
2718.000048 112.7474   2.610754   0.1721032 
2718.200048 112.3015   2.62081    0.1590147 
2718.400048 86.69399   2.541332   0.1566349 
2718.600048 54.36301   2.464766   0.1721032 
2718.800048 40.46155   2.408135   0.1875713 
2719.000049 37.96597   2.406723   0.1923308 
2719.200049 38.17179   2.412986   0.1923308 
2719.400049 38.82356   2.460885   0.1875713 
2719.600049 38.35188   2.399667   0.181622  
2719.800049 39.02938   2.413428   0.173293  
2720.000049 39.89554   2.377526   0.1661538 
2720.200049 38.23182   2.384495   0.164964  
2720.400049 35.05876   2.388817   0.1697234 
2720.600049 32.26302   2.364206   0.173293  
2720.800049 31.3111    2.356709   0.1792423 
2721.000049 31.21677   2.394021   0.1875713 
2721.20005 31.46547   2.371704   0.1887612 
2721.40005 34.17544   2.433099   0.1804322 
2721.60005 37.29706   2.433275   0.1804322 
2721.80005 36.71389   2.438744   0.1899511 
2722.00005 35.68479   2.413604   0.1970903 
2722.20005 36.28511   2.411487   0.2006598 
2722.40005 36.79108   2.403019   0.1947105 
2722.60005 35.81343   2.397373   0.1923308 
2722.80005 36.5338    2.383965   0.1947105 
2723.00005 38.21467   2.362001   0.2089889 
2723.200051 39.77547   2.342683   0.2232672 
2723.400051 43.48882   2.300871   0.2304064 
2723.600051 47.5109    2.308369   0.2315963 
2723.800051 49.56053   2.346741   0.2315963 
2724.000051 50.07508   2.393316   0.2280267 
2724.200051 50.67539   2.410605   0.2220774 
2724.400051 52.49347   2.442184   0.2173179 
2724.600051 52.86224   2.468647   0.2208875 
2724.800051 49.57768   2.456298   0.2196976 
2725.000052 47.27077   2.468823   0.2006598 
2725.200052 48.64291   2.485495   0.1923308 
2725.400052 49.44047   2.51187    0.1804322 
2725.600052 48.19696   2.52369    0.1637741 
2725.800052 45.43554   2.564972   0.1590147 
2726.000052 43.68607   2.586408   0.1661538 
2726.200052 42.4683    2.617105   0.1756727 
2726.400052 42.09096   2.604402   0.1792423 
2726.600052 42.87994   2.624779   0.1828119 
2726.800052 42.30536   2.614811   0.1875713 
2727.000053 40.16139   2.571324   0.1935207 
2727.200053 38.65204   2.547948   0.2006598 
2727.400053 38.87501   2.528894   0.1840018 
2727.600053 38.82356   2.546801   0.1756727 
2727.800053 38.24897   2.511429   0.1828119 
2728.000053 39.90412   2.481261   0.1863815 
2728.200053 39.63826   2.476233   0.1935207 
2728.400053 36.93687   2.490788   0.1935207 
2728.600053 36.24223   2.459385   0.1899511 
2728.800053 37.02263   2.474469   0.1875713 
2729.000053 37.11696   2.452416   0.1935207 
2729.200054 37.7773    2.505519   0.2101787 
