~Version
 VERS              .         2.0                           : CWLS LOG ASCII STANDARD - VERSION 2.0
 WRAP              .         NO                            : ONE LINE PER DEPTH STEP
 DLM               .         SPACE                         : DELIMITING CHARACTER(SPACE TAB OR COMMA)
~Well Information
#_______________________________________________________________________________
#
#PARAMETER_NAME    .UNIT     VALUE                         : DESCRIPTION
#_______________________________________________________________________________
STRT               .m        2622                          : First reference value
STOP               .m        2791.800085                   : Last reference value
STEP               .m        0.2000001                     : Step increment
NULL               .         -9999                         : Missing value
COMP               .                                       : Company
WELL               .         307                           : Well name
FLD                .                                       : Field
LOC                .                                       : Location
CNTY               .                                       : County
STAT               .                                       : State
CTRY               .                                       : Country
SRVC               .                                       : Service Company
DATE               .                                       : Date
API                .                                       : API number
Cartographic_reference_system .         GCS_WGS_1984                  : GEOGCS["GCS_WGS_1984",DATUM["D_WGS_1984",SPHEROID["WGS_1984",6378137.0,298.257223563]],PRIMEM["Greenwich",0.0],UNIT["Degree",0.0174532925199433],AUTHORITY["EPSG",4326]]
EREF               .m        138.34                        : 
HZCS               .GCS_WGS_1984 World_Mercator                : PROJCS["World_Mercator",GEOGCS["GCS_WGS_1984",DATUM["D_WGS_1984",SPHEROID["WGS_1984",6378137.0,298.257223563]],PRIMEM["Greenwich",0.0],UNIT["Degree",0.0174532925199433]],PROJECTION["Mercator"],PARAMETER["False_Easting",0.0],PARAMETER["False_Northing",0.0],PARAMETER["Central_Meridian",0.0],PARAMETER["Standard_Parallel_1",0.0],UNIT["Meter",1.0],AUTHORITY["ESRI",54004]]
LATI               .dega     2.2598774867                  : GCS_WGS_1984
LONG               .dega     1.9740478369                  : GCS_WGS_1984
PROJECT_UPGRADE_TIME .         2014-05-27T11_38_46           : 
Pad                .         Pad3                          : 
X                  .m        219750                        : 
Y                  .m        249950                        : 
group              .         Pad3                          : 
Интер-р            .         Старостина                    : 
Куст               .         3                             : 
Статус             .         Не проверено                  : 
Тип                .         Разведка                      : 
~Parameter Information Block
#_______________________________________________________________________________
#
#PARAMETER_NAME    .UNIT     VALUE                         : DESCRIPTION
#_______________________________________________________________________________
SET                .         LQC                           : 
PROJECT_UPGRADE_TIME .         2014-05-27T11_38_46           : 
TLFamily_GR_NORM   .         Gamma Ray                     : 
TLFamily_MD        .         Measured Depth                : 
TLFamily_RHOB_NORM .         Bulk Density                  : 
TLFamily_TNPH_NORM .         Neutron Porosity              : 
~Curve Information
#_______________________________________________________________________________
#
#LOGNAME           .UNIT     LOG_ID                        : DESCRIPTION
#_______________________________________________________________________________
MD                 .m                                      :  
GR_NORM            .gAPI                                   : Normalised By Techlog 
RHOB_NORM          .g/cm3                                  : Normalized By Techlog 
TNPH_NORM          .v/v                                    : Normalised By Techlog 
~Ascii
2622.0000000 84.85876   1.930477   0.2351658 
2622.2     84.74727   1.968937   0.2458746 
2622.4     86.67684   1.980757   0.2637225 
2622.6     85.75922   1.988872   0.2625327 
2622.8     84.70439   2.025744   0.2482543 
2623.000001 84.49857   2.090755   0.2268368 
2623.200001 84.15554   2.130097   0.2220774 
2623.400001 83.35799   2.26647    0.2542036 
2623.600001 80.50222   2.227128   0.2661023 
2623.800001 81.17972   2.194225   0.2601529 
2624.000001 84.39567   2.152149   0.2589631 
2624.200001 85.53625   2.558269   0.2577732 
2624.400001 86.85693   2.591259   0.2542036 
2624.600001 85.70777   2.553858   0.2542036 
2624.800001 84.35278   2.558092   0.2553935 
2625.000002 83.85538   2.600345   0.2589631 
2625.200002 82.3203    2.576087   0.2434949 
2625.400002 83.3494    2.628572   0.2304064 
2625.600002 84.42996   2.597081   0.233976  
2625.800002 81.53133   2.565855   0.2375456 
2626.000002 77.55212   2.560121   0.2446847 
2626.200002 74.19897   2.578028   0.2518239 
2626.400002 74.25042   2.583144   0.2625327 
2626.600002 74.85931   2.670736   0.268482  
2626.800002 76.17141   2.638804   0.2708617 
2627.000002 80.46792   2.583673   0.2661023 
2627.200003 80.81953   2.582614   0.2589631 
2627.400003 80.24495   2.54786    0.2661023 
2627.600003 79.97051   2.550859   0.2577732 
2627.800003 79.67894   2.603344   0.2470645 
2628.000003 79.46454   2.606872   0.242305  
2628.200003 79.37878   2.607931   0.2446847 
2628.400003 80.40789   2.577057   0.250634  
2628.600003 80.53652   2.627513   0.2565834 
2628.800003 79.55888   2.62769    0.2613428 
2629.000003 77.61216   2.618075   0.2637225 
2629.200004 76.61736   2.592141   0.2637225 
2629.400004 77.82655   2.607754   0.2518239 
2629.600004 79.5503    2.586584   0.2434949 
2629.800004 79.35306   2.599198   0.2446847 
2630.000004 77.38918   2.638187   0.2494442 
2630.200004 78.30681   2.635188   0.2482543 
2630.400004 80.8624    2.576616   0.2494442 
2630.600004 79.47312   2.537451   0.250634  
2630.800004 77.47495   2.564002   0.2494442 
2631.000005 79.02718   2.549006   0.242305  
2631.200005 80.61371   2.560827   0.2434949 
2631.400005 80.40789   2.548036   0.2470645 
2631.600005 79.36164   2.584731   0.2530138 
2631.800005 80.0134    2.595317   0.2625327 
2632.000005 79.5503    2.606343   0.2613428 
2632.200005 80.65659   2.596816   0.2601529 
2632.400005 83.01495   2.593994   0.2661023 
2632.600005 82.74052   2.549977   0.2589631 
2632.800005 81.63423   2.57591    0.2470645 
2633.000006 81.91724   2.58579    0.2363557 
2633.200006 80.71662   2.583055   0.233976  
2633.400006 78.85566   2.563385   0.2280267 
2633.600006 79.82473   2.480379   0.2256469 
2633.800006 83.66672   2.493522   0.2315963 
2634.000006 86.53105   2.543361   0.2304064 
2634.200006 86.79691   2.534628   0.2304064 
2634.400006 87.45724   2.555093   0.2518239 
2634.600006 85.94789   2.524925   0.268482  
2634.800006 87.59445   2.480555   0.268482  
2635.000006 89.44685   2.506313   0.2637225 
2635.200007 90.57886   2.53357    0.2589631 
2635.400007 90.26155   2.562238   0.250634  
2635.600007 86.21375   2.539568   0.2434949 
2635.800007 82.20024   2.534628   0.233976  
2636.000007 80.37359   2.531629   0.2232672 
2636.200007 79.11294   2.583408   0.2268368 
2636.400007 76.43726   2.615605   0.233976  
2636.600007 74.89361   2.585349   0.2446847 
2636.800007 76.62594   2.573176   0.2589631 
2637.000007 82.16594   2.576352   0.2601529 
2637.200008 84.21558   2.608372   0.2553935 
2637.400008 85.43333   2.591347   0.2625327 
2637.600008 85.39904   2.566737   0.2613428 
2637.800008 83.8125    2.591083   0.2518239 
2638.000008 82.51756   2.586937   0.2553935 
2638.200008 83.58096   2.623456   0.2589631 
2638.400008 85.63059   2.620898   0.2542036 
2638.600008 86.90839   2.595229   0.250634  
2638.800008 87.78313   2.612694   0.2411152 
2639.000009 88.28053   2.647978   0.2411152 
2639.200009 87.86031   2.617281   0.2387354 
2639.400009 87.44009   2.64886    0.2327861 
2639.600009 85.74207   2.60008    0.2280267 
2639.800009 81.36839   2.579262   0.2292165 
2640.000009 79.34448   2.576087   0.2244571 
2640.200009 79.73898   2.553064   0.2161281 
2640.400009 79.32733   2.582703   0.2137483 
2640.600009 80.9396    2.576175   0.2232672 
2640.800009 80.66516   2.547683   0.2244571 
2641.00001 78.64126   2.540274   0.2173179 
2641.20001 80.24495   2.505166   0.2125584 
2641.40001 77.26054   2.505784   0.1959004 
2641.60001 71.03448   2.496257   0.1721032 
2641.80001 65.3058    2.550065   0.1637741 
2642.00001 61.48955   2.581115   0.1530654 
2642.20001 59.95447   2.572647   0.1435464 
2642.40001 61.67822   2.522455   0.1447363 
2642.60001 66.03475   2.515663   0.1602045 
2642.80001 70.82008   2.507018   0.1792423 
2643.00001 71.49757   2.519897   0.1768626 
2643.200011 66.36063   2.565855   0.1697234 
2643.400011 58.94252   2.581909   0.1578248 
2643.600011 51.06131   2.643832   0.1494958 
2643.800011 44.43216   2.730455   0.1483059 
2644.000011 43.10291   2.720399   0.1494958 
2644.200011 47.69099   2.601756   0.1506856 
2644.400011 54.14861   2.57247    0.1554451 
2644.600011 62.48435   2.611547   0.1721032 
2644.800011 68.91624   2.528365   0.1970903 
2645.000011 73.36711   2.457268   0.2280267 
2645.200012 78.13528   2.545919   0.2351658 
2645.400012 83.50378   2.550153   0.2280267 
2645.600012 87.0113    2.556592   0.2244571 
2645.800012 89.61835   2.578645   0.2232672 
2646.000012 91.3421    2.62522    0.2292165 
2646.200012 91.66799   2.623191   0.2351658 
2646.400012 91.25635   2.552535   0.2482543 
2646.600012 89.84133   2.523161   0.2542036 
2646.800012 85.16749   2.511958   0.2446847 
2647.000013 80.93102   2.532511   0.242305  
2647.200013 79.80757   2.560915   0.2387354 
2647.400013 79.85903   2.570441   0.2268368 
2647.600013 80.63943   2.57741    0.2196976 
2647.800013 82.79198   2.529512   0.2161281 
2648.000013 86.86551   2.566825   0.207799  
2648.200013 90.7761    2.58182    0.1959004 
2648.400013 92.3026    2.569207   0.1923308 
2648.600013 89.0352    2.526513   0.1911409 
2648.800013 81.3255    2.519103   0.1851916 
2649.000014 72.74107   2.473763   0.1851916 
2649.200014 68.50459   2.48426    0.1875713 
2649.400014 66.48927   2.532423   0.1875713 
2649.600014 62.85311   2.53357    0.1851916 
2649.800014 57.9906    2.606255   0.1804322 
2650.000014 54.80895   2.594346   0.1709133 
2650.200014 51.63588   2.621427   0.1542552 
2650.400014 53.31675   2.628396   0.1411667 
2650.600014 61.81543   2.576616   0.1459262 
2650.800014 68.51318   2.561885   0.1625842 
2651.000014 74.49055   2.584996   0.181622  
2651.200015 80.62228   2.638363   0.1959004 
2651.400015 81.65138   2.587995   0.1863815 
2651.600015 80.03912   2.577322   0.1744829 
2651.800015 76.11996   2.607225   0.173293  
2652.000015 71.92636   2.584996   0.1673437 
2652.200015 64.56828   2.582879   0.1506856 
2652.400015 53.95137   2.675853   0.1328377 
2652.600015 42.06523   2.766444   0.1161796 
2652.800015 37.43427   2.799347   0.1102303 
2653.000015 38.7721    2.790085   0.1209391 
2653.200016 40.45297   2.678675   0.1411667 
2653.400016 44.11486   2.622397   0.1661538 
2653.600016 46.87629   2.665356   0.1744829 
2653.800016 52.04753   2.619751   0.1851916 
2654.000016 59.33701   2.547419   0.2006598 
2654.200016 61.71252   2.564267   0.2089889 
2654.400016 63.16183   2.563032   0.2101787 
2654.600016 69.57658   2.584555   0.2161281 
2654.800016 80.44219   2.587554   0.2304064 
2655.000017 90.04715   2.614723   0.2268368 
2655.200017 94.53232   2.558974   0.2208875 
2655.400017 93.55468   2.646126   0.2125584 
2655.600017 89.34393   2.624779   0.2101787 
2655.800017 80.05627   2.523778   0.2185078 
2656.000017 65.16859   2.493258   0.2101787 
2656.200017 52.57066   2.526425   0.1947105 
2656.400017 47.27077   2.545655   0.1804322 
2656.600017 45.28118   2.560474   0.1602045 
2656.800017 42.70842   2.729308   0.1399769 
2657.000018 38.9865    2.808079   0.130458  
2657.200018 39.56966   2.754007   0.138787  
2657.400018 42.04808   2.730984   0.1697234 
2657.600018 53.25672   2.586055   0.1899511 
