~Version
 VERS              .         2.0                           : CWLS LOG ASCII STANDARD - VERSION 2.0
 WRAP              .         NO                            : ONE LINE PER DEPTH STEP
 DLM               .         SPACE                         : DELIMITING CHARACTER(SPACE TAB OR COMMA)
~Well Information
#_______________________________________________________________________________
#
#PARAMETER_NAME    .UNIT     VALUE                         : DESCRIPTION
#_______________________________________________________________________________
STRT               .m        2622                          : First reference value
STOP               .m        2791.800085                   : Last reference value
STEP               .m        0.2000001                     : Step increment
NULL               .         -9999                         : Missing value
COMP               .                                       : Company
WELL               .         307                           : Well name
FLD                .                                       : Field
LOC                .                                       : Location
CNTY               .                                       : County
STAT               .                                       : State
CTRY               .                                       : Country
SRVC               .                                       : Service Company
DATE               .                                       : Date
API                .                                       : API number
Cartographic_reference_system .         GCS_WGS_1984                  : GEOGCS["GCS_WGS_1984",DATUM["D_WGS_1984",SPHEROID["WGS_1984",6378137.0,298.257223563]],PRIMEM["Greenwich",0.0],UNIT["Degree",0.0174532925199433],AUTHORITY["EPSG",4326]]
EREF               .m        138.34                        : 
HZCS               .GCS_WGS_1984 World_Mercator                : PROJCS["World_Mercator",GEOGCS["GCS_WGS_1984",DATUM["D_WGS_1984",SPHEROID["WGS_1984",6378137.0,298.257223563]],PRIMEM["Greenwich",0.0],UNIT["Degree",0.0174532925199433]],PROJECTION["Mercator"],PARAMETER["False_Easting",0.0],PARAMETER["False_Northing",0.0],PARAMETER["Central_Meridian",0.0],PARAMETER["Standard_Parallel_1",0.0],UNIT["Meter",1.0],AUTHORITY["ESRI",54004]]
LATI               .dega     2.2598774867                  : GCS_WGS_1984
LONG               .dega     1.9740478369                  : GCS_WGS_1984
PROJECT_UPGRADE_TIME .         2014-05-27T11_38_46           : 
Pad                .         Pad3                          : 
X                  .m        219750                        : 
Y                  .m        249950                        : 
group              .         Pad3                          : 
Интер-р            .         Старостина                    : 
Куст               .         3                             : 
Статус             .         Не проверено                  : 
Тип                .         Разведка                      : 
~Parameter Information Block
#_______________________________________________________________________________
#
#PARAMETER_NAME    .UNIT     VALUE                         : DESCRIPTION
#_______________________________________________________________________________
SET                .         LQC                           : 
PROJECT_UPGRADE_TIME .         2014-05-27T11_38_46           : 
TLFamily_GR_NORM   .         Gamma Ray                     : 
TLFamily_MD        .         Measured Depth                : 
TLFamily_RHOB_NORM .         Bulk Density                  : 
TLFamily_TNPH_NORM .         Neutron Porosity              : 
~Curve Information
#_______________________________________________________________________________
#
#LOGNAME           .UNIT     LOG_ID                        : DESCRIPTION
#_______________________________________________________________________________
MD                 .m                                      :  
GR_NORM            .gAPI                                   : Normalised By Techlog 
RHOB_NORM          .g/cm3                                  : Normalized By Techlog 
TNPH_NORM          .v/v                                    : Normalised By Techlog 
~Ascii
# ...
2657.800018 62.97317   2.52713    0.19947   
2658.000018 67.48407   2.502784   0.2066091 
2658.200018 63.47057   2.48426    0.19947   
2658.400018 54.08858   2.440332   0.1911409 
2658.600018 50.10939   2.429835   0.1911409 
2658.800018 51.94462   2.443684   0.1935207 
2659.000018 57.81908   2.520867   0.1982801 
2659.200019 65.12571   2.494405   0.1959004 
2659.400019 73.0155    2.548036   0.2006598 
2659.600019 78.35825   2.588525   0.2042294 
2659.800019 78.32396   2.629542   0.1899511 
2660.000019 73.19559   2.556945   0.1721032 
2660.200019 70.88011   2.497756   0.1685335 
2660.400019 74.7221    2.551388   0.1923308 
2660.600019 84.0955    2.535775   0.2220774 
2660.800019 90.75037   2.534981   0.2399253 
2661.000019 91.59938   2.563826   0.242305  
2661.20002 94.72099   2.558004   0.2387354 
2661.40002 100.0294   2.567178   0.2375456 
2661.60002 103.6227   2.571676   0.2446847 
2661.80002 106.5728   2.565413   0.2387354 
2662.00002 110.0203   2.5917     0.2280267 
2662.20002 111.3582   2.542302   0.2351658 
2662.40002 110.2176   2.620192   0.2470645 
2662.60002 109.1456   2.657505   0.2625327 
2662.80002 110.1747   2.66465    0.2625327 
2663.000021 108.0993   2.621074   0.2649124 
2663.200021 106.0411   2.512576   0.2720516 
2663.400021 102.4393   2.527924   0.2613428 
2663.600021 99.18044   2.573793   0.2625327 
2663.800021 99.08611   2.600609   0.2601529 
2664.000021 100.9128   2.565061   0.2542036 
2664.200021 106.0668   2.545213   0.2553935 
2664.400021 112.6617   2.536922   0.2708617 
2664.600021 118.1845   2.579439   0.2970387 
2664.800021 123.3386   2.537186   0.3125069 
2665.000022 127.112    2.552623   0.2982285 
2665.200022 128.7586   2.60255    0.2649124 
2665.400022 126.1944   2.542479   0.2637225 
2665.600022 121.5206   2.470323   0.2780009 
2665.800022 117.5499   2.516192   0.2839502 
2666.000022 116.9067   2.542214   0.28514   
2666.200022 113.1848   2.561091   0.2815705 
2666.400022 106.144    2.560033   0.2887096 
2666.600022 101.4359   2.62522    0.2910894 
2666.800022 102.242    2.706991   0.2708617 
2667.000022 105.6466   2.623632   0.2553935 
2667.200023 107.2074   2.607225   0.2625327 
2667.400023 109.4372   2.60405    0.2780009 
2667.600023 115.7747   2.573088   0.2827604 
2667.800023 122.987    2.580145   0.2922792 
2668.000023 131.4342   2.607578   0.2934691 
2668.200023 147.1967   2.581379   0.2875198 
2668.400023 169.5196   2.501285   0.2922792 
2668.600023 192.0313   2.46556    0.3065576 
2668.800023 199.6638   2.453122   0.3160765 
2669.000023 186.5084   2.497668   0.3053677 
2669.200024 171.1319   2.483114   0.2922792 
2669.400024 164.3741   2.500932   0.2994184 
2669.600024 154.3489   2.48576    0.2744313 
2669.800024 146.3305   2.568236   0.2446847 
2670.000024 162.496    2.507724   0.2434949 
2670.200024 189.1155   2.402401   0.2696719 
2670.400024 192.8031   2.43398    0.3017981 
2670.600024 189.913    2.431775   0.3101271 
2670.800024 191.4309   2.442272   0.3136967 
2671.000025 188.1978   2.402313   0.3267852 
2671.200025 184.2272   2.392787   0.3327346 
2671.400025 184.7503   2.419514   0.3434433 
2671.600025 191.9455   2.414663   0.3565318 
2671.800025 205.967    2.410075   0.3398737 
2672.000025 220.3745   2.377085   0.3220258 
2672.200025 227.0979   2.376644   0.3196461 
2672.400025 226.0774   2.371528   0.3327346 
2672.600025 222.0468   2.355209   0.3422534 
2672.800025 212.1502   2.370116   0.3327346 
2673.000025 198.4546   2.44386    0.311317  
2673.200026 185.3421   2.508165   0.294659  
2673.400026 172.1353   2.509135   0.2922792 
2673.600026 159.4859   2.523867   0.294659  
2673.800026 156.1413   2.561973   0.2898995 
2674.000026 158.9885   2.4877     0.2815705 
2674.200026 161.1753   2.488053   0.2875198 
2674.400026 168.5506   2.477997   0.2958488 
2674.600026 183.6183   2.453034   0.3184562 
2674.800026 201.7305   2.478615   0.3327346 
2675.000026 221.3006   2.467589   0.337494  
2675.200027 235.7252   2.469265   0.3589115 
2675.400027 254.7637   2.431511   0.3601014 
2675.600027 280.7656   2.377526   0.3351143 
2675.800027 301.8537   2.374174   0.3196461 
2676.000027 310.3009   2.319219   0.3184562 
2676.200027 310.8583   2.321689   0.3303548 
2676.400027 312.522    2.322218   0.3446332 
2676.600027 319.417    2.34383    0.345823  
2676.800027 322.9246   2.397462   0.3505825 
2677.000028 317.5818   2.41281    0.3446332 
2677.200028 300.1642   2.391022   0.3160765 
2677.400028 267.6017   2.434686   0.2827604 
2677.600028 224.6281   2.514163   0.2625327 
2677.800028 196.6451   2.510988   0.2470645 
2678.000028 219.1224   2.481967   0.2661023 
2678.200028 281.606    2.384406   0.3125069 
2678.400028 332.9069   2.29849    0.3351143 
2678.600028 337.8037   2.275202   0.3398737 
2678.800028 320.5576   2.292668   0.3553419 
2679.000029 297.3256   2.273173   0.3755696 
2679.200029 283.7758   2.264441   0.3838986 
2679.400029 287.5149   2.27432    0.3862783 
2679.600029 296.571    2.289669   0.3838986 
2679.800029 303.9976   2.244329   0.3910378 
2680.000029 313.7741   2.208515   0.3815189 
2680.200029 327.0838   2.2004     0.3767595 
2680.400029 328.9019   2.183199   0.3969871 
2680.600029 317.9934   2.190962   0.4100756 
2680.800029 305.2154   2.211162   0.3910378 
2681.000029 293.1663   2.231715   0.3827088 
2681.20003 286.8459   2.233567   0.3910378 
2681.40003 282.6609   2.233832   0.4112654 
2681.60003 272.3356   2.215749   0.4124553 
2681.80003 263.3652   2.213279   0.3898479 
2682.00003 262.5591   2.204899   0.3767595 
2682.20003 261.7959   2.215661   0.3672405 
2682.40003 253.3915   2.219012   0.3565318 
2682.60003 234.1387   2.220777   0.3541521 
2682.80003 207.9995   2.244682   0.3612912 
2683.00003 196.8166   2.245476   0.3565318 
2683.200031 198.8576   2.239124   0.372     
2683.400031 203.5658   2.272203   0.380329  
2683.600031 202.0907   2.284376   0.3624811 
2683.800031 193.8064   2.284376   0.3565318 
2684.000031 186.234    2.27088    0.3470129 
2684.200031 175.5484   2.242653   0.3244055 
2684.400031 159.0399   2.291257   0.3220258 
2684.600031 145.7816   2.35318    0.3363041 
2684.800031 139.2297   2.366853   0.3446332 
2685.000032 134.5901   2.376203   0.3386839 
2685.200032 133.0894   2.390316   0.3208359 
2685.400032 136.9056   2.396491   0.3089373 
2685.600032 140.4132   2.423924   0.3053677 
2685.800032 144.4781   2.391022   0.2970387 
2686.000032 143.4233   2.373733   0.2958488 
2686.200032 135.3534   2.391463   0.2982285 
2686.400032 121.8207   2.406812   0.2898995 
2686.600032 108.4424   2.474028   0.276811  
2686.800032 111.624    2.440067   0.2661023 
2687.000033 124.565    2.382201   0.2672921 
2687.200033 123.7589   2.383348   0.2625327 
2687.400033 115.3888   2.368617   0.2649124 
2687.600033 112.5073   2.393757   0.2589631 
2687.800033 109.2656   2.443243   0.2446847 
2688.000033 104.6175   2.434863   0.2458746 
2688.200033 99.73787   2.396227   0.2661023 
2688.400033 95.29558   2.404165   0.2744313 
2688.600033 93.03156   2.394021   0.2661023 
2688.800033 94.24075   2.426747   0.2756211 
2689.000033 97.29375   2.410252   0.2863299 
2689.200034 98.55441   2.391728   0.2780009 
2689.400034 98.87171   2.407341   0.2672921 
2689.600034 98.11703   2.407077   0.2661023 
2689.800034 99.13757   2.341624   0.2696719 
2690.000034 100.0981   2.344183   0.268482  
2690.200034 103.9915   2.331392   0.2613428 
2690.400034 109.703    2.320631   0.2708617 
2690.600034 114.7456   2.346653   0.2827604 
2690.800034 114.2139   2.338273   0.2815705 
2691.000034 109.8574   2.371793   0.2791907 
2691.200035 105.9554   2.339596   0.2780009 
2691.400035 106.6586   2.355915   0.28514   
2691.600035 111.5039   2.339154   0.2887096 
2691.800035 115.0715   2.352563   0.2863299 
2692.000035 119.2308   2.315691   0.2982285 
2692.200035 122.9098   2.289492   0.3065576 
2692.400035 123.5445   2.280407   0.3220258 
2692.600035 122.0437   2.315073   0.3279751 
2692.800035 117.3355   2.329099   0.3208359 
2693.000036 108.4681   2.322306   0.3232156 
2693.200036 101.0414   2.345859   0.3410636 
2693.400036 104.3774   2.333862   0.3541521 
