~Version
 VERS              .         2.0                           : CWLS LOG ASCII STANDARD - VERSION 2.0
 WRAP              .         NO                            : ONE LINE PER DEPTH STEP
 DLM               .         SPACE                         : DELIMITING CHARACTER(SPACE TAB OR COMMA)
~Well Information
#_______________________________________________________________________________
#
#PARAMETER_NAME    .UNIT     VALUE                         : DESCRIPTION
#_______________________________________________________________________________
STRT               .m        2576                          : First reference value
STOP               .m        2792.8                        : Last reference value
STEP               .m        0.2                           : Step increment
NULL               .         -9999                         : Missing value
COMP               .                                       : Company
WELL               .         308                           : Well name
FLD                .                                       : Field
LOC                .                                       : Location
CNTY               .                                       : County
STAT               .                                       : State
CTRY               .                                       : Country
SRVC               .                                       : Service Company
DATE               .                                       : Date
API                .                                       : API number
Cartographic_reference_system .         GCS_WGS_1984                  : GEOGCS["GCS_WGS_1984",DATUM["D_WGS_1984",SPHEROID["WGS_1984",6378137.0,298.257223563]],PRIMEM["Greenwich",0.0],UNIT["Degree",0.0174532925199433],AUTHORITY["EPSG",4326]]
EREF               .m        138.34                        : 
HZCS               .GCS_WGS_1984 World_Mercator                : PROJCS["World_Mercator",GEOGCS["GCS_WGS_1984",DATUM["D_WGS_1984",SPHEROID["WGS_1984",6378137.0,298.257223563]],PRIMEM["Greenwich",0.0],UNIT["Degree",0.0174532925199433]],PROJECTION["Mercator"],PARAMETER["False_Easting",0.0],PARAMETER["False_Northing",0.0],PARAMETER["Central_Meridian",0.0],PARAMETER["Standard_Parallel_1",0.0],UNIT["Meter",1.0],AUTHORITY["ESRI",54004]]
LATI               .dega     2.2598774867                  : GCS_WGS_1984
LONG               .dega     1.9740478369                  : GCS_WGS_1984
PROJECT_UPGRADE_TIME .         2014-05-27T11_38_46           : 
Pad                .         Pad3                          : 
X                  .m        219750                        : 
Y                  .m        249950                        : 
group              .         Pad3                          : 
Интер-р            .         Зайцев                        : 
Куст               .         3                             : 
Статус             .         Не проверено                  : 
Тип                .         Разведка                      : 
~Parameter Information Block
#_______________________________________________________________________________
#
#PARAMETER_NAME    .UNIT     VALUE                         : DESCRIPTION
#_______________________________________________________________________________
SET                .         LQC                           : 
PROJECT_UPGRADE_TIME .         2014-05-27T11_38_46           : 
TLFamily_GR_NORM   .         Gamma Ray                     : 
TLFamily_MD        .         Measured Depth                : 
TLFamily_RHOB_NORM .         Bulk Density                  : 
TLFamily_TNPH_NORM .         Neutron Porosity              : 
~Curve Information
#_______________________________________________________________________________
#
#LOGNAME           .UNIT     LOG_ID                        : DESCRIPTION
#_______________________________________________________________________________
MD                 .m                                      :  
GR_NORM            .gAPI                                   : Normalised By Techlog 
RHOB_NORM          .g/cm3                                  : Normalized By Techlog 
TNPH_NORM          .v/v                                    : Normalised By Techlog 
~Ascii
# ...
2721.6     113.7933   2.537776   0.3171358 
2721.8     115.6035   2.537523   0.3276722 
2722       114.9345   2.565191   0.3397137 
2722.2     110.0941   2.604801   0.3306825 
2722.4     105.301    2.610856   0.3005787 
2722.6     102.5385   2.586552   0.2840217 
2722.8     102.9792   2.582179   0.3035891 
2723       104.8918   2.573181   0.3216514 
2723.2     103.9473   2.559557   0.3457344 
2723.4     101.7672   2.552577   0.357776  
2723.6     101.5389   2.555016   0.3562708 
2723.8     105.545    2.533234   0.3216514 
2724       108.0399   2.538028   0.2885373 
2724.2     105.0885   2.533066   0.2764958 
2724.4     102.4519   2.570153   0.2840217 
2724.6     102.2315   2.569396   0.3050944 
2724.8     106.7807   2.558211   0.3276722 
2725       106.4029   2.522638   0.3367033 
2725.2     105.8913   2.555352   0.3231566 
2725.4     108.1974   2.602699   0.3156307 
2725.6     107.6543   2.595214   0.3141254 
2725.8     103.2862   2.572003   0.2825165 
2726       100.8227   2.557118   0.2403712 
2726.2     103.0107   2.539626   0.2584335 
2726.4     105.789    2.577049   0.294558  
2726.6     108.6774   2.614304   0.3156307 
2726.8     107.8432   2.594962   0.3216514 
2727       104.8367   2.587898   0.3096099 
2727.2     98.96529   2.552493   0.2599387 
2727.4     91.84252   2.540635   0.2343505 
2727.6     89.15082   2.511874   0.2132778 
2727.8     97.87917   2.48101    0.1907    
2728       111.1803   2.501109   0.1711325 
2728.2     119.0192   2.514565   0.1651117 
2728.4     97.85556   2.469741   0.1711325 
2728.6     61.88751   2.442325   0.1876896 
2728.8     41.94375   2.422058   0.1997311 
2729       35.53719   2.421049   0.1982259 
2729.2     33.83717   2.432318   0.2027415 
2729.4     35.06496   2.453594   0.1982259 
2729.6     36.8673    2.437952   0.1922052 
2729.8     38.19741   2.428533   0.1876896 
2730       39.08677   2.423403   0.1952155 
2730.2     39.59048   2.415834   0.1967207 
2730.4     40.37753   2.444175   0.1982259 
2730.6     41.79421   2.434      0.183174  
2730.8     41.22754   2.431645   0.1711325 
2731       39.46455   2.45864    0.1801636 
2731.2     39.52752   2.473525   0.1876896 
2731.4     39.37798   2.457126   0.1967207 
2731.6     38.68538   2.466041   0.1967207 
2731.8     40.44049   2.43257    0.1982259 
2732       41.58171   2.402968   0.1952155 
2732.2     39.58261   2.399604   0.1756481 
2732.4     36.00941   2.416423   0.1545754 
2732.6     36.63118   2.425842   0.1545754 
2732.8     40.51133   2.485888   0.1997311 
2733       43.74609   2.472095   0.2042467 
2733.2     44.16322   2.446194   0.1801636 
2733.4     42.43959   2.435093   0.1846792 
2733.6     42.32153   2.414405   0.2012363 
2733.8     42.83311   2.409864   0.207257  
2734       42.01458   2.396997   0.2087622 
2734.2     40.1729    2.44283    0.2117726 
2734.4     40.40114   2.479833   0.2223089 
2734.6     41.10948   2.497409   0.2177934 
2734.8     42.01458   2.480421   0.2132778 
2735       43.67525   2.483196   0.2238141 
2735.2     45.37527   2.503212   0.2253193 
2735.4     46.1938    2.4726     0.2192986 
2735.6     43.74609   2.447035   0.2102674 
2735.8     42.17986   2.437279   0.2012363 
2736       42.43172   2.473693   0.2042467 
2736.2     43.37617   2.467975   0.214783  
2736.4     44.26554   2.529114   0.2117726 
2736.6     44.4072    2.51877    0.207257  
2736.8     42.92756   2.454603   0.2162882 
2737       42.10116   2.450567   0.2042467 
2737.2     42.75441   2.463518   0.1891948 
2737.4     43.28173   2.51221    0.1801636 
2737.6     42.27431   2.495979   0.1801636 
2737.8     41.35346   2.524656   0.1952155 
2738       40.9442    2.462256   0.1937104 
2738.2     40.75531   2.422815   0.1891948 
2738.4     39.94465   2.428617   0.1846792 
2738.6     36.30849   2.444175   0.1907    
2738.8     37.08767   2.490933   0.1967207 
2739       38.1738    2.511201   0.1952155 
2739.2     38.85065   2.475964   0.2087622 
2739.4     39.81873   2.479496   0.2238141 
2739.6     40.1729    2.464022   0.2328453 
2739.8     38.00852   2.481178   0.2132778 
2740       36.90665   2.468311   0.1922052 
2740.2     37.84324   2.480337   0.1891948 
2740.4     38.69324   2.429879   0.1922052 
2740.6     37.94555   2.44653    0.1967207 
2740.8     37.26082   2.478151   0.1997311 
2741       37.72518   2.487149   0.2208037 
2741.2     38.29972   2.45536    0.2238141 
2741.4     40.63725   2.444848   0.2313401 
2741.6     41.99097   2.493961   0.2328453 
2741.8     40.26734   2.505566   0.2162882 
2742       38.39417   2.489924   0.1891948 
2742.2     39.14973   2.50052    0.1786585 
2742.4     40.99929   2.497409   0.1711325 
2742.6     45.95769   2.529366   0.1696273 
2742.8     48.52346   2.531805   0.1741429 
2743       50.27858   2.51549    0.1861844 
2743.2     51.34109   2.512378   0.2012363 
2743.4     51.89989   2.465788   0.2042467 
2743.6     53.17491   2.429879   0.2027415 
2743.8     53.12768   2.398342   0.1907    
2744       54.04853   2.425506   0.1696273 
2744.2     55.29993   2.440307   0.1801636 
2744.4     57.24394   2.473946   0.2087622 
2744.6     59.51064   2.556025   0.2283297 
2744.8     60.95093   2.692094   0.2478972 
2745       63.33568   2.672752   0.2689698 
2745.2     65.93294   2.524236   0.2674646 
2745.4     65.81488   2.450819   0.2855269 
2745.6     68.9552    2.400529   0.3141254 
2745.8     72.66219   2.374963   0.2930528 
2746       70.12003   2.344268   0.2599387 
2746.2     61.55695   2.389008   0.2268245 
2746.4     49.38921   2.446446   0.1922052 
2746.6     38.8113    2.495643   0.1786585 
2746.8     34.29366   2.546774   0.1681221 
2747       33.85291   2.535757   0.1530702 
2747.2     39.52752   2.436354   0.1726377 
2747.4     55.12679   2.321309   0.2298349 
2747.6     78.66736   2.244697   0.3216514 
2747.8     99.07548   2.190454   0.3833642 
2748       103.0422   2.203994   0.3698175 
2748.2     96.76943   2.305163   0.3713227 
2748.4     92.07863   2.381691   0.3637967 
2748.6     90.99251   2.480253   0.3397137 
2748.8     89.07999   2.533487   0.2900424 
2749       87.12024   2.524909   0.2689698 
2749.2     85.28642   2.576881   0.2749906 
2749.4     84.50724   2.571414   0.2975684 
2749.6     87.08088   2.574106   0.3035891 
2749.8     86.15217   2.673088   0.2810113 
2750       79.06087   2.668294   0.2644542 
2750.2     68.92371   2.626246   0.2509075 
2750.4     58.10182   2.544335   0.2238141 
2750.6     52.20684   2.452249   0.1982259 
2750.8     54.68604   2.432822   0.2012363 
2751       65.53154   2.474618   0.2689698 
2751.2     75.36176   2.526507   0.3126203 
2751.4     69.65567   2.509603   0.3035891 
2751.6     67.71166   2.511201   0.2885373 
2751.8     70.64735   2.544083   0.2674646 
2752       72.38672   2.569901   0.2539179 
2752.2     75.39324   2.514817   0.2509075 
2752.4     81.21738   2.48059    0.2448868 
2752.6     84.34983   2.505566   0.2554231 
2752.8     81.04424   2.50153    0.2659594 
2753       73.76405   2.526507   0.2599387 
2753.2     64.50051   2.518938   0.2403712 
2753.4     56.70088   2.514649   0.2283297 
2753.6     51.46702   2.516751   0.2268245 
2753.8     52.35638   2.553334   0.2253193 
2754       57.20459   2.518349   0.2268245 
2754.2     59.51064   2.539626   0.2238141 
2754.4     63.77643   2.552913   0.2253193 
2754.6     71.8594    2.537944   0.2328453 
2754.8     78.32105   2.522554   0.2554231 
2755       81.97295   2.513471   0.2930528 
2755.2     86.37254   2.521209   0.3126203 
2755.4     88.72581   2.518686   0.3035891 
2755.6     88.78877   2.469405   0.2885373 
2755.8     87.99386   2.480001   0.302084  
2756       92.11799   2.398342   0.3276722 
2756.2     91.56705   2.301883   0.3336929 
2756.4     86.9156    2.180699   0.3156307 
2756.6     82.54749   2.065822   0.3216514 
2756.8     80.46182   1.953048   0.3547656 
2757       56.82681   1.854233   0.3758382 
2757.2     46.13084   1.785946   0.3923953 
2757.4     21.756     1.747262   0.4405614 
2757.6     9.934556   1.747934   0.4781911 
2757.8     4.031704   1.751719   0.4781911 
