~Version
 VERS              .         2.0                           : CWLS LOG ASCII STANDARD - VERSION 2.0
 WRAP              .         NO                            : ONE LINE PER DEPTH STEP
 DLM               .         SPACE                         : DELIMITING CHARACTER(SPACE TAB OR COMMA)
~Well Information
#_______________________________________________________________________________
#
#PARAMETER_NAME    .UNIT     VALUE                         : DESCRIPTION
#_______________________________________________________________________________
STRT               .m        2576                          : First reference value
STOP               .m        2792.8                        : Last reference value
STEP               .m        0.2                           : Step increment
NULL               .         -9999                         : Missing value
COMP               .                                       : Company
WELL               .         308                           : Well name
FLD                .                                       : Field
LOC                .                                       : Location
CNTY               .                                       : County
STAT               .                                       : State
CTRY               .                                       : Country
SRVC               .                                       : Service Company
DATE               .                                       : Date
API                .                                       : API number
Cartographic_reference_system .         GCS_WGS_1984                  : GEOGCS["GCS_WGS_1984",DATUM["D_WGS_1984",SPHEROID["WGS_1984",6378137.0,298.257223563]],PRIMEM["Greenwich",0.0],UNIT["Degree",0.0174532925199433],AUTHORITY["EPSG",4326]]
EREF               .m        138.34                        : 
HZCS               .GCS_WGS_1984 World_Mercator                : PROJCS["World_Mercator",GEOGCS["GCS_WGS_1984",DATUM["D_WGS_1984",SPHEROID["WGS_1984",6378137.0,298.257223563]],PRIMEM["Greenwich",0.0],UNIT["Degree",0.0174532925199433]],PROJECTION["Mercator"],PARAMETER["False_Easting",0.0],PARAMETER["False_Northing",0.0],PARAMETER["Central_Meridian",0.0],PARAMETER["Standard_Parallel_1",0.0],UNIT["Meter",1.0],AUTHORITY["ESRI",54004]]
LATI               .dega     2.2598774867                  : GCS_WGS_1984
LONG               .dega     1.9740478369                  : GCS_WGS_1984
PROJECT_UPGRADE_TIME .         2014-05-27T11_38_46           : 
Pad                .         Pad3                          : 
X                  .m        219750                        : 
Y                  .m        249950                        : 
group              .         Pad3                          : 
Интер-р            .         Зайцев                        : 
Куст               .         3                             : 
Статус             .         Не проверено                  : 
Тип                .         Разведка                      : 
~Parameter Information Block
#_______________________________________________________________________________
#
#PARAMETER_NAME    .UNIT     VALUE                         : DESCRIPTION
#_______________________________________________________________________________
SET                .         LQC                           : 
PROJECT_UPGRADE_TIME .         2014-05-27T11_38_46           : 
TLFamily_GR_NORM   .         Gamma Ray                     : 
TLFamily_MD        .         Measured Depth                : 
TLFamily_RHOB_NORM .         Bulk Density                  : 
TLFamily_TNPH_NORM .         Neutron Porosity              : 
~Curve Information
#_______________________________________________________________________________
#
#LOGNAME           .UNIT     LOG_ID                        : DESCRIPTION
#_______________________________________________________________________________
MD                 .m                                      :  
GR_NORM            .gAPI                                   : Normalised By Techlog 
RHOB_NORM          .g/cm3                                  : Normalized By Techlog 
TNPH_NORM          .v/v                                    : Normalised By Techlog 
~Ascii
2576.0     44.44656   1.96398    0.262949  
2576.2     56.81894   1.978024   0.2358556 
2576.4     62.15511   1.951702   0.2253193 
2576.6     64.75237   1.915456   0.238866  
2576.8     64.54773   1.894768   0.246392  
2577       64.63432   1.883583   0.2509075 
2577.2     66.03526   1.885013   0.2328453 
2577.4     65.34265   1.943965   0.2177934 
2577.6     63.00512   1.983995   0.2087622 
2577.8     61.90326   1.96028    0.2042467 
2578       64.18569   1.923613   0.2027415 
2578.2     69.30937   1.898132   0.2117726 
2578.4     72.27654   1.887536   0.2343505 
2578.6     74.02378   1.872062   0.2614439 
2578.8     74.61407   1.877612   0.2749906 
2579       73.23673   1.917054   0.2719802 
2579.2     73.12654   1.957841   0.2734854 
2579.4     72.60709   1.941358   0.2840217 
2579.6     70.71031   1.892582   0.2749906 
2579.8     70.33253   1.87551    0.2599387 
2580       69.44316   1.862391   0.2584335 
2580.2     68.8214    1.858943   0.262949  
2580.4     68.11305   1.891993   0.2478972 
2580.6     66.36581   1.931266   0.2192986 
2580.8     64.94126   1.918484   0.2087622 
2581       64.30375   1.886274   0.1952155 
2581.2     66.62553   1.881144   0.1982259 
2581.4     70.97791   1.918231   0.2177934 
2581.6     73.63812   1.932276   0.2509075 
2581.8     78.96643   1.910242   0.2764958 
2582       85.83735   1.903514   0.2840217 
2582.2     85.81374   1.897796   0.246392  
2582.4     77.36086   1.915792   0.2358556 
2582.6     65.13015   1.944806   0.2177934 
2582.8     54.8828    1.925884   0.1952155 
2583       51.05775   1.900991   0.1846792 
2583.2     51.31748   1.894684   0.1861844 
2583.4     57.48005   1.904944   0.2027415 
2583.6     64.15421   1.934798   0.2253193 
2583.8     69.34085   1.918399   0.2433816 
2584       71.81218   1.895777   0.2584335 
2584.2     70.77328   1.892498   0.2539179 
2584.4     69.49825   1.911251   0.2584335 
2584.6     68.81352   1.931519   0.2509075 
2584.8     71.75709   1.909317   0.2524127 
2585       73.88211   1.885854   0.2644542 
2585.2     73.646     1.886106   0.278001  
2585.4     70.11215   1.897712   0.2764958 
2585.6     71.90662   1.910663   0.2734854 
2585.8     74.85017   1.897375   0.270475  
2586       76.4164    1.878117   0.2900424 
2586.2     76.63677   1.873407   0.3111151 
2586.4     75.19647   1.901075   0.302084  
2586.6     72.6858    1.906121   0.2840217 
2586.8     72.08765   1.885602   0.2795061 
2587       72.88256   1.886695   0.2810113 
2587.2     76.09371   1.907635   0.2855269 
2587.4     77.96688   1.926221   0.2810113 
2587.6     77.31363   1.913017   0.278001  
2587.8     79.87154   1.896366   0.2915477 
2588       81.11507   1.906037   0.3050944 
2588.2     79.39931   1.928828   0.2719802 
2588.4     75.70806   1.915204   0.2524127 
2588.6     72.18209   1.888797   0.2403712 
2588.8     72.63857   1.892245   0.2358556 
2589       75.42472   1.921427   0.2343505 
2589.2     74.11035   1.911924   0.2253193 
2589.4     72.00893   1.889218   0.2283297 
2589.6     70.71819   1.898468   0.2253193 
2589.8     69.15195   1.914867   0.2102674 
2590       67.25517   1.897123   0.1997311 
2590.2     64.96487   1.890059   0.2102674 
2590.4     66.54683   1.896871   0.2132778 
2590.6     69.62419   1.908392   0.214783  
2590.8     68.46722   1.889975   0.238866  
2591       67.49129   1.879042   0.2614439 
2591.2     70.11215   1.902085   0.2930528 
2591.4     70.51355   1.904523   0.3035891 
2591.6     70.08855   1.885265   0.2840217 
2591.8     70.41123   1.887704   0.2614439 
2592       70.26956   1.907215   0.2509075 
2592.2     69.77373   1.896198   0.2599387 
2592.4     69.94688   1.884256   0.2689698 
2592.6     69.6478    1.907383   0.2795061 
2592.8     69.52187   1.909485   0.2749906 
2593       67.98713   1.882154   0.2554231 
2593.2     66.22414   1.896198   0.238866  
2593.4     68.43575   1.90301    0.2433816 
2593.6     69.87604   1.884761   0.2448868 
2593.8     72.22931   1.890143   0.246392  
2594       74.08674   1.917895   0.2524127 
2594.2     73.97655   1.898132   0.262949  
2594.4     73.62238   1.897712   0.2614439 
2594.6     75.76315   1.91697    0.2373608 
2594.8     75.42472   1.89645    0.2403712 
2595       75.50343   1.898468   0.2614439 
2595.2     78.65948   1.907046   0.278001  
2595.4     79.8007    1.888377   0.2855269 
2595.6     78.50208   1.90116    0.2870321 
2595.8     78.2817    1.89132    0.2900424 
2596       79.3206    1.895693   0.2840217 
2596.2     79.37569   1.900907   0.2870321 
2596.4     79.99747   1.89275    0.2915477 
2596.6     80.91044   1.907467   0.2870321 
2596.8     81.26461   1.890227   0.294558  
2597       79.89514   1.902757   0.2885373 
2597.2     79.22616   1.897207   0.2719802 
2597.4     76.86502   1.905701   0.2689698 
2597.6     74.91314   1.910158   0.262949  
2597.8     75.29092   1.902757   0.2478972 
2598       75.97565   1.919997   0.246392  
2598.2     77.02242   1.90343    0.262949  
2598.4     78.79328   1.911251   0.2870321 
2598.6     80.00533   1.901496   0.2855269 
2598.8     77.29002   1.909906   0.270475  
2599       74.33073   1.904019   0.2614439 
2599.2     73.26035   1.903346   0.246392  
2599.4     72.8983    1.915792   0.2268245 
2599.6     72.7645    1.886022   0.2223089 
2599.8     74.3386    1.900823   0.2177934 
2600       78.5493    1.901832   0.2027415 
2600.2     78.18726   1.887284   0.2042467 
2600.4     76.21964   1.876771   0.2223089 
2600.6     77.13261   1.890479   0.2343505 
2600.8     76.39279   1.86567    0.2418764 
2601       73.80341   1.885013   0.2494023 
2601.2     73.19738   1.916465   0.2614439 
2601.4     74.85017   1.92437    0.2689698 
2601.6     75.36963   1.898973   0.2614439 
2601.8     73.88998   1.888965   0.2644542 
2602       73.60664   1.891068   0.2584335 
2602.2     76.10159   1.843805   0.2569283 
2602.4     76.6289    1.92395    0.2659594 
2602.6     76.36918   1.953973   0.2539179 
2602.8     77.95114   2.076166   0.2448868 
2603       79.48588   2.432234   0.2494023 
2603.2     79.12384   2.434757   0.2524127 
2603.4     80.0683    2.437364   0.262949  
2603.6     81.39841   2.43997    0.2870321 
2603.8     81.68174   2.442577   0.2960632 
2604       78.58865   2.445185   0.302084  
2604.2     76.35343   2.447792   0.2960632 
2604.4     76.13306   2.450483   0.2749906 
2604.6     75.5113    2.45309    0.2614439 
2604.8     77.14049   2.455781   0.2749906 
2605       79.297     2.458472   0.2764958 
2605.2     78.44698   2.461163   0.2539179 
2605.4     78.30531   2.463938   0.262949  
2605.6     78.36828   2.466629   0.3035891 
2605.8     77.71503   2.469405   0.3096099 
2606       77.90392   2.47218    0.3065995 
2606.2     77.23493   2.474955   0.3126203 
2606.4     79.12384   2.47773    0.302084  
2606.6     79.36783   2.48059    0.294558  
2606.8     79.75348   2.483449   0.302084  
2607       80.96553   2.486308   0.2960632 
2607.2     82.83083   2.489167   0.2825165 
2607.4     83.86974   2.492027   0.2840217 
2607.6     84.39706   2.494886   0.278001  
2607.8     85.7429    2.497829   0.262949  
2608       84.80632   2.500773   0.2524127 
2608.2     79.14745   2.503716   0.2644542 
2608.4     79.19467   2.50666    0.2599387 
2608.6     79.33634   2.509687   0.2539179 
2608.8     79.722     2.51263    0.2584335 
2609       78.12429   2.515658   0.2659594 
2609.2     74.9761    2.51877    0.2674646 
2609.4     73.67747   2.521797   0.2614439 
2609.6     74.44091   2.524825   0.2855269 
2609.8     75.22796   2.527936   0.3050944 
2610       74.72425   2.531048   0.3111151 
2610.2     75.28306   2.534159   0.3171358 
2610.4     77.62058   2.537355   0.3171358 
2610.6     78.8956    2.540551   0.3050944 
2610.8     78.29744   2.543663   0.2840217 
2611       77.74651   2.546942   0.2659594 
2611.2     75.62148   2.550138   0.2509075 
2611.4     70.52142   2.553334   0.2539179 
2611.6     70.73392   2.556613   0.2494023 
2611.8     73.22099   2.559893   0.2403712 
2612       72.35524   2.563257   0.2433816 
2612.2     70.81263   2.566537   0.2584335 
