~Version
 VERS              .         2.0                           : CWLS LOG ASCII STANDARD - VERSION 2.0
 WRAP              .         NO                            : ONE LINE PER DEPTH STEP
 DLM               .         SPACE                         : DELIMITING CHARACTER(SPACE TAB OR COMMA)
~Well Information
#_______________________________________________________________________________
#
#PARAMETER_NAME    .UNIT     VALUE                         : DESCRIPTION
#_______________________________________________________________________________
STRT               .m        2576                          : First reference value
STOP               .m        2792.8                        : Last reference value
STEP               .m        0.2                           : Step increment
NULL               .         -9999                         : Missing value
COMP               .                                       : Company
WELL               .         308                           : Well name
FLD                .                                       : Field
LOC                .                                       : Location
CNTY               .                                       : County
STAT               .                                       : State
CTRY               .                                       : Country
SRVC               .                                       : Service Company
DATE               .                                       : Date
API                .                                       : API number
Cartographic_reference_system .         GCS_WGS_1984                  : GEOGCS["GCS_WGS_1984",DATUM["D_WGS_1984",SPHEROID["WGS_1984",6378137.0,298.257223563]],PRIMEM["Greenwich",0.0],UNIT["Degree",0.0174532925199433],AUTHORITY["EPSG",4326]]
EREF               .m        138.34                        : 
HZCS               .GCS_WGS_1984 World_Mercator                : PROJCS["World_Mercator",GEOGCS["GCS_WGS_1984",DATUM["D_WGS_1984",SPHEROID["WGS_1984",6378137.0,298.257223563]],PRIMEM["Greenwich",0.0],UNIT["Degree",0.0174532925199433]],PROJECTION["Mercator"],PARAMETER["False_Easting",0.0],PARAMETER["False_Northing",0.0],PARAMETER["Central_Meridian",0.0],PARAMETER["Standard_Parallel_1",0.0],UNIT["Meter",1.0],AUTHORITY["ESRI",54004]]
LATI               .dega     2.2598774867                  : GCS_WGS_1984
LONG               .dega     1.9740478369                  : GCS_WGS_1984
PROJECT_UPGRADE_TIME .         2014-05-27T11_38_46           : 
Pad                .         Pad3                          : 
X                  .m        219750                        : 
Y                  .m        249950                        : 
group              .         Pad3                          : 
Интер-р            .         Зайцев                        : 
Куст               .         3                             : 
Статус             .         Не проверено                  : 
Тип                .         Разведка                      : 
~Parameter Information Block
#_______________________________________________________________________________
#
#PARAMETER_NAME    .UNIT     VALUE                         : DESCRIPTION
#_______________________________________________________________________________
SET                .         LQC                           : 
PROJECT_UPGRADE_TIME .         2014-05-27T11_38_46           : 
TLFamily_GR_NORM   .         Gamma Ray                     : 
TLFamily_MD        .         Measured Depth                : 
TLFamily_RHOB_NORM .         Bulk Density                  : 
TLFamily_TNPH_NORM .         Neutron Porosity              : 
~Curve Information
#_______________________________________________________________________________
#
#LOGNAME           .UNIT     LOG_ID                        : DESCRIPTION
#_______________________________________________________________________________
MD                 .m                                      :  
GR_NORM            .gAPI                                   : Normalised By Techlog 
RHOB_NORM          .g/cm3                                  : Normalized By Techlog 
TNPH_NORM          .v/v                                    : Normalised By Techlog 
~Ascii
# ...
2612.4     70.26169   2.569901   0.2539179 
2612.6     73.26035   2.573265   0.2494023 
2612.8     75.81824   2.576628   0.2554231 
2613       76.6289    2.580076   0.2569283 
2613.2     75.43259   2.583524   0.2569283 
2613.4     73.75618   2.586972   0.2584335 
2613.6     71.83579   2.59042    0.246392  
2613.8     71.10384   2.593953   0.2268245 
2614       72.87469   2.597485   0.2283297 
2614.2     77.36086   2.601017   0.2659594 
2614.4     80.16274   2.603792   0.2825165 
2614.6     81.04424   2.578226   0.278001  
2614.8     82.07526   2.573349   0.2494023 
2615       82.4688    2.560902   0.2448868 
2615.2     82.63407   2.570321   0.2524127 
2615.4     80.9183    2.560061   0.2614439 
2615.6     80.3359    2.594205   0.2689698 
2615.8     79.13958   2.598157   0.2659594 
2616       76.94372   2.550222   0.2569283 
2616.2     77.26641   2.593616   0.2448868 
2616.4     76.40067   2.571499   0.2539179 
2616.6     75.44833   2.57789    0.2554231 
2616.8     74.93675   2.561407   0.2418764 
2617       73.97655   2.567883   0.2418764 
2617.2     71.70986   2.573853   0.2433816 
2617.4     70.85198   2.532898   0.2403712 
2617.6     73.73257   2.528188   0.2448868 
2617.8     78.21874   2.550306   0.238866  
2618       80.61922   2.56435    0.2494023 
2618.2     81.05211   2.544503   0.2614439 
2618.4     80.65072   2.571751   0.2524127 
2618.6     77.65993   2.610352   0.2614439 
2618.8     76.19603   2.572844   0.2734854 
2619       76.69186   2.610604   0.262949  
2619.2     76.29047   2.593196   0.2478972 
2619.4     76.64464   2.543326   0.246392  
2619.6     79.65903   2.526338   0.2584335 
2619.8     80.28867   2.536935   0.2719802 
2620       77.77798   2.571414   0.2584335 
2620.2     79.02152   2.595887   0.2554231 
2620.4     82.61046   2.574022   0.2795061 
2620.6     84.36558   2.547867   0.302084  
2620.8     86.30958   2.520788   0.3111151 
2621       88.04108   2.563761   0.302084  
2621.2     88.03321   2.529954   0.2764958 
2621.4     84.61743   2.540803   0.2614439 
2621.6     79.24191   2.572424   0.2524127 
2621.8     75.94417   2.579151   0.2418764 
2622       74.19692   2.600176   0.2328453 
2622.2     75.45621   2.606651   0.2524127 
2622.4     75.20435   2.560145   0.2795061 
2622.6     74.65342   2.608249   0.2975684 
2622.8     72.88256   2.637767   0.2900424 
2623       72.53626   2.58344    0.2764958 
2623.2     73.78766   2.580413   0.2659594 
2623.4     75.40111   2.60724    0.2644542 
2623.6     77.29002   2.587981   0.2885373 
2623.8     81.69748   2.589411   0.3096099 
2624       86.37254   2.590252   0.3171358 
2624.2     88.92258   2.594289   0.3291774 
2624.4     89.29249   2.584113   0.326167  
2624.6     88.86748   2.583104   0.3065995 
2624.8     84.12946   2.545429   0.2825165 
2625       80.87109   2.548204   0.2674646 
2625.2     79.65117   2.567209   0.2584335 
2625.4     78.91134   2.553502   0.2614439 
2625.6     77.57336   2.540971   0.2599387 
2625.8     77.81734   2.570658   0.2659594 
2626       79.71413   2.559473   0.2659594 
2626.2     81.86276   2.525834   0.2494023 
2626.4     83.65723   2.541728   0.2373608 
2626.6     85.61697   2.601269   0.2433816 
2626.8     85.00308   2.599671   0.2539179 
2627       86.20726   2.585711   0.2674646 
2627.2     85.23919   2.579656   0.2749906 
2627.4     82.92528   2.527936   0.2749906 
2627.6     83.08269   2.526338   0.2885373 
2627.8     83.90909   2.565528   0.2855269 
2628       80.65072   2.620107   0.2599387 
2628.2     78.87199   2.615818   0.2509075 
2628.4     77.31363   2.569564   0.2478972 
2628.6     74.13396   2.606651   0.2494023 
2628.8     73.46497   2.600176   0.238866  
2629       75.02333   2.604717   0.2328453 
2629.2     76.95947   2.603624   0.2418764 
2629.4     76.81779   2.597653   0.2433816 
2629.6     74.81082   2.574022   0.2403712 
2629.8     73.18951   2.609174   0.2328453 
2630       73.94508   2.576965   0.2418764 
2630.2     74.42517   2.563594   0.270475  
2630.4     74.62193   2.552661   0.294558  
2630.6     73.82701   2.571583   0.2810113 
2630.8     74.65342   2.555184   0.278001  
2631       80.45395   2.535505   0.2795061 
2631.2     85.30216   2.513808   0.2825165 
2631.4     86.40403   2.587981   0.3035891 
2631.6     86.77394   2.587981   0.3005787 
2631.8     84.87715   2.59513    0.2960632 
2632       81.68961   2.578394   0.2840217 
2632.2     78.40763   2.556109   0.2584335 
2632.4     74.34647   2.576797   0.2494023 
2632.6     71.21402   2.51919    0.2539179 
2632.8     71.47375   2.550474   0.2509075 
2633       66.77508   2.590757   0.2614439 
2633.2     64.8232    2.549633   0.2644542 
2633.4     68.16029   2.596812   0.2599387 
2633.6     71.15893   2.571583   0.2584335 
2633.8     71.23763   2.542233   0.2478972 
2634       70.80476   2.55367    0.2494023 
2634.2     71.56819   2.557118   0.278001  
2634.4     72.33163   2.520536   0.2990736 
2634.6     75.16499   2.535925   0.2930528 
2634.8     75.73167   2.582263   0.270475  
2635       72.71728   2.564855   0.246392  
2635.2     70.3404    2.546017   0.2448868 
2635.4     71.01727   2.542906   0.2554231 
2635.6     73.55943   2.562164   0.2524127 
2635.8     73.22099   2.56023    0.2298349 
2636       72.62283   2.539373   0.2223089 
2636.2     73.98443   2.594121   0.2343505 
2636.4     75.91269   2.590841   0.2494023 
2636.6     77.37659   2.594037   0.2689698 
2636.8     78.03771   2.578899   0.2689698 
2637       79.14745   2.599082   0.2569283 
2637.2     80.72155   2.578394   0.2509075 
2637.4     80.98127   2.555773   0.2554231 
2637.6     80.22571   2.609595   0.2734854 
2637.8     81.48499   2.587981   0.278001  
2638       79.84005   2.618257   0.2674646 
2638.2     76.32982   2.575704   0.2825165 
2638.4     75.77103   2.541896   0.2885373 
2638.6     79.13958   2.535084   0.2810113 
2638.8     82.19333   2.57419    0.2825165 
2639       85.798     2.576713   0.2734854 
2639.2     87.29339   2.563005   0.2524127 
2639.4     85.67995   2.56023    0.2524127 
2639.6     85.01882   2.54526    0.2599387 
2639.8     84.54659   2.535589   0.262949  
2640       81.54794   2.542989   0.270475  
2640.2     77.15623   2.527095   0.2764958 
2640.4     76.64464   2.515238   0.2734854 
2640.6     79.37569   2.51036    0.2825165 
2640.8     82.31925   2.545933   0.2975684 
2641       82.24055   2.551988   0.3050944 
2641.2     80.87109   2.576545   0.2900424 
2641.4     80.2808    2.581842   0.2584335 
2641.6     79.61182   2.545344   0.2734854 
2641.8     81.06785   2.586384   0.2810113 
2642       85.77439   2.542064   0.2764958 
2642.2     87.00217   2.545092   0.2749906 
2642.4     84.86928   2.539794   0.2870321 
2642.6     83.84612   2.567966   0.2840217 
2642.8     83.68871   2.578058   0.2885373 
2643       83.57066   2.555184   0.2885373 
2643.2     83.67297   2.559641   0.262949  
2643.4     84.46001   2.564435   0.2644542 
2643.6     84.23178   2.591177   0.278001  
2643.8     81.241     2.587477   0.2659594 
2644       77.5891    2.585291   0.2539179 
2644.2     76.35343   2.581927   0.2418764 
2644.4     76.7627    2.605978   0.246392  
2644.6     78.16365   2.595298   0.2614439 
2644.8     79.75348   2.61422    0.2614439 
2645       80.32015   2.634908   0.2614439 
2645.2     79.26551   2.590504   0.2644542 
2645.4     79.87154   2.56948    0.2689698 
2645.6     81.47711   2.568471   0.2915477 
2645.8     83.01972   2.54812    0.302084  
2646       83.62575   2.543746   0.2855269 
2646.2     84.84567   2.57419    0.2825165 
2646.4     85.51466   2.587225   0.2840217 
2646.6     84.42854   2.622462   0.2885373 
2646.8     81.65813   2.582684   0.2855269 
2647       80.01321   2.609426   0.2855269 
2647.2     82.02017   2.648363   0.2825165 
2647.4     83.12204   2.642056   0.2674646 
2647.6     83.69659   2.600596   0.2539179 
2647.8     85.71143   2.587393   0.2659594 
2648       85.49105   2.561239   0.2795061 
2648.2     86.19939   2.558043   0.2900424 
2648.4     87.05727   2.579824   0.302084  
2648.6     87.19107   2.599755   0.302084  
