~Version
 VERS              .         2.0                           : CWLS LOG ASCII STANDARD - VERSION 2.0
 WRAP              .         NO                            : ONE LINE PER DEPTH STEP
 DLM               .         SPACE                         : DELIMITING CHARACTER(SPACE TAB OR COMMA)
~Well Information
#_______________________________________________________________________________
#
#PARAMETER_NAME    .UNIT     VALUE                         : DESCRIPTION
#_______________________________________________________________________________
STRT               .m        2576                          : First reference value
STOP               .m        2792.8                        : Last reference value
STEP               .m        0.2                           : Step increment
NULL               .         -9999                         : Missing value
COMP               .                                       : Company
WELL               .         308                           : Well name
FLD                .                                       : Field
LOC                .                                       : Location
CNTY               .                                       : County
STAT               .                                       : State
CTRY               .                                       : Country
SRVC               .                                       : Service Company
DATE               .                                       : Date
API                .                                       : API number
Cartographic_reference_system .         GCS_WGS_1984                  : GEOGCS["GCS_WGS_1984",DATUM["D_WGS_1984",SPHEROID["WGS_1984",6378137.0,298.257223563]],PRIMEM["Greenwich",0.0],UNIT["Degree",0.0174532925199433],AUTHORITY["EPSG",4326]]
EREF               .m        138.34                        : 
HZCS               .GCS_WGS_1984 World_Mercator                : PROJCS["World_Mercator",GEOGCS["GCS_WGS_1984",DATUM["D_WGS_1984",SPHEROID["WGS_1984",6378137.0,298.257223563]],PRIMEM["Greenwich",0.0],UNIT["Degree",0.0174532925199433]],PROJECTION["Mercator"],PARAMETER["False_Easting",0.0],PARAMETER["False_Northing",0.0],PARAMETER["Central_Meridian",0.0],PARAMETER["Standard_Parallel_1",0.0],UNIT["Meter",1.0],AUTHORITY["ESRI",54004]]
LATI               .dega     2.2598774867                  : GCS_WGS_1984
LONG               .dega     1.9740478369                  : GCS_WGS_1984
PROJECT_UPGRADE_TIME .         2014-05-27T11_38_46           : 
Pad                .         Pad3                          : 
X                  .m        219750                        : 
Y                  .m        249950                        : 
group              .         Pad3                          : 
Интер-р            .         Зайцев                        : 
Куст               .         3                             : 
Статус             .         Не проверено                  : 
Тип                .         Разведка                      : 
~Parameter Information Block
#_______________________________________________________________________________
#
#PARAMETER_NAME    .UNIT     VALUE                         : DESCRIPTION
#_______________________________________________________________________________
SET                .         LQC                           : 
PROJECT_UPGRADE_TIME .         2014-05-27T11_38_46           : 
TLFamily_GR_NORM   .         Gamma Ray                     : 
TLFamily_MD        .         Measured Depth                : 
TLFamily_RHOB_NORM .         Bulk Density                  : 
TLFamily_TNPH_NORM .         Neutron Porosity              : 
~Curve Information
#_______________________________________________________________________________
#
#LOGNAME           .UNIT     LOG_ID                        : DESCRIPTION
#_______________________________________________________________________________
MD                 .m                                      :  
GR_NORM            .gAPI                                   : Normalised By Techlog 
RHOB_NORM          .g/cm3                                  : Normalized By Techlog 
TNPH_NORM          .v/v                                    : Normalised By Techlog 
~Ascii
# ...
2758       2.528445   1.756008   0.4721704 
2758.2     3.252528   1.771734   0.4601288 
2758.4     7.31369    1.795197   0.4571184 
2758.6     12.99617   1.82337    0.4812015 
2758.8     26.59634   1.860793   0.4796963 
2759       53.8439    2.064476   0.3788486 
2759.2     71.06448   2.352509   0.3201462 
2759.4     69.02603   2.457799   0.2569283 
2759.6     65.89359   2.428701   0.2343505 
2759.8     67.62508   2.331906   0.2494023 
2760       66.35795   2.2854     0.2975684 
2760.2     61.13195   2.237549   0.3216514 
2760.4     57.15736   2.158413   0.3412189 
2760.6     63.10744   2.136211   0.3487448 
2760.8     72.50478   2.401034   0.2930528 
2761       77.34512   2.611529   0.2614439 
2761.2     81.21738   2.58857    0.2554231 
2761.4     84.9716    2.6175     0.2373608 
2761.6     85.29429   2.601521   0.2208037 
2761.8     84.26326   2.605894   0.2192986 
2762       82.4137    2.590925   0.2298349 
2762.2     79.18681   2.583272   0.2313401 
2762.4     78.13216   2.597401   0.2313401 
2762.6     78.07706   2.630787   0.2313401 
2762.8     76.83353   2.680909   0.238866  
2763       75.41685   2.701177   0.2298349 
2763.2     70.09641   2.625909   0.2253193 
2763.4     67.56213   2.601017   0.2403712 
2763.6     70.43484   2.588907   0.2644542 
2763.8     76.15668   2.590336   0.2644542 
2764       81.87851   2.588823   0.2674646 
2764.2     81.35118   2.632217   0.2599387 
2764.4     76.99094   2.647943   0.2569283 
2764.6     71.74135   2.625068   0.2719802 
2764.8     69.3015    2.566032   0.2795061 
2765       68.78204   2.590673   0.2870321 
2765.2     68.1288    2.545681   0.2795061 
2765.4     67.94778   2.472937   0.2674646 
2765.6     69.95475   2.45721    0.2689698 
2765.8     72.11913   2.400949   0.2900424 
2766       73.94508   2.461079   0.2855269 
2766.2     77.21919   2.454267   0.262949  
2766.4     76.67612   2.441821   0.2478972 
2766.6     64.65005   2.438793   0.2192986 
2766.8     54.44992   2.462929   0.1937104 
2767       54.71752   2.472684   0.1907    
2767.2     58.04673   2.464695   0.2012363 
2767.4     63.59541   2.490008   0.2117726 
2767.6     71.45013   2.531468   0.2373608 
2767.8     76.98307   2.535084   0.2584335 
2768       77.14835   2.607324   0.2478972 
2768.2     74.78722   2.645336   0.2253193 
2768.4     75.2437    2.628348   0.2117726 
2768.6     78.53356   2.598242   0.1982259 
2768.8     77.00668   2.548961   0.2012363 
2769       72.67006   2.51221    0.2117726 
2769.2     67.15286   2.518686   0.2162882 
2769.4     60.49445   2.520031   0.2223089 
2769.6     54.15084   2.523984   0.2298349 
2769.8     49.39708   2.548035   0.2328453 
2770       49.91653   2.552997   0.2358556 
2770.2     52.81286   2.494466   0.2253193 
2770.4     54.29252   2.512967   0.2102674 
2770.6     53.8439    2.521292   0.1861844 
2770.8     52.01008   2.456454   0.1636066 
2771       48.1929    2.480001   0.1425339 
2771.2     44.60397   2.50052    0.1214613 
2771.4     40.62938   2.534328   0.1079146 
2771.6     38.11083   2.654503   0.09737822
2771.8     37.38675   2.763408   0.08383153
2772       39.49604   2.756008   0.07781077
2772.2     38.54371   2.721444   0.07329521
2772.4     36.91452   2.724892   0.06125369
2772.6     36.56035   2.831696   0.05523293
2772.8     36.26127   2.783508   0.06576926
2773       38.35482   2.73532    0.09135748
2773.2     43.46275   2.636842   0.1395235 
2773.4     48.28735   2.555268   0.2012363 
2773.6     50.86886   2.463854   0.2208037 
2773.8     53.50547   2.372861   0.2328453 
2774       56.20504   2.41163    0.2494023 
2774.2     58.20414   2.37858    0.2539179 
2774.4     56.54346   2.391699   0.2524127 
2774.6     57.38561   2.42189    0.2403712 
2774.8     64.4769    2.422394   0.2478972 
2775       75.5113    2.456117   0.2584335 
2775.2     82.13824   2.492027   0.262949  
2775.4     81.7998    2.551568   0.2599387 
2775.6     77.17197   2.5662     0.2674646 
2775.8     71.45801   2.630198   0.2825165 
2776       70.99365   2.668547   0.2719802 
2776.2     75.14138   2.57974    0.2584335 
2776.4     80.07617   2.545597   0.2509075 
2776.6     84.12946   2.576208   0.2614439 
2776.8     88.12766   2.576713   0.270475  
2777       87.42719   2.548961   0.294558  
2777.2     83.72019   2.51179    0.3141254 
2777.4     80.10765   2.516163   0.2840217 
2777.6     75.29092   2.528525   0.2554231 
2777.8     66.31859   2.528188   0.2524127 
2778       57.38561   2.571583   0.2689698 
2778.2     55.53605   2.60211    0.2885373 
2778.4     55.55179   2.601858   0.294558  
2778.6     56.08698   2.56536    0.294558  
2778.8     58.98331   2.54997    0.2885373 
2779       62.46993   2.504725   0.2840217 
2779.2     64.49264   2.492279   0.2930528 
2779.4     69.0339    2.506996   0.2825165 
2779.6     74.10248   2.540298   0.2825165 
2779.8     79.00578   2.485888   0.2810113 
2780       81.64239   2.505146   0.2825165 
2780.2     81.20164   2.473189   0.2975684 
2780.4     79.98173   2.476048   0.3246618 
2780.6     77.47105   2.510696   0.3532604 
2780.8     76.90437   2.565023   0.3683123 
2781       77.94328   2.556277   0.3592811 
2781.2     76.66039   2.467134   0.3412189 
2781.4     73.23673   2.399688   0.3156307 
2781.6     70.52142   2.425422   0.2915477 
2781.8     68.27834   2.446951   0.2719802 
2782       69.55335   2.450062   0.2614439 
2782.2     71.66264   2.476637   0.2614439 
2782.4     73.05571   2.480674   0.2855269 
2782.6     73.5122    2.437532   0.3050944 
2782.8     74.67702   2.385728   0.3171358 
2783       71.3242    2.244529   0.3397137 
2783.2     61.66714   2.134109   0.357776  
2783.4     46.50862   2.043032   0.3878798 
2783.6     36.69415   1.9258     0.4405614 
2783.8     45.13129   1.843301   0.4330354 
2784       62.6903    1.824968   0.3668071 
2784.2     72.52839   2.027726   0.3246618 
2784.4     70.22234   2.415498   0.3035891 
2784.6     68.90011   2.511705   0.2990736 
2784.8     67.52277   2.56065    0.2840217 
2785       64.57922   2.561491   0.2584335 
2785.2     62.64308   2.556361   0.2569283 
2785.4     64.53986   2.53643    0.2599387 
2785.6     66.50748   2.528945   0.2659594 
2785.8     68.85288   2.569396   0.2644542 
2786       71.3242    2.570994   0.2599387 
2786.2     76.4164    2.601269   0.2659594 
2786.4     84.74335   2.650129   0.278001  
2786.6     91.6064    2.615313   0.2614439 
2786.8     94.43977   2.596896   0.246392  
2787       93.89671   2.551399   0.2539179 
2787.2     93.09392   2.60026    0.2734854 
2787.4     92.47216   2.660558   0.2810113 
2787.6     87.54524   2.692851   0.2764958 
2787.8     77.16409   2.655007   0.2810113 
2788       65.42136   2.565864   0.2584335 
2788.2     57.9995    2.578479   0.2343505 
2788.4     52.62398   2.568892   0.2057519 
2788.6     47.57114   2.542317   0.1741429 
2788.8     43.10858   2.529282   0.1681221 
2789       39.07103   2.552661   0.1726377 
2789.2     36.92239   2.585543   0.1455443 
2789.4     36.88304   2.594541   0.1335028 
2789.6     38.11083   2.564182   0.1425339 
2789.8     39.62983   2.503043   0.1560806 
2790       39.59835   2.463097   0.1711325 
2790.2     40.5192    2.452249   0.1876896 
2790.4     42.10903   2.426095   0.1982259 
2790.6     44.26554   2.403136   0.1997311 
2790.8     45.42249   2.446951   0.1997311 
2791       47.31141   2.479496   0.2057519 
2791.2     48.12207   2.486056   0.2238141 
2791.4     48.24013   2.505734   0.2418764 
2791.6     48.14568   2.476889   0.2524127 
2791.8     44.76138   2.532477   0.2674646 
2792       40.07058   2.56208    0.2810113 
2792.2     40.02336   2.600848   0.302084  
2792.4     39.95252   2.5276     0.3111151 
2792.6     41.12522   2.526591   0.2855269 
2792.8     42.01458   2.504557   0.2659594 
