~Version
 VERS              .         2.0                           : CWLS LOG ASCII STANDARD - VERSION 2.0
 WRAP              .         NO                            : ONE LINE PER DEPTH STEP
 DLM               .         SPACE                         : DELIMITING CHARACTER(SPACE TAB OR COMMA)
~Well Information
#_______________________________________________________________________________
#
#PARAMETER_NAME    .UNIT     VALUE                         : DESCRIPTION
#_______________________________________________________________________________
STRT               .m        2576                          : First reference value
STOP               .m        2792.8                        : Last reference value
STEP               .m        0.2                           : Step increment
NULL               .         -9999                         : Missing value
COMP               .                                       : Company
WELL               .         308                           : Well name
FLD                .                                       : Field
LOC                .                                       : Location
CNTY               .                                       : County
STAT               .                                       : State
CTRY               .                                       : Country
SRVC               .                                       : Service Company
DATE               .                                       : Date
API                .                                       : API number
Cartographic_reference_system .         GCS_WGS_1984                  : GEOGCS["GCS_WGS_1984",DATUM["D_WGS_1984",SPHEROID["WGS_1984",6378137.0,298.257223563]],PRIMEM["Greenwich",0.0],UNIT["Degree",0.0174532925199433],AUTHORITY["EPSG",4326]]
EREF               .m        138.34                        : 
HZCS               .GCS_WGS_1984 World_Mercator                : PROJCS["World_Mercator",GEOGCS["GCS_WGS_1984",DATUM["D_WGS_1984",SPHEROID["WGS_1984",6378137.0,298.257223563]],PRIMEM["Greenwich",0.0],UNIT["Degree",0.0174532925199433]],PROJECTION["Mercator"],PARAMETER["False_Easting",0.0],PARAMETER["False_Northing",0.0],PARAMETER["Central_Meridian",0.0],PARAMETER["Standard_Parallel_1",0.0],UNIT["Meter",1.0],AUTHORITY["ESRI",54004]]
LATI               .dega     2.2598774867                  : GCS_WGS_1984
LONG               .dega     1.9740478369                  : GCS_WGS_1984
PROJECT_UPGRADE_TIME .         2014-05-27T11_38_46           : 
Pad                .         Pad3                          : 
X                  .m        219750                        : 
Y                  .m        249950                        : 
group              .         Pad3                          : 
Интер-р            .         Зайцев                        : 
Куст               .         3                             : 
Статус             .         Не проверено                  : 
Тип                .         Разведка                      : 
~Parameter Information Block
#_______________________________________________________________________________
#
#PARAMETER_NAME    .UNIT     VALUE                         : DESCRIPTION
#_______________________________________________________________________________
SET                .         LQC                           : 
PROJECT_UPGRADE_TIME .         2014-05-27T11_38_46           : 
TLFamily_GR_NORM   .         Gamma Ray                     : 
TLFamily_MD        .         Measured Depth                : 
TLFamily_RHOB_NORM .         Bulk Density                  : 
TLFamily_TNPH_NORM .         Neutron Porosity              : 
~Curve Information
#_______________________________________________________________________________
#
#LOGNAME           .UNIT     LOG_ID                        : DESCRIPTION
#_______________________________________________________________________________
MD                 .m                                      :  
GR_NORM            .gAPI                                   : Normalised By Techlog 
RHOB_NORM          .g/cm3                                  : Normalized By Techlog 
TNPH_NORM          .v/v                                    : Normalised By Techlog 
~Ascii
# ...
2685.2     251.8255   2.346959   0.3246618 
2685.4     281.1981   2.35991    0.357776  
2685.6     297.3011   2.33426    0.3893849 
2685.8     296.1048   2.302976   0.381859  
2686       294.208    2.314077   0.3547656 
2686.2     296.3566   2.283718   0.3547656 
2686.4     302.6215   2.284979   0.3562708 
2686.6     304.2507   2.299528   0.3321878 
2686.8     313.8763   2.297846   0.3246618 
2687       330.8607   2.30491    0.3246618 
2687.2     346.3105   2.276906   0.3351981 
2687.4     356.9041   2.274888   0.3246618 
2687.6     354.2282   2.265132   0.3156307 
2687.8     337.3067   2.273962   0.3171358 
2688       319.3384   2.255545   0.3156307 
2688.2     295.8057   2.23738    0.3457344 
2688.4     273.8156   2.229896   0.3607863 
2688.6     268.2984   2.211058   0.3547656 
2688.8     278.9708   2.212572   0.35025   
2689       286.5579   2.203994   0.3547656 
2689.2     290.5718   2.191295   0.3517552 
2689.4     298.3478   2.221149   0.3562708 
2689.6     304.9433   2.247051   0.3592811 
2689.8     306.9267   2.25134    0.3336929 
2690       307.029    2.249827   0.3427241 
2690.2     300.2053   2.221654   0.3517552 
2690.4     283.7324   2.213749   0.3592811 
2690.6     270.8327   2.224682   0.3653019 
2690.8     258.1219   2.261853   0.3713227 
2691       248.8269   2.302892   0.4044368 
2691.2     247.4732   2.278251   0.413468  
2691.4     246.7176   2.277411   0.4149731 
2691.6     241.6647   2.303397   0.4014264 
2691.8     232.4878   2.319964   0.3939005 
2692       217.526    2.360415   0.4119627 
2692.2     200.0064   2.338213   0.4270147 
2692.4     189.3104   2.340988   0.4179835 
2692.6     188.2479   2.326187   0.3698175 
2692.8     194.8512   2.363526   0.3397137 
2693       187.0752   2.396156   0.35025   
2693.2     176.0487   2.386821   0.3412189 
2693.4     165.1481   2.368993   0.3291774 
2693.6     150.0682   2.371347   0.3201462 
2693.8     133.1782   2.374375   0.3216514 
2694       122.3799   2.381018   0.3186411 
2694.2     119.0665   2.379504   0.302084  
2694.4     119.5623   2.373702   0.3005787 
2694.6     122.3091   2.385644   0.302084  
2694.8     125.1976   2.387494   0.2975684 
2695       127.5666   2.389596   0.2960632 
2695.2     127.3147   2.380346   0.3096099 
2695.4     125.5517   2.391278   0.3231566 
2695.6     125.0244   2.377991   0.3141254 
2695.8     124.7332   2.386737   0.3096099 
2696       126.9133   2.393296   0.3065995 
2696.2     124.4341   2.401201   0.3081047 
2696.4     111.9673   2.402884   0.3126203 
2696.6     103.1524   2.379084   0.3141254 
2696.8     103.2862   2.395735   0.3005787 
2697       100.6338   2.398931   0.3035891 
2697.2     97.64305   2.359826   0.294558  
2697.4     94.06199   2.386148   0.2674646 
2697.6     92.71614   2.405911   0.246392  
2697.8     93.22772   2.405154   0.2554231 
2698       90.82722   2.371516   0.2749906 
2698.2     89.2374    2.342586   0.2719802 
2698.4     92.6217    2.356041   0.2644542 
2698.6     97.92639   2.381439   0.278001  
2698.8     99.64216   2.391194   0.302084  
2699       98.55603   2.394474   0.326167  
2699.2     97.03703   2.353518   0.3306825 
2699.4     101.0274   2.357976   0.3216514 
2699.6     106.6154   2.337624   0.3231566 
2699.8     106.5131   2.312311   0.3382085 
2700       102.5936   2.349314   0.3562708 
2700.2     98.71344   2.360162   0.3668071 
2700.4     99.68938   2.378748   0.3637967 
2700.6     104.8209   2.338381   0.3517552 
2700.8     107.9848   2.354107   0.3291774 
2701       108.9844   2.338297   0.3111151 
2701.2     110.6451   2.381607   0.3065995 
2701.4     111.6918   2.363442   0.3216514 
2701.6     109.8974   2.31475    0.3562708 
2701.8     108.4571   2.332747   0.3668071 
2702       104.3723   2.368404   0.3547656 
2702.2     97.69814   2.412134   0.3276722 
2702.4     95.20321   2.422478   0.3231566 
2702.6     100.3426   2.397417   0.3457344 
2702.8     107.4418   2.375552   0.3367033 
2703       109.4409   2.330224   0.3336929 
2703.2     102.0899   2.315338   0.3517552 
2703.4     93.84161   2.282793   0.3336929 
2703.6     88.93045   2.295912   0.2930528 
2703.8     89.19804   2.311218   0.2990736 
2704       92.04715   2.317777   0.3412189 
2704.2     98.35927   2.330896   0.3547656 
2704.4     105.2774   2.352173   0.3562708 
2704.6     111.558    2.39952    0.3517552 
2704.8     118.3424   2.419535   0.3457344 
2705       121.8998   2.401538   0.3276722 
2705.2     120.2707   2.346875   0.3246618 
2705.4     113.628    2.302556   0.326167  
2705.6     105.7024   2.280943   0.3171358 
2705.8     100.3977   2.257395   0.3065995 
2706       97.03703   2.229223   0.2975684 
2706.2     96.23424   2.212403   0.2975684 
2706.4     100.2482   2.203741   0.3246618 
2706.6     107.3159   2.210385   0.3457344 
2706.8     117.1618   2.211142   0.3397137 
2707       133.2412   2.209712   0.3351981 
2707.2     152.4924   2.183137   0.3442293 
2707.4     163.4165   2.16615    0.3397137 
2707.6     168.2175   2.18154    0.3367033 
2707.8     167.2652   2.196257   0.3487448 
2708       164.3059   2.230905   0.3592811 
2708.2     169.1856   2.265553   0.3532604 
2708.4     183.5728   2.274299   0.3803538 
2708.6     192.5215   2.29381    0.3863746 
2708.8     189.5386   2.332158   0.3622915 
2709       177.1112   2.3515     0.3457344 
2709.2     163.1726   2.369581   0.35025   
2709.4     152.4451   2.383205   0.3923953 
2709.6     145.0075   2.380598   0.4149731 
2709.8     138.2547   2.383205   0.3728279 
2710       127.9601   2.390269   0.3367033 
2710.2     113.0062   2.386989   0.3201462 
2710.4     104.2306   2.45864    0.3321878 
2710.6     100.4135   2.515994   0.3698175 
2710.8     101.1139   2.538617   0.3773434 
2711       100.2797   2.561996   0.357776  
2711.2     98.90233   2.57932    0.3607863 
2711.4     99.83104   2.601521   0.3382085 
2711.6     99.15418   2.52432    0.3126203 
2711.8     95.63608   2.519779   0.2975684 
2712       92.49577   2.509771   0.2674646 
2712.2     90.24481   2.51364    0.2524127 
2712.4     93.70782   2.500857   0.262949  
2712.6     105.7339   2.493709   0.2825165 
2712.8     116.7368   2.475039   0.2840217 
2713       120.1841   2.471927   0.2719802 
2713.2     117.8151   2.496652   0.2569283 
2713.4     114.6748   2.486308   0.2674646 
2713.6     111.9516   2.481346   0.2885373 
2713.8     110.7002   2.480169   0.294558  
2714       110.5978   2.454267   0.2825165 
2714.2     109.008    2.430467   0.3126203 
2714.4     107.7802   2.429879   0.3442293 
2714.6     109.9997   2.42046    0.3427241 
2714.8     112.2821   2.479917   0.3351981 
2715       113.2895   2.487317   0.3382085 
2715.2     115.6035   2.510696   0.3457344 
2715.4     114.0608   2.556361   0.3291774 
2715.6     110.8654   2.551315   0.3035891 
2715.8     105.9464   2.50481    0.3141254 
2716       102.8297   2.496484   0.3382085 
2716.2     101.7987   2.510528   0.3592811 
2716.4     101.0588   2.522722   0.35025   
2716.6     100.9093   2.521881   0.3382085 
2716.8     102.0348   2.515322   0.3231566 
2717       102.145    2.530291   0.326167  
2717.2     102.1764   2.497241   0.3532604 
2717.4     103.0658   2.514144   0.3592811 
2717.6     104.2464   2.526254   0.35025   
2717.8     105.3089   2.497241   0.3276722 
2718       105.6552   2.524993   0.3351981 
2718.2     108.7876   2.565948   0.3397137 
2718.4     109.9761   2.634824   0.326167  
2718.6     106.1117   2.549886   0.3065995 
2718.8     104.4431   2.534916   0.2870321 
2719       102.8454   2.510192   0.2689698 
2719.2     94.62867   2.487822   0.2478972 
2719.4     80.19422   2.498166   0.2298349 
2719.6     68.44361   2.504557   0.2313401 
2719.8     80.8947    2.485719   0.278001  
2720       103.0107   2.522049   0.302084  
2720.2     110.2043   2.510108   0.2795061 
2720.4     112.7465   2.52104    0.2900424 
2720.6     113.0692   2.53273    0.3111151 
2720.8     113.3053   2.545681   0.3397137 
2721       115.4539   2.568807   0.3607863 
2721.2     114.8085   2.556445   0.357776  
2721.4     112.778    2.51364    0.3427241 
