~Version
 VERS              .         2.0                           : CWLS LOG ASCII STANDARD - VERSION 2.0
 WRAP              .         NO                            : ONE LINE PER DEPTH STEP
 DLM               .         SPACE                         : DELIMITING CHARACTER(SPACE TAB OR COMMA)
~Well Information
#_______________________________________________________________________________
#
#PARAMETER_NAME    .UNIT     VALUE                         : DESCRIPTION
#_______________________________________________________________________________
STRT               .m        2576                          : First reference value
STOP               .m        2792.8                        : Last reference value
STEP               .m        0.2                           : Step increment
NULL               .         -9999                         : Missing value
COMP               .                                       : Company
WELL               .         308                           : Well name
FLD                .                                       : Field
LOC                .                                       : Location
CNTY               .                                       : County
STAT               .                                       : State
CTRY               .                                       : Country
SRVC               .                                       : Service Company
DATE               .                                       : Date
API                .                                       : API number
Cartographic_reference_system .         GCS_WGS_1984                  : GEOGCS["GCS_WGS_1984",DATUM["D_WGS_1984",SPHEROID["WGS_1984",6378137.0,298.257223563]],PRIMEM["Greenwich",0.0],UNIT["Degree",0.0174532925199433],AUTHORITY["EPSG",4326]]
EREF               .m        138.34                        : 
HZCS               .GCS_WGS_1984 World_Mercator                : PROJCS["World_Mercator",GEOGCS["GCS_WGS_1984",DATUM["D_WGS_1984",SPHEROID["WGS_1984",6378137.0,298.257223563]],PRIMEM["Greenwich",0.0],UNIT["Degree",0.0174532925199433]],PROJECTION["Mercator"],PARAMETER["False_Easting",0.0],PARAMETER["False_Northing",0.0],PARAMETER["Central_Meridian",0.0],PARAMETER["Standard_Parallel_1",0.0],UNIT["Meter",1.0],AUTHORITY["ESRI",54004]]
LATI               .dega     2.2598774867                  : GCS_WGS_1984
LONG               .dega     1.9740478369                  : GCS_WGS_1984
PROJECT_UPGRADE_TIME .         2014-05-27T11_38_46           : 
Pad                .         Pad3                          : 
X                  .m        219750                        : 
Y                  .m        249950                        : 
group              .         Pad3                          : 
Интер-р            .         Зайцев                        : 
Куст               .         3                             : 
Статус             .         Не проверено                  : 
Тип                .         Разведка                      : 
~Parameter Information Block
#_______________________________________________________________________________
#
#PARAMETER_NAME    .UNIT     VALUE                         : DESCRIPTION
#_______________________________________________________________________________
SET                .         LQC                           : 
PROJECT_UPGRADE_TIME .         2014-05-27T11_38_46           : 
TLFamily_GR_NORM   .         Gamma Ray                     : 
TLFamily_MD        .         Measured Depth                : 
TLFamily_RHOB_NORM .         Bulk Density                  : 
TLFamily_TNPH_NORM .         Neutron Porosity              : 
~Curve Information
#_______________________________________________________________________________
#
#LOGNAME           .UNIT     LOG_ID                        : DESCRIPTION
#_______________________________________________________________________________
MD                 .m                                      :  
GR_NORM            .gAPI                                   : Normalised By Techlog 
RHOB_NORM          .g/cm3                                  : Normalized By Techlog 
TNPH_NORM          .v/v                                    : Normalised By Techlog 
~Ascii
# ...
2648.8     86.59292   2.565023   0.2825165 
2649       86.12856   2.56023    0.2795061 
2649.2     88.41886   2.631796   0.2900424 
2649.4     85.97902   2.63474    0.2870321 
2649.6     84.18455   2.594205   0.2659594 
2649.8     84.9165    2.54854    0.2524127 
2650       86.50634   2.517592   0.2403712 
2650.2     87.27765   2.560734   0.2494023 
2650.4     86.58504   2.558716   0.2900424 
2650.6     84.90863   2.555856   0.2975684 
2650.8     83.85399   2.594205   0.2810113 
2651       79.44653   2.605306   0.2764958 
2651.2     76.30621   2.561912   0.2734854 
2651.4     74.84231   2.601605   0.270475  
2651.6     73.99229   2.60068    0.278001  
2651.8     74.9525    2.581758   0.2840217 
2652       76.36131   2.58672    0.2855269 
2652.2     77.79374   2.59143    0.2810113 
2652.4     77.8567    2.578142   0.2448868 
2652.6     78.12429   2.584365   0.2253193 
2652.8     79.52523   2.582011   0.2494023 
2653       78.32893   2.611697   0.2659594 
2653.2     76.4164    2.580665   0.2659594 
2653.4     78.55717   2.594794   0.2674646 
2653.6     80.46182   2.597232   0.2885373 
2653.8     82.75212   2.569228   0.3186411 
2654       84.67252   2.562584   0.3382085 
2654.2     83.28732   2.548961   0.3291774 
2654.4     80.6271    2.537944   0.2975684 
2654.6     81.43776   2.516751   0.2644542 
2654.8     83.16139   2.536094   0.2539179 
2655       86.59292   2.564266   0.2599387 
2655.2     86.65588   2.513219   0.2584335 
2655.4     84.24752   2.525834   0.2569283 
2655.6     86.16791   2.573349   0.2674646 
2655.8     89.97722   2.562164   0.2855269 
2656       90.25268   2.547615   0.2990736 
2656.2     87.65543   2.539794   0.2960632 
2656.4     85.86096   2.581674   0.2599387 
2656.6     84.84567   2.601858   0.2644542 
2656.8     80.90257   2.57646    0.2885373 
2657       78.01411   2.533319   0.2840217 
2657.2     76.2039    2.555604   0.2795061 
2657.4     77.20345   2.528609   0.2719802 
2657.6     82.03591   2.533571   0.2749906 
2657.8     85.62485   2.54383    0.2734854 
2658       84.72762   2.544419   0.2509075 
2658.2     84.4128    2.549129   0.2358556 
2658.4     84.39706   2.564855   0.2358556 
2658.6     85.82948   2.537776   0.2569283 
2658.8     89.46564   2.548961   0.2614439 
2659       90.84297   2.546353   0.2584335 
2659.2     87.46654   2.555436   0.2478972 
2659.4     82.90954   2.582011   0.2238141 
2659.6     78.39188   2.612706   0.207257  
2659.8     74.8974    2.617247   0.207257  
2660       73.1108    2.609679   0.2102674 
2660.2     72.04829   2.600176   0.1937104 
2660.4     73.9136    2.532477   0.1681221 
2660.6     73.00848   2.517004   0.1500599 
2660.8     67.07416   2.491186   0.1455443 
2661       61.61205   2.549297   0.1470495 
2661.2     55.6541    2.583188   0.1605962 
2661.4     56.18143   2.597905   0.1666169 
2661.6     64.19357   2.58117    0.2027415 
2661.8     69.75011   2.570153   0.2253193 
2662       67.20008   2.587141   0.2403712 
2662.2     60.8801    2.552577   0.2087622 
2662.4     55.41799   2.582515   0.1876896 
2662.6     55.87448   2.594289   0.1681221 
2662.8     63.49309   2.565107   0.1726377 
2663       71.63902   2.545849   0.2057519 
2663.2     81.72897   2.560398   0.2238141 
2663.4     89.30823   2.526591   0.2223089 
2663.6     90.85084   2.520367   0.2223089 
2663.8     90.74853   2.490261   0.2117726 
2664       91.51983   2.501025   0.2102674 
2664.2     91.71659   2.530543   0.2087622 
2664.4     92.7791    2.540971   0.207257  
2664.6     91.99992   2.521545   0.2238141 
2664.8     87.97812   2.540467   0.2418764 
2665       80.90257   2.519274   0.2418764 
2665.2     72.35524   2.523563   0.2283297 
2665.4     62.67456   2.53643    0.2132778 
2665.6     54.4578    2.519779   0.2012363 
2665.8     48.31882   2.490177   0.1922052 
2666       47.32715   2.497745   0.1846792 
2666.2     47.22483   2.509435   0.1786585 
2666.4     46.09936   2.551904   0.159091  
2666.6     46.29612   2.554006   0.1500599 
2666.8     47.579     2.596728   0.1605962 
2667       48.64152   2.619098   0.1891948 
2667.2     48.35818   2.570573   0.2117726 
2667.4     51.60082   2.509014   0.2132778 
2667.6     55.9217    2.523311   0.2027415 
2667.8     57.56663   2.56578    0.1891948 
2668       59.25091   2.584365   0.1861844 
2668.2     59.02267   2.606735   0.1937104 
2668.4     55.33142   2.573349   0.2102674 
2668.6     56.52773   2.559725   0.2313401 
2668.8     62.18659   2.560734   0.2328453 
2669       70.29318   2.548961   0.2238141 
2669.2     77.59697   2.552997   0.2253193 
2669.4     83.23223   2.645925   0.2403712 
2669.6     83.69659   2.625405   0.2403712 
2669.8     82.61046   2.607156   0.2373608 
2670       83.20862   2.531889   0.2478972 
2670.2     79.04514   2.556277   0.2298349 
2670.4     67.60148   2.559136   0.1967207 
2670.6     55.81938   2.568976   0.1726377 
2670.8     53.18277   2.553754   0.1636066 
2671       58.14904   2.591093   0.1741429 
2671.2     67.50703   2.565023   0.1922052 
2671.4     81.30396   2.558127   0.2268245 
2671.6     95.32914   2.548035   0.2644542 
2671.8     104.4904   2.569649   0.2795061 
2672       106.8987   2.516415   0.2855269 
2672.2     106.7256   2.524488   0.2825165 
2672.4     111.3613   2.562332   0.2764958 
2672.6     112.9039   2.557454   0.278001  
2672.8     110.5191   2.522974   0.2870321 
2673       107.489    2.530375   0.3035891 
2673.2     104.8603   2.529366   0.302084  
2673.4     104.5848   2.533066   0.3156307 
2673.6     109.1261   2.584197   0.3306825 
2673.8     118.2086   2.569564   0.3382085 
2674       128.0073   2.556193   0.3457344 
2674.2     130.3763   2.578479   0.3336929 
2674.4     129.5263   2.604633   0.3050944 
2674.6     125.229    2.659885   0.2900424 
2674.8     118.2322   2.682927   0.2885373 
2675       112.1641   2.654503   0.2975684 
2675.2     105.1908   2.60867    0.2975684 
2675.4     102.6644   2.600512   0.2840217 
2675.6     104.4589   2.589916   0.2840217 
2675.8     105.6631   2.611949   0.2749906 
2676       102.1135   2.583693   0.2689698 
2676.2     101.4051   2.559893   0.2614439 
2676.4     104.1834   2.533571   0.2554231 
2676.6     106.5131   2.50153    0.2584335 
2676.8     109.3543   2.489588   0.2749906 
2677       115.8081   2.499764   0.2960632 
2677.2     127.6689   2.464779   0.2825165 
2677.4     144.6061   2.489756   0.2719802 
2677.6     166.2263   2.444932   0.3065995 
2677.8     186.3905   2.419787   0.3382085 
2678       189.7511   2.400697   0.3276722 
2678.2     188.972    2.41676    0.3246618 
2678.4     182.5261   2.414321   0.3276722 
2678.6     176.269    2.425422   0.3276722 
2678.8     179.6533   2.390185   0.3186411 
2679       185.8474   2.408518   0.3065995 
2679.2     192.6475   2.444007   0.3081047 
2679.4     200.6124   2.467638   0.2990736 
2679.6     204.6736   2.456706   0.2855269 
2679.8     197.4799   2.463938   0.2855269 
2680       191.5692   2.471507   0.2975684 
2680.2     186.6108   2.447623   0.3065995 
2680.4     182.1561   2.458892   0.2885373 
2680.6     175.1672   2.480337   0.2855269 
2680.8     169.1226   2.423403   0.3276722 
2681       172.4676   2.423656   0.3607863 
2681.2     179.9524   2.448296   0.3893849 
2681.4     187.4451   2.490092   0.3999213 
2681.6     198.2749   2.512715   0.3893849 
2681.8     207.6486   2.509351   0.35025   
2682       208.6167   2.525329   0.3081047 
2682.2     203.5717   2.527768   0.3005787 
2682.4     193.466    2.55367    0.3216514 
2682.6     181.0228   2.53172    0.3472396 
2682.8     169.8703   2.536682   0.3321878 
2683       161.6536   2.489251   0.294558  
2683.2     155.4753   2.448212   0.2915477 
2683.4     148.5256   2.41718    0.3156307 
2683.6     146.3849   2.410284   0.3246618 
2683.8     150.69     2.396492   0.3276722 
2684       161.3781   2.354191   0.3351981 
2684.2     176.7098   2.345697   0.3276722 
2684.4     191.5771   2.379084   0.3532604 
2684.6     204.2328   2.372861   0.3637967 
2684.8     216.9908   2.370506   0.3517552 
2685       231.0081   2.376141   0.3291774 
