~Version
 VERS              .         2.0                           : CWLS LOG ASCII STANDARD - VERSION 2.0
 WRAP              .         NO                            : ONE LINE PER DEPTH STEP
 DLM               .         SPACE                         : DELIMITING CHARACTER(SPACE TAB OR COMMA)
~Well Information
#_______________________________________________________________________________
#
#PARAMETER_NAME    .UNIT     VALUE                         : DESCRIPTION
#_______________________________________________________________________________
STRT               .m        2500                          : First reference value
STOP               .m        2709.60000312328              : Last reference value
STEP               .m        0.2                           : Step increment
NULL               .         -9999                         : Missing value
COMP               .                                       : Company
WELL               .         400                           : Well name
FLD                .                                       : Field
LOC                .                                       : Location
CNTY               .                                       : County
STAT               .                                       : State
CTRY               .                                       : Country
SRVC               .                                       : Service Company
DATE               .                                       : Date
API                .                                       : API number
Cartographic_reference_system .         GCS_WGS_1984                  : GEOGCS["GCS_WGS_1984",DATUM["D_WGS_1984",SPHEROID["WGS_1984",6378137.0,298.257223563]],PRIMEM["Greenwich",0.0],UNIT["Degree",0.0174532925199433],AUTHORITY["EPSG",4326]]
EREF               .m        140.4                         : 
HZCS               .GCS_WGS_1984 World_Mercator                : PROJCS["World_Mercator",GEOGCS["GCS_WGS_1984",DATUM["D_WGS_1984",SPHEROID["WGS_1984",6378137.0,298.257223563]],PRIMEM["Greenwich",0.0],UNIT["Degree",0.0174532925199433]],PROJECTION["Mercator"],PARAMETER["False_Easting",0.0],PARAMETER["False_Northing",0.0],PARAMETER["Central_Meridian",0.0],PARAMETER["Standard_Parallel_1",0.0],UNIT["Meter",1.0],AUTHORITY["ESRI",54004]]
LATI               .dega     2.2605552291                  : GCS_WGS_1984
LONG               .dega     1.995158246                   : GCS_WGS_1984
PROJECT_UPGRADE_TIME .         2014-05-27T11_38_46           : 
Pad                .         Pad4                          : 
X                  .m        222100                        : 
Y                  .m        250025                        : 
group              .         Pad4                          : 
Интер-р            .         Ярышев                        : 
Куст               .         4                             : 
Статус             .         Не проверено                  : 
Тип                .         Разобраться                   : 
~Parameter Information Block
#_______________________________________________________________________________
#
#PARAMETER_NAME    .UNIT     VALUE                         : DESCRIPTION
#_______________________________________________________________________________
SET                .         LQC                           : 
PROJECT_UPGRADE_TIME .         2014-05-27T11_38_46           : 
TLFamily_GR_NORM   .         Gamma Ray                     : 
TLFamily_MD        .         Measured Depth                : 
TLFamily_RHOB_NORM .         Bulk Density                  : 
TLFamily_TNPH_NORM .         Neutron Porosity              : 
~Curve Information
#_______________________________________________________________________________
#
#LOGNAME           .UNIT     LOG_ID                        : DESCRIPTION
#_______________________________________________________________________________
MD                 .m                                      :  
GR_NORM            .gAPI                                   : Normalised By Techlog 
RHOB_NORM          .g/cm3                                  : Normalized By Techlog 
TNPH_NORM          .v/v                                    : Normalised By Techlog 
~Ascii
# ...
2563.200000941753 61.21839   2.603741   0.1524224 
2563.400000944734 55.32069   2.609393   0.1681531 
2563.600000947714 51.16409   2.625583   0.1692915 
2563.800000950694 47.8518    2.569059   0.187506  
2564.000000953674 49.89723   2.511139   0.258294  
2564.200000956655 55.38939   2.49139    0.2598464 
2564.400000959635 66.452     2.465082   0.2508427 
2564.600000962615 71.12939   2.450218   0.2361469 
2564.800000965595 74.61822   2.455033   0.2088252 
2565.000000968575 73.47546   2.445613   0.2048925 
2565.200000971556 62.47712   2.458592   0.2145172 
2565.400000974536 58.71201   2.483295   0.2267292 
2565.600000977516 59.39974   2.503253   0.2299374 
2565.800000980496 59.91904   2.482458   0.2282816 
2566.000000983477 60.31128   2.457266   0.2321108 
2566.200000986457 63.98996   2.48197    0.246703  
2566.400000989437 65.04185   2.550566   0.2564312 
2566.600000992417 63.80307   2.55273    0.2535335 
2566.800000995398 63.72255   2.587481   0.2299374 
2567.000000998378 66.20602   2.504998   0.2438053 
2567.200001001358 71.87694   2.493205   0.2754736 
2567.400001004338 77.0884    2.499415   0.2838564 
2567.600001007318 77.00788   2.547775   0.2682292 
2567.800001010299 72.26328   2.526561   0.2577766 
2568.000001013279 70.76891   2.545402   0.2376993 
2568.200001016259 63.01784   2.586504   0.2155522 
2568.400001019239 54.33897   2.614836   0.1907142 
2568.60000102222 56.22706   2.599135   0.2055135 
2568.8000010252 55.54969   2.560545   0.2400796 
2569.00000102818 53.52494   2.503812   0.2448402 
2569.20000103116 64.45164   2.521048   0.2470135 
2569.400001034141 81.62986   2.499974   0.2542579 
2569.600001037121 94.65296   2.514      0.2641931 
2569.800001040101 95.69377   2.524258   0.2571557 
2570.000001043081 91.60217   2.522793   0.2578801 
2570.200001046062 86.97945   2.52042    0.2515671 
2570.400001049042 88.50854   2.498718   0.2520846 
2570.600001052022 92.79664   2.534377   0.2458751 
2570.800001055002 93.72      2.519931   0.229006  
2571.000001057982 96.09784   2.473456   0.2501183 
2571.200001060963 95.63615   2.480155   0.2659524 
2571.400001063943 98.97356   2.444077   0.2527055 
2571.600001066923 99.87476   2.410372   0.2268327 
2571.800001069903 98.62194   2.450986   0.2597429 
2572.000001072884 101.5804   2.487413   0.2810622 
2572.200001075864 101.4881   2.510301   0.2756806 
2572.400001078844 91.50393   2.556637   0.2639861 
2572.600001081824 86.90485   2.598926   0.2700921 
2572.800001084805 85.31297   2.580573   0.2462891 
2573.000001087785 81.92976   2.570106   0.2553963 
2573.200001090765 78.4498    2.508836   0.3109711 
2573.400001093745 90.37151   2.525584   0.3121096 
2573.600001096725 95.80901   2.527887   0.3100397 
2573.800001099706 98.67735   2.539122   0.3041407 
2574.000001102686 106.78     2.531236   0.2672978 
2574.200001105666 117.1431   2.495298   0.2223826 
2574.400001108646 119.99     2.492297   0.234905  
2574.600001111627 121.1032   2.495089   0.2544649 
2574.800001114607 122.1596   2.517489   0.24691   
2575.000001117587 122.2401   2.518676   0.235526  
2575.200001120567 116.8617   2.551543   0.2356295 
2575.400001123548 111.8371   2.567244   0.2716445 
2575.600001126528 109.9749   2.574711   0.2668839 
2575.800001129508 99.48547   2.625932   0.2450472 
2576.000001132488 87.90282   2.606462   0.2577766 
2576.200001135468 91.90799   2.582736   0.2521881 
2576.400001138449 95.39461   2.56229    0.241632  
2576.600001141429 100.3106   2.538005   0.2537405 
2576.800001144409 102.4107   2.557614   0.2828215 
2577.000001147389 103.2654   2.538354   0.2759911 
2577.20000115037 102.5843   2.563825   0.258708  
2577.40000115335 105.4467   2.545332   0.2586046 
2577.60000115633 114.5614   2.546449   0.2601569 
2577.80000115931 135.4619   2.451823   0.3154213 
2578.000001162291 153.8582   2.394531   0.324839  
2578.200001165271 175.2181   2.36934    0.3404662 
2578.400001168251 168.8772   2.389716   0.3524712 
2578.600001171231 156.2604   2.410093   0.3461582 
2578.800001174212 153.1904   2.427469   0.3259774 
2579.000001177192 156.3461   2.438076   0.3151108 
2579.200001180172 163.6185   2.408767   0.3277368 
2579.400001183152 174.5777   2.347149   0.3458477 
2579.600001186132 184.3291   2.338496   0.3712031 
2579.800001189113 184.5146   2.362571   0.378758  
2580.000001192093 175.911    2.395299   0.3560934 
2580.200001195073 175.2706   2.394113   0.3257704 
2580.400001198053 170.2852   2.406953   0.2963789 
2580.600001201034 162.8104   2.410163   0.3044512 
2580.800001204014 164.0455   2.410861   0.330738  
2581.000001206994 171.6399   2.371224   0.3573353 
2581.200001209974 190.5969   2.367875   0.3658216 
2581.400001212955 201.9609   2.368782   0.3465722 
2581.600001215935 205.1306   2.398439   0.3509188 
2581.800001218915 213.0007   2.415048   0.3569213 
2582.000001221895 212.7022   2.413792   0.3140759 
2582.200001224875 189.7666   2.415536   0.3005185 
2582.400001227856 175.0911   2.414978   0.2944125 
2582.600001230836 168.1777   2.387693   0.2850983 
2582.800001233816 159.552    2.42391    0.2919287 
2583.000001236796 144.5167   2.46585    0.306728  
2583.200001239777 144.9784   2.482109   0.2883066 
2583.400001242757 145.1409   2.496903   0.2743352 
2583.600001245737 147.9272   2.47206    0.2326282 
2583.800001248717 157.0095   2.425375   0.2418389 
2584.000001251698 174.3399   2.351825   0.2755771 
2584.200001254678 191.9487   2.346381   0.2714375 
2584.400001257658 202.2727   2.331936   0.2735073 
2584.600001260638 216.7813   2.320492   0.2988627 
2584.800001263618 235.2463   2.295161   0.2980348 
2585.000001266599 263.9769   2.268364   0.2925497 
2585.200001269579 283.8284   2.25364    0.2808552 
2585.400001272559 280.8397   2.251407   0.2908938 
2585.600001275539 277.6397   2.262014   0.2932741 
2585.80000127852 276.2687   2.255873   0.306728  
2586.0000012815 284.9919   2.280576   0.3139724 
2586.20000128448 290.3503   2.280087   0.2728863 
2586.40000128746 307.1666   2.262991   0.2782679 
2586.600001290441 311.8528   2.269062   0.282718  
2586.800001293421 305.9537   2.252314   0.2712305 
2587.000001296401 288.2318   2.272063   0.247324  
2587.200001299381 282.617    2.297254   0.2332492 
2587.400001302361 260.3004   2.29537    0.2580871 
2587.600001305342 265.7239   2.238497   0.2865472 
2587.800001308322 317.0695   2.229565   0.3125235 
2588.000001311302 324.2643   2.242684   0.367167  
2588.200001314282 306.255    2.228727   0.3697542 
2588.400001317263 289.588    2.229774   0.3498839 
2588.600001320243 274.0341   2.220005   0.3357056 
2588.800001323223 257.0051   2.207583   0.2880996 
2589.000001326203 257.8938   2.207583   0.3062105 
2589.200001329184 266.2845   2.219306   0.3347742 
2589.400001332164 265.5577   2.205141   0.3369475 
2589.600001335144 268.7437   2.188114   0.3469861 
2589.800001338124 287.3631   2.205838   0.3571283 
2590.000001341105 293.6973   2.189579   0.354334  
2590.200001344085 291.4975   2.19879    0.3432604 
2590.400001347065 285.0982   2.21805    0.3468826 
2590.600001350045 272.9217   2.226773   0.3612679 
2590.800001353025 260.918    2.233333   0.3748253 
2591.000001356006 260.8027   2.206257   0.4119787 
2591.200001358986 258.6096   2.205629   0.4134276 
2591.400001361966 257.2592   2.211561   0.3892106 
2591.600001364946 250.3473   2.210374   0.4365062 
2591.800001367927 245.3649   2.218678   0.3971794 
2592.000001370907 236.7665   2.210723   0.3514363 
2592.200001373887 227.3076   2.207025   0.3603365 
2592.400001376867 212.6956   2.220074   0.3806208 
2592.600001379848 198.2328   2.253779   0.3702717 
2592.800001382828 179.685    2.258943   0.3328078 
2593.000001385808 181.6122   2.278762   0.3206993 
2593.200001388788 190.3037   2.288461   0.3152143 
2593.400001391768 191.0593   2.326214   0.295344  
2593.600001394749 186.1899   2.27925    0.2675048 
2593.800001397729 178.5659   2.228937   0.2748527 
2594.000001400709 167.2957   2.259292   0.2815796 
2594.200001403689 154.4772   2.292788   0.2686432 
2594.40000140667 138.0872   2.309117   0.3154213 
2594.60000140965 131.094    2.318329   0.3211133 
