~Version
 VERS              .         2.0                           : CWLS LOG ASCII STANDARD - VERSION 2.0
 WRAP              .         NO                            : ONE LINE PER DEPTH STEP
 DLM               .         SPACE                         : DELIMITING CHARACTER(SPACE TAB OR COMMA)
~Well Information
#_______________________________________________________________________________
#
#PARAMETER_NAME    .UNIT     VALUE                         : DESCRIPTION
#_______________________________________________________________________________
STRT               .m        2500                          : First reference value
STOP               .m        2709.60000312328              : Last reference value
STEP               .m        0.2                           : Step increment
NULL               .         -9999                         : Missing value
COMP               .                                       : Company
WELL               .         400                           : Well name
FLD                .                                       : Field
LOC                .                                       : Location
CNTY               .                                       : County
STAT               .                                       : State
CTRY               .                                       : Country
SRVC               .                                       : Service Company
DATE               .                                       : Date
API                .                                       : API number
Cartographic_reference_system .         GCS_WGS_1984                  : GEOGCS["GCS_WGS_1984",DATUM["D_WGS_1984",SPHEROID["WGS_1984",6378137.0,298.257223563]],PRIMEM["Greenwich",0.0],UNIT["Degree",0.0174532925199433],AUTHORITY["EPSG",4326]]
EREF               .m        140.4                         : 
HZCS               .GCS_WGS_1984 World_Mercator                : PROJCS["World_Mercator",GEOGCS["GCS_WGS_1984",DATUM["D_WGS_1984",SPHEROID["WGS_1984",6378137.0,298.257223563]],PRIMEM["Greenwich",0.0],UNIT["Degree",0.0174532925199433]],PROJECTION["Mercator"],PARAMETER["False_Easting",0.0],PARAMETER["False_Northing",0.0],PARAMETER["Central_Meridian",0.0],PARAMETER["Standard_Parallel_1",0.0],UNIT["Meter",1.0],AUTHORITY["ESRI",54004]]
LATI               .dega     2.2605552291                  : GCS_WGS_1984
LONG               .dega     1.995158246                   : GCS_WGS_1984
PROJECT_UPGRADE_TIME .         2014-05-27T11_38_46           : 
Pad                .         Pad4                          : 
X                  .m        222100                        : 
Y                  .m        250025                        : 
group              .         Pad4                          : 
Интер-р            .         Ярышев                        : 
Куст               .         4                             : 
Статус             .         Не проверено                  : 
Тип                .         Разобраться                   : 
~Parameter Information Block
#_______________________________________________________________________________
#
#PARAMETER_NAME    .UNIT     VALUE                         : DESCRIPTION
#_______________________________________________________________________________
SET                .         LQC                           : 
PROJECT_UPGRADE_TIME .         2014-05-27T11_38_46           : 
TLFamily_GR_NORM   .         Gamma Ray                     : 
TLFamily_MD        .         Measured Depth                : 
TLFamily_RHOB_NORM .         Bulk Density                  : 
TLFamily_TNPH_NORM .         Neutron Porosity              : 
~Curve Information
#_______________________________________________________________________________
#
#LOGNAME           .UNIT     LOG_ID                        : DESCRIPTION
#_______________________________________________________________________________
MD                 .m                                      :  
GR_NORM            .gAPI                                   : Normalised By Techlog 
RHOB_NORM          .g/cm3                                  : Normalized By Techlog 
TNPH_NORM          .v/v                                    : Normalised By Techlog 
~Ascii
# ...
2531.600000470877 74.42173   2.546379   0.2759911 
2531.800000473857 71.18996   2.502486   0.2780609 
2532.000000476837 71.39754   2.466896   0.2611918 
2532.200000479817 72.98498   2.501648   0.2641931 
2532.400000482798 75.87695   2.524467   0.265642  
2532.600000485778 78.03466   2.514      0.2716445 
2532.800000488758 77.20881   2.522932   0.24691   
2533.000000491738 76.21674   2.480365   0.2424599 
2533.200000494719 77.28415   2.498857   0.2432878 
2533.400000497699 77.42819   2.49146    0.2491868 
2533.600000500679 78.06938   2.47841    0.2522916 
2533.800000503659 78.421     2.489716   0.2645035 
2534.000000506639 74.27621   2.493693   0.2730933 
2534.20000050962 73.20363   2.488529   0.2676083 
2534.4000005126 77.81527   2.502486   0.2597429 
2534.60000051558 78.58277   2.500113   0.2640896 
2534.80000051856 80.12589   2.49474    0.27092   
2535.000000521541 80.01952   2.506045   0.2521881 
2535.200000524521 78.84205   2.525375   0.2451507 
2535.400000527501 80.05793   2.535354   0.2433913 
2535.600000530481 83.40125   2.547286   0.2560173 
2535.800000533462 80.28545   2.545681   0.2516706 
2536.000000536442 79.59256   2.552101   0.270713  
2536.200000539422 85.50799   2.554614   0.2771295 
2536.400000542402 86.22894   2.554893   0.2982417 
2536.600000545382 82.10262   2.505975   0.2867542 
2536.800000548363 75.59403   2.558312   0.2661594 
2537.000000551343 75.08434   2.557544   0.2804412 
2537.200000554323 77.45701   2.53633    0.2791993 
2537.400000557303 75.43742   2.56229    0.2719549 
2537.600000560284 71.74398   2.520908   0.2431843 
2537.800000563264 73.01379   2.5237     0.2432878 
2538.000000566244 71.57112   2.536191   0.2521881 
2538.200000569224 72.38442   2.595506   0.2390447 
2538.400000572205 73.22726   2.542611   0.2419424 
2538.600000575185 76.6245    2.561662   0.2647105 
2538.800000578165 81.6764    2.603322   0.2686432 
2539.000000581145 82.55914   2.583434   0.2746457 
2539.200000584126 79.13087   2.595925   0.2769225 
2539.400000587106 80.10004   2.567244   0.2579836 
2539.600000590086 82.14916   2.61058    0.2749562 
2539.800000593066 82.39736   2.680014   0.2547754 
2540.000000596046 83.10133   2.636678   0.2662629 
2540.200000599027 83.95526   2.525723   0.2641931 
2540.400000602007 89.59959   2.530259   0.2372853 
2540.600000604987 91.59626   2.51072    0.2394586 
2540.800000607967 90.03246   2.51079    0.2695746 
2541.000000610948 87.26828   2.521327   0.2744387 
2541.200000613928 88.66441   2.553986   0.2741282 
2541.400000616908 90.6729    2.558172   0.2697816 
2541.600000619888 87.18037   2.509464   0.2675048 
2541.800000622869 83.63319   2.527608   0.2645035 
2542.000000625849 85.76727   2.513581   0.2461856 
2542.200000628829 79.72996   2.535144   0.24691   
2542.400000631809 77.57298   2.533958   0.2570522 
2542.600000634789 76.12959   2.525514   0.258708  
2542.80000063777 77.46882   2.531236   0.265228  
2543.00000064075 80.87049   2.547705   0.2540509 
2543.20000064373 84.3246    2.583504   0.2519811 
2543.40000064671 83.93826   2.553846   0.2541544 
2543.600000649691 80.08305   2.537168   0.2304549 
2543.800000652671 78.2016    2.580503   0.2128614 
2544.000000655651 73.5678    2.608905   0.1945434 
2544.200000658631 71.61175   2.638074   0.2033402 
2544.400000661612 68.86974   2.61058    0.2247629 
2544.600000664592 64.31129   2.586574   0.2328352 
2544.800000667572 59.97148   2.554335   0.2307654 
2545.000000670552 63.68192   2.539471   0.2259013 
2545.200000673532 74.38036   2.51086    0.247324  
2545.400000676513 77.22062   2.553986   0.2394586 
2545.600000679493 77.99994   2.545402   0.2282816 
2545.800000682473 71.83041   2.532911   0.2198988 
2546.000000685453 70.55173   2.541634   0.2352155 
2546.200000688434 74.12183   2.542471   0.2461856 
2546.400000691414 75.43152   2.556916   0.2339736 
2546.600000694394 72.15986   2.574502   0.2147242 
2546.800000697374 66.45348   2.567244   0.2203128 
2547.000000700355 60.89484   2.534237   0.2278676 
2547.200000703335 65.69633   2.528934   0.2227965 
2547.400000706315 65.85736   2.548752   0.2161731 
2547.600000709295 68.16576   2.580224   0.247531  
2547.800000712276 73.20437   2.610231   0.2723689 
2548.000000715256 75.82967   2.56208    0.2859263 
2548.200000718236 75.36799   2.524677   0.2805447 
2548.400000721216 81.80936   2.535981   0.2794063 
2548.600000724196 87.05406   2.579038   0.2842704 
2548.800000727177 90.44243   2.595227   0.282304  
2549.000000730157 88.1525    2.555451   0.2700921 
2549.200000733137 87.44113   2.51065    0.2417355 
2549.400000736117 88.07567   2.553986   0.2314898 
2549.600000739098 86.69063   2.539331   0.2459786 
2549.800000742078 87.49876   2.551194   0.2455646 
2550.000000745058 85.5885    2.557614   0.2384237 
2550.200000748038 79.13087   2.573595   0.2314898 
2550.400000751019 80.97834   2.542192   0.2522916 
2550.600000753999 82.99201   2.540378   0.2554998 
2550.800000756979 85.90097   2.503044   0.2543614 
2551.000000759959 91.614     2.508348   0.2522916 
2551.200000762939 93.10023   2.503881   0.2577766 
2551.40000076592 92.22563   2.512116   0.2734038 
2551.6000007689 90.59238   2.52698    0.2465996 
2551.80000077188 88.55508   2.489506   0.2563277 
2552.00000077486 84.44649   2.534516   0.2304549 
2552.200000777841 80.9776    2.489925   0.2562242 
2552.400000780821 81.15045   2.451405   0.2708165 
2552.600000783801 81.7739    2.460895   0.2756806 
2552.800000786781 84.53217   2.506952   0.276819  
2553.000000789762 81.86034   2.473875   0.2837529 
2553.200000792742 81.77982   2.4819     0.2616058 
2553.400000795722 81.90096   2.473875   0.258708  
2553.600000798702 84.93919   2.450567   0.2567417 
2553.800000801682 89.46072   2.486575   0.2345946 
2554.000000804663 89.51316   2.502904   0.2185534 
2554.200000807643 85.7451    2.499555   0.2210372 
2554.400000810623 84.33643   2.525235   0.2444262 
2554.600000813603 78.83171   2.530329   0.235733  
2554.800000816584 77.39348   2.517      0.2278676 
2555.000000819564 75.05553   2.483854   0.2363539 
2555.200000822544 72.40806   2.478899   0.2571557 
2555.400000825524 72.72496   2.485389   0.2276606 
2555.600000828505 74.34121   2.515326   0.2116195 
2555.800000831485 74.47639   2.52998    0.217001  
2556.000000834465 76.53365   2.545472   0.2248664 
2556.200000837445 76.49892   2.517977   0.2396656 
2556.400000840425 78.21934   2.531446   0.2458751 
2556.600000843406 79.72626   2.487482   0.2252803 
2556.800000846386 81.32404   2.478062   0.2044786 
2557.000000849366 81.20881   2.505277   0.2069624 
2557.200000852346 79.47732   2.535423   0.2242454 
2557.400000855327 79.32146   2.586016   0.217001  
2557.600000858307 77.51536   2.537447   0.2240384 
2557.800000861287 73.40012   2.49788    0.2262118 
2558.000000864267 72.6282    2.476247   0.217001  
2558.200000867248 74.61822   2.423422   0.2193813 
2558.400000870228 76.51665   2.440798   0.2301444 
2558.600000873208 82.07381   2.48497    0.2213477 
2558.800000876188 77.38092   2.45629    0.1963028 
2559.000000879169 66.1292    2.467106   0.1792267 
2559.200000882149 64.76041   2.519373   0.1927841 
2559.400000885129 71.14342   2.564662   0.2034437 
2559.600000888109 80.2271    2.563127   0.2103776 
2559.800000891089 87.91907   2.532562   0.211516  
2560.00000089407 89.19553   2.544984   0.2285921 
2560.20000089705 76.29062   2.625443   0.2299374 
2560.40000090003 61.73178   2.600042   0.2029262 
2560.60000090301 53.2073    2.496554   0.1887479 
2560.800000905991 54.58717   2.484412   0.1890584 
2561.000000908971 61.89872   2.488529   0.211516  
2561.200000911951 63.01858   2.446171   0.2200023 
2561.400000914931 59.79789   2.468711   0.2088252 
2561.600000917912 61.66234   2.417351   0.2158626 
2561.800000920892 63.34286   2.417909   0.2208302 
2562.000000923872 60.74415   2.450358   0.2126544 
2562.200000926852 60.19604   2.429563   0.2193813 
2562.400000929832 64.70353   2.473247   0.234698  
2562.600000932813 65.68451   2.499415   0.2280746 
2562.800000935793 65.16521   2.554893   0.2210372 
2563.000000938773 66.60787   2.585527   0.1862641 
