~Version
 VERS              .         2.0                           : CWLS LOG ASCII STANDARD - VERSION 2.0
 WRAP              .         NO                            : ONE LINE PER DEPTH STEP
 DLM               .         SPACE                         : DELIMITING CHARACTER(SPACE TAB OR COMMA)
~Well Information
#_______________________________________________________________________________
#
#PARAMETER_NAME    .UNIT     VALUE                         : DESCRIPTION
#_______________________________________________________________________________
STRT               .m        2500                          : First reference value
STOP               .m        2709.60000312328              : Last reference value
STEP               .m        0.2                           : Step increment
NULL               .         -9999                         : Missing value
COMP               .                                       : Company
WELL               .         400                           : Well name
FLD                .                                       : Field
LOC                .                                       : Location
CNTY               .                                       : County
STAT               .                                       : State
CTRY               .                                       : Country
SRVC               .                                       : Service Company
DATE               .                                       : Date
API                .                                       : API number
Cartographic_reference_system .         GCS_WGS_1984                  : GEOGCS["GCS_WGS_1984",DATUM["D_WGS_1984",SPHEROID["WGS_1984",6378137.0,298.257223563]],PRIMEM["Greenwich",0.0],UNIT["Degree",0.0174532925199433],AUTHORITY["EPSG",4326]]
EREF               .m        140.4                         : 
HZCS               .GCS_WGS_1984 World_Mercator                : PROJCS["World_Mercator",GEOGCS["GCS_WGS_1984",DATUM["D_WGS_1984",SPHEROID["WGS_1984",6378137.0,298.257223563]],PRIMEM["Greenwich",0.0],UNIT["Degree",0.0174532925199433]],PROJECTION["Mercator"],PARAMETER["False_Easting",0.0],PARAMETER["False_Northing",0.0],PARAMETER["Central_Meridian",0.0],PARAMETER["Standard_Parallel_1",0.0],UNIT["Meter",1.0],AUTHORITY["ESRI",54004]]
LATI               .dega     2.2605552291                  : GCS_WGS_1984
LONG               .dega     1.995158246                   : GCS_WGS_1984
PROJECT_UPGRADE_TIME .         2014-05-27T11_38_46           : 
Pad                .         Pad4                          : 
X                  .m        222100                        : 
Y                  .m        250025                        : 
group              .         Pad4                          : 
Интер-р            .         Ярышев                        : 
Куст               .         4                             : 
Статус             .         Не проверено                  : 
Тип                .         Разобраться                   : 
~Parameter Information Block
#_______________________________________________________________________________
#
#PARAMETER_NAME    .UNIT     VALUE                         : DESCRIPTION
#_______________________________________________________________________________
SET                .         LQC                           : 
PROJECT_UPGRADE_TIME .         2014-05-27T11_38_46           : 
TLFamily_GR_NORM   .         Gamma Ray                     : 
TLFamily_MD        .         Measured Depth                : 
TLFamily_RHOB_NORM .         Bulk Density                  : 
TLFamily_TNPH_NORM .         Neutron Porosity              : 
~Curve Information
#_______________________________________________________________________________
#
#LOGNAME           .UNIT     LOG_ID                        : DESCRIPTION
#_______________________________________________________________________________
MD                 .m                                      :  
GR_NORM            .gAPI                                   : Normalised By Techlog 
RHOB_NORM          .g/cm3                                  : Normalized By Techlog 
TNPH_NORM          .v/v                                    : Normalised By Techlog 
~Ascii
# ...
2626.400001883507 113.2953   2.514      0.2850983 
2626.600001886487 110.735    2.506742   0.3546445 
2626.800001889467 109.8375   2.532423   0.3501944 
2627.000001892447 109.8456   2.523351   0.3412941 
2627.200001895428 108.3209   2.509813   0.2966894 
2627.400001898408 106.7106   2.491669   0.294309  
2627.600001901388 104.4997   2.495089   0.2904799 
2627.800001904368 103.0895   2.591878   0.2708165 
2628.000001907349 101.3551   2.606393   0.2134823 
2628.200001910329 99.19812   2.634166   0.1968202 
2628.400001913309 97.09581   2.685875   0.2136893 
2628.600001916289 91.54973   2.63626    0.2181394 
2628.80000191927 98.98464   2.616371   0.2000284 
2629.00000192225 114.981    2.504021   0.1780883 
2629.20000192523 121.2591   2.454894   0.1642204 
2629.40000192821 97.99997   2.423561   0.1642204 
2629.60000193119 54.89373   2.405138   0.1642204 
2629.800001934171 37.73397   2.428376   0.1729137 
2630.000001937151 35.27118   2.435076   0.1860571 
2630.200001940131 36.50331   2.435843   0.187506  
2630.400001943111 38.00064   2.464664   0.1654623 
2630.600001946092 38.08411   2.455661   0.1668077 
2630.800001949072 38.31827   2.401091   0.1653589 
2631.000001952052 37.13268   2.409605   0.169809  
2631.200001955032 35.62132   2.400952   0.1801581 
2631.400001958013 35.68928   2.379249   0.1801581 
2631.600001960993 37.01374   2.387065   0.1699125 
2631.800001963973 38.31236   2.415885   0.1726032 
2632.000001966953 39.19584   2.385739   0.176122  
2632.200001969934 40.75743   2.351196   0.1743626 
2632.400001972914 40.52843   2.321329   0.1686706 
2632.600001975894 37.67192   2.324609   0.1563551 
2632.800001978874 39.09833   2.348614   0.1568726 
2633.000001981854 39.53563   2.378551   0.1756045 
2633.200001984835 39.74395   2.38553    0.1948539 
2633.400001987815 39.94561   2.407721   0.2033402 
2633.600001990795 39.58882   2.400812   0.1976481 
2633.800001993775 39.42631   2.371224   0.180986  
2634.000001996756 39.68484   2.32105    0.187506  
2634.200001999736 39.84809   2.333053   0.2039611 
2634.400002002716 40.17091   2.374783   0.1859536 
2634.600002005696 41.31883   2.430888   0.1732242 
2634.800002008677 39.45142   2.4946     0.1662903 
2635.000002011657 39.07986   2.465152   0.1823314 
2635.200002014637 39.95742   2.436471   0.1808826 
2635.400002017617 43.32511   2.423352   0.1825384 
2635.600002020597 46.85235   2.4401     0.1887479 
2635.800002023578 48.29058   2.474921   0.1904037 
2636.000002026558 49.8145    2.464733   0.1703264 
2636.200002029538 57.62245   2.473456   0.1563551 
2636.400002032518 58.82282   2.522862   0.1304823 
2636.600002035499 55.93085   2.548403   0.1067828 
2636.800002038479 49.19326   2.544914   0.09943487
2637.000002041459 43.90868   2.506952   0.08981019
2637.200002044439 36.48337   2.515116   0.08204833
2637.40000204742 32.92141   2.742609   0.07625281
2637.6000020504 32.20118   2.877918   0.07614933
2637.80000205338 32.87044   2.712183   0.073976  
2638.00000205636 35.88946   2.692575   0.06673161
2638.20000205934 37.52197   2.718673   0.07480393
2638.400002062321 37.52197   2.735352   0.08070295
2638.600002065301 39.25345   2.788945   0.08774035
2638.800002068281 37.62021   2.767521   0.08981019
2639.000002071261 36.26324   2.764241   0.08525656
2639.200002074242 33.69555   2.7872     0.0788401 
2639.400002077222 33.42224   2.753704   0.08173785
2639.600002080202 34.70829   2.701716   0.08163436
2639.800002083182 32.91697   2.721674   0.08318673
2640.000002086163 32.97459   2.756705   0.0894997 
2640.200002089143 33.25677   2.84184    0.08422165
2640.400002092123 34.63664   2.867451   0.07169919
2640.600002095103 34.72307   2.792225   0.08163436
2640.800002098083 34.76887   2.713091   0.1067828 
2641.000002101064 33.66452   2.695924   0.1567691 
2641.200002104044 32.57053   2.597321   0.1950609 
2641.400002107024 34.74597   2.524816   0.2091357 
2641.600002110004 38.79694   2.500602   0.2090322 
2641.800002112985 39.63166   2.498648   0.2072728 
2642.000002115965 40.52252   2.55908    0.2085147 
2642.200002118945 40.9842    2.561662   0.2087217 
2642.400002121925 41.57442   2.553497   0.2162766 
2642.600002124906 41.78051   2.544774   0.2201058 
2642.800002127886 40.71901   2.519583   0.2181394 
2643.000002130866 42.15872   2.45922    0.2128614 
2643.200002133846 42.4734    2.455033   0.205203  
2643.400002136827 41.27303   2.444426   0.2015808 
2643.600002139807 41.74653   2.46885    0.199925  
2643.800002142787 43.11975   2.454824   0.1965097 
2644.000002145767 43.31107   2.48169    0.1918526 
2644.200002148747 45.55743   2.473665   0.1970272 
2644.400002151728 47.48837   2.490832   0.2088252 
2644.600002154708 50.31385   2.495089   0.2134823 
2644.800002157688 51.29188   2.494949   0.2183464 
2645.000002160668 52.52401   2.468362   0.241218  
2645.200002163649 53.64904   2.450358   0.2509462 
2645.400002166629 52.01284   2.455522   0.2319038 
2645.600002169609 49.98735   2.435215   0.2281781 
2645.800002172589 49.91792   2.395369   0.2324212 
2646.00000217557 47.22835   2.39809    0.2312828 
2646.20000217855 47.83481   2.435704   0.2207267 
2646.40000218153 52.47895   2.451684   0.2427704 
2646.60000218451 58.06123   2.452661   0.2641931 
2646.80000218749 65.98811   2.461872   0.2501183 
2647.000002190471 78.95433   2.541704   0.2359399 
2647.200002193451 78.76966   2.589645   0.2337666 
2647.400002196431 75.66863   2.567523   0.2307654 
2647.600002199411 76.76485   2.506114   0.2592255 
2647.800002202392 78.44168   2.465152   0.2780609 
2648.000002205372 78.53549   2.380366   0.2387342 
2648.200002208352 71.15524   2.265852   0.2284886 
2648.400002211332 57.26566   2.192998   0.2621233 
2648.600002214313 46.35152   2.146593   0.3477105 
2648.800002217293 47.02447   2.052455   0.3542305 
2649.000002220273 51.98329   2.001793   0.2862367 
2649.200002223253 62.41285   2.029776   0.2249698 
2649.400002226233 74.38184   2.200256   0.2119299 
2649.600002229214 80.04021   2.460197   0.2095496 
2649.800002232194 81.18074   2.511488   0.2181394 
2650.000002235174 71.84222   2.516861   0.247117  
2650.200002238154 64.43613   2.534237   0.2576731 
2650.400002241135 60.68653   2.564593   0.2629512 
2650.600002244115 60.10962   2.555172   0.2783714 
2650.800002247095 64.0653    2.525305   0.2874786 
2651.000002250075 70.89744   2.532632   0.2818901 
2651.200002253056 72.73604   2.498787   0.258708  
2651.400002256036 75.33844   2.443659   0.2398726 
2651.600002259016 79.07326   2.473107   0.2194848 
2651.800002261996 74.88341   2.494182   0.2219686 
2652.000002264977 64.94582   2.485319   0.2221756 
2652.200002267957 61.62762   2.482458   0.2301444 
2652.400002270937 68.3822    2.451823   0.2609848 
2652.600002273917 70.763     2.457685   0.270713  
2652.800002276897 71.3111    2.489785   0.2998976 
2653.000002279878 73.37427   2.547565   0.2987592 
2653.200002282858 74.88341   2.37248    0.2938951 
2653.400002285838 75.41306   2.246313   0.2663664 
2653.600002288818 84.12589   2.273528   0.2099636 
2653.800002291799 86.52663   2.395997   0.2189674 
2654.000002294779 80.96135   2.537796   0.2392517 
2654.200002297759 78.00585   2.515954   0.2424599 
2654.400002300739 74.339     2.45936    0.247324  
2654.60000230372 72.14213   2.475759   0.2671943 
2654.8000023067 71.05183   2.546309   0.2897554 
2655.00000230968 73.84333   2.542402   0.2879961 
2655.20000231266 77.57594   2.514349   0.2887205 
2655.40000231564 77.86919   2.505626   0.2757841 
2655.600002318621 70.0834    2.533051   0.2725759 
2655.800002321601 59.9604    2.554683   0.27744   
2656.000002324581 52.75744   2.516512   0.2916183 
2656.200002327561 53.63352   2.497322   0.2911008 
2656.400002330542 56.35264   2.522653   0.2686432 
2656.600002333522 57.99031   2.562499   0.2560173 
2656.800002336502 60.13178   2.529282   0.265021  
2657.000002339482 63.49799   2.440588   0.2737142 
2657.200002342463 64.75893   2.417979   0.2718514 
2657.400002345443 63.78016   2.403952   0.2705061 
2657.600002348423 68.44277   2.403952   0.2579836 
2657.800002351403 71.25497   2.462221   0.2521881 
