~Version
 VERS              .         2.0                           : CWLS LOG ASCII STANDARD - VERSION 2.0
 WRAP              .         NO                            : ONE LINE PER DEPTH STEP
 DLM               .         SPACE                         : DELIMITING CHARACTER(SPACE TAB OR COMMA)
~Well Information
#_______________________________________________________________________________
#
#PARAMETER_NAME    .UNIT     VALUE                         : DESCRIPTION
#_______________________________________________________________________________
STRT               .m        2500                          : First reference value
STOP               .m        2709.60000312328              : Last reference value
STEP               .m        0.2                           : Step increment
NULL               .         -9999                         : Missing value
COMP               .                                       : Company
WELL               .         400                           : Well name
FLD                .                                       : Field
LOC                .                                       : Location
CNTY               .                                       : County
STAT               .                                       : State
CTRY               .                                       : Country
SRVC               .                                       : Service Company
DATE               .                                       : Date
API                .                                       : API number
Cartographic_reference_system .         GCS_WGS_1984                  : GEOGCS["GCS_WGS_1984",DATUM["D_WGS_1984",SPHEROID["WGS_1984",6378137.0,298.257223563]],PRIMEM["Greenwich",0.0],UNIT["Degree",0.0174532925199433],AUTHORITY["EPSG",4326]]
EREF               .m        140.4                         : 
HZCS               .GCS_WGS_1984 World_Mercator                : PROJCS["World_Mercator",GEOGCS["GCS_WGS_1984",DATUM["D_WGS_1984",SPHEROID["WGS_1984",6378137.0,298.257223563]],PRIMEM["Greenwich",0.0],UNIT["Degree",0.0174532925199433]],PROJECTION["Mercator"],PARAMETER["False_Easting",0.0],PARAMETER["False_Northing",0.0],PARAMETER["Central_Meridian",0.0],PARAMETER["Standard_Parallel_1",0.0],UNIT["Meter",1.0],AUTHORITY["ESRI",54004]]
LATI               .dega     2.2605552291                  : GCS_WGS_1984
LONG               .dega     1.995158246                   : GCS_WGS_1984
PROJECT_UPGRADE_TIME .         2014-05-27T11_38_46           : 
Pad                .         Pad4                          : 
X                  .m        222100                        : 
Y                  .m        250025                        : 
group              .         Pad4                          : 
Интер-р            .         Ярышев                        : 
Куст               .         4                             : 
Статус             .         Не проверено                  : 
Тип                .         Разобраться                   : 
~Parameter Information Block
#_______________________________________________________________________________
#
#PARAMETER_NAME    .UNIT     VALUE                         : DESCRIPTION
#_______________________________________________________________________________
SET                .         LQC                           : 
PROJECT_UPGRADE_TIME .         2014-05-27T11_38_46           : 
TLFamily_GR_NORM   .         Gamma Ray                     : 
TLFamily_MD        .         Measured Depth                : 
TLFamily_RHOB_NORM .         Bulk Density                  : 
TLFamily_TNPH_NORM .         Neutron Porosity              : 
~Curve Information
#_______________________________________________________________________________
#
#LOGNAME           .UNIT     LOG_ID                        : DESCRIPTION
#_______________________________________________________________________________
MD                 .m                                      :  
GR_NORM            .gAPI                                   : Normalised By Techlog 
RHOB_NORM          .g/cm3                                  : Normalized By Techlog 
TNPH_NORM          .v/v                                    : Normalised By Techlog 
~Ascii
# ...
2594.80000141263 122.9765   2.339263   0.3178016 
2595.00000141561 118.7608   2.329703   0.3342567 
2595.200001418591 117.7968   2.32112    0.3360161 
2595.400001421571 121.6447   2.310024   0.3277368 
2595.600001424551 128.0284   2.314979   0.3072455 
2595.800001427531 132.8011   2.300813   0.3019674 
2596.000001430511 136.3217   2.309396   0.313248  
2596.200001433492 137.7644   2.337798   0.2967928 
2596.400001436472 137.7644   2.330959   0.2956544 
2596.600001439452 140.8403   2.33054    0.2900659 
2596.800001442432 141.2731   2.343729   0.2738178 
2597.000001445413 119.8349   2.376528   0.2933776 
2597.200001448393 105.8508   2.383715   0.3012429 
2597.400001451373 106.9876   2.368502   0.3055896 
2597.600001454353 108.1592   2.390205   0.2815796 
2597.800001457334 101.4105   2.356779   0.2520846 
2598.000001460314 96.67475   2.357547   0.2262118 
2598.200001463294 95.40125   2.377714   0.2451507 
2598.400001466274 93.82342   2.373736   0.2482554 
2598.600001469254 96.19978   2.387344   0.2460821 
2598.800001472235 95.11391   2.406395   0.2691607 
2599.000001475215 89.6343    2.387484   0.2624337 
2599.200001478195 90.48232   2.375271   0.2465996 
2599.400001481175 97.1091    2.357826   0.2562242 
2599.600001484156 100.6223   2.354267   0.2723689 
2599.800001487136 103.3171   2.337589   0.3015535 
2600.000001490116 103.2823   2.315537   0.3068315 
2600.200001493096 104.985    2.352662   0.3009325 
2600.400001496077 106.6013   2.369549   0.2804412 
2600.600001499057 106.1034   2.348126   0.2866507 
2600.800001502037 98.7224    2.355383   0.3045547 
2601.000001505017 98.90929   2.336751   0.301036  
2601.200001507998 100.1377   2.32747    0.3085909 
2601.400001510978 102.4742   2.308838   0.3275298 
2601.600001513958 111.2639   2.278622   0.3302205 
2601.800001516938 114.865    2.269899   0.3196644 
2602.000001519918 115.7448   2.265991   0.3172841 
2602.200001522899 117.7968   2.260827   0.3026918 
2602.400001525879 118.6715   2.296975   0.2666768 
2602.600001528859 118.9625   2.304023   0.2478414 
2602.800001531839 118.1027   2.30514    0.2934811 
2603.00000153482 110.6116   2.310094   0.3168702 
2603.2000015378 100.8705   2.272551   0.3334288 
2603.40000154078 102.5089   2.259781   0.3247355 
2603.60000154376 115.0763   2.303814   0.3046582 
2603.800001546741 120.2087   2.300883   0.2750596 
2604.000001549721 120.3246   2.339194   0.2456681 
2604.200001552701 109.2207   2.392647   0.2716445 
2604.400001555681 97.7429    2.397323   0.2989662 
2604.600001558661 91.9139    2.375551   0.3522642 
2604.800001561642 89.37872   2.313235   0.3727555 
2605.000001564622 90.66182   2.289508   0.36696   
2605.200001567602 95.86072   2.259851   0.2981382 
2605.400001570582 105.8966   2.281134   0.29493   
2605.600001573563 118.9706   2.297882   0.3148003 
2605.800001576543 129.183    2.308978   0.3094188 
2606.000001579523 130.8451   2.299976   0.2909973 
2606.200001582503 134.5902   2.303325   0.2725759 
2606.400001585484 130.0251   2.345404   0.2853053 
2606.600001588464 123.0186   2.36271    0.2897554 
2606.800001591444 110.41     2.356779   0.3628203 
2607.000001594424 105.9084   2.319026   0.378551  
2607.200001597404 105.881    2.295021   0.372652  
2607.400001600385 107.6273   2.280506   0.3319799 
2607.600001603365 117.785    2.266061   0.3821732 
2607.800001606345 125.2192   2.261595   0.3956271 
2608.000001609325 132.3572   2.253779   0.4163253 
2608.200001612306 150.3487   2.236264   0.4423016 
2608.400001615286 167.8202   2.23417    0.4786271 
2608.600001618266 170.1751   2.245894   0.4936333 
2608.800001621246 169.6418   2.225517   0.4681745 
2609.000001624227 160.4119   2.221749   0.4719002 
2609.200001627207 162.1352   2.226075   0.4338154 
2609.400001630187 177.5096   2.228169   0.3954201 
2609.600001633167 188.6874   2.256989   0.3806208 
2609.800001636147 184.9829   2.242614   0.3993527 
2610.000001639128 173.2377   2.195859   0.4149799 
2610.200001642108 172.0381   2.171226   0.3666495 
2610.400001645088 182.4957   2.182601   0.3322904 
2610.600001648068 192.4739   2.252174   0.3078664 
2610.800001651049 178.1264   2.323911   0.3340497 
2611.000001654029 136.841    2.334518   0.3509188 
2611.200001657009 114.4321   2.37569    0.3652006 
2611.400001659989 102.4055   2.345614   0.384657  
2611.60000166297 98.76746   2.352034   0.3764812 
2611.80000166595 94.94327   2.325307   0.3319799 
2612.00000166893 97.16303   2.350568   0.2817866 
2612.20000167191 102.3708   2.434796   0.258501  
2612.400001674891 105.2162   2.477155   0.2515671 
2612.600001677871 101.7761   2.515047   0.2327317 
2612.800001680851 98.49268   2.624955   0.2371818 
2613.000001683831 94.46459   2.673384   0.2489798 
2613.200001686811 89.32257   2.569826   0.2453576 
2613.400001689792 90.55397   2.504579   0.2225896 
2613.600001692772 107.0282   2.488808   0.2482554 
2613.800001695752 116.01     2.52363    0.3042442 
2614.000001698732 120.1429   2.556498   0.3163527 
2614.200001701713 120.9843   2.51728    0.331152  
2614.400001704693 114.294    2.50437    0.3322904 
2614.600001707673 111.6798   2.500113   0.3140759 
2614.800001710653 109.5671   2.469688   0.3182155 
2615.000001713634 108.9673   2.447846   0.2971033 
2615.200001716614 106.5894   2.435704   0.2795098 
2615.400001719594 106.0236   2.455801   0.2721619 
2615.600001722574 109.607    2.428237   0.2583975 
2615.800001725554 111.4485   2.436541   0.3038302 
2616.000001728535 111.2757   2.494182   0.3157317 
2616.200001731515 110.4572   2.543239   0.3139724 
2616.400001734495 105.6602   2.528864   0.3643727 
2616.600001737475 104.287    2.547286   0.3386033 
2616.800001740456 103.5424   2.548961   0.3080734 
2617.000001743436 107.9065   2.550636   0.307142  
2617.200001746416 108.2685   2.545751   0.2942055 
2617.400001749396 109.1978   2.540587   0.2691607 
2617.600001752377 107.7514   2.527538   0.277233  
2617.800001755357 107.2565   2.503742   0.2928602 
2618.000001758337 106.7261   2.504649   0.2852018 
2618.200001761317 106.3701   2.504579   0.2799237 
2618.400001764297 107.9169   2.510441   0.283339  
2618.600001767278 111.1597   2.500811   0.2985522 
2618.800001770258 108.9473   2.524537   0.2960684 
2619.000001773238 106.6589   2.561522   0.29493   
2619.200001776218 108.3763   2.54303    0.2880996 
2619.400001779199 109.7171   2.534725   0.2752666 
2619.600001782179 111.2927   2.579805   0.2742317 
2619.800001785159 112.1414   2.55908    0.2509462 
2620.000001788139 110.1396   2.593273   0.2655385 
2620.20000179112 101.4644   2.570106   0.2842704 
2620.4000017941 106.1972   2.574153   0.2992766 
2620.60000179708 109.0714   2.581899   0.2875821 
2620.80000180006 107.9309   2.590901   0.2922392 
2621.000001803041 111.241    2.5655     0.295344  
2621.200001806021 114.5651   2.529422   0.2547754 
2621.400001809001 110.9004   2.550776   0.2459786 
2621.600001811981 109.7865   2.588109   0.2720584 
2621.800001814961 108.5211   2.655938   0.2909973 
2622.000001817942 106.6301   2.644843   0.2842704 
2622.200001820922 104.5359   2.581969   0.2805447 
2622.400001823902 103.2882   2.52056    0.2846843 
2622.600001826882 110.9869   2.500043   0.2920322 
2622.800001829863 108.8388   2.523072   0.2967928 
2623.000001832843 107.8474   2.53333    0.2811656 
2623.200001835823 104.6615   2.515116   0.3005185 
2623.400001838803 101.7532   2.510301   0.2996906 
2623.600001841784 101.638    2.574432   0.2909973 
2623.800001844764 98.56802   2.598228   0.2841669 
2624.000001847744 98.76968   2.583504   0.2554998 
2624.200001850724 100.2293   2.634166   0.2550858 
2624.400001853704 98.49857   2.596483   0.2660559 
2624.600001856685 93.84705   2.573595   0.2605709 
2624.800001859665 98.52148   2.532353   0.3166632 
2625.000001862645 99.54308   2.535493   0.2963789 
2625.200001865625 106.0236   2.541634   0.2443227 
2625.400001868606 104.352    2.516861   0.2175185 
2625.600001871586 102.4461   2.510999   0.2214511 
2625.800001874566 103.159    2.50765    0.2445297 
2626.000001877546 106.6759   2.499485   0.2680222 
2626.200001880527 108.9089   2.483854   0.2615023 
