~Version
 VERS              .         2.0                           : CWLS LOG ASCII STANDARD - VERSION 2.0
 WRAP              .         NO                            : ONE LINE PER DEPTH STEP
 DLM               .         SPACE                         : DELIMITING CHARACTER(SPACE TAB OR COMMA)
~Well Information
#_______________________________________________________________________________
#
#PARAMETER_NAME    .UNIT     VALUE                         : DESCRIPTION
#_______________________________________________________________________________
STRT               .m        2500                          : First reference value
STOP               .m        2709.60000312328              : Last reference value
STEP               .m        0.2                           : Step increment
NULL               .         -9999                         : Missing value
COMP               .                                       : Company
WELL               .         400                           : Well name
FLD                .                                       : Field
LOC                .                                       : Location
CNTY               .                                       : County
STAT               .                                       : State
CTRY               .                                       : Country
SRVC               .                                       : Service Company
DATE               .                                       : Date
API                .                                       : API number
Cartographic_reference_system .         GCS_WGS_1984                  : GEOGCS["GCS_WGS_1984",DATUM["D_WGS_1984",SPHEROID["WGS_1984",6378137.0,298.257223563]],PRIMEM["Greenwich",0.0],UNIT["Degree",0.0174532925199433],AUTHORITY["EPSG",4326]]
EREF               .m        140.4                         : 
HZCS               .GCS_WGS_1984 World_Mercator                : PROJCS["World_Mercator",GEOGCS["GCS_WGS_1984",DATUM["D_WGS_1984",SPHEROID["WGS_1984",6378137.0,298.257223563]],PRIMEM["Greenwich",0.0],UNIT["Degree",0.0174532925199433]],PROJECTION["Mercator"],PARAMETER["False_Easting",0.0],PARAMETER["False_Northing",0.0],PARAMETER["Central_Meridian",0.0],PARAMETER["Standard_Parallel_1",0.0],UNIT["Meter",1.0],AUTHORITY["ESRI",54004]]
LATI               .dega     2.2605552291                  : GCS_WGS_1984
LONG               .dega     1.995158246                   : GCS_WGS_1984
PROJECT_UPGRADE_TIME .         2014-05-27T11_38_46           : 
Pad                .         Pad4                          : 
X                  .m        222100                        : 
Y                  .m        250025                        : 
group              .         Pad4                          : 
Интер-р            .         Ярышев                        : 
Куст               .         4                             : 
Статус             .         Не проверено                  : 
Тип                .         Разобраться                   : 
~Parameter Information Block
#_______________________________________________________________________________
#
#PARAMETER_NAME    .UNIT     VALUE                         : DESCRIPTION
#_______________________________________________________________________________
SET                .         LQC                           : 
PROJECT_UPGRADE_TIME .         2014-05-27T11_38_46           : 
TLFamily_GR_NORM   .         Gamma Ray                     : 
TLFamily_MD        .         Measured Depth                : 
TLFamily_RHOB_NORM .         Bulk Density                  : 
TLFamily_TNPH_NORM .         Neutron Porosity              : 
~Curve Information
#_______________________________________________________________________________
#
#LOGNAME           .UNIT     LOG_ID                        : DESCRIPTION
#_______________________________________________________________________________
MD                 .m                                      :  
GR_NORM            .gAPI                                   : Normalised By Techlog 
RHOB_NORM          .g/cm3                                  : Normalized By Techlog 
TNPH_NORM          .v/v                                    : Normalised By Techlog 
~Ascii
2500.0     46.46898   2.072344   0.3129375 
2500.20000000298 42.48522   2.09286    0.3261844 
2500.40000000596 43.05032   2.111352   0.3083839 
2500.600000008941 44.7072    2.093907   0.2869612 
2500.800000011921 46.86195   2.071716   0.276612  
2501.000000014901 47.4832    2.07018    0.2700921 
2501.200000017881 46.76149   2.072972   0.259536  
2501.400000020862 46.31754   2.103188   0.270713  
2501.600000023842 47.81708   2.081136   0.3002081 
2501.800000026822 48.93176   2.104374   0.2968963 
2502.000000029802 45.52641   2.095302   0.276819  
2502.200000032783 45.8145    2.117493   0.2725759 
2502.400000035763 47.90942   2.154199   0.2715409 
2502.600000038743 47.25198   2.235426   0.2400796 
2502.800000041723 46.92844   2.248336   0.2389412 
2503.000000044703 46.3951    2.203256   0.2545684 
2503.200000047684 41.9312    2.251267   0.3080734 
2503.400000050664 39.72621   2.033823   0.3184225 
2503.600000053644 36.85862   1.897677   0.3103502 
2503.800000056624 32.33414   1.841223   0.2850983 
2504.000000059605 28.11549   1.783373   0.3349811 
2504.200000062585 30.78659   1.786862   0.3137654 
2504.400000065565 36.71975   1.799423   0.2938951 
2504.600000068545 43.50609   1.805215   0.3036233 
2504.800000071526 49.53158   1.812332   0.3154213 
2505.000000074506 51.91459   1.812123   0.3219412 
2505.200000077486 53.99253   1.840385   0.34295   
2505.400000080466 55.07766   1.887977   0.3476071 
2505.600000083447 54.7194    1.926079   0.3499874 
2505.800000086427 53.89428   1.976741   0.3451233 
2506.000000089407 54.78292   2.001444   0.3173876 
2506.200000092387 50.28948   2.014354   0.3018639 
2506.400000095367 46.01099   2.029497   0.3066245 
2506.600000098348 45.58994   2.043175   0.3087978 
2506.800000101328 47.12936   2.048618   0.2736108 
2507.000000104308 47.81191   2.061946   0.2610883 
2507.200000107288 49.15042   2.055177   0.2966894 
2507.400000110269 49.61801   2.041151   0.3120061 
2507.600000113249 50.35079   2.032637   0.2874786 
2507.800000116229 49.59584   2.065924   0.2867542 
2508.000000119209 49.12161   2.100815   0.2735073 
2508.20000012219 49.19104   2.104304   0.2767155 
2508.40000012517 49.64682   2.087208   0.3090048 
2508.60000012815 50.35079   2.127053   0.289238  
2508.80000013113 50.56427   2.174436   0.2645035 
2509.00000013411 49.17923   2.152873   0.2689537 
2509.200000137091 49.23685   2.113585   0.2942055 
2509.400000140071 49.15042   2.09279    0.2901694 
2509.600000143051 48.94876   2.05741    0.2672978 
2509.800000146031 52.09336   2.024682   0.2879961 
2510.000000149012 52.69982   2.024054   0.2789923 
2510.200000151992 52.46861   2.057899   0.2880996 
2510.400000154972 50.12623   2.065017   0.300415  
2510.600000157952 47.3325    2.085672   0.2907903 
2510.800000160933 48.89114   2.100885   0.2490833 
2511.000000163913 48.07489   2.090208   0.2276606 
2511.200000166893 47.34432   2.093837   0.2482554 
2511.400000169873 45.05882   2.080648   0.2580871 
2511.600000172853 44.25069   2.056852   0.27744   
2511.800000175834 45.08984   2.064737   0.2911008 
2512.000000178814 45.8204    2.088603   0.2955509 
2512.200000181794 49.39862   2.096489   0.2954475 
2512.400000184774 46.23629   2.152245   0.2847879 
2512.600000187755 47.48837   2.177646   0.2580871 
2512.800000190735 47.85771   2.235287   0.253016  
2513.000000193715 46.30573   2.223145   0.2808552 
2513.200000196695 47.66713   2.222028   0.2853053 
2513.400000199676 48.22115   2.182112   0.2986557 
2513.600000202656 48.72346   2.133892   0.3220447 
2513.800000205636 47.2867    2.032986   0.3077629 
2514.000000208616 47.512     1.9512     0.3310485 
2514.200000211596 49.59511   1.873462   0.3703752 
2514.400000214577 49.57147   1.789862   0.3597156 
2514.600000217557 46.46306   1.729081   0.3472966 
2514.800000220537 44.84755   1.701238   0.300622  
2515.000000223517 46.64035   1.716241   0.2744387 
2515.200000226498 44.86823   1.75539    0.2813726 
2515.400000229478 42.01763   1.866275   0.3028988 
2515.600000232458 40.42132   1.99649    0.3286682 
2515.800000235438 38.31236   2.09614    0.3804138 
2516.000000238419 36.02169   2.142755   0.3839325 
2516.200000241399 38.12991   2.381552   0.342329  
2516.400000244379 49.31219   2.467245   0.3039337 
2516.600000247359 65.52864   2.483575   0.2700921 
2516.80000025034 70.59014   2.482737   0.2866507 
2517.00000025332 71.38645   2.547077   0.3107642 
2517.2000002563 74.2607    2.596553   0.3112816 
2517.40000025928 77.45701   2.566686   0.2936881 
2517.60000026226 77.22653   2.524049   0.277026  
2517.800000265241 78.70539   2.509394   0.2575696 
2518.000000268221 83.02673   2.557894   0.2552928 
2518.200000271201 85.63504   2.550008   0.2513601 
2518.400000274181 86.32719   2.531585   0.2360434 
2518.600000277162 80.60604   2.500323   0.2248664 
2518.800000280142 78.84205   2.464733   0.252809  
2519.000000283122 82.29321   2.509813   0.2775435 
2519.200000286102 82.62193   2.508906   0.2663664 
2519.400000289083 81.53753   2.545193   0.2562242 
2519.600000292063 79.88138   2.557335   0.2329387 
2519.800000295043 81.26643   2.575548   0.2424599 
2520.000000298023 80.42358   2.581759   0.2594325 
2520.200000301003 81.11573   2.542471   0.2838564 
2520.400000303984 82.23042   2.509813   0.3021744 
2520.600000306964 79.81195   2.519652   0.2990696 
2520.800000309944 78.9691    2.498369   0.2672978 
2521.000000312924 78.14989   2.490134   0.2339736 
2521.200000315905 78.14989   2.505137   0.2215546 
2521.400000318885 77.44002   2.533888   0.2268327 
2521.600000321865 75.03336   2.524746   0.258708  
2521.800000324845 77.26716   2.481551   0.3033128 
2522.000000327826 78.26513   2.464873   0.3181121 
2522.200000330806 76.36079   2.467804   0.3259774 
2522.400000333786 77.51536   2.477573   0.325253  
2522.600000336766 75.39237   2.511558   0.312627  
2522.800000339746 72.95617   2.541843   0.3075559 
2523.000000342727 73.91943   2.52035    0.3015535 
2523.200000345707 76.94583   2.543727   0.2771295 
2523.400000348687 76.99532   2.538773   0.2563277 
2523.600000351667 76.18793   2.566058   0.2574661 
2523.800000354648 77.49763   2.603741   0.2640896 
2524.000000357628 77.05885   2.599833   0.2721619 
2524.200000360608 75.14861   2.549659   0.2880996 
2524.400000363588 75.14861   2.512883   0.2717479 
2524.600000366569 75.27565   2.564383   0.2598464 
2524.800000369549 73.76356   2.534097   0.2549823 
2525.000000372529 75.35617   2.515186   0.2755771 
2525.200000375509 75.63688   2.57834    0.2590185 
2525.400000378489 74.3582    2.572897   0.2724724 
2525.60000038147 75.35691   2.548682   0.2655385 
2525.80000038445 76.75303   2.492228   0.2854088 
2526.00000038743 77.80345   2.494042   0.2635721 
2526.20000039041 78.32866   2.493763   0.2396656 
2526.400000393391 79.09099   2.493763   0.2524985 
2526.600000396371 80.06606   2.538563   0.2600534 
2526.800000399351 75.44334   2.53326    0.25343   
2527.000000402331 73.91351   2.511278   0.2318003 
2527.200000405312 77.53235   2.519443   0.2706095 
2527.400000408292 79.29265   2.5558     0.3171806 
2527.600000411272 78.85387   2.541704   0.3111781 
2527.800000414252 77.66458   2.518605   0.2661594 
2528.000000417233 77.4799    2.501648   0.2586046 
2528.200000420213 77.91869   2.497182   0.2455646 
2528.400000423193 77.53826   2.499206   0.2267292 
2528.600000426173 76.64961   2.511278   0.2268327 
2528.800000429153 76.29726   2.500881   0.2542579 
2529.000000432134 76.53365   2.509813   0.2583975 
2529.200000435114 77.79532   2.518605   0.2596394 
2529.400000438094 77.80345   2.54282    0.2719549 
2529.600000441074 76.96134   2.55587    0.2666768 
2529.800000444055 76.18793   2.536261   0.2474275 
2530.000000447035 77.39496   2.586504   0.2445297 
2530.200000450015 78.88859   2.570873   0.2576731 
2530.400000452995 80.1872    2.559638   0.253637  
2530.600000455976 75.81268   2.549938   0.2234175 
2530.800000458956 73.45183   2.518815   0.2319038 
2531.000000461936 74.68766   2.503323   0.2360434 
2531.200000464916 77.74583   2.556358   0.2388377 
2531.400000467896 75.93382   2.531097   0.2662629 
