~Version
 VERS              .         2.0                           : CWLS LOG ASCII STANDARD - VERSION 2.0
 WRAP              .         NO                            : ONE LINE PER DEPTH STEP
 DLM               .         SPACE                         : DELIMITING CHARACTER(SPACE TAB OR COMMA)
~Well Information
#_______________________________________________________________________________
#
#PARAMETER_NAME    .UNIT     VALUE                         : DESCRIPTION
#_______________________________________________________________________________
STRT               .m        2500                          : First reference value
STOP               .m        2709.60000312328              : Last reference value
STEP               .m        0.2                           : Step increment
NULL               .         -9999                         : Missing value
COMP               .                                       : Company
WELL               .         400                           : Well name
FLD                .                                       : Field
LOC                .                                       : Location
CNTY               .                                       : County
STAT               .                                       : State
CTRY               .                                       : Country
SRVC               .                                       : Service Company
DATE               .                                       : Date
API                .                                       : API number
Cartographic_reference_system .         GCS_WGS_1984                  : GEOGCS["GCS_WGS_1984",DATUM["D_WGS_1984",SPHEROID["WGS_1984",6378137.0,298.257223563]],PRIMEM["Greenwich",0.0],UNIT["Degree",0.0174532925199433],AUTHORITY["EPSG",4326]]
EREF               .m        140.4                         : 
HZCS               .GCS_WGS_1984 World_Mercator                : PROJCS["World_Mercator",GEOGCS["GCS_WGS_1984",DATUM["D_WGS_1984",SPHEROID["WGS_1984",6378137.0,298.257223563]],PRIMEM["Greenwich",0.0],UNIT["Degree",0.0174532925199433]],PROJECTION["Mercator"],PARAMETER["False_Easting",0.0],PARAMETER["False_Northing",0.0],PARAMETER["Central_Meridian",0.0],PARAMETER["Standard_Parallel_1",0.0],UNIT["Meter",1.0],AUTHORITY["ESRI",54004]]
LATI               .dega     2.2605552291                  : GCS_WGS_1984
LONG               .dega     1.995158246                   : GCS_WGS_1984
PROJECT_UPGRADE_TIME .         2014-05-27T11_38_46           : 
Pad                .         Pad4                          : 
X                  .m        222100                        : 
Y                  .m        250025                        : 
group              .         Pad4                          : 
Интер-р            .         Ярышев                        : 
Куст               .         4                             : 
Статус             .         Не проверено                  : 
Тип                .         Разобраться                   : 
~Parameter Information Block
#_______________________________________________________________________________
#
#PARAMETER_NAME    .UNIT     VALUE                         : DESCRIPTION
#_______________________________________________________________________________
SET                .         LQC                           : 
PROJECT_UPGRADE_TIME .         2014-05-27T11_38_46           : 
TLFamily_GR_NORM   .         Gamma Ray                     : 
TLFamily_MD        .         Measured Depth                : 
TLFamily_RHOB_NORM .         Bulk Density                  : 
TLFamily_TNPH_NORM .         Neutron Porosity              : 
~Curve Information
#_______________________________________________________________________________
#
#LOGNAME           .UNIT     LOG_ID                        : DESCRIPTION
#_______________________________________________________________________________
MD                 .m                                      :  
GR_NORM            .gAPI                                   : Normalised By Techlog 
RHOB_NORM          .g/cm3                                  : Normalized By Techlog 
TNPH_NORM          .v/v                                    : Normalised By Techlog 
~Ascii
# ...
2689.60000282526 80.11111   2.57164    0.2942055 
2689.80000282824 90.76598   2.515814   0.2878926 
2690.000002831221 93.81233   2.540797   0.295137  
2690.200002834201 92.2308    2.557544   0.2993801 
2690.400002837181 88.53735   2.537308   0.2718514 
2690.600002840161 89.17262   2.532074   0.2426669 
2690.800002843142 88.37927   2.49781    0.2459786 
2691.000002846122 83.2343    2.490553   0.2529125 
2691.200002849102 75.91093   2.478899   0.2513601 
2691.400002852082 72.66734   2.473735   0.2323177 
2691.600002855062 72.40732   2.520629   0.235319  
2691.800002858043 70.41656   2.537935   0.2321108 
2692.000002861023 71.97592   2.52998    0.22942   
2692.200002864003 77.21471   2.547635   0.2468065 
2692.400002866983 79.53493   2.546658   0.2455646 
2692.600002869964 76.86901   2.513302   0.2394586 
2692.800002872944 79.24759   2.513023   0.2418389 
2693.000002875924 80.68877   2.553078   0.2597429 
2693.200002878904 79.85701   2.53982    0.2520846 
2693.400002881885 79.33327   2.561452   0.235526  
2693.600002884865 79.10797   2.566337   0.2364574 
2693.800002887845 74.05238   2.532911   0.2487729 
2694.000002890825 74.52589   2.554265   0.258501  
2694.200002893806 75.52976   2.577991   0.2797168 
2694.400002896786 76.07343   2.622652   0.2845809 
2694.600002899766 76.45164   2.633957   0.2603639 
2694.800002902746 74.97057   2.611557   0.2721619 
2695.000002905726 77.25165   2.610021   0.2927567 
2695.200002908707 81.5619    2.606881   0.2916183 
2695.400002911687 81.57816   2.576037   0.3003115 
2695.600002914667 81.30632   2.5976     0.3079699 
2695.800002917647 83.51795   2.613161   0.2697816 
2696.000002920628 85.61066   2.62321    0.2809587 
2696.200002923608 86.6862    2.601996   0.3525746 
2696.400002926588 87.00236   2.544635   0.3254599 
2696.600002929568 83.3318    2.547286   0.3105572 
2696.800002932549 79.53272   2.530259   0.283546  
2697.000002935529 74.6293    2.489506   0.2606744 
2697.200002938509 76.02247   2.432214   0.2687467 
2697.400002941489 76.17612   2.349103   0.3027954 
2697.600002944469 74.46753   2.278762   0.3424325 
2697.80000294745 73.27306   2.348196   0.3012429 
2698.00000295043 70.47417   2.543099   0.2627442 
2698.20000295341 75.07768   2.590203   0.2522916 
2698.40000295639 84.17465   2.626141   0.2626407 
2698.600002959371 90.81178   2.618325   0.2670908 
2698.800002962351 87.75729   2.58155    0.2901694 
2699.000002965331 85.57668   2.588109   0.2746457 
2699.200002968311 83.87253   2.601159   0.2663664 
2699.400002971292 80.80991   2.583922   0.2734038 
2699.600002974272 79.81786   2.507231   0.2726794 
2699.800002977252 73.34325   2.470176   0.2726794 
2700.000002980232 68.57574   2.426143   0.2592255 
2700.200002983212 58.67582   2.416374   0.2579836 
2700.400002986193 55.48468   2.361873   0.2636756 
2700.600002989173 57.01377   2.381622   0.2640896 
2700.800002992153 60.88894   2.415606   0.2628477 
2701.000002995133 71.76171   2.457266   0.2661594 
2701.200002998114 74.71425   2.466547   0.2746457 
2701.400003001094 79.99662   2.429283   0.2938951 
2701.600003004074 78.49634   2.32768    0.360233  
2701.800003007054 77.29449   2.206257   0.349263  
2702.000003010035 72.55506   2.255175   0.2630547 
2702.200003013015 67.79347   2.462081   0.2372853 
2702.400003015995 64.37408   2.522304   0.2330422 
2702.600003018975 64.45016   2.562639   0.2277641 
2702.800003021955 65.6328    2.517559   0.2160696 
2703.000003024936 68.33788   2.488808   0.2163801 
2703.200003027916 71.48987   2.535005   0.2397691 
2703.400003030896 75.48396   2.505347   0.2497043 
2703.600003033876 74.43208   2.457546   0.2468065 
2703.800003036857 74.92921   2.481202   0.2465996 
2704.000003039837 77.62691   2.561313   0.2586046 
2704.200003042817 78.79404   2.559987   0.2565347 
2704.400003045797 76.86384   2.516861   0.2472205 
2704.600003048778 79.40789   2.493484   0.2409075 
2704.800003051758 76.64961   2.446171   0.2378028 
2705.000003054738 77.4895    2.479178   0.2376993 
2705.200003057718 77.78498   2.499066   0.2505322 
2705.400003060699 76.89634   2.51079    0.2279711 
2705.600003063679 75.75581   2.528166   0.2109985 
2705.800003066659 78.25405   2.552311   0.2000284 
2706.000003069639 79.40419   2.573874   0.199925  
2706.200003072619 80.44648   2.635073   0.2105846 
2706.4000030756 79.59256   2.7551     0.2155522 
2706.60000307858 78.34712   -9999      0.1919561 
2706.80000308156 76.35414   -9999      0.1855397 
2707.00000308454 72.26328   -9999      0.1978551 
2707.200003087521 73.64832   -9999      0.2190709 
2707.400003090501 74.11591   -9999      0.2189674 
2707.600003093481 77.06846   -9999      0.1971307 
2707.800003096461 -9999      -9999      0.1945434 
2708.000003099442 -9999      -9999      0.2013738 
2708.200003102422 -9999      -9999      0.2227965 
2708.400003105402 -9999      -9999      0.2299374 
2708.600003108382 -9999      -9999      0.2184499 
2708.800003111362 -9999      -9999      -9999     
2709.000003114343 -9999      -9999      -9999     
2709.200003117323 -9999      -9999      -9999     
2709.400003120303 -9999      -9999      -9999     
2709.600003123283 -9999      -9999      -9999     
