~Version
 VERS              .         2.0                           : CWLS LOG ASCII STANDARD - VERSION 2.0
 WRAP              .         NO                            : ONE LINE PER DEPTH STEP
 DLM               .         SPACE                         : DELIMITING CHARACTER(SPACE TAB OR COMMA)
~Well Information
#_______________________________________________________________________________
#
#PARAMETER_NAME    .UNIT     VALUE                         : DESCRIPTION
#_______________________________________________________________________________
STRT               .m        2500                          : First reference value
STOP               .m        2709.60000312328              : Last reference value
STEP               .m        0.2                           : Step increment
NULL               .         -9999                         : Missing value
COMP               .                                       : Company
WELL               .         400                           : Well name
FLD                .                                       : Field
LOC                .                                       : Location
CNTY               .                                       : County
STAT               .                                       : State
CTRY               .                                       : Country
SRVC               .                                       : Service Company
DATE               .                                       : Date
API                .                                       : API number
Cartographic_reference_system .         GCS_WGS_1984                  : GEOGCS["GCS_WGS_1984",DATUM["D_WGS_1984",SPHEROID["WGS_1984",6378137.0,298.257223563]],PRIMEM["Greenwich",0.0],UNIT["Degree",0.0174532925199433],AUTHORITY["EPSG",4326]]
EREF               .m        140.4                         : 
HZCS               .GCS_WGS_1984 World_Mercator                : PROJCS["World_Mercator",GEOGCS["GCS_WGS_1984",DATUM["D_WGS_1984",SPHEROID["WGS_1984",6378137.0,298.257223563]],PRIMEM["Greenwich",0.0],UNIT["Degree",0.0174532925199433]],PROJECTION["Mercator"],PARAMETER["False_Easting",0.0],PARAMETER["False_Northing",0.0],PARAMETER["Central_Meridian",0.0],PARAMETER["Standard_Parallel_1",0.0],UNIT["Meter",1.0],AUTHORITY["ESRI",54004]]
LATI               .dega     2.2605552291                  : GCS_WGS_1984
LONG               .dega     1.995158246                   : GCS_WGS_1984
PROJECT_UPGRADE_TIME .         2014-05-27T11_38_46           : 
Pad                .         Pad4                          : 
X                  .m        222100                        : 
Y                  .m        250025                        : 
group              .         Pad4                          : 
Интер-р            .         Ярышев                        : 
Куст               .         4                             : 
Статус             .         Не проверено                  : 
Тип                .         Разобраться                   : 
~Parameter Information Block
#_______________________________________________________________________________
#
#PARAMETER_NAME    .UNIT     VALUE                         : DESCRIPTION
#_______________________________________________________________________________
SET                .         LQC                           : 
PROJECT_UPGRADE_TIME .         2014-05-27T11_38_46           : 
TLFamily_GR_NORM   .         Gamma Ray                     : 
TLFamily_MD        .         Measured Depth                : 
TLFamily_RHOB_NORM .         Bulk Density                  : 
TLFamily_TNPH_NORM .         Neutron Porosity              : 
~Curve Information
#_______________________________________________________________________________
#
#LOGNAME           .UNIT     LOG_ID                        : DESCRIPTION
#_______________________________________________________________________________
MD                 .m                                      :  
GR_NORM            .gAPI                                   : Normalised By Techlog 
RHOB_NORM          .g/cm3                                  : Normalized By Techlog 
TNPH_NORM          .v/v                                    : Normalised By Techlog 
~Ascii
# ...
2658.000002354383 72.37852   2.466687   0.265642  
2658.200002357364 76.13032   2.488459   0.2564312 
2658.400002360344 78.12552   2.455243   0.247324  
2658.600002363324 82.91075   2.529282   0.2559138 
2658.800002366304 84.25591   2.530469   0.2797168 
2659.000002369285 85.64095   2.540238   0.3092118 
2659.200002372265 85.88323   2.531167   0.3095223 
2659.400002375245 84.968     2.521467   0.2995871 
2659.600002378225 85.0138    2.556707   0.2704026 
2659.800002381206 87.09469   2.525165   0.2697816 
2660.000002384186 86.11149   2.470874   0.2697816 
2660.200002387166 86.47714   2.443938   0.2854088 
2660.400002390146 88.89413   2.388809   0.2760946 
2660.600002393126 91.18112   2.291253   0.2817866 
2660.800002396107 87.78389   2.186997   0.3105572 
2661.000002399087 82.01102   2.0415     0.3760672 
2661.200002402067 72.14804   1.910378   0.4552381 
2661.400002405047 53.69188   1.806401   0.4180847 
2661.600002408028 31.29407   1.756506   0.4306071 
2661.800002411008 16.15389   1.734734   0.4404388 
2662.000002413988 15.03551   1.71673    0.4661047 
2662.200002416968 16.19008   1.718195   0.4567904 
2662.400002419949 20.57273   1.735083   0.4075286 
2662.600002422929 26.60782   1.784629   0.3866233 
2662.800002425909 41.41043   1.899142   0.3664425 
2663.000002428889 59.62947   1.943106   0.2753702 
2663.20000243187 71.52459   1.95441    0.2212442 
2663.40000243485 73.39938   2.187276   0.2318003 
2663.60000243783 78.55396   2.48497    0.253637  
2663.80000244081 75.74546   2.517559   0.2665734 
2664.00000244379 72.18275   2.501718   0.2877891 
2664.200002446771 63.99808   2.428167   0.3125235 
2664.400002449751 60.31719   2.309327   0.3743078 
2664.600002452731 60.6171    2.157619   0.3924188 
2664.800002455711 60.73529   2.055875   0.3052791 
2665.000002458692 70.64407   2.212328   0.2418389 
2665.200002461672 84.52995   2.583574   0.2546719 
2665.400002464652 95.69377   2.616302   0.2621233 
2665.600002467632 95.51723   2.574432   0.2619162 
2665.800002470613 95.05628   2.615395   0.271334  
2666.000002473593 91.94862   2.618884   0.3009325 
2666.200002476573 91.6428    2.596902   0.3202854 
2666.400002479553 93.09654   2.603741   0.3231831 
2666.600002482533 90.96172   2.60388    0.3039337 
2666.800002485514 84.77963   2.646239   0.2849948 
2667.000002488494 71.05626   2.660684   0.2487729 
2667.200002491474 61.87582   2.676734   0.2230035 
2667.400002494454 65.16891   2.60409    0.2142068 
2667.600002497435 70.80953   2.56543    0.228799  
2667.800002500415 77.77021   2.511139   0.2487729 
2668.000002503395 81.21397   2.552241   0.247531  
2668.200002506375 84.3246    2.615116   0.2324212 
2668.400002509356 81.96745   2.629281   0.2311793 
2668.600002512336 73.36023   2.657474   0.2256943 
2668.800002515316 72.8232    2.648472   0.2285921 
2669.000002518296 72.92514   2.620279   0.2305584 
2669.200002521276 78.03466   2.547077   0.2438053 
2669.400002524257 76.233     2.448753   0.2313863 
2669.600002527237 71.42117   2.376946   0.2372853 
2669.800002530217 71.2823    2.365432   0.2329387 
2670.000002533197 70.30723   2.373387   0.2360434 
2670.200002536178 67.13973   2.400254   0.25995   
2670.400002539158 66.54287   2.291044   0.258708  
2670.600002542138 65.05071   2.290834   0.2275572 
2670.800002545118 61.24646   2.31156    0.2244524 
2671.000002548099 49.9711    2.355732   0.2230035 
2671.200002551079 48.03721   2.360687   0.2205197 
2671.400002554059 52.88006   2.383575   0.2300409 
2671.600002557039 59.7255    2.372201   0.2535335 
2671.800002560019 66.08857   2.439123   0.2926532 
2672.000002563 71.24315   2.50744    0.2843739 
2672.20000256598 77.16891   2.535074   0.2559138 
2672.40000256896 74.21859   2.557266   0.2552928 
2672.60000257194 72.63262   2.529352   0.258708  
2672.800002574921 73.26642   2.589365   0.2254873 
2673.000002577901 74.8775    2.60716    0.2326282 
2673.200002580881 76.45313   2.534307   0.2372853 
2673.400002583861 72.20935   2.492158   0.2257978 
2673.600002586842 69.06032   2.481411   0.2120335 
2673.800002589822 65.49393   2.490553   0.2014773 
2674.000002592802 61.50869   2.503742   0.1957853 
2674.200002595782 58.97868   2.528864   0.1926806 
2674.400002598763 54.10777   2.544216   0.2221756 
2674.600002601743 57.76723   2.534097   0.2757841 
2674.800002604723 66.50298   2.582457   0.2754736 
2675.000002607703 78.84796   2.581899   0.2806482 
2675.200002610683 84.55581   2.595995   0.3090048 
2675.400002613664 80.48489   2.657264   0.2733003 
2675.600002616644 73.32626   2.602694   0.2151382 
2675.800002619624 62.50519   2.433261   0.2077903 
2676.000002622604 55.55633   2.434517   0.2168975 
2676.200002625585 52.06972   2.458034   0.217001  
2676.400002628565 47.66417   2.438006   0.2190709 
2676.600002631545 46.80508   2.413652   0.229627  
2676.800002634525 51.80083   2.44331    0.2401831 
2677.000002637506 55.50462   2.479039   0.2565347 
2677.200002640486 59.08801   2.488599   0.271334  
2677.400002643466 64.15542   2.44638    0.2567417 
2677.600002646446 66.03095   2.410233   0.2559138 
2677.800002649426 64.87638   2.374992   0.2487729 
2678.000002652407 67.51424   2.403464   0.2282816 
2678.200002655387 75.20105   2.42733    0.2024087 
2678.400002658367 75.86143   2.451544   0.2298339 
2678.600002661347 76.40437   2.518745   0.2542579 
2678.800002664328 79.60585   2.55894    0.2688502 
2679.000002667308 81.00568   2.582038   0.2540509 
2679.200002670288 78.35452   2.608416   0.2078938 
2679.400002673268 77.96079   2.522025   0.2001319 
2679.600002676249 74.78664   2.437448   0.2083078 
2679.800002679229 68.55284   2.449102   0.2304549 
2680.000002682209 65.40528   2.457825   0.2371818 
2680.200002685189 63.26086   2.499764   0.2365609 
2680.400002688169 67.54527   2.550566   0.2449437 
2680.60000269115 77.1076    2.59753    0.2524985 
2680.80000269413 78.78443   2.607788   0.2523951 
2681.00000269711 72.73087   2.588737   0.252602  
2681.20000270009 69.23391   2.550566   0.2513601 
2681.400002703071 72.05275   2.5267     0.2569487 
2681.600002706051 74.12256   2.528585   0.2553963 
2681.800002709031 77.99994   2.534725   0.253016  
2682.000002712011 78.31684   2.559987   0.2437018 
2682.200002714992 72.19754   2.515186   0.2398726 
2682.400002717972 68.87565   2.510092   0.222693  
2682.600002720952 66.33973   2.505137   0.2255908 
2682.800002723932 60.27361   2.476387   0.2323177 
2683.000002726912 57.90537   2.437448   0.2419424 
2683.200002729893 62.74452   2.413861   0.2604674 
2683.400002732873 63.47139   2.405069   0.2730933 
2683.600002735853 61.90981   2.373387   0.2941021 
2683.800002738833 65.41932   2.342125   0.3406731 
2684.000002741814 70.64185   2.29223    0.3180086 
2684.200002744794 75.42857   2.308419   0.2803377 
2684.400002747774 77.23392   2.397462   0.2476345 
2684.600002750754 76.17095   2.456429   0.240804  
2684.800002753735 72.9015    2.457336   0.2698851 
2685.000002756715 70.19199   2.405208   0.3045547 
2685.200002759695 66.07158   2.373527   0.2921357 
2685.400002762675 65.66161   2.396067   0.29493   
2685.600002765656 65.52274   2.414908   0.3056931 
2685.800002768636 71.04148   2.358175   0.2954475 
2686.000002771616 74.38701   2.220214   0.3705822 
2686.200002774596 75.29855   2.0766     0.3634413 
2686.400002777576 72.44942   1.94827    0.3736869 
2686.600002780557 59.7447    1.835012   0.4208789 
2686.800002783537 47.6036    1.785745   0.3319799 
2687.000002786517 45.25531   1.885325   0.2229    
2687.200002789497 57.26418   2.182531   0.1955783 
2687.400002792478 75.45368   2.458104   0.2236245 
2687.600002795458 82.24741   2.473247   0.2241419 
2687.800002798438 78.50668   2.434796   0.2222791 
2688.000002801418 72.62967   2.397183   0.2257978 
2688.200002804399 70.54951   2.403883   0.2307654 
2688.400002807379 67.84961   2.417351   0.2268327 
2688.600002810359 66.76965   2.448613   0.2225896 
2688.800002813339 63.43372   2.490692   0.2538439 
2689.000002816319 64.72643   2.515535   0.2813726 
2689.2000028193 65.32698   2.545542   0.2624337 
2689.40000282228 70.65293   2.562918   0.271127  
