~Version
 VERS              .         2.0                           : CWLS LOG ASCII STANDARD - VERSION 2.0
 WRAP              .         NO                            : ONE LINE PER DEPTH STEP
 DLM               .         SPACE                         : DELIMITING CHARACTER(SPACE TAB OR COMMA)
~Well Information
#_______________________________________________________________________________
#
#PARAMETER_NAME    .UNIT     VALUE                         : DESCRIPTION
#_______________________________________________________________________________
STRT               .m        2839                          : First reference value
STOP               .m        2999.8                        : Last reference value
STEP               .m        0.2                           : Step increment
NULL               .         -9999                         : Missing value
COMP               .                                       : Company
WELL               .         401                           : Well name
FLD                .                                       : Field
LOC                .                                       : Location
PROV               .                                       : Province
SRVC               .                                       : Service Company
DATE               .         2021-05-13 14_16_42           : Date
UWI                .                                       : Unique Well ID
API                .                                       : API NUMBER
CNTY               .                                       : COUNTY
Cartographic_reference_system .         GCS_WGS_1984                  : GEOGCS["GCS_WGS_1984",DATUM["D_WGS_1984",SPHEROID["WGS_1984",6378137.0,298.257223563]],PRIMEM["Greenwich",0.0],UNIT["Degree",0.0174532925199433],AUTHORITY["EPSG",4326]]
CTRY               .                                       : COUNTRY
EREF               .m        140.4                         : 
HZCS               .GCS_WGS_1984 World_Mercator                : PROJCS["World_Mercator",GEOGCS["GCS_WGS_1984",DATUM["D_WGS_1984",SPHEROID["WGS_1984",6378137.0,298.257223563]],PRIMEM["Greenwich",0.0],UNIT["Degree",0.0174532925199433]],PROJECTION["Mercator"],PARAMETER["False_Easting",0.0],PARAMETER["False_Northing",0.0],PARAMETER["Central_Meridian",0.0],PARAMETER["Standard_Parallel_1",0.0],UNIT["Meter",1.0],AUTHORITY["ESRI",54004]]
LATI               .dega     2.2605552291                  : GCS_WGS_1984
LONG               .dega     1.995158246                   : GCS_WGS_1984
ORIGINALWELLNAME   .         401                           : 
PROJECT_UPGRADE_TIME .         2014-05-27T11_38_46           : 
Pad                .         Pad4                          : 
STAT               .                                       : STATE
X                  .m        222100                        : 
Y                  .m        250025                        : 
group              .         Pad4                          : 
Интер-р            .         Старостина                    : 
Куст               .         4                             : 
Статус             .         Не проверено                  : 
Тип                .         Эксплуатация                  : 
~Parameter Information Block
#_______________________________________________________________________________
#
#PARAMETER_NAME    .UNIT     VALUE                         : DESCRIPTION
#_______________________________________________________________________________
SET                .         Gam                           : 
TLFamily_DEPT      .         Measured Depth                : 
TLFamily_GR_NORM   .         Gamma Ray                     : 
TLFamily_RHOB_NORM .         Bulk Density                  : 
TLFamily_RHOB_TL1  .         Bulk Density                  : 
TLFamily_SYNTH_Bulk_Density .         Bulk Density                  : 
TLFamily_SYNTH_Bulk_Density_MISFIT .                                       : 
TLFamily_TNPH_NORM .         Neutron Porosity              : 
~Curve Information
#_______________________________________________________________________________
#
#LOGNAME           .UNIT     LOG_ID                        : DESCRIPTION
#_______________________________________________________________________________
DEPT               .m                                      :  
GR_NORM            .gAPI                                   : Gamma Ray 
RHOB_NORM          .g/cm3                                  : Bulk Density 
RHOB_TL1           .g/cm3                                  :  
SYNTH_Bulk_Density .G/C3                                   : Bulk Density 
SYNTH_Bulk_Density_MISFIT .                                       : Synthetic Bulk Density Misfit 
TNPH_NORM          .v/v                                    : Thermal Neutron Porosity 
~Ascii
2839.0     93.74159240722656 -9999      2.493875   2.49472    -9999      0.27306   
2839.2     92.56964111328125 -9999      2.482782   2.49003    -9999      0.27994   
2839.4     90.60729217529297 -9999      2.49306    2.49719    -9999      0.27134   
2839.6     86.85294342041016 -9999      2.509248   2.50079    -9999      0.25671   
2839.8     84.71343994140625 -9999      2.513755   2.50117    -9999      0.25155   
2840       83.56874084472656 -9999      2.493332   2.49843    -9999      0.26445   
2840.2     82.04247283935547 -9999      2.477984   2.49659    -9999      0.2722    
2840.4     81.16351318359375 -9999      2.480508   2.49735    -9999      0.26961   
2840.6     81.58595275878906 -9999      2.481378   2.49748    -9999      0.26961   
2840.8     81.73586273193359 -9999      2.498139   2.49939    -9999      0.25929   
2841       78.53341674804688 -9999      2.506856   2.49843    -9999      0.24983   
2841.2     76.2440185546875 -9999      2.492755   2.49651    -9999      0.25585   
2841.4     75.70572662353516 -9999      2.479834   2.49246    -9999      0.26273   
2841.6     76.28489685058594 -9999      2.498429   2.4966     -9999      0.25241   
2841.8     77.53861999511719 -9999      2.508946   2.49843    -9999      0.24724   
2842       77.24562835693359 -9999      2.535038   2.4995     -9999      0.22832   
2842.2     77.83841705322266 -9999      2.540217   2.49969    -9999      0.22487   
2842.4     78.87410736083984 -9999      2.54353    2.49984    -9999      0.22315   
2842.6     82.04929351806641 -9999      2.516208   2.50079    -9999      0.24724   
2842.8     86.35555267333984 2.5773     2.531837   2.50214    -0.07516   0.23864   
2843       84.86334228515625 2.60919    2.543641   2.5025     -0.10669   0.22746   
2843.2     81.04768371582031 2.53289    2.530981   2.50078    -0.03211   0.2352    
2843.4     76.16224670410156 2.49992    2.539136   2.49747    -0.00246   0.22401   
2843.6     69.90046691894531 2.51798    2.534734   2.48662    -0.03137   0.21971   
2843.8     63.69319152832031 2.50133    2.530269   2.47951    -0.02183   0.21369   
2844       60.31359100341797 2.51368    2.531078   2.47826    -0.03541   0.20767   
2844.2     57.67668914794922 2.46728    2.538706   2.47348    0.00619    0.1982    
2844.4     57.91516876220703 2.46737    2.554227   2.47622    0.00886    0.18788   
2844.6     60.37491989135742 2.44094    2.545289   2.47871    0.03777    0.1982    
2844.8     61.71720886230469 2.48427    2.558742   2.48073    -0.00353   0.19046   
2845       63.84309005737305 2.48013    2.552616   2.47996    -0.00017   0.1982    
2845.2     63.11402893066406 2.53256    2.55001    2.47966    -0.0529    0.19906   
2845.4     57.60855102539063 2.61772    2.582176   2.49757    -0.12015   0.16551   
2845.6     51.19004821777344 2.67057    2.600452   2.5484     -0.12218   0.1397    
2845.8     46.07978057861328 2.7033     2.598841   2.5544     -0.1489    0.13281   
2846       45.17356109619141 2.73022    2.586535   2.54807    -0.18215   0.14142   
2846.2     47.51065063476563 2.75905    2.585323   2.52988    -0.22917   0.14658   
2846.4     49.78643035888672 2.70363    2.576191   2.51088    -0.19275   0.15776   
2846.6     49.5820198059082 2.79533    2.570011   2.49636    -0.29897   0.16207   
2846.8     46.6998291015625 2.70711    2.587812   2.54777    -0.15934   0.14314   
2847       43.04767990112305 2.72591    2.598619   2.55414    -0.17178   0.12765   
2847.2     42.35950088500977 2.73213    2.598154   2.55414    -0.17799   0.12679   
2847.4     43.96072006225586 2.71357    2.568583   2.51807    -0.1955    0.1526    
2847.6     45.2076301574707 2.62791    2.525535   2.4651     -0.16281   0.18272   
2847.8     48.08301162719727 2.52726    2.517836   2.46376    -0.0635    0.19304   
2848       53.38405990600586 2.50108    2.519427   2.46792    -0.03316   0.2025    
2848.2     57.59492874145508 2.49098    2.501781   2.47184    -0.01914   0.22057   
2848.4     62.12604141235352 2.49379    2.4979     2.47712    -0.01667   0.2309    
2848.6     67.02509307861328 2.53024    2.511555   2.48044    -0.0498    0.2309    
2848.8     70.35698699951172 2.58749    2.521908   2.48613    -0.10136   0.22918   
2849       74.07044982910156 2.59039    2.51136    2.49335    -0.09704   0.24122   
2849.2     78.69013214111328 2.60803    2.512263   2.49858    -0.10945   0.24638   
2849.4     82.64206695556641 2.61151    2.51701    2.50106    -0.11045   0.24724   
2849.6     83.89579772949219 2.61574    2.523131   2.5015     -0.11423   0.2438    
2849.8     83.80722045898438 2.6246     2.493731   2.49843    -0.12617   0.26445   
2850       85.84452056884766 2.56976    2.526189   2.50191    -0.06784   0.24294   
2850.2     87.54113006591797 2.54225    2.536587   2.50187    -0.04038   0.2352    
2850.4     85.95353698730469 2.5652     2.547952   2.50268    -0.06252   0.22401   
2850.6     85.15632629394531 2.6323     2.551188   2.50278    -0.12952   0.22057   
2850.8     86.75755310058594 2.67323    2.546482   2.5025     -0.17073   0.22574   
2851       88.10666656494141 2.60281    2.55042    2.50233    -0.10048   0.22229   
2851.2     89.88504028320313 2.57564    2.53673    2.50188    -0.07376   0.23606   
2851.4     91.55439758300781 2.55452    2.521958   2.50096    -0.05356   0.24983   
2851.6     91.78605651855469 2.57017    2.51589    2.50069    -0.06949   0.25499   
2851.8     90.53914642333984 2.60422    2.520326   2.50108    -0.10314   0.25069   
2852       90.04856872558594 2.4976     2.530141   2.50179    0.00419    0.24208   
2852.2     91.88826751708984 2.47946    2.527082   2.50093    0.02146    0.24552   
2852.4     93.57805633544922 2.51856    2.524793   2.49969    -0.01888   0.24811   
2852.6     92.98528289794922 2.61217    2.530282   2.50091    -0.11126   0.24294   
2852.8     88.38601684570313 2.59776    2.536076   2.50187    -0.09589   0.23606   
2853       79.21479034423828 2.56678    2.550941   2.50073    -0.06604   0.21713   
2853.2     70.54094696044922 2.54002    2.546334   2.48831    -0.05171   0.21197   
2853.4     63.93848037719727 2.54913    2.571193   2.48437    -0.06476   0.18358   
2853.6     60.79055023193359 2.60786    2.589893   2.5028     -0.10507   0.16293   
2853.8     63.3456916809082 2.55452    2.571289   2.4842     -0.07031   0.18272   
2854       65.53970336914063 2.50597    2.541851   2.48113    -0.02484   0.20853   
2854.2     61.75809860229492 2.47971    2.507222   2.4778     -0.00191   0.22487   
2854.4     57.51998138427734 2.4822     2.510543   2.47302    -0.00917   0.21541   
2854.6     56.81816101074219 2.45933    2.517121   2.46992    0.01059    0.21025   
2854.8     59.27109909057617 2.44434    2.510053   2.47522    0.03088    0.21885   
2855       61.26750946044922 2.46878    2.479403   2.47596    0.00719    0.2395    
2855.2     62.50759887695313 2.42545    2.470522   2.47577    0.05032    0.24638   
2855.4     63.50239944458008 2.41824    2.465605   2.47607    0.05783    0.25069   
2855.6     62.71883010864258 2.44923    2.454137   2.47495    0.02572    0.25499   
2855.8     62.74607849121094 2.47002    2.459467   2.47559    0.00557    0.25241   
2856       66.13931274414063 2.4783     2.499205   2.47889    0.00059    0.23692   
2856.2     71.33133697509766 2.49686    2.521358   2.4894     -0.00746   0.2309    
2856.4     73.24598693847656 2.50796    2.532351   2.49297    -0.01499   0.22574   
2856.6     71.97865295410156 2.53621    2.533733   2.49115    -0.04505   0.22315   
2856.8     69.91409301757813 2.4991     2.546432   2.48686    -0.01224   0.21111   
2857       69.18502807617188 2.51492    2.541728   2.48623    -0.02869   0.21369   
2857.2     67.89723968505859 2.50539    2.510956   2.4819     -0.02349   0.23262   
2857.4     67.66557312011719 2.50448    2.500448   2.48125    -0.02323   0.23864   
2857.6     65.89401245117188 2.54383    2.483287   2.4784     -0.06543   0.24552   
2857.8     58.72600936889648 2.53811    2.47865    2.47263    -0.06548   0.2352    
2858       54.33797836303711 2.54358    2.49369    2.46771    -0.07587   0.21885   
