~Version
 VERS              .         2.0                           : CWLS LOG ASCII STANDARD - VERSION 2.0
 WRAP              .         NO                            : ONE LINE PER DEPTH STEP
 DLM               .         SPACE                         : DELIMITING CHARACTER(SPACE TAB OR COMMA)
~Well Information
#_______________________________________________________________________________
#
#PARAMETER_NAME    .UNIT     VALUE                         : DESCRIPTION
#_______________________________________________________________________________
STRT               .m        2839                          : First reference value
STOP               .m        2999.8                        : Last reference value
STEP               .m        0.2                           : Step increment
NULL               .         -9999                         : Missing value
COMP               .                                       : Company
WELL               .         401                           : Well name
FLD                .                                       : Field
LOC                .                                       : Location
PROV               .                                       : Province
SRVC               .                                       : Service Company
DATE               .         2021-05-13 14_16_42           : Date
UWI                .                                       : Unique Well ID
API                .                                       : API NUMBER
CNTY               .                                       : COUNTY
Cartographic_reference_system .         GCS_WGS_1984                  : GEOGCS["GCS_WGS_1984",DATUM["D_WGS_1984",SPHEROID["WGS_1984",6378137.0,298.257223563]],PRIMEM["Greenwich",0.0],UNIT["Degree",0.0174532925199433],AUTHORITY["EPSG",4326]]
CTRY               .                                       : COUNTRY
EREF               .m        140.4                         : 
HZCS               .GCS_WGS_1984 World_Mercator                : PROJCS["World_Mercator",GEOGCS["GCS_WGS_1984",DATUM["D_WGS_1984",SPHEROID["WGS_1984",6378137.0,298.257223563]],PRIMEM["Greenwich",0.0],UNIT["Degree",0.0174532925199433]],PROJECTION["Mercator"],PARAMETER["False_Easting",0.0],PARAMETER["False_Northing",0.0],PARAMETER["Central_Meridian",0.0],PARAMETER["Standard_Parallel_1",0.0],UNIT["Meter",1.0],AUTHORITY["ESRI",54004]]
LATI               .dega     2.2605552291                  : GCS_WGS_1984
LONG               .dega     1.995158246                   : GCS_WGS_1984
ORIGINALWELLNAME   .         401                           : 
PROJECT_UPGRADE_TIME .         2014-05-27T11_38_46           : 
Pad                .         Pad4                          : 
STAT               .                                       : STATE
X                  .m        222100                        : 
Y                  .m        250025                        : 
group              .         Pad4                          : 
Интер-р            .         Старостина                    : 
Куст               .         4                             : 
Статус             .         Не проверено                  : 
Тип                .         Эксплуатация                  : 
~Parameter Information Block
#_______________________________________________________________________________
#
#PARAMETER_NAME    .UNIT     VALUE                         : DESCRIPTION
#_______________________________________________________________________________
SET                .         Gam                           : 
TLFamily_DEPT      .         Measured Depth                : 
TLFamily_GR_NORM   .         Gamma Ray                     : 
TLFamily_RHOB_NORM .         Bulk Density                  : 
TLFamily_RHOB_TL1  .         Bulk Density                  : 
TLFamily_SYNTH_Bulk_Density .         Bulk Density                  : 
TLFamily_SYNTH_Bulk_Density_MISFIT .                                       : 
TLFamily_TNPH_NORM .         Neutron Porosity              : 
~Curve Information
#_______________________________________________________________________________
#
#LOGNAME           .UNIT     LOG_ID                        : DESCRIPTION
#_______________________________________________________________________________
DEPT               .m                                      :  
GR_NORM            .gAPI                                   : Gamma Ray 
RHOB_NORM          .g/cm3                                  : Bulk Density 
RHOB_TL1           .g/cm3                                  :  
SYNTH_Bulk_Density .G/C3                                   : Bulk Density 
SYNTH_Bulk_Density_MISFIT .                                       : Synthetic Bulk Density Misfit 
TNPH_NORM          .v/v                                    : Thermal Neutron Porosity 
~Ascii
# ...
2940       38.91858   2.38221    2.482109   2.45853    0.07632    0.19218   
2940.2     39.55226   2.39496    2.483279   2.45925    0.06429    0.19304   
2940.4     40.88093   2.42313    2.494356   2.46102    0.03789    0.19046   
2940.6     42.56391   2.38552    2.507916   2.46141    0.07589    0.18702   
2940.8     42.35269   2.35934    2.511832   2.46237    0.10303    0.18444   
2941       42.12102   2.32762    2.527772   2.47358    0.14597    0.17497   
2941.2     41.96431   2.35131    2.544392   2.48778    0.13647    0.16465   
2941.4     41.74627   2.33433    2.538048   2.48422    0.1499     0.16809   
2941.6     42.65249   2.37318    2.534051   2.47641    0.10323    0.17239   
2941.8     44.06292   2.42976    2.518383   2.46237    0.03262    0.18444   
2942       47.00644   2.51343    2.538725   2.47179    -0.04164   0.17841   
2942.2     50.85618   2.57324    2.553944   2.47779    -0.09545   0.17583   
2942.4     52.23255   2.57531    2.559949   2.48059    -0.09472   0.17411   
2942.6     49.99766   2.56437    2.532895   2.46758    -0.09679   0.18788   
2942.8     46.31826   2.58334    2.488803   2.46046    -0.12288   0.20509   
2943       42.45489   2.55758    2.473624   2.45875    -0.09883   0.20423   
2943.2     38.40075   2.59577    2.46701    2.45569    -0.14008   0.1982    
2943.4     36.77227   2.62485    2.489645   2.45795    -0.1669    0.18358   
2943.6     37.16065   2.62667    2.508184   2.46872    -0.15795   0.17497   
2943.8     39.06167   2.56686    2.498203   2.45988    -0.10698   0.18444   
2944       40.1723    2.56305    2.501312   2.46185    -0.1012    0.1853    
2944.2     40.43122   2.50697    2.476748   2.45875    -0.04821   0.1982    
2944.4     39.23201   2.502      2.487043   2.45853    -0.04347   0.19046   
2944.6     37.31055   2.56073    2.474472   2.45579    -0.10494   0.19218   
2944.8     37.05844   2.52933    2.4978     2.46424    -0.06509   0.18013   
2945       36.45202   2.52047    2.521157   2.48263    -0.03784   0.16637   
2945.2     35.64119   2.58177    2.56123    2.54986    -0.03191   0.14056   
2945.4     35.70252   2.6864     2.583775   2.55617    -0.13022   0.12507   
2945.6     35.41634   2.78117    2.599763   2.56695    -0.21422   0.11216   
2945.8     34.32615   2.79591    2.612536   2.58201    -0.2139    0.09926   
2946       33.34498   2.77321    2.619064   2.58201    -0.1912    0.09152   
2946.2     33.93096   2.75573    2.619358   2.58201    -0.17372   0.09238   
2946.4     34.56463   2.72832    2.617864   2.58201    -0.1463    0.09496   
2946.6     35.68889   2.6864     2.617376   2.58084    -0.10556   0.09754   
2946.8     36.58149   2.6584     2.607661   2.58001    -0.07839   0.10786   
2947       38.20996   2.5884     2.603236   2.56481    -0.02359   0.11475   
2947.2     40.08372   2.51003    2.57829    2.54805    0.03802    0.13798   
2947.4     41.22843   2.44185    2.534798   2.48422    0.04237    0.16895   
2947.6     42.90459   2.42785    2.507681   2.46141    0.03356    0.18788   
2947.8     43.57915   2.41104    2.485679   2.45875    0.04772    0.20078   
2948       43.55871   2.41932    2.49571    2.45991    0.04059    0.19562   
2948.2     44.02885   2.43158    2.489316   2.45875    0.02717    0.19992   
2948.4     43.28616   2.41725    2.468491   2.4583     0.04105    0.20853   
2948.6     42.47533   2.40507    2.480805   2.45875    0.05368    0.20078   
2948.8     42.42764   2.39612    2.500899   2.46102    0.0649     0.19046   
2949       43.13626   2.39306    2.505407   2.46141    0.06836    0.1896    
2949.2     44.58758   2.42984    2.507957   2.46126    0.03142    0.19132   
2949.4     44.32866   2.49603    2.495592   2.45989    -0.03614   0.19734   
2949.6     45.26895   2.53198    2.502655   2.46108    -0.0709    0.19562   
2949.8     45.97757   2.49346    2.507009   2.46108    -0.03238   0.19476   
2950       45.09861   2.487      2.49046    2.45993    -0.02707   0.20164   
2950.2     44.17195   2.41907    2.481352   2.45875    0.03968    0.20423   
2950.4     44.98959   2.40747    2.469129   2.45948    0.05201    0.21197   
2950.6     46.27056   2.39281    2.458666   2.45886    0.06604    0.21971   
2950.8     46.59762   2.39372    2.4452     2.45816    0.06443    0.2266    
2951       46.57037   2.43133    2.454516   2.45826    0.02692    0.22229   
2951.2     49.33673   2.4339     2.494304   2.46342    0.02952    0.20853   
2951.4     54.07225   2.45776    2.512823   2.46751    0.00975    0.20767   
2951.6     59.7208    2.56429    2.522733   2.47546    -0.08884   0.21197   
2951.8     64.86514   2.61184    2.519865   2.47903    -0.13281   0.22229   
2952       67.11366   2.6212     2.49303    2.48058    -0.14062   0.24208   
2952.2     68.3742    2.62244    2.500874   2.48244    -0.14      0.2395    
2952.4     71.74017000000001 2.60629    2.497906   2.48849    -0.1178    0.24638   
2952.6     75.61716   2.53695    2.492768   2.49399    -0.04296   0.25499   
2952.8     78.10415999999999 2.50034    2.507374   2.49843    -0.00191   0.24897   
2953       79.25566999999999 2.49404    2.525265   2.49985    0.00581    0.23778   
2953.2     79.11259   2.48261    2.530801   2.49979    0.01718    0.23348   
2953.4     76.27127   2.49611    2.520594   2.49757    0.00146    0.23778   
2953.6     72.31932999999999 2.4735     2.503501   2.48964    0.01615    0.2438    
2953.8     66.77298   2.50108    2.547777   2.48241    -0.01867   0.20595   
2954       55.98008   2.50821    2.570713   2.48565    -0.02256   0.17239   
2954.2     45.86855   2.58367    2.587035   2.54807    -0.0356    0.14228   
2954.4     41.19436   2.6101     2.602729   2.56305    -0.04705   0.12077   
2954.6     40.84686   2.63678    2.605962   2.56305    -0.07373   0.11733   
2954.8     42.79558   2.57647    2.584174   2.54782    -0.02865   0.13884   
2955       45.39841   2.52768    2.560239   2.5017     -0.02598   0.16121   
2955.2     49.70467   2.44542    2.511468   2.46457    0.01915    0.19992   
2955.4     57.45184   2.41087    2.478973   2.47038    0.05951    0.23262   
2955.6     69.89364999999999 2.48965    2.46681    2.48273    -0.00692   0.26101   
2955.8     84.57717   2.45792    2.445347   2.47457    0.01665    0.29371   
2956       96.26947   2.3755     2.442082   2.45552    0.08003    0.30833   
2956.2     100.6984   2.30136    2.375242   2.38861    0.08726    0.34705   
2956.4     98.34765   2.15547    2.310122   2.3427     0.18722    0.372     
2956.6     94.79771   2.0337     2.191418   2.2993     0.26561    0.409     
2956.8     91.32273000000001 2.08216    2.28334    2.31429    0.23213    0.37286   
2957       87.80686   2.30458    2.369356   2.41846    0.11388    0.33414   
2957.2     86.38961   2.43489    2.457281   2.47925    0.04435    0.2894    
2957.4     85.49702000000001 2.44666    2.471835   2.4908     0.04415    0.27994   
2957.6     84.77477   2.48899    2.485957   2.4976     0.00861    0.27048   
2957.8     79.4669    2.40292    2.492559   2.49801    0.09509    0.26015   
2958       70.05717   2.36895    2.457385   2.4814     0.11245    0.26617   
2958.2     63.08677   2.43846    2.485461   2.47661    0.03816    0.2395    
2958.4     62.58256   2.55518    2.520823   2.47909    -0.07609   0.21799   
2958.6     66.25512999999999 2.53712    2.495082   2.47936    -0.05776   0.2395    
2958.8     71.61069999999999 2.49628    2.49759    2.48849    -0.00779   0.24638   
2959       75.03118000000001 2.50241    2.503996   2.49338    -0.00903   0.24724   
2959.2     76.05323   2.5121     2.500685   2.49621    -0.01589   0.25069   
2959.4     76.93901   2.49288    2.512994   2.49773    0.00485    0.2438    
2959.6     77.61357   2.51906    2.495695   2.49816    -0.0209    0.25585   
2959.8     78.72421   2.49603    2.465937   2.49108    -0.00495   0.27478   
2960       80.3663    2.45395    2.441109   2.47558    0.02163    0.29026   
2960.2     82.17194000000001 2.37136    2.445916   2.47732    0.10597    0.29026   
2960.4     82.13105   2.30732    2.409207   2.45831    0.15099    0.30833   
