~Version
 VERS              .         2.0                           : CWLS LOG ASCII STANDARD - VERSION 2.0
 WRAP              .         NO                            : ONE LINE PER DEPTH STEP
 DLM               .         SPACE                         : DELIMITING CHARACTER(SPACE TAB OR COMMA)
~Well Information
#_______________________________________________________________________________
#
#PARAMETER_NAME    .UNIT     VALUE                         : DESCRIPTION
#_______________________________________________________________________________
STRT               .m        2839                          : First reference value
STOP               .m        2999.8                        : Last reference value
STEP               .m        0.2                           : Step increment
NULL               .         -9999                         : Missing value
COMP               .                                       : Company
WELL               .         401                           : Well name
FLD                .                                       : Field
LOC                .                                       : Location
PROV               .                                       : Province
SRVC               .                                       : Service Company
DATE               .         2021-05-13 14_16_42           : Date
UWI                .                                       : Unique Well ID
API                .                                       : API NUMBER
CNTY               .                                       : COUNTY
Cartographic_reference_system .         GCS_WGS_1984                  : GEOGCS["GCS_WGS_1984",DATUM["D_WGS_1984",SPHEROID["WGS_1984",6378137.0,298.257223563]],PRIMEM["Greenwich",0.0],UNIT["Degree",0.0174532925199433],AUTHORITY["EPSG",4326]]
CTRY               .                                       : COUNTRY
EREF               .m        140.4                         : 
HZCS               .GCS_WGS_1984 World_Mercator                : PROJCS["World_Mercator",GEOGCS["GCS_WGS_1984",DATUM["D_WGS_1984",SPHEROID["WGS_1984",6378137.0,298.257223563]],PRIMEM["Greenwich",0.0],UNIT["Degree",0.0174532925199433]],PROJECTION["Mercator"],PARAMETER["False_Easting",0.0],PARAMETER["False_Northing",0.0],PARAMETER["Central_Meridian",0.0],PARAMETER["Standard_Parallel_1",0.0],UNIT["Meter",1.0],AUTHORITY["ESRI",54004]]
LATI               .dega     2.2605552291                  : GCS_WGS_1984
LONG               .dega     1.995158246                   : GCS_WGS_1984
ORIGINALWELLNAME   .         401                           : 
PROJECT_UPGRADE_TIME .         2014-05-27T11_38_46           : 
Pad                .         Pad4                          : 
STAT               .                                       : STATE
X                  .m        222100                        : 
Y                  .m        250025                        : 
group              .         Pad4                          : 
Интер-р            .         Старостина                    : 
Куст               .         4                             : 
Статус             .         Не проверено                  : 
Тип                .         Эксплуатация                  : 
~Parameter Information Block
#_______________________________________________________________________________
#
#PARAMETER_NAME    .UNIT     VALUE                         : DESCRIPTION
#_______________________________________________________________________________
SET                .         Gam                           : 
TLFamily_DEPT      .         Measured Depth                : 
TLFamily_GR_NORM   .         Gamma Ray                     : 
TLFamily_RHOB_NORM .         Bulk Density                  : 
TLFamily_RHOB_TL1  .         Bulk Density                  : 
TLFamily_SYNTH_Bulk_Density .         Bulk Density                  : 
TLFamily_SYNTH_Bulk_Density_MISFIT .                                       : 
TLFamily_TNPH_NORM .         Neutron Porosity              : 
~Curve Information
#_______________________________________________________________________________
#
#LOGNAME           .UNIT     LOG_ID                        : DESCRIPTION
#_______________________________________________________________________________
DEPT               .m                                      :  
GR_NORM            .gAPI                                   : Gamma Ray 
RHOB_NORM          .g/cm3                                  : Bulk Density 
RHOB_TL1           .g/cm3                                  :  
SYNTH_Bulk_Density .G/C3                                   : Bulk Density 
SYNTH_Bulk_Density_MISFIT .                                       : Synthetic Bulk Density Misfit 
TNPH_NORM          .v/v                                    : Thermal Neutron Porosity 
~Ascii
# ...
2981       56.81136   2.40474    2.452193   2.46326    0.05852    0.24466   
2981.2     60.40217   2.36291    2.487719   2.47616    0.11326    0.23348   
2981.4     64.68799   2.37078    2.527419   2.47975    0.10898    0.21713   
2981.6     67.58381   2.39488    2.544638   2.48345    0.08857    0.20939   
2981.8     67.18861   2.40731    2.548533   2.48332    0.07602    0.20595   
2982       66.0371    2.38734    2.534303   2.48148    0.09414    0.21455   
2982.2     62.78697   2.37641    2.52541    2.47921    0.1028     0.21541   
2982.4     58.73963   2.38328    2.525522   2.47523    0.09194    0.20853   
2982.6     56.934     2.42222    2.528689   2.47168    0.04946    0.20337   
2982.8     53.88828   2.45535    2.516653   2.46796    0.01261    0.20509   
2983       49.98403   2.50489    2.525766   2.46719    -0.0377    0.19218   
2983.2     47.84452   2.54822    2.54935    2.47929    -0.06893   0.17325   
2983.4     46.94512   2.57208    2.555784   2.4896     -0.08247   0.16723   
2983.6     46.31144   2.55203    2.564012   2.5017     -0.05033   0.16035   
2983.8     45.67777   2.55261    2.568388   2.50947    -0.04314   0.15604   
2984       45.20081   2.56794    2.577703   2.53004    -0.0379    0.1483    
2984.2     44.26734   2.59958    2.582191   2.54806    -0.05153   0.14314   
2984.4     42.4072    2.60952    2.570358   2.52978    -0.07974   0.1483    
2984.6     41.82122   2.57572    2.563743   2.51807    -0.05765   0.15174   
2984.8     42.39357   2.51633    2.54853    2.49287    -0.02345   0.16293   
2985       43.66092   2.48178    2.530352   2.47198    -0.0098    0.17669   
2985.2     45.86855   2.42479    2.501803   2.46083    0.03604    0.19734   
2985.4     48.66217   2.34543    2.464082   2.46071    0.11529    0.22229   
2985.6     52.25299   2.35818    2.42209    2.45603    0.09785    0.24897   
2985.8     54.68548   2.33905    2.444941   2.46183    0.12278    0.2438    
2986       56.98169   2.34543    2.473866   2.46809    0.12267    0.23434   
2986.2     55.70753   2.36614    2.487381   2.46807    0.10193    0.22487   
2986.4     55.12156   2.36605    2.491714   2.46774    0.10169    0.22143   
2986.6     56.24582   2.36506    2.476135   2.46743    0.10237    0.23176   
2986.8     57.86066   2.36274    2.483744   2.47167    0.10893    0.2309    
2987       58.54885   2.35595    2.492541   2.47315    0.1172     0.22746   
2987.2     58.43982   2.39347    2.495306   2.47315    0.07968    0.22574   
2987.4     60.34085   2.4701     2.49993    2.47732    0.00722    0.2266    
2987.6     63.23667   2.49669    2.507101   2.47841    -0.01829   0.22746   
2987.8     64.41544   2.4363     2.48339    2.477      0.0407     0.24294   
2988       65.38298   2.37848    2.451685   2.4742     0.09572    0.26101   
2988.2     67.76778   2.40946    2.45488    2.47678    0.06732    0.26359   
2988.4     68.09484   2.38146    2.504444   2.4818     0.10033    0.23692   
2988.6     71.41311   2.41675    2.533919   2.4907     0.07395    0.22229   
2988.8     79.28973999999999 2.48037    2.549035   2.50061    0.02024    0.21885   
2989       88.39964999999999 2.51318    2.526143   2.50152    -0.01166   0.24466   
2989.2     92.93076000000001 2.53157    2.522614   2.50039    -0.03118   0.24983   
2989.4     90.99567   2.45428    2.515354   2.50069    0.04641    0.25499   
2989.6     87.40485   2.42661    2.527485   2.50175    0.07514    0.24294   
2989.8     81.29297   2.39778    2.529058   2.50104    0.10326    0.23692   
2990       77.84524   2.42007    2.52789    2.49923    0.07916    0.23434   
2990.2     80.10057   2.42454    2.524117   2.50013    0.07559    0.2395    
2990.4     85.10182   2.4532     2.528713   2.50205    0.04885    0.24036   
2990.6     89.00606999999999 2.49239    2.519217   2.50108    0.0087     0.25069   
2990.8     92.1063    2.47192    2.53282    2.50171    0.02979    0.24036   
2991       91.94278   2.42984    2.539061   2.5018     0.07196    0.23434   
2991.2     88.96519000000001 2.47913    2.532512   2.50187    0.02274    0.2395    
2991.4     82.33546   2.48543    2.518955   2.50121    0.01578    0.24552   
2991.6     72.98026   2.4194     2.523341   2.49261    0.0732     0.23176   
2991.8     64.1974    2.36655    2.505461   2.47835    0.1118     0.23004   
2992       59.02581   2.40449    2.479726   2.47263    0.06814    0.2352    
2992.2     56.32758   2.37517    2.471359   2.46642    0.09125    0.23434   
2992.4     53.95641   2.37575    2.443579   2.46095    0.0852     0.24294   
2992.6     53.85421   2.37575    2.470177   2.46545    0.0897     0.23004   
2992.8     54.51514   2.42727    2.47282    2.46643    0.03916    0.23004   
2993       54.71273   2.4286     2.459633   2.46535    0.03675    0.23692   
2993.2     53.93597   2.40855    2.467027   2.46473    0.05618    0.23176   
2993.4     54.05862   2.40134    2.484534   2.46613    0.06478    0.22315   
2993.6     57.99694   2.42205    2.514925   2.47374    0.05168    0.21369   
2993.8     61.58776   2.41717    2.515351   2.47832    0.06115    0.21971   
2994       63.005     2.41907    2.509332   2.47827    0.0592     0.22574   
2994.2     63.16853   2.37467    2.520985   2.47911    0.10444    0.21885   
2994.4     64.72887   2.38825    2.522222   2.47923    0.09098    0.22057   
2994.6     67.50886   2.3779     2.50999    2.48135    0.10345    0.23262   
2994.8     71.53574999999999 2.31585    2.44855    2.48335    0.16749    0.27306   
2995       75.96465999999999 2.24105    2.431422   2.47447    0.23343    0.28854   
2995.2     77.85205000000001 2.26466    2.424921   2.46932    0.20466    0.29457   
2995.4     74.7927    2.35851    2.443455   2.48178    0.12327    0.2808    
2995.6     71.03834999999999 2.40159    2.497607   2.48687    0.08528    0.24552   
2995.8     68.66718   2.37674    2.495829   2.48305    0.10631    0.24294   
2996       69.31449000000001 2.33466    2.493143   2.48382    0.14916    0.24552   
2996.2     70.31610000000001 2.34244    2.479213   2.48433    0.14189    0.25499   
2996.4     71.53574999999999 2.33474    2.49305    2.48849    0.15375    0.24897   
2996.6     73.27325   2.36572    2.44555    2.48169    0.11597    0.27736   
2996.8     76.23038   2.42918    2.426916   2.4722     0.04302    0.29112   
2997       79.75306999999999 2.34982    2.471483   2.49417    0.14435    0.27306   
2997.2     77.39552999999999 2.26731    2.419822   2.46719    0.19988    0.29629   
2997.4     70.30247   2.14164    2.3103     2.34982    0.20818    0.32898   
2997.6     65.14449999999999 2.03784    2.277637   2.2894     0.25156    0.3307    
2997.8     54.42656   1.93719    2.19364    2.11056    0.17337    0.33586   
2998       41.45328   1.84905    2.032315   1.91619    0.06714    0.35479   
2998.2     30.53773   1.80323    1.803423   1.74632    -0.05691   0.40125   
2998.4     26.5926    1.80315    1.789289   1.75278    -0.05038   0.39523   
2998.6     26.9878    1.94058    1.935861   1.90271    -0.03787   0.34619   
2998.8     28.22108   2.27741    2.271356   2.43956    0.16214    0.24724   
2999       28.49363   2.44914    2.320007   2.4463     -0.00284   0.23176   
2999.2     27.47157   2.35512    2.317313   2.44844    0.09332    0.23004   
2999.4     26.20423   2.22025    2.335297   2.45009    0.22983    0.22057   
2999.6     26.17697   1.99501    2.330128   2.44989    0.45488    0.22229   
2999.8     27.27398   2.45419    2.340748   2.44989    -0.00431   0.22143   
