~Version
 VERS              .         2.0                           : CWLS LOG ASCII STANDARD - VERSION 2.0
 WRAP              .         NO                            : ONE LINE PER DEPTH STEP
 DLM               .         SPACE                         : DELIMITING CHARACTER(SPACE TAB OR COMMA)
~Well Information
#_______________________________________________________________________________
#
#PARAMETER_NAME    .UNIT     VALUE                         : DESCRIPTION
#_______________________________________________________________________________
STRT               .m        2839                          : First reference value
STOP               .m        2999.8                        : Last reference value
STEP               .m        0.2                           : Step increment
NULL               .         -9999                         : Missing value
COMP               .                                       : Company
WELL               .         401                           : Well name
FLD                .                                       : Field
LOC                .                                       : Location
PROV               .                                       : Province
SRVC               .                                       : Service Company
DATE               .         2021-05-13 14_16_42           : Date
UWI                .                                       : Unique Well ID
API                .                                       : API NUMBER
CNTY               .                                       : COUNTY
Cartographic_reference_system .         GCS_WGS_1984                  : GEOGCS["GCS_WGS_1984",DATUM["D_WGS_1984",SPHEROID["WGS_1984",6378137.0,298.257223563]],PRIMEM["Greenwich",0.0],UNIT["Degree",0.0174532925199433],AUTHORITY["EPSG",4326]]
CTRY               .                                       : COUNTRY
EREF               .m        140.4                         : 
HZCS               .GCS_WGS_1984 World_Mercator                : PROJCS["World_Mercator",GEOGCS["GCS_WGS_1984",DATUM["D_WGS_1984",SPHEROID["WGS_1984",6378137.0,298.257223563]],PRIMEM["Greenwich",0.0],UNIT["Degree",0.0174532925199433]],PROJECTION["Mercator"],PARAMETER["False_Easting",0.0],PARAMETER["False_Northing",0.0],PARAMETER["Central_Meridian",0.0],PARAMETER["Standard_Parallel_1",0.0],UNIT["Meter",1.0],AUTHORITY["ESRI",54004]]
LATI               .dega     2.2605552291                  : GCS_WGS_1984
LONG               .dega     1.995158246                   : GCS_WGS_1984
ORIGINALWELLNAME   .         401                           : 
PROJECT_UPGRADE_TIME .         2014-05-27T11_38_46           : 
Pad                .         Pad4                          : 
STAT               .                                       : STATE
X                  .m        222100                        : 
Y                  .m        250025                        : 
group              .         Pad4                          : 
Интер-р            .         Старостина                    : 
Куст               .         4                             : 
Статус             .         Не проверено                  : 
Тип                .         Эксплуатация                  : 
~Parameter Information Block
#_______________________________________________________________________________
#
#PARAMETER_NAME    .UNIT     VALUE                         : DESCRIPTION
#_______________________________________________________________________________
SET                .         Gam                           : 
TLFamily_DEPT      .         Measured Depth                : 
TLFamily_GR_NORM   .         Gamma Ray                     : 
TLFamily_RHOB_NORM .         Bulk Density                  : 
TLFamily_RHOB_TL1  .         Bulk Density                  : 
TLFamily_SYNTH_Bulk_Density .         Bulk Density                  : 
TLFamily_SYNTH_Bulk_Density_MISFIT .                                       : 
TLFamily_TNPH_NORM .         Neutron Porosity              : 
~Curve Information
#_______________________________________________________________________________
#
#LOGNAME           .UNIT     LOG_ID                        : DESCRIPTION
#_______________________________________________________________________________
DEPT               .m                                      :  
GR_NORM            .gAPI                                   : Gamma Ray 
RHOB_NORM          .g/cm3                                  : Bulk Density 
RHOB_TL1           .g/cm3                                  :  
SYNTH_Bulk_Density .G/C3                                   : Bulk Density 
SYNTH_Bulk_Density_MISFIT .                                       : Synthetic Bulk Density Misfit 
TNPH_NORM          .v/v                                    : Thermal Neutron Porosity 
~Ascii
# ...
2898.4     128.9207   2.35396    2.453655   2.43248    0.07852    0.30145   
2898.6     131.4213   2.34899    2.460767   2.43859    0.0896     0.28768   
2898.8     134.9031   2.34501    2.435714   2.40299    0.05798    0.31349   
2899       125.6024   2.34758    2.442362   2.42016    0.07258    0.31608   
2899.2     113.0857   2.31693    2.448686   2.43762    0.12069    0.31349   
2899.4     110.1285   2.31825    2.471901   2.45827    0.14002    0.29543   
2899.6     109.0043   2.33366    2.479234   2.46518    0.13151    0.2894    
2899.8     103.7373   2.37873    2.490283   2.48064    0.10191    0.27994   
2900       101.993    2.41468    2.471521   2.46491    0.05023    0.29371   
2900.2     100.6166   2.38428    2.454946   2.45439    0.07011    0.30403   
2900.4     99.01539   2.40499    2.466569   2.46405    0.05906    0.29543   
2900.6     98.00697   2.38287    2.457448   2.46068    0.07781    0.30059   
2900.8     94.92718000000001 2.37956    2.444412   2.45909    0.07953    0.30575   
2901       90.58002999999999 2.33416    2.47071    2.48186    0.1477     0.28596   
2901.2     90.25979   2.35214    2.493891   2.49747    0.14534    0.27048   
2901.4     94.46384   2.3518     2.501386   2.49683    0.14502    0.26789   
2901.6     96.41937   2.32107    2.51198    2.49571    0.17464    0.26015   
2901.8     97.23021   2.30574    2.507177   2.49319    0.18744    0.26445   
2902       97.02579   2.32944    2.49965    2.49304    0.1636     0.27048   
2902.2     96.74644000000001 2.33731    2.478401   2.47717    0.13986    0.28596   
2902.4     98.84505   2.33673    2.491794   2.48346    0.14674    0.27736   
2902.6     102.722    2.36125    2.488999   2.47978    0.11854    0.2808    
2902.8     104.1529   2.38444    2.494415   2.48171    0.09727    0.2765    
2903       103.0627   2.34046    2.490149   2.48074    0.14029    0.27994   
2903.2     99.03583999999999 2.32944    2.476692   2.47212    0.14268    0.28854   
2903.4     96.19453   2.35313    2.456507   2.46308    0.10995    0.29973   
2903.6     97.67991000000001 2.34278    2.459794   2.46309    0.12031    0.29887   
2903.8     103.7577   2.31386    2.441735   2.4425     0.12863    0.31435   
2904       110.5851   2.2997     2.44417    2.43749    0.13779    0.31608   
2904.2     112.5338   2.30135    2.447367   2.43717    0.13582    0.31435   
2904.4     112.963    2.28843    2.437627   2.43345    0.14502    0.32124   
2904.6     113.1606   2.27178    2.431279   2.42851    0.15673    0.32554   
2904.8     112.6019   2.27667    2.461144   2.44785    0.17118    0.30403   
2905       112.0159   2.24627    2.469701   2.4553     0.20904    0.29715   
2905.2     108.1185   2.27311    2.480283   2.46672    0.19361    0.28854   
2905.4     102.2451   2.2886     2.468019   2.46174    0.17314    0.29629   
2905.6     99.00176   2.33921    2.44891    2.45284    0.11363    0.30661   
2905.8     98.92682000000001 2.33549    2.459872   2.45953    0.12405    0.29973   
2906       102.5517   2.30218    2.45681    2.45395    0.15177    0.30403   
2906.2     106.3537   2.28122    2.467846   2.45768    0.17645    0.29801   
2906.4     106.9193   2.29473    2.444543   2.4404     0.14567    0.31435   
2906.6     103.3421   2.32496    2.435587   2.44037    0.11541    0.3178    
2906.8     95.4314    2.37541    2.47707    2.47953    0.10411    0.28596   
2907       89.51027999999999 2.40598    2.502751   2.49846    0.09247    0.26359   
2907.2     88.28382000000001 2.37475    2.501367   2.49845    0.1237     0.26359   
2907.4     91.057     2.36117    2.483475   2.49109    0.12993    0.27822   
2907.6     95.09752   2.31958    2.484264   2.4872     0.16762    0.2808    
2907.8     99.13804   2.31759    2.474309   2.46939    0.1518     0.29026   
2908       108.684    2.31511    2.450789   2.44369    0.12858    0.31091   
2908.2     118.1483   2.2712     2.399733   2.37972    0.10852    0.34705   
2908.4     122.9996   2.2485     2.386673   2.35515    0.10665    0.35651   
2908.6     126.9856   2.26739    2.422318   2.39251    0.12512    0.33242   
2908.8     126.9107   2.27327    2.42557    2.39863    0.12536    0.32984   
2909       120.7647   2.28876    2.426899   2.40929    0.12053    0.32984   
2909.2     114.135    2.28827    2.430431   2.42622    0.13796    0.3264    
2909.4     106.858    2.277      2.432169   2.43574    0.15874    0.3221    
2909.6     97.65266   2.35818    2.447102   2.45494    0.09676    0.30661   
2909.8     94.21854999999999 2.35727    2.444731   2.46015    0.10288    0.30489   
2910       95.97649   2.34915    2.45479    2.46318    0.11403    0.30059   
2910.2     101.2026   2.31188    2.463421   2.45993    0.14806    0.29887   
2910.4     109.4744   2.28769    2.465289   2.45373    0.16605    0.30059   
2910.6     117.4124   2.28321    2.454141   2.44176    0.15855    0.30919   
2910.8     122.5363   2.30086    2.475225   2.45605    0.15519    0.2851    
2911       134.7737   2.28495    2.421134   2.38442    0.09947    0.32898   
2911.2     150.0841   2.23194    2.373357   2.31244    0.08051    0.36081   
2911.4     160.1547   2.21553    2.369726   2.33057    0.11504    0.35135   
2911.6     163.3776   2.21702    2.35576    2.30541    0.08839    0.36426   
2911.8     158.9759   2.24063    2.342942   2.29779    0.05716    0.38232   
2912       153.3955   2.25057    2.369288   2.31244    0.06187    0.36168   
2912.2     154.7991   2.25115    2.374876   2.32963    0.07848    0.35393   
2912.4     160.0184   2.23268    2.361926   2.31173    0.07905    0.36168   
2912.6     167.9496   2.20965    2.350552   2.30564    0.09599    0.3634    
2912.8     169.1965   2.18165    2.346602   2.30304    0.12139    0.36684   
2913       162.0421   2.18927    2.36922    2.34023    0.15096    0.34791   
2913.2     154.8945   2.21876    2.396703   2.3924     0.17363    0.3221    
2913.4     158.7715   2.21644    2.391917   2.39607    0.17963    0.31521   
2913.6     173.0598   2.20393    2.359751   2.3974     0.19346    0.31349   
2913.8     180.4663   2.17784    2.338568   2.33793    0.16009    0.34705   
2914       166.5528   2.14296    2.342366   2.29957    0.15661    0.3763    
2914.2     139.332    2.18206    2.366289   2.30523    0.12317    0.37114   
2914.4     119.3815   2.28437    2.374912   2.35258    0.0682     0.36168   
2914.6     105.7201   2.32646    2.414625   2.41689    0.09044    0.33156   
2914.8     98.75648   2.33126    2.396284   2.41194    0.08068    0.335     
2915       98.48393   2.3393     2.42726    2.44121    0.10192    0.31866   
2915.2     100.8755   2.3248     2.435414   2.4419     0.1171     0.31608   
2915.4     104.2347   2.30517    2.449019   2.44766    0.14249    0.31005   
2915.6     105.4135   2.30467    2.488418   2.4759     0.17124    0.28166   
2915.8     103.3421   2.31776    2.492292   2.48147    0.16371    0.27822   
2916       99.47873   2.35412    2.494311   2.4857     0.13158    0.27564   
2916.2     97.63222   2.37028    2.498877   2.49177    0.12149    0.27134   
2916.4     98.58613   2.43001    2.510574   2.49211    0.06211    0.26187   
2916.6     99.2675    2.45395    2.524328   2.49372    0.03978    0.24897   
2916.8     102.2178   2.44782    2.520248   2.49241    0.04459    0.25241   
2917       110.2784   2.48087    2.500826   2.4847     0.00383    0.26875   
2917.2     116.0292   2.51169    2.496029   2.48172    -0.02997   0.26875   
2917.4     118.1755   2.46985    2.499386   2.48164    0.01179    0.26101   
2917.6     118.9455   2.48443    2.501231   2.48159    -0.00284   0.25671   
2917.8     117.9575   2.47259    2.498438   2.48054    0.00796    0.26273   
2918       114.7618   2.46066    2.487992   2.47437    0.01371    0.27908   
2918.2     111.6889   2.46422    2.462212   2.44995    -0.01427   0.30317   
2918.4     110.5442   2.48824    2.428319   2.4286     -0.05965   0.3264    
2918.6     110.9189   2.47888    2.405427   2.39503    -0.08385   0.34017   
2918.8     111.2596   2.45444    2.426087   2.42177    -0.03268   0.32812   
2919       111.1574   2.46364    2.417544   2.41302    -0.05062   0.33328   
