~Version
 VERS              .         2.0                           : CWLS LOG ASCII STANDARD - VERSION 2.0
 WRAP              .         NO                            : ONE LINE PER DEPTH STEP
 DLM               .         SPACE                         : DELIMITING CHARACTER(SPACE TAB OR COMMA)
~Well Information
#_______________________________________________________________________________
#
#PARAMETER_NAME    .UNIT     VALUE                         : DESCRIPTION
#_______________________________________________________________________________
STRT               .m        2839                          : First reference value
STOP               .m        2999.8                        : Last reference value
STEP               .m        0.2                           : Step increment
NULL               .         -9999                         : Missing value
COMP               .                                       : Company
WELL               .         401                           : Well name
FLD                .                                       : Field
LOC                .                                       : Location
PROV               .                                       : Province
SRVC               .                                       : Service Company
DATE               .         2021-05-13 14_16_42           : Date
UWI                .                                       : Unique Well ID
API                .                                       : API NUMBER
CNTY               .                                       : COUNTY
Cartographic_reference_system .         GCS_WGS_1984                  : GEOGCS["GCS_WGS_1984",DATUM["D_WGS_1984",SPHEROID["WGS_1984",6378137.0,298.257223563]],PRIMEM["Greenwich",0.0],UNIT["Degree",0.0174532925199433],AUTHORITY["EPSG",4326]]
CTRY               .                                       : COUNTRY
EREF               .m        140.4                         : 
HZCS               .GCS_WGS_1984 World_Mercator                : PROJCS["World_Mercator",GEOGCS["GCS_WGS_1984",DATUM["D_WGS_1984",SPHEROID["WGS_1984",6378137.0,298.257223563]],PRIMEM["Greenwich",0.0],UNIT["Degree",0.0174532925199433]],PROJECTION["Mercator"],PARAMETER["False_Easting",0.0],PARAMETER["False_Northing",0.0],PARAMETER["Central_Meridian",0.0],PARAMETER["Standard_Parallel_1",0.0],UNIT["Meter",1.0],AUTHORITY["ESRI",54004]]
LATI               .dega     2.2605552291                  : GCS_WGS_1984
LONG               .dega     1.995158246                   : GCS_WGS_1984
ORIGINALWELLNAME   .         401                           : 
PROJECT_UPGRADE_TIME .         2014-05-27T11_38_46           : 
Pad                .         Pad4                          : 
STAT               .                                       : STATE
X                  .m        222100                        : 
Y                  .m        250025                        : 
group              .         Pad4                          : 
Интер-р            .         Старостина                    : 
Куст               .         4                             : 
Статус             .         Не проверено                  : 
Тип                .         Эксплуатация                  : 
~Parameter Information Block
#_______________________________________________________________________________
#
#PARAMETER_NAME    .UNIT     VALUE                         : DESCRIPTION
#_______________________________________________________________________________
SET                .         Gam                           : 
TLFamily_DEPT      .         Measured Depth                : 
TLFamily_GR_NORM   .         Gamma Ray                     : 
TLFamily_RHOB_NORM .         Bulk Density                  : 
TLFamily_RHOB_TL1  .         Bulk Density                  : 
TLFamily_SYNTH_Bulk_Density .         Bulk Density                  : 
TLFamily_SYNTH_Bulk_Density_MISFIT .                                       : 
TLFamily_TNPH_NORM .         Neutron Porosity              : 
~Curve Information
#_______________________________________________________________________________
#
#LOGNAME           .UNIT     LOG_ID                        : DESCRIPTION
#_______________________________________________________________________________
DEPT               .m                                      :  
GR_NORM            .gAPI                                   : Gamma Ray 
RHOB_NORM          .g/cm3                                  : Bulk Density 
RHOB_TL1           .g/cm3                                  :  
SYNTH_Bulk_Density .G/C3                                   : Bulk Density 
SYNTH_Bulk_Density_MISFIT .                                       : Synthetic Bulk Density Misfit 
TNPH_NORM          .v/v                                    : Thermal Neutron Porosity 
~Ascii
# ...
2877.6     110.0604   2.5763     2.498462   2.4837     -0.0926    0.27134   
2877.8     118.4004   2.51484    2.492681   2.47987    -0.03497   0.26961   
2878       131.728    2.50895    2.469198   2.45451    -0.05444   0.27306   
2878.2     149.3686   2.46281    2.421973   2.42418    -0.03863   0.29198   
2878.4     164.0317   2.4421     2.383568   2.41465    -0.02745   0.30059   
2878.6     166.5868   2.40805    2.377521   2.41788    0.00982    0.29629   
2878.8     160.3523   2.41841    2.393325   2.41754    -0.00087   0.29801   
2879       160.5022   2.40731    2.392766   2.41656    0.00925    0.29887   
2879.2     168.7468   2.38643    2.371902   2.41982    0.03339    0.29457   
2879.4     176.7801   2.3562     2.351076   2.40571    0.04951    0.30661   
2879.6     182.6331   2.36829    2.336282   2.40891    0.04062    0.30317   
2879.8     185.672    2.37169    2.326545   2.42026    0.04857    0.29284   
2880       180.2824   2.39041    2.342381   2.40486    0.01446    0.30575   
2880.2     169.762    2.38925    2.369171   2.41858    0.02933    0.29543   
2880.4     165.2445   2.41584    2.381038   2.41788    0.00204    0.29629   
2880.6     165.8782   2.46306    2.377296   2.40375    -0.05931   0.31005   
2880.8     167.0774   2.41534    2.366089   2.35715    -0.0582    0.33758   
2881       164.1952   2.40101    2.376868   2.38857    -0.01244   0.32468   
2881.2     160.7202   2.40913    2.389862   2.40689    -0.00224   0.30833   
2881.4     163.1936   2.35984    2.383395   2.40258    0.04274    0.31091   
2881.6     172.8963   2.36754    2.358907   2.39138    0.02383    0.3221    
2881.8     181.5838   2.3605     2.339176   2.40486    0.04436    0.30575   
2882       189.9715   2.36672    2.322566   2.34631    -0.0204    0.34017   
2882.2     192.9558   2.37102    2.312357   2.29575    -0.07527   0.37716   
2882.4     192.6356   2.39579    2.316558   2.31914    -0.07665   0.35995   
2882.6     191.2115   2.38403    2.320323   2.35376    -0.03027   0.33758   
2882.8     185.89     2.39488    2.328411   2.32828    -0.06661   0.35135   
2883       181.8223   2.44981    2.337575   2.34779    -0.10201   0.34017   
2883.2     180.003    2.46695    2.343093   2.38544    -0.08152   0.32468   
2883.4     174.2931   2.46596    2.357129   2.40451    -0.06145   0.30919   
2883.6     159.5755   2.43846    2.397516   2.42929    -0.00917   0.2851    
2883.8     148.6736   2.47201    2.423604   2.42495    -0.04705   0.29198   
2884       145.9073   2.4875     2.435898   2.44252    -0.04498   0.27564   
2884.2     144.9397   2.52792    2.438345   2.44331    -0.08462   0.27564   
2884.4     144.9056   2.49504    2.435732   2.43474    -0.0603    0.28338   
2884.6     152.2713   2.4397     2.416265   2.42882    -0.01087   0.28768   
2884.8     161.5583   2.44044    2.389944   2.41494    -0.02551   0.29973   
2885       170.8658   2.4083     2.365974   2.41103    0.00272    0.30317   
2885.2     182.6467   2.41418    2.33733    2.381      -0.03319   0.32726   
2885.4     192.5811   2.40822    2.315919   2.38962    -0.0186    0.31952   
2885.6     200.008    2.38262    2.287466   2.42296    0.04034    0.2851    
2885.8     213.9352   2.40267    2.261672   2.41203    0.00936    0.29284   
2886       236.1138   2.38105    2.235385   2.39214    0.01109    0.30317   
2886.2     256.0439   2.34029    2.234617   2.37331    0.03302    0.3221    
2886.4     263.8456   2.33391    2.241373   2.34909    0.01518    0.33414   
2886.6     266.2644   2.3441     2.23674    2.36094    0.01684    0.32898   
2886.8     267.6067   2.36001    2.265974   2.29167    -0.06833   0.36942   
2887       268.4312   2.32256    2.240506   2.34871    0.02615    0.33414   
2887.2     273.6028   2.31337    2.219922   2.37919    0.06583    0.31091   
2887.4     282.3243   2.31941    2.247994   2.32893    0.00951    0.34361   
2887.6     286.1263   2.30757    2.266569   2.29206    -0.01551   0.36684   
2887.8     285.043    2.32571    2.268799   2.29158    -0.03413   0.37028   
2888       284.7977   2.34451    2.249718   2.32525    -0.01926   0.34533   
2888.2     294.8002   2.29995    2.240009   2.35183    0.05188    0.33156   
2888.4     306.6696   2.30608    2.256549   2.32525    0.01918    0.34619   
2888.6     302.4656   2.31444    2.268365   2.2944     -0.02004   0.36254   
2888.8     292.7492   2.29647    2.265091   2.2944     -0.00206   0.36254   
2889       290.9641   2.27584    2.231474   2.36939    0.09355    0.32296   
2889.2     285.9287   2.25737    2.218854   2.37983    0.12247    0.31005   
2889.4     274.6929   2.24676    2.223674   2.37414    0.12737    0.31521   
2889.6     263.7638   2.25438    2.246645   2.33444    0.08006    0.34103   
2889.8     250.0546   2.2992     2.250133   2.33716    0.03796    0.33931   
2890       240.4132   2.30334    2.235486   2.38509    0.08175    0.30919   
2890.2     236.1411   2.30823    2.247561   2.3772     0.06897    0.32038   
2890.4     240.2361   2.25612    2.268657   2.29576    0.03964    0.36254   
2890.6     249.7685   2.24875    2.279823   2.28594    0.03719    0.39523   
2890.8     256.6776   2.20054    2.287466   2.28252    0.08198    0.41588   
2891       262.7008   2.21578    2.289861   2.28254    0.06676    0.41846   
2891.2     267.5522   2.23193    2.291707   2.28215    0.05022    0.41932   
2891.4     269.024    2.21694    2.275458   2.28699    0.07005    0.38491   
2891.6     267.7634   2.22299    2.266524   2.29167    0.06869    0.37028   
2891.8     269.828    2.21694    2.269331   2.28911    0.07217    0.37458   
2892       268.3017   2.23235    2.281871   2.28558    0.05323    0.39695   
2892.2     259.0692   2.22299    2.271297   2.28851    0.06553    0.37802   
2892.4     248.6646   2.20882    2.264964   2.29576    0.08694    0.36254   
2892.6     238.2669   2.21885    2.271265   2.29544    0.0766     0.36598   
2892.8     230.5606   2.24544    2.272646   2.31501    0.06957    0.35737   
2893       229.8111   2.22688    2.27677    2.29557    0.06869    0.36684   
2893.2     231.1807   2.20195    2.281041   2.28932    0.08737    0.38405   
2893.4     227.1197   2.18339    2.284585   2.2879     0.10451    0.39351   
2893.6     225.0211   2.21015    2.284995   2.28872    0.07857    0.38921   
2893.8     221.0283   2.2075     2.287056   2.29178    0.08428    0.38835   
2894       205.7928   2.22829    2.294389   2.28921    0.06092    0.40211   
2894.2     187.8865   2.23632    2.313452   2.29447    0.05814    0.38749   
2894.4     177.1276   2.27518    2.32581    2.29586    0.02068    0.38405   
2894.6     172.5624   2.26176    2.322793   2.29604    0.03428    0.39265   
2894.8     171.1929   2.29075    2.340601   2.30152    0.01077    0.372     
2895       171.227    2.27907    2.345084   2.30454    0.02547    0.36512   
2895.2     167.568    2.28454    2.362886   2.34473    0.06019    0.34275   
2895.4     162.4645   2.26872    2.371162   2.34534    0.07663    0.34361   
2895.6     159.1463   2.2432     2.377652   2.34943    0.10623    0.34189   
2895.8     155.5759   2.25786    2.367819   2.31173    0.05387    0.36081   
2896       146.0231   2.27518    2.354951   2.30019    0.02501    0.37802   
2896.2     131.3873   2.29481    2.404084   2.35289    0.05808    0.34533   
2896.4     119.9471   2.35868    2.40077    2.3778     0.01912    0.34705   
2896.6     114.9254   2.39157    2.424235   2.41501    0.02344    0.3307    
2896.8     114.0123   2.38072    2.453409   2.44202    0.0613     0.31005   
2897       113.5013   2.34485    2.443988   2.43552    0.09068    0.31694   
2897.2     113.5013   2.3142     2.451088   2.43878    0.12459    0.31177   
2897.4     116.3017   2.33457    2.448912   2.43686    0.10228    0.31349   
2897.6     124.1852   2.33267    2.442259   2.42164    0.08897    0.31694   
2897.8     130.2562   2.32612    2.441927   2.41376    0.08763    0.31263   
2898       131.251    2.32381    2.452075   2.42527    0.10147    0.29973   
2898.2     131.0875   2.36001    2.448738   2.4209     0.0609     0.30403   
