~Version
 VERS              .         2.0                           : CWLS LOG ASCII STANDARD - VERSION 2.0
 WRAP              .         NO                            : ONE LINE PER DEPTH STEP
 DLM               .         SPACE                         : DELIMITING CHARACTER(SPACE TAB OR COMMA)
~Well Information
#_______________________________________________________________________________
#
#PARAMETER_NAME    .UNIT     VALUE                         : DESCRIPTION
#_______________________________________________________________________________
STRT               .m        2839                          : First reference value
STOP               .m        2999.8                        : Last reference value
STEP               .m        0.2                           : Step increment
NULL               .         -9999                         : Missing value
COMP               .                                       : Company
WELL               .         401                           : Well name
FLD                .                                       : Field
LOC                .                                       : Location
PROV               .                                       : Province
SRVC               .                                       : Service Company
DATE               .         2021-05-13 14_16_42           : Date
UWI                .                                       : Unique Well ID
API                .                                       : API NUMBER
CNTY               .                                       : COUNTY
Cartographic_reference_system .         GCS_WGS_1984                  : GEOGCS["GCS_WGS_1984",DATUM["D_WGS_1984",SPHEROID["WGS_1984",6378137.0,298.257223563]],PRIMEM["Greenwich",0.0],UNIT["Degree",0.0174532925199433],AUTHORITY["EPSG",4326]]
CTRY               .                                       : COUNTRY
EREF               .m        140.4                         : 
HZCS               .GCS_WGS_1984 World_Mercator                : PROJCS["World_Mercator",GEOGCS["GCS_WGS_1984",DATUM["D_WGS_1984",SPHEROID["WGS_1984",6378137.0,298.257223563]],PRIMEM["Greenwich",0.0],UNIT["Degree",0.0174532925199433]],PROJECTION["Mercator"],PARAMETER["False_Easting",0.0],PARAMETER["False_Northing",0.0],PARAMETER["Central_Meridian",0.0],PARAMETER["Standard_Parallel_1",0.0],UNIT["Meter",1.0],AUTHORITY["ESRI",54004]]
LATI               .dega     2.2605552291                  : GCS_WGS_1984
LONG               .dega     1.995158246                   : GCS_WGS_1984
ORIGINALWELLNAME   .         401                           : 
PROJECT_UPGRADE_TIME .         2014-05-27T11_38_46           : 
Pad                .         Pad4                          : 
STAT               .                                       : STATE
X                  .m        222100                        : 
Y                  .m        250025                        : 
group              .         Pad4                          : 
Интер-р            .         Старостина                    : 
Куст               .         4                             : 
Статус             .         Не проверено                  : 
Тип                .         Эксплуатация                  : 
~Parameter Information Block
#_______________________________________________________________________________
#
#PARAMETER_NAME    .UNIT     VALUE                         : DESCRIPTION
#_______________________________________________________________________________
SET                .         Gam                           : 
TLFamily_DEPT      .         Measured Depth                : 
TLFamily_GR_NORM   .         Gamma Ray                     : 
TLFamily_RHOB_NORM .         Bulk Density                  : 
TLFamily_RHOB_TL1  .         Bulk Density                  : 
TLFamily_SYNTH_Bulk_Density .         Bulk Density                  : 
TLFamily_SYNTH_Bulk_Density_MISFIT .                                       : 
TLFamily_TNPH_NORM .         Neutron Porosity              : 
~Curve Information
#_______________________________________________________________________________
#
#LOGNAME           .UNIT     LOG_ID                        : DESCRIPTION
#_______________________________________________________________________________
DEPT               .m                                      :  
GR_NORM            .gAPI                                   : Gamma Ray 
RHOB_NORM          .g/cm3                                  : Bulk Density 
RHOB_TL1           .g/cm3                                  :  
SYNTH_Bulk_Density .G/C3                                   : Bulk Density 
SYNTH_Bulk_Density_MISFIT .                                       : Synthetic Bulk Density Misfit 
TNPH_NORM          .v/v                                    : Thermal Neutron Porosity 
~Ascii
# ...
2919.2     109.4744   2.50249    2.427477   2.42915    -0.07334   0.3264    
2919.4     107.8528   2.4817     2.458982   2.44976    -0.03194   0.30489   
2919.6     106.6263   2.45676    2.483341   2.46934    0.01258    0.28596   
2919.8     105.5565   2.46513    2.486368   2.47336    0.00823    0.28338   
2920       106.2515   2.51641    2.474662   2.46333    -0.05308   0.29284   
2920.2     107.7233   2.5155     2.46942    2.45826    -0.05724   0.29715   
2920.4     108.2957   2.48369    2.434821   2.43582    -0.04786   0.32124   
2920.6     109.1678   2.47963    2.461798   2.45137    -0.02825   0.30317   
2920.8     110.3806   2.44177    2.468697   2.45619    0.01442    0.29801   
2921       109.1269   2.44028    2.488097   2.47385    0.03357    0.28166   
2921.2     109.2632   2.46281    2.474007   2.46044    -0.00237   0.29371   
2921.4     110.2035   2.45834    2.484973   2.46974    0.01141    0.28424   
2921.6     111.0756   2.46223    2.471866   2.45732    -0.00491   0.29543   
2921.8     111.4708   2.46563    2.489995   2.47593    0.0103     0.27908   
2922       110.0604   2.43721    2.487839   2.47357    0.03635    0.28166   
2922.2     108.0163   2.40168    2.431823   2.43344    0.03177    0.32296   
2922.4     106.163    2.43431    2.421257   2.42407    -0.01025   0.32812   
2922.6     103.7986   2.45726    2.415097   2.42363    -0.03363   0.32984   
2922.8     102.7697   2.47756    2.45959    2.45677    -0.02079   0.30231   
2923       105.1818   2.47623    2.460042   2.4534     -0.02283   0.30317   
2923.2     108.4932   2.45676    2.468468   2.45674    -0.0000300 0.29801   
2923.4     107.7982   2.46836    2.437152   2.43744    -0.03092   0.31952   
2923.6     101.0391   2.40457    2.429651   2.44009    0.03552    0.31952   
2923.8     94.67507000000001 2.43829    2.434765   2.45467    0.01638    0.31091   
2924       95.17928000000001 2.46008    2.441812   2.45793    -0.00215   0.30747   
2924.2     100.0783   2.51484    2.487954   2.48155    -0.03329   0.2808    
2924.4     103.7305   2.52254    2.496388   2.48385    -0.03869   0.27478   
2924.6     107.4031   2.4894     2.501405   2.48623    -0.00318   0.26961   
2924.8     110.074    2.43564    2.485957   2.47103    0.03539    0.28338   
2925       110.1217   2.43199    2.488746   2.47568    0.04368    0.2808    
2925.2     110.442    2.4455     2.489546   2.47663    0.03114    0.27994   
2925.4     110.7281   2.43531    2.48669    2.4732     0.03789    0.28252   
2925.6     109.0588   2.44334    2.489999   2.47691    0.03357    0.27994   
2925.8     106.6808   2.4672     2.482301   2.46934    0.00214    0.28682   
2926       102.5994   2.50605    2.469486   2.46269    -0.04337   0.29543   
2926.2     95.37688   2.53306    2.477012   2.47953    -0.05353   0.28596   
2926.4     90.41651   2.52502    2.500147   2.49846    -0.02657   0.26617   
2926.6     98.32720999999999 2.44923    2.524438   2.49448    0.04525    0.24897   
2926.8     107.5257   2.43365    2.486396   2.47255    0.0389     0.28338   
2927       109.1678   2.42495    2.479225   2.46518    0.04022    0.2894    
2927.2     107.1646   2.38403    2.47596    2.46333    0.0793     0.29198   
2927.4     105.4339   2.41203    2.49635    2.48218    0.07015    0.27478   
2927.6     104.6639   2.42462    2.493437   2.48049    0.05587    0.27736   
2927.8     103.8531   2.45825    2.483919   2.47183    0.01357    0.2851    
2928       103.8736   2.44475    2.477244   2.46729    0.02254    0.29026   
2928.2     104.6299   2.46853    2.47412    2.46494    -0.00358   0.29284   
2928.4     104.8343   2.46886    2.483084   2.47083    0.00197    0.28596   
2928.6     104.2211   2.52163    2.495414   2.48299    -0.03864   0.27564   
2928.8     103.0968   2.58707    2.494311   2.48253    -0.10454   0.2765    
2929       100.3713   2.54913    2.495735   2.48571    -0.06342   0.27478   
2929.2     101.2503   2.5382     2.488494   2.48073    -0.05746   0.2808    
2929.4     101.2639   2.54101    2.435931   2.44193    -0.09908   0.31608   
2929.6     101.4888   2.52403    2.462382   2.45817    -0.06586   0.29973   
2929.8     102.5858   2.50067    2.477807   2.46964    -0.03103   0.2894    
2930       104.48     2.46579    2.503992   2.48804    0.02225    0.26789   
2930.2     106.5582   2.48468    2.502578   2.48623    0.00154    0.26875   
2930.4     106.2652   2.44036    2.489448   2.4772     0.03684    0.2808    
2930.6     107.0215   2.41037    2.475935   2.46333    0.05296    0.29198   
2930.8     106.2584   2.42379    2.421369   2.42407    0.00027    0.32812   
2931       104.1597   2.44616    2.454234   2.45045    0.00429    0.30661   
2931.2     103.5056   2.45494    2.460161   2.45666    0.00172    0.30231   
2931.4     105.4271   2.501      2.45       2.44705    -0.05395   0.31005   
2931.6     108.0776   2.54457    2.459075   2.44898    -0.0956    0.30489   
2931.8     108.173    2.53936    2.476084   2.46252    -0.07684   0.29198   
2932       107.0964   2.49272    2.486418   2.47255    -0.02016   0.28338   
2932.2     109.6107   2.47913    2.489837   2.47691    -0.00222   0.27994   
2932.4     111.355    2.50663    2.48827    2.47473    -0.0319    0.2808    
2932.6     108.7999   2.54383    2.477168   2.4637     -0.08013   0.29112   
2932.8     101.2503   2.5744     2.463463   2.45993    -0.11446   0.29887   
2933       90.95479   2.64498    2.462837   2.47711    -0.16786   0.29112   
2933.2     84.47496   2.65558    2.504997   2.50067    -0.15491   0.25757   
2933.4     87.67740000000001 2.61416    2.557758   2.50287    -0.11129   0.21455   
2933.6     100.2146   2.51914    2.559928   2.49607    -0.02307   0.2025    
2933.8     112.1045   2.47308    2.539973   2.4901     0.01701    0.20509   
2934       108.1866   2.43895    2.55055    2.49265    0.05369    0.19734   
2934.2     82.02203   2.35321    2.569459   2.50264    0.14943    0.20078   
2934.4     54.91715   2.34128    2.524199   2.46958    0.12829    0.2025    
2934.6     45.63008   2.34344    2.515034   2.46259    0.11916    0.1896    
2934.8     42.80239   2.33896    2.51045    2.46237    0.12341    0.18616   
2935       39.09574   2.32447    2.47583    2.45741    0.13294    0.19562   
2935.2     36.79952   2.29382    2.462714   2.45331    0.15949    0.19648   
2935.4     36.91536   2.28296    2.453822   2.45241    0.16945    0.20078   
2935.6     36.73139   2.26814    2.424929   2.45196    0.18382    0.21283   
2935.8     35.53218   2.27799    2.434483   2.45087    0.17288    0.20595   
2936       34.83718   2.26399    2.413893   2.45042    0.18643    0.21283   
2936.2     36.05683   2.28943    2.433375   2.45081    0.16139    0.20767   
2936.4     36.64281   2.28694    2.463792   2.45356    0.16662    0.19562   
2936.6     36.51335   2.28967    2.459365   2.45331    0.16363    0.19734   
2936.8     36.51335   2.2939     2.459365   2.45331    0.15941    0.19734   
2937       37.20834   2.30218    2.475784   2.45579    0.1536     0.19132   
2937.2     38.20314   2.30434    2.471542   2.45684    0.15251    0.19562   
2937.4     39.88613   2.2963     2.448052   2.45687    0.16057    0.21025   
2937.6     41.17392   2.31627    2.454597   2.4583     0.14204    0.21025   
2937.8     40.22681   2.33466    2.424013   2.45602    0.12136    0.22143   
2938       38.3326    2.36191    2.443801   2.45524    0.09333    0.20853   
2938.2     37.94423   2.3533     2.464746   2.45479    0.1015     0.1982    
2938.4     39.08211   2.34518    2.468511   2.45626    0.11108    0.19906   
2938.6     40.77872   2.36821    2.495594   2.46141    0.09321    0.1896    
2938.8     40.90818   2.38155    2.501126   2.46141    0.07987    0.18702   
2939       40.16549   2.37641    2.496297   2.46089    0.08448    0.18788   
2939.2     39.4228    2.3658     2.496424   2.46094    0.09514    0.18616   
2939.4     38.75505   2.34592    2.484862   2.45853    0.1126     0.19046   
2939.6     38.55746   2.36108    2.473257   2.45684    0.09576    0.19562   
2939.8     38.03962   2.36539    2.470745   2.45595    0.09055    0.19562   
