~Version
 VERS              .         2.0                           : CWLS LOG ASCII STANDARD - VERSION 2.0
 WRAP              .         NO                            : ONE LINE PER DEPTH STEP
 DLM               .         SPACE                         : DELIMITING CHARACTER(SPACE TAB OR COMMA)
~Well Information
#_______________________________________________________________________________
#
#PARAMETER_NAME    .UNIT     VALUE                         : DESCRIPTION
#_______________________________________________________________________________
STRT               .m        2839                          : First reference value
STOP               .m        2999.8                        : Last reference value
STEP               .m        0.2                           : Step increment
NULL               .         -9999                         : Missing value
COMP               .                                       : Company
WELL               .         401                           : Well name
FLD                .                                       : Field
LOC                .                                       : Location
PROV               .                                       : Province
SRVC               .                                       : Service Company
DATE               .         2021-05-13 14_16_42           : Date
UWI                .                                       : Unique Well ID
API                .                                       : API NUMBER
CNTY               .                                       : COUNTY
Cartographic_reference_system .         GCS_WGS_1984                  : GEOGCS["GCS_WGS_1984",DATUM["D_WGS_1984",SPHEROID["WGS_1984",6378137.0,298.257223563]],PRIMEM["Greenwich",0.0],UNIT["Degree",0.0174532925199433],AUTHORITY["EPSG",4326]]
CTRY               .                                       : COUNTRY
EREF               .m        140.4                         : 
HZCS               .GCS_WGS_1984 World_Mercator                : PROJCS["World_Mercator",GEOGCS["GCS_WGS_1984",DATUM["D_WGS_1984",SPHEROID["WGS_1984",6378137.0,298.257223563]],PRIMEM["Greenwich",0.0],UNIT["Degree",0.0174532925199433]],PROJECTION["Mercator"],PARAMETER["False_Easting",0.0],PARAMETER["False_Northing",0.0],PARAMETER["Central_Meridian",0.0],PARAMETER["Standard_Parallel_1",0.0],UNIT["Meter",1.0],AUTHORITY["ESRI",54004]]
LATI               .dega     2.2605552291                  : GCS_WGS_1984
LONG               .dega     1.995158246                   : GCS_WGS_1984
ORIGINALWELLNAME   .         401                           : 
PROJECT_UPGRADE_TIME .         2014-05-27T11_38_46           : 
Pad                .         Pad4                          : 
STAT               .                                       : STATE
X                  .m        222100                        : 
Y                  .m        250025                        : 
group              .         Pad4                          : 
Интер-р            .         Старостина                    : 
Куст               .         4                             : 
Статус             .         Не проверено                  : 
Тип                .         Эксплуатация                  : 
~Parameter Information Block
#_______________________________________________________________________________
#
#PARAMETER_NAME    .UNIT     VALUE                         : DESCRIPTION
#_______________________________________________________________________________
SET                .         Gam                           : 
TLFamily_DEPT      .         Measured Depth                : 
TLFamily_GR_NORM   .         Gamma Ray                     : 
TLFamily_RHOB_NORM .         Bulk Density                  : 
TLFamily_RHOB_TL1  .         Bulk Density                  : 
TLFamily_SYNTH_Bulk_Density .         Bulk Density                  : 
TLFamily_SYNTH_Bulk_Density_MISFIT .                                       : 
TLFamily_TNPH_NORM .         Neutron Porosity              : 
~Curve Information
#_______________________________________________________________________________
#
#LOGNAME           .UNIT     LOG_ID                        : DESCRIPTION
#_______________________________________________________________________________
DEPT               .m                                      :  
GR_NORM            .gAPI                                   : Gamma Ray 
RHOB_NORM          .g/cm3                                  : Bulk Density 
RHOB_TL1           .g/cm3                                  :  
SYNTH_Bulk_Density .G/C3                                   : Bulk Density 
SYNTH_Bulk_Density_MISFIT .                                       : Synthetic Bulk Density Misfit 
TNPH_NORM          .v/v                                    : Thermal Neutron Porosity 
~Ascii
# ...
2960.6     80.48214   2.34949    2.376548   2.43967    0.09019    0.32038   
2960.8     78.95587   2.47424    2.495665   2.4984     0.02416    0.25757   
2961       75.99872999999999 2.53704    2.497818   2.49603    -0.041     0.25241   
2961.2     73.30051   2.59933    2.471987   2.48924    -0.11009   0.26359   
2961.4     75.84201   2.53637    2.463127   2.49087    -0.04551   0.2722    
2961.6     82.17194000000001 2.50962    2.493582   2.49828    -0.01133   0.26273   
2961.8     85.37437   2.47839    2.496208   2.49872    0.02033    0.26445   
2962       82.3014    2.48692    2.493812   2.49828    0.01136    0.26273   
2962.2     74.93579   2.4677     2.486846   2.49289    0.02519    0.25757   
2962.4     64.55853   2.48568    2.46592    2.47625    -0.00942   0.25241   
2962.6     58.43982   2.53256    2.482548   2.47199    -0.06058   0.23262   
2962.8     55.98008   2.56214    2.49476    2.46817    -0.09397   0.22143   
2963       55.17607   2.5908     2.475408   2.46706    -0.12374   0.23004   
2963.2     57.17929   2.53265    2.479628   2.46911    -0.06354   0.23176   
2963.4     62.71202   2.50647    2.499678   2.47769    -0.02878   0.2309    
2963.6     68.64673999999999 2.45718    2.516825   2.48401    0.02683    0.23004   
2963.8     71.59708000000001 2.39389    2.482777   2.48822    0.09433    0.25499   
2964       74.96986   2.35868    2.479495   2.49107    0.13239    0.26187   
2964.2     77.53180999999999 2.36498    2.479768   2.49586    0.13089    0.26531   
2964.4     77.9747    2.31353    2.488041   2.49707    0.18354    0.26101   
2964.6     80.00517000000001 2.39356    2.493618   2.49815    0.1046     0.26015   
2964.8     83.3984    2.38817    2.502155   2.50032    0.11214    0.25843   
2965       86.85294   2.38834    2.486675   2.49717    0.10883    0.2722    
2965.2     88.24294   2.39347    2.482135   2.49227    0.0988     0.2765    
2965.4     89.31950000000001 2.39049    2.483727   2.49228    0.10179    0.2765    
2965.6     88.53592999999999 2.41567    2.485236   2.49369    0.07802    0.27478   
2965.8     86.68259999999999 2.41973    2.465362   2.48212    0.06239    0.2851    
2966       87.7728    2.4228     2.463023   2.48047    0.05767    0.28768   
2966.2     90.77763   2.45188    2.456691   2.47306    0.02118    0.29457   
2966.4     93.74159   2.42752    2.469779   2.47759    0.05007    0.2894    
2966.6     92.54237999999999 2.3924     2.441739   2.46127    0.06887    0.30489   
2966.8     89.68062999999999 2.40432    2.453182   2.472      0.06768    0.29543   
2967       89.1151    2.36001    2.486063   2.4937     0.13369    0.27478   
2967.2     89.80328   2.31312    2.481771   2.49122    0.1781     0.27822   
2967.4     87.90907   2.21189    2.492161   2.49818    0.28629    0.26961   
2967.6     81.98796   2.08729    2.459849   2.48717    0.39988    0.28252   
2967.8     72.38065   1.93992    2.311244   2.36345    0.42353    0.33242   
2968       56.83179   1.85095    2.091132   1.92831    0.07736    0.37286   
2968.2     34.54419   1.801      1.650874   1.70619    -0.09481   0.48299   
2968.4     20.36489   1.76654    1.575408   1.70213    -0.06441   0.49503   
2968.6     17.20333   1.76389    1.575374   1.70213    -0.06176   0.48213   
2968.8     17.55764   1.77167    1.564007   1.70213    -0.06954   0.49589   
2969       17.25784   1.76322    1.556782   1.70213    -0.06109   0.50364   
2969.2     19.8266    1.75809    1.588441   1.70213    -0.05596   0.48041   
2969.4     27.19902   1.75867    1.612993   1.70286    -0.05581   0.48643   
2969.6     37.16746   1.77026    1.695344   1.73046    -0.03981   0.46578   
2969.8     49.43893   1.82113    1.899919   1.80855    -0.01258   0.41588   
2970       61.908     1.91308    2.021866   2.01164    0.09856    0.40469   
2970.2     69.89364999999999 2.00164    2.198977   2.16628    0.16465    0.36598   
2970.4     76.51657   2.11919    2.37172    2.43392    0.31473    0.31608   
2970.6     80.72062   2.22481    2.464601   2.48993    0.26512    0.27822   
2970.8     79.12621   2.53008    2.489077   2.49671    -0.03337   0.26187   
2971       72.29889   2.41137    2.462693   2.48651    0.07515    0.26703   
2971.2     66.22788   2.36017    2.479569   2.47852    0.11835    0.24811   
2971.4     63.2026    2.32215    2.476212   2.4764     0.15425    0.24466   
2971.6     62.26231   2.22647    2.476286   2.47634    0.24987    0.24294   
2971.8     63.61824   2.14694    2.437829   2.46963    0.32269    0.26445   
2972       68.77621000000001 2.08365    2.372545   2.42779    0.34414    0.30231   
2972.2     74.56104000000001 2.1177     2.398469   2.45337    0.33567    0.30145   
2972.4     79.1671    2.33201    2.487751   2.49649    0.16448    0.26273   
2972.6     83.41203   2.48849    2.552119   2.50261    0.01412    0.21885   
2972.8     86.5804    2.54723    2.550859   2.5026     -0.04463   0.22143   
2973       85.85133   2.57183    2.538477   2.50229    -0.06954   0.23262   
2973.2     82.6489    2.54109    2.534853   2.50195    -0.03914   0.23348   
2973.4     80.72743   2.49396    2.540262   2.50091    0.00696    0.22746   
2973.6     77.9747    2.46612    2.531527   2.49944    0.03331    0.23176   
2973.8     74.60872999999999 2.44732    2.535747   2.49485    0.04753    0.22487   
2974       73.42995999999999 2.51326    2.517877   2.49273    -0.02053   0.23606   
2974.2     71.57664   2.51127    2.498933   2.48884    -0.02243   0.24552   
2974.4     70.78625   2.50721    2.509598   2.48639    -0.02082   0.23778   
2974.6     72.44197   2.55037    2.527292   2.49149    -0.05889   0.22832   
2974.8     75.42637000000001 2.5541     2.525262   2.49516    -0.05895   0.23348   
2975       74.84721   2.51293    2.514209   2.49409    -0.01884   0.24036   
2975.2     71.63115000000001 2.47549    2.533113   2.4907     0.01521    0.22315   
2975.4     68.48322   2.44707    2.511009   2.48255    0.03548    0.23348   
2975.6     64.38818000000001 2.37177    2.489554   2.47728    0.10551    0.2395    
2975.8     60.06149   2.35943    2.483359   2.47421    0.11478    0.2352    
2976       58.71919   2.38155    2.497798   2.47439    0.09284    0.22487   
2976.2     59.34605   2.40714    2.518889   2.47546    0.06831    0.21369   
2976.4     62.32364   2.37981    2.532172   2.4792     0.0994     0.21025   
2976.6     67.30445   2.38585    2.516353   2.48135    0.0955     0.22832   
2976.8     73.10290999999999 2.40582    2.434471   2.47773    0.07192    0.28252   
2977       81.76311   2.29688    2.404332   2.45584    0.15896    0.31005   
2977.2     88.09985   2.19134    2.42228    2.45768    0.26633    0.31005   
2977.4     89.1151    2.21421    2.461095   2.47737    0.26316    0.29026   
2977.6     89.23093   2.13973    2.462767   2.47899    0.33925    0.2894    
2977.8     85.74912   2.01878    2.47087    2.48985    0.47106    0.2808    
2978       80.55028   1.88334    2.518863   2.50007    0.61672    0.2438    
2978.2     77.48411   2.34957    2.530834   2.49944    0.14987    0.23176   
2978.4     75.41274   2.25546    2.515287   2.49497    0.23951    0.24036   
2978.6     71.49487000000001 2.19143    2.495866   2.48849    0.29707    0.24724   
2978.8     62.94368   2.1336     2.534936   2.47921    0.34561    0.20939   
2979       62.27594   2.02931    2.563123   2.48169    0.45239    0.18788   
2979.2     69.6688    1.91755    2.550493   2.48686    0.5693     0.20767   
2979.4     77.9747    2.06866    2.550749   2.50022    0.43157    0.21627   
2979.6     84.06614999999999 2.03146    2.54408    2.50221    0.47075    0.2266    
2979.8     85.71505999999999 2.51069    2.545074   2.50255    -0.00814   0.2266    
2980       81.17032   2.47002    2.537577   2.5013     0.03129    0.23004   
2980.2     74.75863   2.39331    2.517878   2.49417    0.10087    0.23778   
2980.4     67.12048   2.39886    2.485435   2.47983    0.08097    0.24638   
2980.6     60.0683    2.44467    2.449199   2.47203    0.02736    0.25241   
2980.8     56.14361   2.41667    2.456627   2.46581    0.04914    0.24122   
