~Version
 VERS              .         2.0                           : CWLS LOG ASCII STANDARD - VERSION 2.0
 WRAP              .         NO                            : ONE LINE PER DEPTH STEP
 DLM               .         SPACE                         : DELIMITING CHARACTER(SPACE TAB OR COMMA)
~Well Information
#_______________________________________________________________________________
#
#PARAMETER_NAME    .UNIT     VALUE                         : DESCRIPTION
#_______________________________________________________________________________
STRT               .m        2839                          : First reference value
STOP               .m        2999.8                        : Last reference value
STEP               .m        0.2                           : Step increment
NULL               .         -9999                         : Missing value
COMP               .                                       : Company
WELL               .         401                           : Well name
FLD                .                                       : Field
LOC                .                                       : Location
PROV               .                                       : Province
SRVC               .                                       : Service Company
DATE               .         2021-05-13 14_16_42           : Date
UWI                .                                       : Unique Well ID
API                .                                       : API NUMBER
CNTY               .                                       : COUNTY
Cartographic_reference_system .         GCS_WGS_1984                  : GEOGCS["GCS_WGS_1984",DATUM["D_WGS_1984",SPHEROID["WGS_1984",6378137.0,298.257223563]],PRIMEM["Greenwich",0.0],UNIT["Degree",0.0174532925199433],AUTHORITY["EPSG",4326]]
CTRY               .                                       : COUNTRY
EREF               .m        140.4                         : 
HZCS               .GCS_WGS_1984 World_Mercator                : PROJCS["World_Mercator",GEOGCS["GCS_WGS_1984",DATUM["D_WGS_1984",SPHEROID["WGS_1984",6378137.0,298.257223563]],PRIMEM["Greenwich",0.0],UNIT["Degree",0.0174532925199433]],PROJECTION["Mercator"],PARAMETER["False_Easting",0.0],PARAMETER["False_Northing",0.0],PARAMETER["Central_Meridian",0.0],PARAMETER["Standard_Parallel_1",0.0],UNIT["Meter",1.0],AUTHORITY["ESRI",54004]]
LATI               .dega     2.2605552291                  : GCS_WGS_1984
LONG               .dega     1.995158246                   : GCS_WGS_1984
ORIGINALWELLNAME   .         401                           : 
PROJECT_UPGRADE_TIME .         2014-05-27T11_38_46           : 
Pad                .         Pad4                          : 
STAT               .                                       : STATE
X                  .m        222100                        : 
Y                  .m        250025                        : 
group              .         Pad4                          : 
Интер-р            .         Старостина                    : 
Куст               .         4                             : 
Статус             .         Не проверено                  : 
Тип                .         Эксплуатация                  : 
~Parameter Information Block
#_______________________________________________________________________________
#
#PARAMETER_NAME    .UNIT     VALUE                         : DESCRIPTION
#_______________________________________________________________________________
SET                .         Gam                           : 
TLFamily_DEPT      .         Measured Depth                : 
TLFamily_GR_NORM   .         Gamma Ray                     : 
TLFamily_RHOB_NORM .         Bulk Density                  : 
TLFamily_RHOB_TL1  .         Bulk Density                  : 
TLFamily_SYNTH_Bulk_Density .         Bulk Density                  : 
TLFamily_SYNTH_Bulk_Density_MISFIT .                                       : 
TLFamily_TNPH_NORM .         Neutron Porosity              : 
~Curve Information
#_______________________________________________________________________________
#
#LOGNAME           .UNIT     LOG_ID                        : DESCRIPTION
#_______________________________________________________________________________
DEPT               .m                                      :  
GR_NORM            .gAPI                                   : Gamma Ray 
RHOB_NORM          .g/cm3                                  : Bulk Density 
RHOB_TL1           .g/cm3                                  :  
SYNTH_Bulk_Density .G/C3                                   : Bulk Density 
SYNTH_Bulk_Density_MISFIT .                                       : Synthetic Bulk Density Misfit 
TNPH_NORM          .v/v                                    : Thermal Neutron Porosity 
~Ascii
# ...
2858.2     51.81010055541992 2.55385    2.520152   2.4667     -0.08716   0.19906   
2858.4     48.51227188110352 2.61416    2.536565   2.46785    -0.14631   0.18272   
2858.6     46.11384963989258 2.6241     2.524302   2.46408    -0.16002   0.1853    
2858.8     48.46456909179688 2.57887    2.523602   2.46495    -0.11392   0.19046   
2859       53.2818603515625 2.51525    2.524849   2.46792    -0.04733   0.19906   
2859.2     59.8979606628418 2.50282    2.542936   2.47725    -0.02557   0.19906   
2859.4     65.98940277099609 2.5179     2.526546   2.48125    -0.03665   0.21971   
2859.6     70.39787292480469 2.48559    2.519403   2.48613    0.00054    0.2309    
2859.8     72.88485717773438 2.48079    2.532933   2.49262    0.01184    0.22487   
2860       73.85240936279297 2.46786    2.539147   2.49365    0.02579    0.22143   
2860.2     77.87931060791016 2.52883    2.553624   2.50022    -0.02861   0.21369   
2860.4     86.11707305908203 2.54292    2.559152   2.50322    -0.0397    0.21283   
2860.6     93.91192626953125 2.52842    2.554579   2.50178    -0.02664   0.21713   
2860.8     95.32919311523438 2.49147    2.527053   2.49881    0.00734    0.24638   
2861       91.18644714355469 2.5242     2.522771   2.50096    -0.02324   0.24897   
2861.2     81.98114776611328 2.49015    2.513696   2.50079    0.01064    0.24897   
2861.4     71.65840148925781 2.47027    2.511561   2.48933    0.01907    0.23778   
2861.6     61.12442016601563 2.47002    2.516876   2.47844    0.00842    0.21799   
2861.8     53.92916107177734 2.53016    2.539113   2.46974    -0.06042   0.19132   
2862       49.85456848144531 2.6067     2.531042   2.46699    -0.13971   0.18874   
2862.2     47.04732894897461 2.75631    2.544305   2.4754     -0.28091   0.17497   
2862.4     45.82767105102539 2.75905    2.565145   2.5017     -0.25735   0.15863   
2862.6     46.98600006103516 2.73237    2.564606   2.50202    -0.23036   0.16121   
2862.8     51.43534851074219 2.62742    2.565143   2.48907    -0.13834   0.16895   
2863       56.88629913330078 2.55907    2.545645   2.47346    -0.08561   0.19218   
2863.2     62.88235855102539 2.48791    2.550712   2.47966    -0.00825   0.1982    
2863.4     71.60388946533203 2.51492    2.543544   2.49124    -0.02368   0.21541   
2863.6     73.87284851074219 2.49404    2.542542   2.49395    -0.0000900 0.21885   
2863.8     72.59868621826172 2.47093    2.562821   2.49276    0.02183    0.20078   
2864       73.53217315673828 2.48882    2.554891   2.49394    0.00512    0.20853   
2864.2     72.31252288818359 2.50821    2.546863   2.4919     -0.01631   0.21369   
2864.4     64.40862274169922 2.56984    2.53322    2.47987    -0.08997   0.21283   
2864.6     57.35644912719727 2.53107    2.524377   2.47302    -0.05805   0.20681   
2864.8     56.03459167480469 2.55857    2.530254   2.47001    -0.08857   0.20078   
2865       55.74160003662109 2.58028    2.513776   2.46945    -0.11082   0.21025   
2865.2     56.85905075073242 2.63404    2.508453   2.47123    -0.16281   0.21541   
2865.4     62.19417953491211 2.61027    2.525241   2.4792     -0.13106   0.21455   
2865.6     64.71524047851563 2.53405    2.532644   2.47987    -0.05418   0.21369   
2865.8     62.16011047363281 2.53248    2.536917   2.4792     -0.05328   0.20681   
2866       55.45542907714844 2.54938    2.524393   2.46991    -0.07947   0.20337   
2866.2     50.9651985168457 2.62568    2.53033    2.46728    -0.15839   0.19132   
2866.4     52.45058059692383 2.58881    2.53891    2.46935    -0.11946   0.18874   
2866.6     58.05144882202148 2.55965    2.52635    2.47374    -0.08592   0.20681   
2866.8     59.64585113525391 2.5266     2.523905   2.47546    -0.05114   0.21111   
2867       57.93561935424805 2.51102    2.524644   2.47374    -0.03729   0.20767   
2867.2     57.12477874755859 2.49562    2.542441   2.4726     -0.02302   0.19476   
2867.4     58.21496963500977 2.48634    2.538794   2.47508    -0.01125   0.19906   
2867.6     60.49074935913086 2.49628    2.528877   2.47826    -0.01802   0.20939   
2867.8     63.80902099609375 2.47772    2.522618   2.47927    0.00155    0.21885   
2868       66.21425628662109 2.49354    2.532175   2.48196    -0.01159   0.21627   
2868.2     69.59384918212891 2.46149    2.547027   2.48686    0.02537    0.21025   
2868.4     75.73980712890625 2.47847    2.551378   2.49682    0.01836    0.21369   
2868.6     84.33187866210938 2.46911    2.554368   2.50284    0.03373    0.21713   
2868.8     89.86460113525391 2.53198    2.515578   2.50081    -0.03117   0.25413   
2869       88.29744720458984 2.5343     2.502591   2.49845    -0.03585   0.26273   
2869.2     83.07816314697266 2.52602    2.497782   2.49969    -0.02633   0.26101   
2869.4     82.21280670166016 2.51997    2.497643   2.49972    -0.02025   0.26015   
2869.6     85.70823669433594 2.56354    2.496703   2.49877    -0.06478   0.26445   
2869.8     86.71666717529297 2.51699    2.513744   2.50116    -0.01583   0.25327   
2870       84.10703277587891 2.47366    2.53515    2.50196    0.0283     0.23434   
2870.2     84.93829345703125 2.48982    2.546524   2.5026     0.01278    0.22487   
2870.4     90.45057678222656 2.51152    2.549884   2.50233    -0.00919   0.22315   
2870.6     95.92878723144531 2.53389    2.529768   2.49789    -0.03599   0.2438    
2870.8     98.58612823486328 2.53662    2.494985   2.4866     -0.05002   0.27478   
2871       96.84182739257813 2.5208     2.49623    2.49162    -0.02918   0.27306   
2871.2     95.63580322265625 2.55874    2.516702   2.49804    -0.0607    0.25585   
2871.4     96.24903869628906 2.53646    2.534025   2.49826    -0.0382    0.2395    
2871.6     97.67990875244141 2.5319     2.536958   2.49702    -0.03488   0.23606   
2871.8     98.10917663574219 2.52055    2.543505   2.49668    -0.02387   0.22832   
2872       96.07868957519531 2.53439    2.504565   2.49472    -0.03967   0.26617   
2872.2     91.07063293457031 2.5575     2.479562   2.48941    -0.06809   0.2808    
2872.4     85.31304931640625 2.5821     2.471482   2.49094    -0.09116   0.27994   
2872.6     82.12423706054688 2.60099    2.497491   2.49961    -0.10138   0.26015   
2872.8     82.14467620849609 2.55924    2.509035   2.50061    -0.05863   0.25241   
2873       80.39354705810547 2.58426    2.516226   2.49992    -0.08433   0.24552   
2873.2     77.43641662597656 2.65177    2.534177   2.4995     -0.15227   0.22918   
2873.4     80.68654632568359 2.66088    2.549287   2.50131    -0.15957   0.21971   
2873.6     91.92915344238281 2.59908    2.547447   2.50216    -0.09692   0.22574   
2873.8     100.5076   2.58715    2.532804   2.4942     -0.09295   0.2395    
2874       104.0575   2.56661    2.523391   2.49114    -0.07547   0.24811   
2874.2     109.052    2.53546    2.513272   2.48789    -0.04758   0.25585   
2874.4     114.2781   2.50175    2.487507   2.47395    -0.0278    0.27994   
2874.6     117.6509   2.45063    2.480036   2.46336    0.01273    0.2851    
2874.8     117.5487   2.45544    2.498327   2.48054    0.0251     0.26359   
2875       117.1398   2.46621    2.493424   2.48025    0.01404    0.27048   
2875.2     118.8978   2.48128    2.490045   2.47737    -0.00392   0.2722    
2875.4     117.3987   2.45113    2.48808    2.47456    0.02343    0.2765    
2875.6     112.8949   2.47888    2.496612   2.48201    0.00313    0.27134   
2875.8     108.1253   2.48667    2.498487   2.4842     -0.00247   0.2722    
2876       102.2246   2.48543    2.500248   2.48838    0.00296    0.27134   
2876.2     97.22338999999999 2.49437    2.50299    2.49319    -0.00119   0.26789   
2876.4     95.38369   2.5324     2.510543   2.49745    -0.03495   0.26101   
2876.6     96.03780999999999 2.57042    2.534046   2.49863    -0.07179   0.2395    
2876.8     98.62701   2.58873    2.525274   2.49448    -0.09425   0.24811   
2877       100.3168   2.61234    2.52901    2.49403    -0.1183    0.2438    
2877.2     100.6984   2.61466    2.527282   2.49333    -0.12133   0.24552   
2877.4     103.1445   2.63247    2.505085   2.48902    -0.14345   0.26703   
