~Version
 VERS              .         2.0                           : CWLS LOG ASCII STANDARD - VERSION 2.0
 WRAP              .         NO                            : ONE LINE PER DEPTH STEP
 DLM               .         SPACE                         : DELIMITING CHARACTER(SPACE TAB OR COMMA)
~Well Information
#_______________________________________________________________________________
#
#PARAMETER_NAME    .UNIT     VALUE                         : DESCRIPTION
#_______________________________________________________________________________
STRT               .m        2906                          : First reference value
STOP               .m        3074.80000251532              : Last reference value
STEP               .m        0.2                           : Step increment
NULL               .         -9999                         : Missing value
COMP               .                                       : Company
WELL               .         402                           : Well name
FLD                .                                       : Field
LOC                .                                       : Location
CNTY               .                                       : County
STAT               .                                       : State
CTRY               .                                       : Country
SRVC               .                                       : Service Company
DATE               .                                       : Date
API                .                                       : API number
Cartographic_reference_system .         GCS_WGS_1984                  : GEOGCS["GCS_WGS_1984",DATUM["D_WGS_1984",SPHEROID["WGS_1984",6378137.0,298.257223563]],PRIMEM["Greenwich",0.0],UNIT["Degree",0.0174532925199433],AUTHORITY["EPSG",4326]]
EREF               .m        140.4                         : 
HZCS               .GCS_WGS_1984 World_Mercator                : PROJCS["World_Mercator",GEOGCS["GCS_WGS_1984",DATUM["D_WGS_1984",SPHEROID["WGS_1984",6378137.0,298.257223563]],PRIMEM["Greenwich",0.0],UNIT["Degree",0.0174532925199433]],PROJECTION["Mercator"],PARAMETER["False_Easting",0.0],PARAMETER["False_Northing",0.0],PARAMETER["Central_Meridian",0.0],PARAMETER["Standard_Parallel_1",0.0],UNIT["Meter",1.0],AUTHORITY["ESRI",54004]]
LATI               .dega     2.2605552291                  : GCS_WGS_1984
LONG               .dega     1.995158246                   : GCS_WGS_1984
PROJECT_UPGRADE_TIME .         2014-05-27T11_38_46           : 
Pad                .         Pad4                          : 
X                  .m        222100                        : 
Y                  .m        250025                        : 
group              .         Pad4                          : 
Интер-р            .         Ярышев                        : 
Куст               .         4                             : 
Статус             .         Проверено                     : 
Тип                .         Нагнетательные                : 
~Parameter Information Block
#_______________________________________________________________________________
#
#PARAMETER_NAME    .UNIT     VALUE                         : DESCRIPTION
#_______________________________________________________________________________
SET                .         LQC                           : 
PROJECT_UPGRADE_TIME .         2014-05-27T11_38_46           : 
TLFamily_GR_NORM   .         Gamma Ray                     : 
TLFamily_MD        .         Measured Depth                : 
TLFamily_RHOB_NORM .         Bulk Density                  : 
TLFamily_TNPH_NORM .         Neutron Porosity              : 
~Curve Information
#_______________________________________________________________________________
#
#LOGNAME           .UNIT     LOG_ID                        : DESCRIPTION
#_______________________________________________________________________________
MD                 .m                                      :  
GR_NORM            .gAPI                                   : Normalised By Techlog 
RHOB_NORM          .g/cm3                                  : Normalized By Techlog 
TNPH_NORM          .v/v                                    : Normalised By Techlog 
~Ascii
# ...
3032.400001883507 78.93039   2.563269   0.2557352 
3032.600001886487 69.97437   2.592671   0.2185416 
3032.800001889467 63.04816   2.476491   0.2405823 
3033.000001892447 59.0598    2.560498   0.2226742 
3033.200001895428 48.7684    2.534492   0.2571128 
3033.400001898408 36.85673   2.570419   0.2350721 
3033.600001901388 41.5751    2.536548   0.2378272 
3033.800001904368 47.24606   2.502676   0.2502251 
3034.000001907349 45.85725   2.495974   0.2157865 
3034.200001910329 47.13033   2.485339   0.2212967 
3034.400001913309 54.18118   2.484713   0.24747   
3034.600001916289 60.50202   2.483641   0.2433374 
3034.80000191927 65.43406   2.448161   0.2860412 
3035.00000192225 77.39914   2.369159   0.3728265 
3035.20000192523 76.41096   2.250387   0.3425205 
3035.40000192821 74.8708    2.176121   0.2708883 
3035.60000193119 78.44074   2.455847   0.2460925 
3035.800001934171 63.00364   2.468537   0.2529802 
3036.000001937151 54.32362   2.457366   0.2460925 
3036.200001940131 51.74187   2.448876   0.2584904 
3036.400001943111 53.26421   2.480245   0.2543577 
3036.600001946092 60.12811   2.490254   0.2268068 
3036.800001949072 56.82525   2.444854   0.1978784 
3037.000001952052 53.35324   2.413486   0.2075212 
3037.200001955032 69.7429    2.393646   0.1827254 
3037.400001958013 70.57976   2.429483   0.1799703 
3037.600001960993 84.1473    2.425193   0.2212967 
3037.800001963973 86.23051   2.435203   0.2846637 
3038.000001966953 91.3228    2.427159   0.2901739 
3038.200001969934 89.43546   2.417061   0.2819086 
3038.400001972914 89.21288   2.440207   0.3025718 
3038.600001975894 87.01395   2.452719   0.3218574 
3038.800001978874 88.2336    2.454506   0.2984391 
3039.000001981854 87.92201   2.471844   0.2736433 
3039.200001984835 89.17728   2.44271    0.3204798 
3039.400001987815 86.5332    2.405532   0.3824693 
3039.600001990795 83.97816   2.434934   0.371449  
3039.800001993775 77.49707   2.414469   0.3438981 
3040.000001996756 73.88261   2.34056    0.3383879 
3040.200001999736 72.33356   2.251638   0.3769591 
3040.400002002716 51.33235   2.096582   0.434816  
3040.600002005696 44.32601   1.91695    0.4554792 
3040.800002008677 26.70777   1.809974   0.5009381 
3041.000002011657 10.81664   1.729631   0.4127753 
3041.200002014637 4.709465   1.705144   0.3397655 
3041.400002017617 5.10118    1.703893   0.3204798 
3041.600002020597 9.062834   1.705055   0.3769591 
3041.800002023578 12.63277   1.701927   0.4513465 
3042.000002026558 13.49632   1.706842   0.4072651 
3042.200002029538 28.27463   1.738211   0.3466532 
3042.400002032518 45.14505   1.912839   0.2901739 
3042.600002035499 65.06905   2.219912   0.2529802 
3042.800002038479 81.42311   2.34056    0.2736433 
3043.000002041459 81.08482   2.279342   0.2350721 
3043.200002044439 82.90095   2.308298   0.2226742 
3043.40000204742 76.589     2.42993    0.2185416 
3043.6000020504 71.38989   2.530024   0.1868581 
3043.80000205338 78.44965   2.510898   0.2061437 
3044.00000205636 77.66622   2.54048    0.2460925 
3044.20000205934 78.24489   2.545306   0.2130314 
3044.400002062321 74.46129   2.506519   0.217164  
3044.600002065301 63.17279   2.53333    0.2405823 
3044.800002068281 63.11938   2.585969   0.2529802 
3045.000002071261 60.0747    2.511703   0.2185416 
3045.200002074242 65.32722   2.519835   0.1937458 
3045.400002077222 63.16389   2.530113   0.1965009 
3045.600002080202 65.88808   2.492488   0.2006335 
3045.800002083182 53.86959   2.42707    0.2226742 
3046.000002086163 58.30308   2.415363   0.217164  
3046.200002089143 47.13033   2.339845   0.2557352 
3046.400002092123 50.86942   2.207668   0.2378272 
3046.600002095103 53.47787   2.062175   0.2763984 
3046.800002098083 55.89047   2.013647   0.3122146 
3047.000002101064 67.62409   2.165664   0.277776  
3047.200002104044 71.83502   2.38319    0.2447149 
3047.400002107024 74.58592   2.557192   0.2763984 
3047.600002110004 76.34864   2.491952   0.2571128 
3047.800002112985 73.05468   2.517333   0.295684  
3048.000002115965 78.36953   2.515546   0.3246125 
3048.200002118945 97.48339   2.51492    0.3039493 
3048.400002121925 92.41782   2.454775   0.2598679 
3048.600002124906 94.36749   2.462907   0.2336946 
3048.800002127886 87.66383   2.545574   0.2295619 
3049.000002130866 76.224     2.567022   0.2185416 
3049.200002133846 71.87954   2.533062   0.2460925 
3049.400002136827 64.25892   2.600089   0.2543577 
3049.600002139807 62.06887   2.634496   0.2212967 
3049.800002142787 57.77782   2.66944    0.1951233 
3050.000002145767 58.49003   2.627704   0.2295619 
3050.200002148747 64.25892   2.679896   0.2226742 
3050.400002151728 67.92678   2.591867   0.2543577 
3050.600002154708 72.51162   2.581858   0.2350721 
3050.800002157688 71.54124   2.538067   0.2598679 
3051.000002160668 67.84666   2.538514   0.2529802 
3051.200002163649 63.90281   2.534939   0.2598679 
3051.400002166629 68.96838   2.488646   0.2874188 
3051.600002169609 81.85934   2.464605   0.3232349 
3051.800002172589 79.07283   2.411073   0.2736433 
3052.00000217557 78.49416   2.405264   0.3438981 
3052.20000217855 72.40479   2.324653   0.2584904 
3052.40000218153 77.90659   2.303383   0.2529802 
3052.60000218451 75.24471   2.318844   0.1772152 
3052.80000218749 61.09849   2.294446   0.2061437 
3053.000002190471 53.01493   2.435113   0.1882356 
3053.200002193451 52.46298   2.440029   0.1799703 
3053.400002196431 55.14266   2.454953   0.1909907 
3053.600002199411 55.73913   2.478725   0.2088988 
3053.800002202392 58.036     2.538067   0.1937458 
3054.000002205372 53.98532   2.450217   0.2268068 
3054.200002208352 47.67338   2.436364   0.2006335 
3054.400002211332 46.45372   2.401421   0.2157865 
3054.600002214313 46.76532   2.395076   0.2033886 
3054.800002217293 47.43301   2.406873   0.1923682 
3055.000002220273 56.3267    2.320989   0.1965009 
3055.200002223253 44.9848    2.330283   0.1772152 
3055.400002226233 47.13033   2.274427   0.1854805 
3055.600002229214 48.93755   2.045105   0.1785928 
3055.800002232194 47.09471   2.373895   0.16895   
3056.000002235174 53.34433   2.530739   0.2102763 
3056.200002238154 62.44278   2.607775   0.217164  
3056.400002241135 51.8665    2.545753   0.2102763 
3056.600002244115 49.40939   2.64817    0.1675724 
3056.800002247095 50.77148   2.711086   0.1744602 
3057.000002250075 59.70079   2.661754   0.2226742 
3057.200002253056 57.55526   2.638518   0.2212967 
3057.400002256036 63.52      2.64388    0.2212967 
3057.600002259016 68.03362   2.585343   0.1909907 
3057.800002261996 58.57906   2.515635   0.1882356 
3058.000002264977 55.84596   2.519478   0.184103  
3058.200002267957 62.00656   2.462013   0.217164  
3058.400002270937 74.63934   2.410805   0.2543577 
3058.600002273917 76.40205   2.276661   0.292929  
3058.800002276897 68.06922   2.117941   0.2640005 
3059.000002279878 55.70352   2.261558   0.2075212 
3059.200002282858 48.87523   2.243952   0.1648173 
3059.400002285838 47.91375   2.421886   0.1772152 
3059.600002288818 43.49807   2.489003   0.1730826 
3059.800002291799 43.43575   2.453434   0.1785928 
3060.000002294779 46.85434   2.433862   0.1799703 
3060.200002297759 52.79237   2.373716   0.1978784 
3060.400002300739 49.80111   2.429841   0.1620623 
3060.60000230372 53.25531   2.460941   0.1923682 
3060.8000023067 50.93173   2.40723    0.2075212 
3061.00000230968 63.12829   2.42001    0.2033886 
3061.20000231266 70.65097   2.342705   0.2584904 
3061.40000231564 75.46728   2.272014   0.2529802 
3061.600002318621 81.16494   2.362903   0.2254293 
3061.800002321601 87.557     2.580338   0.232317  
3062.000002324581 86.57772   2.531007   0.2281844 
3062.200002327561 78.73453   2.506877   0.2460925 
3062.400002330542 72.60064   2.505179   0.2584904 
3062.600002333522 63.51109   2.503481   0.3053269 
3062.800002336502 61.00946   2.503481   0.3246125 
3063.000002339482 60.47531   2.530024   0.3480307 
3063.200002342463 52.37395   2.425551   0.3452756 
3063.400002345443 53.98532   2.325904   0.3315002 
3063.600002348423 49.06219   2.242075   0.2998167 
3063.800002351403 47.93156   2.377738   0.3177248 
