~Version
 VERS              .         2.0                           : CWLS LOG ASCII STANDARD - VERSION 2.0
 WRAP              .         NO                            : ONE LINE PER DEPTH STEP
 DLM               .         SPACE                         : DELIMITING CHARACTER(SPACE TAB OR COMMA)
~Well Information
#_______________________________________________________________________________
#
#PARAMETER_NAME    .UNIT     VALUE                         : DESCRIPTION
#_______________________________________________________________________________
STRT               .m        2906                          : First reference value
STOP               .m        3074.80000251532              : Last reference value
STEP               .m        0.2                           : Step increment
NULL               .         -9999                         : Missing value
COMP               .                                       : Company
WELL               .         402                           : Well name
FLD                .                                       : Field
LOC                .                                       : Location
CNTY               .                                       : County
STAT               .                                       : State
CTRY               .                                       : Country
SRVC               .                                       : Service Company
DATE               .                                       : Date
API                .                                       : API number
Cartographic_reference_system .         GCS_WGS_1984                  : GEOGCS["GCS_WGS_1984",DATUM["D_WGS_1984",SPHEROID["WGS_1984",6378137.0,298.257223563]],PRIMEM["Greenwich",0.0],UNIT["Degree",0.0174532925199433],AUTHORITY["EPSG",4326]]
EREF               .m        140.4                         : 
HZCS               .GCS_WGS_1984 World_Mercator                : PROJCS["World_Mercator",GEOGCS["GCS_WGS_1984",DATUM["D_WGS_1984",SPHEROID["WGS_1984",6378137.0,298.257223563]],PRIMEM["Greenwich",0.0],UNIT["Degree",0.0174532925199433]],PROJECTION["Mercator"],PARAMETER["False_Easting",0.0],PARAMETER["False_Northing",0.0],PARAMETER["Central_Meridian",0.0],PARAMETER["Standard_Parallel_1",0.0],UNIT["Meter",1.0],AUTHORITY["ESRI",54004]]
LATI               .dega     2.2605552291                  : GCS_WGS_1984
LONG               .dega     1.995158246                   : GCS_WGS_1984
PROJECT_UPGRADE_TIME .         2014-05-27T11_38_46           : 
Pad                .         Pad4                          : 
X                  .m        222100                        : 
Y                  .m        250025                        : 
group              .         Pad4                          : 
Интер-р            .         Ярышев                        : 
Куст               .         4                             : 
Статус             .         Проверено                     : 
Тип                .         Нагнетательные                : 
~Parameter Information Block
#_______________________________________________________________________________
#
#PARAMETER_NAME    .UNIT     VALUE                         : DESCRIPTION
#_______________________________________________________________________________
SET                .         LQC                           : 
PROJECT_UPGRADE_TIME .         2014-05-27T11_38_46           : 
TLFamily_GR_NORM   .         Gamma Ray                     : 
TLFamily_MD        .         Measured Depth                : 
TLFamily_RHOB_NORM .         Bulk Density                  : 
TLFamily_TNPH_NORM .         Neutron Porosity              : 
~Curve Information
#_______________________________________________________________________________
#
#LOGNAME           .UNIT     LOG_ID                        : DESCRIPTION
#_______________________________________________________________________________
MD                 .m                                      :  
GR_NORM            .gAPI                                   : Normalised By Techlog 
RHOB_NORM          .g/cm3                                  : Normalized By Techlog 
TNPH_NORM          .v/v                                    : Normalised By Techlog 
~Ascii
# ...
3000.80000141263 110.5702   2.468984   0.2640005 
3001.00000141561 93.98467   2.525466   0.2750209 
3001.200001418591 99.73575   2.516707   0.2667556 
3001.400001421571 100.0741   2.521712   0.2584904 
3001.600001424551 114.2826   2.469163   0.2750209 
3001.800001427531 109.7066   2.463533   0.2667556 
3002.000001430511 118.2531   2.517601   0.2846637 
3002.200001433492 120.7548   2.497314   0.2736433 
3002.400001436472 113.3211   2.4554     0.2763984 
3002.600001439452 116.1343   2.478368   0.2860412 
3002.800001442432 125.7046   2.46818    0.2860412 
3003.000001445413 132.4973   2.506251   0.2984391 
3003.200001448393 124.85     2.506519   0.2984391 
3003.400001451373 115.1817   2.499638   0.3149697 
3003.600001454353 114.612    2.548702   0.2970616 
3003.800001457334 100.6527   2.56032    0.2667556 
3004.000001460314 90.69071   2.538514   0.2722658 
3004.200001463294 74.00725   2.633424   0.2915514 
3004.400001466274 68.22057   2.624398   0.3246125 
3004.600001469254 94.63456   2.568899   0.2998167 
3004.800001472235 104.285    2.481496   0.2915514 
3005.000001475215 100.1097   2.477027   0.3122146 
3005.200001478195 108.3891   2.503481   0.2708883 
3005.400001481175 110.3654   2.41849    0.2640005 
3005.600001484156 113.2054   2.512686   0.2212967 
3005.800001487136 103.7775   2.471844   0.2433374 
3006.000001490116 103.003    2.502498   0.2819086 
3006.200001493096 111.4694   2.512239   0.3094595 
3006.400001496077 106.021    2.51072    0.3094595 
3006.600001499057 105.5135   2.49365    0.2832862 
3006.800001502037 103.0742   2.531811   0.2874188 
3007.000001505017 95.88982   2.543787   0.2791535 
3007.200001507998 98.20451   2.521086   0.2612455 
3007.400001510978 104.3295   2.509469   0.2405823 
3007.600001513958 102.8606   2.506698   0.2708883 
3007.800001516938 106.2703   2.522516   0.3094595 
3008.000001519918 108.2466   2.547451   0.3149697 
3008.200001522899 102.6558   2.575155   0.3094595 
3008.400001525879 96.8157    2.6042     0.310837  
3008.600001528859 98.8989    2.570597   0.310837  
3008.800001531839 101.7566   2.602681   0.2722658 
3009.00000153482 102.6825   2.545663   0.2750209 
3009.2000015378 99.47757   2.530381   0.3149697 
3009.40000154078 100.1898   2.535922   0.2846637 
3009.60000154376 92.96088   2.493293   0.2846637 
3009.800001546741 110.2497   2.56175    0.3315002 
3010.000001549721 112.0836   2.518674   0.3246125 
3010.200001552701 115.1729   2.568363   0.2695107 
3010.400001555681 118.8763   2.56881    0.2750209 
3010.600001558661 118.6003   2.559426   0.2763984 
3010.800001561642 109.8135   2.545395   0.262623  
3011.000001564622 108.5938   2.531185   0.2584904 
3011.200001567602 113.606    2.495884   0.202011  
3011.400001570582 119.8111   2.484802   0.1703275 
3011.600001573563 114.5764   2.507056   0.1951233 
3011.800001576543 121.4492   2.563626   0.1813479 
3012.000001579523 105.9498   2.503392   0.16895   
3012.200001582503 63.33305   2.522427   0.1730826 
3012.400001585484 40.10618   2.437616   0.1675724 
3012.600001588464 34.88036   2.423763   0.1758377 
3012.800001591444 28.23902   2.421082   0.1923682 
3013.000001594424 35.05841   2.403387   0.1951233 
3013.200001597404 36.83892   2.403476   0.2157865 
3013.400001600385 34.06132   2.382832   0.1882356 
3013.600001603365 36.96356   2.431985   0.1978784 
3013.800001606345 39.10019   2.428411   0.1730826 
3014.000001609325 44.56638   2.415005   0.1799703 
3014.200001612306 47.27276   2.405621   0.1882356 
3014.400001615286 39.34946   2.356111   0.1634398 
3014.600001618266 39.42958   2.34914    0.1675724 
3014.800001621246 37.00808   2.362813   0.1510419 
3015.000001624227 34.12363   2.328406   0.1758377 
3015.200001627207 37.35527   2.378096   0.1772152 
3015.400001630187 38.09419   2.426713   0.1606847 
3015.600001633167 38.1387    2.387479   0.1579296 
3015.800001636147 38.21883   2.368712   0.1758377 
3016.000001639128 37.69358   2.340918   0.1565521 
3016.200001642108 38.30785   2.345476   0.1799703 
3016.400001645088 39.97264   2.32072    0.1951233 
3016.600001648068 43.2666    2.311605   0.2033886 
3016.800001651049 43.81856   2.320184   0.1868581 
3017.000001654029 38.8064    2.345654   0.184103  
3017.200001657009 35.46793   2.385513   0.2116539 
3017.400001659989 36.87454   2.409196   0.1854805 
3017.60000166297 42.69683   2.44119    0.1785928 
3017.80000166595 46.77422   2.398829   0.1827254 
3018.00000166893 45.23407   2.383458   0.1868581 
3018.20000167191 43.69392   2.400795   0.1744602 
3018.400001674891 44.76223   2.363886   0.16895   
3018.600001677871 42.78586   2.348604   0.153797  
3018.800001680851 44.06783   2.347263   0.1496644 
3019.000001683831 47.90485   2.377202   0.1634398 
3019.200001686811 51.75967   2.382564   0.1799703 
3019.400001689792 55.79255   2.387837   0.202011  
3019.600001692772 55.56108   2.413397   0.2281844 
3019.800001695752 59.97677   2.470414   0.2419598 
3020.000001698732 50.20172   2.503213   0.2378272 
3020.200001701713 49.38268   2.440475   0.2199191 
3020.400001704693 42.21609   2.408928   0.2212967 
3020.600001707673 41.15668   2.423942   0.2144089 
3020.800001710653 46.61397   2.417686   0.2144089 
3021.000001713634 49.97916   2.419027   0.1937458 
3021.200001716614 48.18083   2.418133   0.1799703 
3021.400001719594 47.08581   2.424121   0.2102763 
3021.600001722574 42.34073   2.476759   0.1882356 
3021.800001725554 43.11525   2.451825   0.1827254 
3022.000001728535 44.94919   2.413128   0.2061437 
3022.200001731515 48.66157   2.484713   0.1717051 
3022.400001734495 38.76189   2.427338   0.1772152 
3022.600001737475 35.49463   2.428947   0.1923682 
3022.800001740456 35.99318   2.472112   0.1620623 
3023.000001743436 35.77952   2.508128   0.1524195 
3023.200001746416 40.00825   2.543608   0.1606847 
3023.400001749396 31.48847   2.549238   0.1551745 
3023.600001752377 35.93086   2.558532   0.1730826 
3023.800001755357 35.44122   2.523321   0.2088988 
3024.000001758337 38.8153    2.507503   0.2116539 
3024.200001761317 36.33148   2.475508   0.1827254 
3024.400001764297 43.86307   2.428679   0.184103  
3024.600001767278 48.26986   2.452898   0.2006335 
3024.800001770258 46.21336   2.447982   0.232317  
3025.000001773238 49.21353   2.4512     0.2460925 
3025.200001776218 50.80709   2.412503   0.2584904 
3025.400001779199 53.98532   2.418401   0.2268068 
3025.600001782179 47.70899   2.454506   0.2116539 
3025.800001785159 51.59943   2.510005   0.2061437 
3026.000001788139 50.16611   2.549774   0.2061437 
3026.20000179112 52.47188   2.565503   0.2295619 
3026.4000017941 48.73279   2.489182   0.2378272 
3026.60000179708 53.01493   2.500442   0.2405823 
3026.80000180006 62.40718   2.489629   0.2006335 
3027.000001803041 65.62101   2.440386   0.2212967 
3027.200001806021 60.84031   2.396416   0.2460925 
3027.400001809001 58.43662   2.353519   0.2392047 
3027.600001811981 64.90881   2.408481   0.2695107 
3027.800001814961 68.26508   2.472202   0.2653781 
3028.000001817942 67.39262   2.528772   0.2502251 
3028.200001820922 66.41334   2.618052   0.2653781 
3028.400001823902 70.62428   2.627168   0.24747   
3028.600001826882 64.40136   2.568006   0.2378272 
3028.800001829863 58.74821   2.637177   0.2598679 
3029.000001832843 50.16611   2.582305   0.3191023 
3029.200001835823 56.82525   2.621895   0.3025718 
3029.400001838803 55.2851    2.557281   0.3011942 
3029.600001841784 53.2375    2.610188   0.3149697 
3029.800001844764 64.15208   2.5277     0.3328777 
3030.000001847744 74.23872   2.394986   0.4293059 
3030.200001850724 81.7347    2.194442   0.3631837 
3030.400001853704 87.13858   2.056902   0.356296  
3030.600001856685 82.93655   2.05002    0.2970616 
3030.800001859665 93.7176    2.331802   0.2846637 
3031.000001862645 74.66605   2.448161   0.2378272 
3031.200001865625 69.52035   2.557907   0.2199191 
3031.400001868606 72.38699   2.553975   0.202011  
3031.600001871586 68.21166   2.594459   0.2240517 
3031.800001874566 79.78503   2.626453   0.2336946 
3032.000001877546 79.36662   2.570597   0.2226742 
3032.200001880527 82.85643   2.569167   0.2336946 
