~Version
 VERS              .         2.0                           : CWLS LOG ASCII STANDARD - VERSION 2.0
 WRAP              .         NO                            : ONE LINE PER DEPTH STEP
 DLM               .         SPACE                         : DELIMITING CHARACTER(SPACE TAB OR COMMA)
~Well Information
#_______________________________________________________________________________
#
#PARAMETER_NAME    .UNIT     VALUE                         : DESCRIPTION
#_______________________________________________________________________________
STRT               .m        2906                          : First reference value
STOP               .m        3074.80000251532              : Last reference value
STEP               .m        0.2                           : Step increment
NULL               .         -9999                         : Missing value
COMP               .                                       : Company
WELL               .         402                           : Well name
FLD                .                                       : Field
LOC                .                                       : Location
CNTY               .                                       : County
STAT               .                                       : State
CTRY               .                                       : Country
SRVC               .                                       : Service Company
DATE               .                                       : Date
API                .                                       : API number
Cartographic_reference_system .         GCS_WGS_1984                  : GEOGCS["GCS_WGS_1984",DATUM["D_WGS_1984",SPHEROID["WGS_1984",6378137.0,298.257223563]],PRIMEM["Greenwich",0.0],UNIT["Degree",0.0174532925199433],AUTHORITY["EPSG",4326]]
EREF               .m        140.4                         : 
HZCS               .GCS_WGS_1984 World_Mercator                : PROJCS["World_Mercator",GEOGCS["GCS_WGS_1984",DATUM["D_WGS_1984",SPHEROID["WGS_1984",6378137.0,298.257223563]],PRIMEM["Greenwich",0.0],UNIT["Degree",0.0174532925199433]],PROJECTION["Mercator"],PARAMETER["False_Easting",0.0],PARAMETER["False_Northing",0.0],PARAMETER["Central_Meridian",0.0],PARAMETER["Standard_Parallel_1",0.0],UNIT["Meter",1.0],AUTHORITY["ESRI",54004]]
LATI               .dega     2.2605552291                  : GCS_WGS_1984
LONG               .dega     1.995158246                   : GCS_WGS_1984
PROJECT_UPGRADE_TIME .         2014-05-27T11_38_46           : 
Pad                .         Pad4                          : 
X                  .m        222100                        : 
Y                  .m        250025                        : 
group              .         Pad4                          : 
Интер-р            .         Ярышев                        : 
Куст               .         4                             : 
Статус             .         Проверено                     : 
Тип                .         Нагнетательные                : 
~Parameter Information Block
#_______________________________________________________________________________
#
#PARAMETER_NAME    .UNIT     VALUE                         : DESCRIPTION
#_______________________________________________________________________________
SET                .         LQC                           : 
PROJECT_UPGRADE_TIME .         2014-05-27T11_38_46           : 
TLFamily_GR_NORM   .         Gamma Ray                     : 
TLFamily_MD        .         Measured Depth                : 
TLFamily_RHOB_NORM .         Bulk Density                  : 
TLFamily_TNPH_NORM .         Neutron Porosity              : 
~Curve Information
#_______________________________________________________________________________
#
#LOGNAME           .UNIT     LOG_ID                        : DESCRIPTION
#_______________________________________________________________________________
MD                 .m                                      :  
GR_NORM            .gAPI                                   : Normalised By Techlog 
RHOB_NORM          .g/cm3                                  : Normalized By Techlog 
TNPH_NORM          .v/v                                    : Normalised By Techlog 
~Ascii
2906.0     76.09046   2.523232   0.2336946 
2906.20000000298 71.27416   2.528415   0.2364496 
2906.40000000596 73.19712   2.545306   0.2281844 
2906.600000008941 78.06683   2.542803   0.2295619 
2906.800000011921 82.66948   2.555315   0.2405823 
2907.000000014901 84.21853   2.539943   0.2653781 
2907.200000017881 86.78248   2.51921    0.2543577 
2907.400000020862 78.72563   2.537262   0.2392047 
2907.600000023842 82.20654   2.558711   0.2364496 
2907.800000026822 84.4589    2.529845   0.2584904 
2908.000000029802 75.12007   2.497404   0.3094595 
2908.200000032783 73.85591   2.539586   0.2943065 
2908.400000035763 74.42567   2.544323   0.2433374 
2908.600000038743 72.20002   2.571312   0.2392047 
2908.800000041723 75.60082   2.601162   0.2419598 
2909.000000044703 78.2894    2.60983    0.2199191 
2909.200000047684 80.36371   2.590884   0.2336946 
2909.400000050664 86.62223   2.53905    0.2529802 
2909.600000053644 81.29848   2.551115   0.2392047 
2909.800000056624 82.26886   2.545574   0.2254293 
2910.000000059605 89.29301   2.554779   0.2529802 
2910.200000062585 82.66058   2.617248   0.2419598 
2910.400000065565 77.09645   2.665597   0.2350721 
2910.600000068545 76.02814   2.60563    0.2199191 
2910.800000071526 76.89169   2.599553   0.2212967 
2911.000000074506 74.30994   2.629938   0.2447149 
2911.200000077486 67.71312   2.595621   0.2791535 
2911.400000080466 71.63916   2.531811   0.2970616 
2911.600000083447 72.38699   2.594816   0.308082  
2911.800000086427 69.6895    2.623415   0.2543577 
2912.000000089407 66.62701   2.675874   0.2419598 
2912.200000092387 71.14062   2.654783   0.2516026 
2912.400000095367 71.36318   2.575602   0.2254293 
2912.600000098348 67.633     2.538156   0.2157865 
2912.800000101328 62.4962    2.551562   0.2240517 
2913.000000104308 64.23221   2.565593   0.2309395 
2913.200000107288 75.44057   2.547361   0.232317  
2913.400000110269 76.63351   2.589365   0.2295619 
2913.600000113249 81.12933   2.583824   0.2144089 
2913.800000116229 83.31046   2.688475   0.1978784 
2914.000000119209 80.63969   2.663631   0.2157865 
2914.20000012219 80.94238   2.629045   0.2212967 
2914.40000012517 75.83228   2.603932   0.2350721 
2914.60000012815 76.72254   2.573189   0.2088988 
2914.80000013113 73.39297   2.568721   0.2185416 
2915.00000013411 66.20858   2.548344   0.2254293 
2915.200000137091 71.17622   2.598391   0.2116539 
2915.400000140071 75.31593   2.6042     0.2612455 
2915.600000143051 78.2627    2.56604    0.2529802 
2915.800000146031 72.73418   2.562286   0.2502251 
2916.000000149012 72.60955   2.558175   0.2584904 
2916.200000151992 72.42259   2.562643   0.2846637 
2916.400000154972 76.24181   2.609652   0.2750209 
2916.600000157952 69.83193   2.600804   0.2502251 
2916.800000160933 69.30668   2.607507   0.2130314 
2917.000000163913 73.01016   2.627168   0.1937458 
2917.200000166893 69.3423    2.616712   0.2226742 
2917.400000169873 64.64172   2.62967    0.2405823 
2917.600000172853 67.633     2.691782   0.2336946 
2917.800000175834 67.18787   2.648349   0.2598679 
2918.000000178814 68.3363    2.552902   0.24747   
2918.200000181794 67.6508    2.609473   0.2612455 
2918.400000184774 68.53216   2.559337   0.2640005 
2918.600000187755 61.66826   2.585343   0.2557352 
2918.800000190735 62.61193   2.646293   0.2887963 
2919.000000193715 67.53507   2.572742   0.2695107 
2919.200000196695 73.44639   2.557371   0.2722658 
2919.400000199676 67.21458   2.564878   0.3025718 
2919.600000202656 71.7816    2.556119   0.292929  
2919.800000205636 71.95966   2.597051   0.2736433 
2920.000000208616 72.28015   2.60706    0.2254293 
2920.200000211596 69.66279   2.514294   0.2640005 
2920.400000214577 79.16186   2.537262   0.2874188 
2920.600000217557 91.45634   2.557281   0.292929  
2920.800000220537 92.43562   2.590795   0.310837  
2921.000000223517 89.2752    2.585522   0.3315002 
2921.200000226498 90.78864   2.532883   0.3287451 
2921.400000229478 89.6135    2.587131   0.3342553 
2921.600000232458 86.98724   2.569167   0.356296  
2921.800000235438 95.03518   2.575066   0.3466532 
2922.000000238419 93.50394   2.578909   0.3287451 
2922.200000241399 79.63369   2.601072   0.32599   
2922.400000244379 84.42329   2.523857   0.3011942 
2922.600000247359 84.92184   2.531811   0.2557352 
2922.80000025034 90.85096   2.499817   0.262623  
2923.00000025332 92.12404   2.55031    0.2433374 
2923.2000002563 88.36713   2.595889   0.2268068 
2923.40000025928 87.45908   2.565056   0.2350721 
2923.60000026226 76.13497   2.554421   0.2336946 
2923.800000265241 75.44057   2.525198   0.2295619 
2924.000000268221 87.15638   2.548166   0.2364496 
2924.200000271201 87.93091   2.56175    0.2378272 
2924.400000274181 85.01086   2.60572    0.2364496 
2924.600000277162 82.32227   2.600446   0.2901739 
2924.800000280142 82.61606   2.56881    0.295684  
2925.000000283122 83.32826   2.57015    0.295684  
2925.200000286102 74.03396   2.536458   0.277776  
2925.400000289083 69.51145   2.519925   0.2805311 
2925.600000292063 73.00126   2.545574   0.2529802 
2925.800000295043 78.81465   2.581053   0.2819086 
2926.000000298023 77.56829   2.559068   0.2708883 
2926.200000301003 81.93947   2.54182    0.2640005 
2926.400000303984 76.13497   2.534849   0.2791535 
2926.600000306964 74.90642   2.527164   0.2943065 
2926.800000309944 76.01034   2.574261   0.2557352 
2927.000000312924 81.6991    2.53476    0.217164  
2927.200000315905 85.55392   2.479619   0.2157865 
2927.400000318885 81.96617   2.519835   0.1813479 
2927.600000321865 86.32845   2.54754    0.1868581 
2927.800000324845 71.7816    2.564252   0.1730826 
2928.000000327826 63.93842   2.56023    0.1785928 
2928.200000330806 61.91753   2.537888   0.1951233 
2928.400000333786 66.08395   2.564788   0.2157865 
2928.600000336766 72.28015   2.621359   0.1909907 
2928.800000339746 70.35719   2.633245   0.199256  
2929.000000342727 65.2204    2.703579   0.2157865 
2929.200000345707 72.40479   2.7219     0.2047661 
2929.400000348687 84.01377   2.703311   0.2309395 
2929.600000351667 86.80028   2.5773     0.2075212 
2929.800000354648 90.12095   2.551651   0.2226742 
2930.000000357628 89.14166   2.580875   0.2281844 
2930.200000360608 87.78847   2.51921    0.2240517 
2930.400000363588 79.44674   2.553081   0.2240517 
2930.600000366569 80.11443   2.545842   0.2295619 
2930.800000369549 86.33734   2.537262   0.24747   
2931.000000372529 90.74413   2.532347   0.2336946 
2931.200000375509 79.73162   2.55317    0.2281844 
2931.400000378489 83.40839   2.508575   0.2144089 
2931.60000038147 80.75542   2.554064   0.2254293 
2931.80000038445 79.6782    2.574351   0.2736433 
2932.00000038743 78.68111   2.580338   0.2819086 
2932.20000039041 77.66622   2.622342   0.2571128 
2932.400000393391 77.55939   2.608401   0.2488475 
2932.600000396371 84.34316   2.576853   0.24747   
2932.800000399351 81.57446   2.59991    0.24747   
2933.000000402331 84.08498   2.538067   0.232317  
2933.200000405312 87.50359   2.536637   0.2612455 
2933.400000408292 89.31081   2.528147   0.2281844 
2933.600000411272 97.36766   2.505805   0.2433374 
2933.800000414252 84.43219   2.492757   0.2433374 
2934.000000417233 85.8388    2.471397   0.2819086 
2934.200000420213 83.20363   2.484177   0.2653781 
2934.400000423193 76.39315   2.490433   0.2529802 
2934.600000426173 85.04647   2.484177   0.2281844 
2934.800000429153 88.95471   2.527342   0.2378272 
2935.000000432134 91.48305   2.552991   0.2392047 
2935.200000435114 92.40001   2.535743   0.2336946 
2935.400000438094 94.10931   2.565324   0.1923682 
2935.600000441074 97.18961   2.54325    0.2157865 
2935.800000444055 85.79429   2.536905   0.2006335 
2936.000000447035 90.90438   2.522784   0.184103  
2936.200000450015 85.22452   2.506698   0.1937458 
2936.400000452995 70.74001   2.45817    0.1593072 
2936.600000455976 66.21748   2.468091   0.1551745 
2936.800000458956 64.49928   2.468716   0.1565521 
2937.000000461936 71.72819   2.514473   0.1579296 
2937.200000464916 61.35667   2.559605   0.199256  
2937.400000467896 63.62683   2.524036   0.1510419 
