~Version
 VERS              .         2.0                           : CWLS LOG ASCII STANDARD - VERSION 2.0
 WRAP              .         NO                            : ONE LINE PER DEPTH STEP
 DLM               .         SPACE                         : DELIMITING CHARACTER(SPACE TAB OR COMMA)
~Well Information
#_______________________________________________________________________________
#
#PARAMETER_NAME    .UNIT     VALUE                         : DESCRIPTION
#_______________________________________________________________________________
STRT               .m        2906                          : First reference value
STOP               .m        3074.80000251532              : Last reference value
STEP               .m        0.2                           : Step increment
NULL               .         -9999                         : Missing value
COMP               .                                       : Company
WELL               .         402                           : Well name
FLD                .                                       : Field
LOC                .                                       : Location
CNTY               .                                       : County
STAT               .                                       : State
CTRY               .                                       : Country
SRVC               .                                       : Service Company
DATE               .                                       : Date
API                .                                       : API number
Cartographic_reference_system .         GCS_WGS_1984                  : GEOGCS["GCS_WGS_1984",DATUM["D_WGS_1984",SPHEROID["WGS_1984",6378137.0,298.257223563]],PRIMEM["Greenwich",0.0],UNIT["Degree",0.0174532925199433],AUTHORITY["EPSG",4326]]
EREF               .m        140.4                         : 
HZCS               .GCS_WGS_1984 World_Mercator                : PROJCS["World_Mercator",GEOGCS["GCS_WGS_1984",DATUM["D_WGS_1984",SPHEROID["WGS_1984",6378137.0,298.257223563]],PRIMEM["Greenwich",0.0],UNIT["Degree",0.0174532925199433]],PROJECTION["Mercator"],PARAMETER["False_Easting",0.0],PARAMETER["False_Northing",0.0],PARAMETER["Central_Meridian",0.0],PARAMETER["Standard_Parallel_1",0.0],UNIT["Meter",1.0],AUTHORITY["ESRI",54004]]
LATI               .dega     2.2605552291                  : GCS_WGS_1984
LONG               .dega     1.995158246                   : GCS_WGS_1984
PROJECT_UPGRADE_TIME .         2014-05-27T11_38_46           : 
Pad                .         Pad4                          : 
X                  .m        222100                        : 
Y                  .m        250025                        : 
group              .         Pad4                          : 
Интер-р            .         Ярышев                        : 
Куст               .         4                             : 
Статус             .         Проверено                     : 
Тип                .         Нагнетательные                : 
~Parameter Information Block
#_______________________________________________________________________________
#
#PARAMETER_NAME    .UNIT     VALUE                         : DESCRIPTION
#_______________________________________________________________________________
SET                .         LQC                           : 
PROJECT_UPGRADE_TIME .         2014-05-27T11_38_46           : 
TLFamily_GR_NORM   .         Gamma Ray                     : 
TLFamily_MD        .         Measured Depth                : 
TLFamily_RHOB_NORM .         Bulk Density                  : 
TLFamily_TNPH_NORM .         Neutron Porosity              : 
~Curve Information
#_______________________________________________________________________________
#
#LOGNAME           .UNIT     LOG_ID                        : DESCRIPTION
#_______________________________________________________________________________
MD                 .m                                      :  
GR_NORM            .gAPI                                   : Normalised By Techlog 
RHOB_NORM          .g/cm3                                  : Normalized By Techlog 
TNPH_NORM          .v/v                                    : Normalised By Techlog 
~Ascii
# ...
2937.600000470877 68.75473   2.480423   0.1345114 
2937.800000473857 62.15791   2.518763   0.1248686 
2938.000000476837 65.04234   2.59991    0.1317563 
2938.200000479817 49.59634   2.66229    0.1358889 
2938.400000482798 46.0442    2.644059   0.1469093 
2938.600000485778 44.62869   2.715286   0.1758377 
2938.800000488758 49.08889   2.644059   0.2033886 
2939.000000491738 47.93156   2.661039   0.1937458 
2939.200000494719 51.68845   2.587041   0.1565521 
2939.400000497699 56.05072   2.547451   0.199256  
2939.600000500679 61.34776   2.506519   0.199256  
2939.800000503659 67.34811   2.529219   0.2199191 
2940.000000506639 82.31338   2.572742   0.2805311 
2940.20000050962 80.23016   2.562733   0.3163472 
2940.4000005126 75.06667   2.582841   0.2998167 
2940.60000051558 74.8886    2.545842   0.2736433 
2940.80000051856 79.72272   2.456026   0.2488475 
2941.000000521541 78.43185   2.451021   0.199256  
2941.200000524521 68.04251   2.45111    0.217164  
2941.400000527501 67.81105   2.449859   0.2185416 
2941.600000530481 67.2947    2.491148   0.2268068 
2941.800000533462 64.03635   2.517691   0.2061437 
2942.000000536442 63.20841   2.530381   0.2061437 
2942.200000539422 57.94697   2.496868   0.202011  
2942.400000542402 64.01854   2.555315   0.202011  
2942.600000545382 58.30308   2.597229   0.1772152 
2942.800000548363 60.92934   2.57301    0.1675724 
2943.000000551343 68.04251   2.552902   0.1730826 
2943.200000554323 72.14661   2.476581   0.1937458 
2943.400000557303 68.78143   2.455579   0.1965009 
2943.600000560284 71.27416   2.476491   0.1868581 
2943.800000563264 64.00074   2.434756   0.1785928 
2944.000000566244 67.72202   2.411967   0.1703275 
2944.200000569224 75.25362   2.477027   0.2281844 
2944.400000572205 71.47892   2.407766   0.2419598 
2944.600000575185 65.51418   2.455758   0.2653781 
2944.800000578165 69.28888   2.502051   0.2984391 
2945.000000581145 63.25293   2.49928    0.2502251 
2945.200000584126 63.03035   2.508575   0.2419598 
2945.400000587106 63.21731   2.497761   0.2378272 
2945.600000590086 70.74001   2.509111   0.2102763 
2945.800000593066 77.35463   2.489986   0.202011  
2946.000000596046 69.30668   2.482836   0.1827254 
2946.200000599027 56.50475   2.436454   0.1772152 
2946.400000602007 54.14557   2.498566   0.1951233 
2946.600000604987 58.69479   2.522874   0.202011  
2946.800000607967 57.91137   2.549774   0.2157865 
2947.000000610948 56.37121   2.54754    0.2378272 
2947.200000613928 55.77475   2.524751   0.2309395 
2947.400000616908 54.02093   2.524572   0.217164  
2947.600000619888 61.30325   2.486411   0.2364496 
2947.800000622869 60.41299   2.479262   0.2405823 
2948.000000625849 65.46967   2.522427   0.1827254 
2948.200000628829 67.03652   2.454059   0.202011  
2948.400000631809 73.4731    2.480066   0.1937458 
2948.600000634789 73.08138   2.563448   0.1965009 
2948.80000063777 69.79633   2.589633   0.1785928 
2949.00000064075 64.78417   2.605451   0.1413991 
2949.20000064373 51.96443   2.579802   0.153797  
2949.40000064671 37.42649   2.541463   0.1276237 
2949.600000649691 28.47049   2.613316   0.1138482 
2949.800000652671 26.54753   2.706171   0.1097156 
2950.000000655651 32.12055   2.712605   0.1193584 
2950.200000658631 39.72337   2.710282   0.1427767 
2950.400000661612 44.06783   2.694284   0.1772152 
2950.600000664592 52.40066   2.606256   0.1882356 
2950.800000667572 60.00347   2.53896    0.1978784 
2951.000000670552 66.16407   2.541284   0.2350721 
2951.200000673532 67.49055   2.557192   0.2571128 
2951.400000676513 69.37791   2.583556   0.2502251 
2951.600000679493 75.40496   2.541641   0.2006335 
2951.800000682473 77.96001   2.507681   0.2075212 
2952.000000685453 65.21149   2.549149   0.217164  
2952.200000688434 72.53832   2.513669   0.232317  
2952.400000691414 66.80505   2.495616   0.2378272 
2952.600000694394 67.19677   2.493471   0.199256  
2952.800000697374 69.63609   2.510541   0.2061437 
2953.000000700355 73.66896   2.497404   0.2075212 
2953.200000703335 81.67239   2.532973   0.2488475 
2953.400000706315 79.69601   2.563984   0.2722658 
2953.600000709295 83.63096   2.531811   0.2571128 
2953.800000712276 88.22469   2.56738    0.2336946 
2954.000000715256 88.00213   2.555404   0.2185416 
2954.200000718236 79.92747   2.473632   0.2502251 
2954.400000721216 69.0218    2.496152   0.2708883 
2954.600000724196 74.04287   2.511077   0.2791535 
2954.800000727177 84.52122   2.536279   0.292929  
2955.000000730157 96.68216   2.506698   0.2516026 
2955.200000733137 98.59621   2.508843   0.3011942 
2955.400000736117 105.2999   2.564431   0.2970616 
2955.600000739098 102.825    2.617159   0.2695107 
2955.800000742078 101.5697   2.637624   0.2722658 
2956.000000745058 96.21032   2.593923   0.2695107 
2956.200000748038 87.75286   2.612422   0.2529802 
2956.400000751019 85.18891   2.608937   0.2667556 
2956.600000753999 91.55427   2.587756   0.2846637 
2956.800000756979 95.29336   2.565414   0.2653781 
2957.000000759959 98.15999   2.605898   0.24747   
2957.200000762939 91.77683   2.605094   0.2915514 
2957.40000076592 87.41456   2.630296   0.3011942 
2957.6000007689 87.65493   2.643433   0.2970616 
2957.80000077188 83.73779   2.684275   0.2447149 
2958.00000077486 77.02524   2.660145   0.2336946 
2958.200000777841 80.17676   2.591957   0.2088988 
2958.400000780821 82.60716   2.642361   0.1978784 
2958.600000783801 75.85009   2.623415   0.1951233 
2958.800000786781 76.83828   2.620108   0.2419598 
2959.000000789762 86.1682    2.673015   0.2722658 
2959.200000792742 103.2879   2.623861   0.2543577 
2959.400000795722 106.938    2.588024   0.2722658 
2959.600000798702 107.3653   2.586505   0.2874188 
2959.800000801682 124.0131   2.541016   0.2681332 
2960.000000804663 129.0253   2.540122   0.2653781 
2960.200000807643 127.1468   2.543876   0.2350721 
2960.400000810623 132.0789   2.516707   0.2750209 
2960.600000813603 137.8477   2.464516   0.3177248 
2960.800000816584 131.3756   2.471487   0.3177248 
2961.000000819564 125.0636   2.457813   0.2681332 
2961.200000822544 106.3326   2.461835   0.2571128 
2961.400000825524 91.04682   2.48516    0.2640005 
2961.600000828505 97.8484    2.553081   0.2695107 
2961.800000831485 94.75029   2.600983   0.2336946 
2962.000000834465 91.42963   2.656571   0.2226742 
2962.200000837445 80.04321   2.6765     0.2433374 
2962.400000840425 89.6313    2.709388   0.2516026 
2962.600000843406 103.19     2.690978   0.2433374 
2962.800000846386 98.09767   2.597676   0.2254293 
2963.000000849366 96.01447   2.608311   0.2943065 
2963.200000852346 105.7272   2.549595   0.3989999 
2963.400000855327 117.1314   2.512418   0.3686939 
2963.600000858307 115.529    2.532794   0.2998167 
2963.800000861287 129.6574   2.548434   0.2736433 
2964.000000864267 146.0738   2.523947   0.2832862 
2964.200000867248 166.0957   2.46675    0.3273676 
2964.400000870228 177.3129   2.469074   0.3094595 
2964.600000873208 163.1311   2.448698   0.3149697 
2964.800000876188 163.416    2.456026   0.3149697 
2965.000000879169 166.4963   2.468359   0.3797143 
2965.200000882149 180.4645   2.486322   0.3397655 
2965.400000885129 183.4023   2.486679   0.3356328 
2965.600000888109 186.0286   2.456473   0.2667556 
2965.800000891089 188.3611   2.503392   0.2763984 
2966.00000089407 179.1825   2.453255   0.3287451 
2966.20000089705 175.5235   2.510094   0.3273676 
2966.40000090003 175.3366   2.500174   0.341143  
2966.60000090301 177.7759   2.465767   0.3700714 
2966.800000905991 182.9483   2.422423   0.4127753 
2967.000000908971 193.3198   2.385603   0.3700714 
2967.200000911951 205.917    2.38739    0.3204798 
2967.400000914931 201.528    2.403923   0.3094595 
2967.600000917912 197.9314   2.408839   0.3452756 
2967.800000920892 195.0202   2.454149   0.310837  
2968.000000923872 193.4266   2.443067   0.3122146 
2968.200000926852 176.7254   2.461745   0.3218574 
2968.400000929832 160.4692   2.510362   0.3025718 
2968.600000932813 151.7892   2.554064   0.2584904 
2968.800000935793 145.9936   2.541373   0.2612455 
2969.000000938773 150.7298   2.508128   0.2488475 
