~Version
 VERS              .         2.0                           : CWLS LOG ASCII STANDARD - VERSION 2.0
 WRAP              .         NO                            : ONE LINE PER DEPTH STEP
 DLM               .         SPACE                         : DELIMITING CHARACTER(SPACE TAB OR COMMA)
~Well Information
#_______________________________________________________________________________
#
#PARAMETER_NAME    .UNIT     VALUE                         : DESCRIPTION
#_______________________________________________________________________________
STRT               .m        2906                          : First reference value
STOP               .m        3074.80000251532              : Last reference value
STEP               .m        0.2                           : Step increment
NULL               .         -9999                         : Missing value
COMP               .                                       : Company
WELL               .         402                           : Well name
FLD                .                                       : Field
LOC                .                                       : Location
CNTY               .                                       : County
STAT               .                                       : State
CTRY               .                                       : Country
SRVC               .                                       : Service Company
DATE               .                                       : Date
API                .                                       : API number
Cartographic_reference_system .         GCS_WGS_1984                  : GEOGCS["GCS_WGS_1984",DATUM["D_WGS_1984",SPHEROID["WGS_1984",6378137.0,298.257223563]],PRIMEM["Greenwich",0.0],UNIT["Degree",0.0174532925199433],AUTHORITY["EPSG",4326]]
EREF               .m        140.4                         : 
HZCS               .GCS_WGS_1984 World_Mercator                : PROJCS["World_Mercator",GEOGCS["GCS_WGS_1984",DATUM["D_WGS_1984",SPHEROID["WGS_1984",6378137.0,298.257223563]],PRIMEM["Greenwich",0.0],UNIT["Degree",0.0174532925199433]],PROJECTION["Mercator"],PARAMETER["False_Easting",0.0],PARAMETER["False_Northing",0.0],PARAMETER["Central_Meridian",0.0],PARAMETER["Standard_Parallel_1",0.0],UNIT["Meter",1.0],AUTHORITY["ESRI",54004]]
LATI               .dega     2.2605552291                  : GCS_WGS_1984
LONG               .dega     1.995158246                   : GCS_WGS_1984
PROJECT_UPGRADE_TIME .         2014-05-27T11_38_46           : 
Pad                .         Pad4                          : 
X                  .m        222100                        : 
Y                  .m        250025                        : 
group              .         Pad4                          : 
Интер-р            .         Ярышев                        : 
Куст               .         4                             : 
Статус             .         Проверено                     : 
Тип                .         Нагнетательные                : 
~Parameter Information Block
#_______________________________________________________________________________
#
#PARAMETER_NAME    .UNIT     VALUE                         : DESCRIPTION
#_______________________________________________________________________________
SET                .         LQC                           : 
PROJECT_UPGRADE_TIME .         2014-05-27T11_38_46           : 
TLFamily_GR_NORM   .         Gamma Ray                     : 
TLFamily_MD        .         Measured Depth                : 
TLFamily_RHOB_NORM .         Bulk Density                  : 
TLFamily_TNPH_NORM .         Neutron Porosity              : 
~Curve Information
#_______________________________________________________________________________
#
#LOGNAME           .UNIT     LOG_ID                        : DESCRIPTION
#_______________________________________________________________________________
MD                 .m                                      :  
GR_NORM            .gAPI                                   : Normalised By Techlog 
RHOB_NORM          .g/cm3                                  : Normalized By Techlog 
TNPH_NORM          .v/v                                    : Normalised By Techlog 
~Ascii
# ...
2969.200000941753 156.6055   2.44271    0.2571128 
2969.400000944734 169.4341   2.462907   0.2998167 
2969.600000947714 182.2628   2.429215   0.3135921 
2969.800000950694 202.6853   2.373359   0.3342553 
2970.000000953674 203.7448   2.348514   0.3852244 
2970.200000956655 221.7903   2.377202   0.3494083 
2970.400000959635 233.7198   2.357719   0.3852244 
2970.600000962615 278.7135   2.340114   0.3962448 
2970.800000965595 299.7503   2.334394   0.3934897 
2971.000000968575 287.7229   2.326351   0.3976223 
2971.200000971556 266.6237   2.32358    0.4003774 
2971.400000974536 289.9218   2.315805   0.3838468 
2971.600000977516 286.4499   2.333858   0.3039493 
2971.800000980496 281.9184   2.292569   0.2708883 
2972.000000983477 298.9669   2.312052   0.3163472 
2972.200000986457 305.0117   2.339309   0.3122146 
2972.400000989437 299.4565   2.308923   0.3163472 
2972.600000992417 302.6526   2.322776   0.3452756 
2972.800000995398 314.6622   2.311158   0.310837  
2973.000000998378 319.4607   2.301506   0.3494083 
2973.200001001358 324.1256   2.249672   0.3094595 
2973.400001004338 328.381    2.232781   0.3163472 
2973.600001007318 336.0818   2.213388   0.3535409 
2973.800001010299 302.2964   2.235283   0.3576735 
2974.000001013279 290.5896   2.273087   0.3370104 
2974.200001016259 277.4849   2.280236   0.3618062 
2974.400001019239 261.4959   2.285241   0.3535409 
2974.60000102222 236.8713   2.287386   0.3604286 
2974.8000010252 244.6878   2.259055   0.3397655 
2975.00000102818 252.8693   2.264418   0.3921121 
2975.20000103116 263.8016   2.243863   0.434816  
2975.400001034141 267.2559   2.225453   0.3383879 
2975.600001037121 278.1971   2.206596   0.434816  
2975.800001040101 280.6097   2.224738   0.3604286 
2976.000001043081 286.3074   2.238769   0.3163472 
2976.200001046062 281.4109   2.249404   0.3921121 
2976.400001049042 266.4457   2.254676   0.4182855 
2976.600001052022 250.5279   2.226704   0.3645613 
2976.800001055002 247.1093   2.198106   0.3494083 
2977.000001057982 246.6998   2.178712   0.4072651 
2977.200001060963 230.3101   2.188096   0.4306834 
2977.400001063943 227.4969   2.166379   0.3907346 
2977.600001066923 228.9124   2.201859   0.3934897 
2977.800001069903 220.2502   2.224112   0.374204  
2978.000001072884 192.6521   2.253157   0.3645613 
2978.200001075864 178.7374   2.266384   0.3755816 
2978.400001078844 168.3124   2.283096   0.3315002 
2978.600001081824 162.0895   2.294982   0.3301227 
2978.800001084805 161.7512   2.299808   0.3177248 
2979.000001087785 169.6122   2.282113   0.3425205 
2979.200001090765 169.6745   2.276304   0.3301227 
2979.400001093745 162.2319   2.27961    0.3480307 
2979.600001096725 160.9856   2.256643   0.3480307 
2979.800001099706 157.9854   2.318486   0.2915514 
2980.000001102686 141.3643   2.337075   0.2832862 
2980.200001105666 126.2477   2.309996   0.292929  
2980.400001108646 117.6478   2.316163   0.2584904 
2980.600001111627 113.3834   2.340739   0.2516026 
2980.800001114607 121.4937   2.341633   0.3094595 
2981.000001117587 126.0963   2.338147   0.310837  
2981.200001120567 135.2126   2.341365   0.2901739 
2981.400001123548 134.2155   2.349676   0.2543577 
2981.600001126528 123.1229   2.320899   0.2612455 
2981.800001129508 134.3312   2.281308   0.2805311 
2982.000001132488 127.0222   2.283185   0.2612455 
2982.200001135468 131.8474   2.314643   0.2819086 
2982.400001138449 105.4156   2.342348   0.2584904 
2982.600001141429 100.3945   2.402583   0.3025718 
2982.800001144409 106.8133   2.385871   0.2832862 
2983.000001147389 101.819    2.344046   0.2791535 
2983.20000115037 100.5281   2.405264   0.2763984 
2983.40000115335 93.7443    2.367193   0.2887963 
2983.60000115633 83.56864   2.307673   0.3067044 
2983.80000115931 86.56881   2.31232    0.3204798 
2984.000001162291 91.88366   2.330998   0.3067044 
2984.200001165271 94.09151   2.315448   0.308082  
2984.400001168251 102.2819   2.373091   0.3507858 
2984.600001171231 105.2197   2.357362   0.3576735 
2984.800001174212 110.1429   2.375951   0.3246125 
2985.000001177192 108.9677   2.361026   0.2943065 
2985.200001180172 102.6024   2.36192    0.2943065 
2985.400001183152 107.7748   2.349497   0.3094595 
2985.600001186132 123.2475   2.297753   0.2750209 
2985.800001189113 122.6065   2.305796   0.2943065 
2986.000001192093 115.9029   2.346637   0.2750209 
2986.200001195073 109.5909   2.336092   0.308082  
2986.400001198053 107.0893   2.379257   0.3494083 
2986.600001201034 102.8695   2.386139   0.3700714 
2986.800001204014 109.3327   2.323133   0.356296  
2987.000001206994 111.8166   2.328943   0.371449  
2987.200001209974 118.4935   2.284079   0.3576735 
2987.400001212955 117.6656   2.292122   0.3122146 
2987.600001215935 109.5019   2.288369   0.277776  
2987.800001218915 114.06     2.280683   0.2584904 
2988.000001221895 106.5551   2.320899   0.2736433 
2988.200001224875 95.35567   2.300344   0.2708883 
2988.400001227856 102.7181   2.321346   0.2846637 
2988.600001230836 108.4336   2.287565   0.2915514 
2988.800001233816 118.271    2.269959   0.262623  
2989.000001236796 115.4399   2.250387   0.2144089 
2989.200001239777 112.965    2.314643   0.2405823 
2989.400001242757 102.2374   2.368801   0.2970616 
2989.600001245737 85.1444    2.413933   0.2750209 
2989.800001248717 92.3288    2.352      0.2681332 
2990.000001251698 94.0826    2.342616   0.3204798 
2990.200001254678 101.4539   2.344761   0.3576735 
2990.400001257658 120.5945   2.313124   0.371449  
2990.600001260638 130.8236   2.279074   0.2653781 
2990.800001263618 137.7053   2.291229   0.2846637 
2991.000001266599 132.2569   2.297663   0.3135921 
2991.200001269579 135.6755   2.28256    0.3177248 
2991.400001272559 129.5149   2.31938    0.308082  
2991.600001275539 120.8349   2.376934   0.3466532 
2991.80000127852 100.3322   2.399544   0.3273676 
2992.0000012815 103.4837   2.342616   0.3204798 
2992.20000128448 112.1638   2.358702   0.3218574 
2992.40000128746 124.298    2.295965   0.3700714 
2992.600001290441 138.56     2.300523   0.3604286 
2992.800001293421 159.1427   2.31938    0.3755816 
2993.000001296401 178.6662   2.251012   0.3604286 
2993.200001299381 185.263    2.192833   0.3370104 
2993.400001302361 180.2953   2.186756   0.3425205 
2993.600001305342 154.8873   2.202306   0.3397655 
2993.800001308322 159.3475   2.204183   0.3852244 
2994.000001311302 155.9289   2.190241   0.3686939 
2994.200001314282 167.164    2.202485   0.3218574 
2994.400001317263 171.7577   2.227151   0.2970616 
2994.600001320243 159.3564   2.258698   0.2998167 
2994.800001323223 157.1308   2.250655   0.3604286 
2995.000001326203 166.7723   2.188632   0.3549185 
2995.200001329184 178.1854   2.157621   0.2901739 
2995.400001332164 160.9055   2.195335   0.2598679 
2995.600001335144 134.5182   2.246544   0.3301227 
2995.800001338124 117.443    2.259949   0.3521633 
2996.000001341105 119.0188   2.311694   0.3507858 
2996.200001344085 109.3238   2.313392   0.3507858 
2996.400001347065 108.4069   2.318039   0.3383879 
2996.600001350045 107.0003   2.346905   0.310837  
2996.800001353025 108.0686   2.364869   0.277776  
2997.000001356006 112.9205   2.365673   0.2640005 
2997.200001358986 97.56351   2.432343   0.262623  
2997.400001361966 89.38203   2.477474   0.2226742 
2997.600001364946 78.36953   2.561303   0.2598679 
2997.800001367927 65.75455   2.637982   0.2722658 
2998.000001370907 70.99818   2.698485   0.3177248 
2998.200001373887 92.59587   2.538603   0.2832862 
2998.400001376867 110.1696   2.518584   0.2874188 
2998.600001379848 120.1672   2.514384   0.2695107 
2998.800001382828 118.9208   2.556924   0.3053269 
2999.000001385808 119.3838   2.545127   0.3149697 
2999.200001388788 115.3687   2.516171   0.2667556 
2999.400001391768 115.4577   2.473453   0.2943065 
2999.600001394749 118.7606   2.502051   0.2984391 
2999.800001397729 121.9744   2.490433   0.3149697 
3000.000001400709 119.8734   2.482032   0.2433374 
3000.200001403689 120.5589   2.447357   0.2157865 
3000.40000140667 116.7219   2.4285     0.2157865 
3000.60000140965 107.6323   2.46541    0.232317  
