~Version
 VERS              .         2.0                           : CWLS LOG ASCII STANDARD - VERSION 2.0
 WRAP              .         NO                            : ONE LINE PER DEPTH STEP
 DLM               .         SPACE                         : DELIMITING CHARACTER(SPACE TAB OR COMMA)
~Well Information
#_______________________________________________________________________________
#
#PARAMETER_NAME    .UNIT     VALUE                         : DESCRIPTION
#_______________________________________________________________________________
STRT               .m        2380                          : First reference value
STOP               .m        2562                          : Last reference value
STEP               .m        0.2                           : Step increment
NULL               .         -9999                         : Missing value
COMP               .                                       : Company
WELL               .         403                           : Well name
FLD                .                                       : Field
LOC                .                                       : Location
CNTY               .                                       : County
STAT               .                                       : State
CTRY               .                                       : Country
SRVC               .                                       : Service Company
DATE               .                                       : Date
API                .                                       : API number
Cartographic_reference_system .         GCS_WGS_1984                  : GEOGCS["GCS_WGS_1984",DATUM["D_WGS_1984",SPHEROID["WGS_1984",6378137.0,298.257223563]],PRIMEM["Greenwich",0.0],UNIT["Degree",0.0174532925199433],AUTHORITY["EPSG",4326]]
EREF               .m        140.4                         : 
HZCS               .GCS_WGS_1984 World_Mercator                : PROJCS["World_Mercator",GEOGCS["GCS_WGS_1984",DATUM["D_WGS_1984",SPHEROID["WGS_1984",6378137.0,298.257223563]],PRIMEM["Greenwich",0.0],UNIT["Degree",0.0174532925199433]],PROJECTION["Mercator"],PARAMETER["False_Easting",0.0],PARAMETER["False_Northing",0.0],PARAMETER["Central_Meridian",0.0],PARAMETER["Standard_Parallel_1",0.0],UNIT["Meter",1.0],AUTHORITY["ESRI",54004]]
LATI               .dega     2.2605552291                  : GCS_WGS_1984
LONG               .dega     1.995158246                   : GCS_WGS_1984
PROJECT_UPGRADE_TIME .         2014-05-27T11_38_46           : 
Pad                .         Pad4                          : 
X                  .m        222100                        : 
Y                  .m        250025                        : 
group              .         Pad4                          : 
Интер-р            .         Пузин                         : 
Куст               .         4                             : 
Статус             .         Не проверено                  : 
Тип                .         Разведка                      : 
~Parameter Information Block
#_______________________________________________________________________________
#
#PARAMETER_NAME    .UNIT     VALUE                         : DESCRIPTION
#_______________________________________________________________________________
SET                .         LQC                           : 
PROJECT_UPGRADE_TIME .         2014-05-27T11_38_46           : 
TLFamily_GR_NORM   .         Gamma Ray                     : 
TLFamily_MD        .         Measured Depth                : 
TLFamily_RHOB_NORM .         Bulk Density                  : 
TLFamily_TNPH_NORM .         Neutron Porosity              : 
~Curve Information
#_______________________________________________________________________________
#
#LOGNAME           .UNIT     LOG_ID                        : DESCRIPTION
#_______________________________________________________________________________
MD                 .m                                      :  
GR_NORM            .gAPI                                   : Normalised By Techlog 
RHOB_NORM          .g/cm3                                  : Normalized By Techlog 
TNPH_NORM          .v/v                                    : Normalised By Techlog 
~Ascii
# ...
2416.4     57.88316   2.702008   0.2301095 
2416.6     69.91443   2.627836   0.2422098 
2416.8     81.34566   2.552283   0.2378698 
2417       84.15703   2.501635   0.227456  
2417.2     79.11098   2.472604   0.2203685 
2417.4     76.76605   2.459371   0.2184254 
2417.6     76.79786   2.483775   0.2117952 
2417.8     76.61932   2.525624   0.2048657 
2418       76.21145   2.558219   0.2024557 
2418.2     78.31947   2.533898   0.200465  
2418.4     81.77172   2.533812   0.2062803 
2418.6     85.09413   2.539996   0.2262516 
2418.8     90.56355   2.542452   0.2365467 
2419       98.09948   2.530837   0.2233931 
2419.2     99.80629   2.534255   0.2095331 
2419.4     96.37187   2.531334   0.2095301 
2419.6     94.12091   2.507647   0.2067973 
2419.8     90.52291   2.510096   0.2001886 
2420       91.32938   2.53256    0.2113573 
2420.2     99.69332   2.525606   0.2317825 
2420.4     105.1766   2.511273   0.24557   
2420.6     106.2773   2.502829   0.2640122 
2420.8     104.6767   2.548416   0.279011  
2421       94.75356   2.571711   0.2716966 
2421.2     76.49934   2.564561   0.2571101 
2421.4     64.04234   2.514931   0.2493983 
2421.6     64.96874   2.508803   0.2366089 
2421.8     71.12573   2.486744   0.2254432 
2422       75.73436   2.448876   0.2208476 
2422.2     75.47868   2.462202   0.2070871 
2422.4     71.7554    2.466652   0.2004436 
2422.6     75.34023   2.485197   0.2148912 
2422.8     82.5334    2.512583   0.2211462 
2423       81.89985   2.520062   0.2143325 
2423.2     75.36392   2.448501   0.2112992 
2423.4     71.35494   2.40452    0.2156922 
2423.6     69.27744   2.419248   0.2247839 
2423.8     66.64661   2.471836   0.2283567 
2424       67.39477   2.464275   0.2231554 
2424.2     72.77355   2.466215   0.2183025 
2424.4     80.25532   2.498561   0.2155502 
2424.6     80.70573   2.498395   0.2144219 
2424.8     68.36813   2.482027   0.2110318 
2425       56.76913   2.476299   0.2051018 
2425.2     51.55869   2.495247   0.2032009 
2425.4     50.99615   2.564821   0.2035793 
2425.6     58.15542   2.550562   0.1974625 
2425.8     68.62776   2.504636   0.1937454 
2426       77.23428   2.493774   0.1953878 
2426.2     82.27498   2.516949   0.1948381 
2426.4     78.81874   2.531357   0.1961296 
2426.6     66.38718   2.545335   0.1934784 
2426.8     54.01781   2.567324   0.1858917 
2427       47.46689   2.598685   0.19415   
2427.2     48.26243   2.614475   0.2167356 
2427.4     52.55452   2.570651   0.2287202 
2427.6     54.14862   2.486152   0.221886  
2427.8     52.98373   2.471496   0.2009145 
2428       53.33992   2.462287   0.1887557 
2428.2     53.03341   2.501122   0.1969788 
2428.4     52.20359   2.523649   0.2095171 
2428.6     58.30147   2.55107    0.2092914 
2428.8     68.29385   2.52159    0.2072557 
2429       77.93486   2.48072    0.2121889 
2429.2     83.33488   2.486122   0.2180977 
2429.4     77.83456   2.486269   0.2239098 
2429.6     68.82013   2.503531   0.2241088 
2429.8     64.66037   2.53794    0.2117852 
2430       61.45043   2.556266   0.1963897 
2430.2     62.76485   2.56215    0.1885554 
2430.4     70.51638   2.565006   0.1916479 
2430.6     77.45026   2.564345   0.2009786 
2430.8     78.64979   2.551134   0.2067328 
2431       79.90928   2.535867   0.2151475 
2431.2     83.1785    2.544482   0.2251346 
2431.4     83.55206   2.537774   0.2293445 
2431.6     81.91476   2.485573   0.2317665 
2431.8     80.4046    2.469514   0.2262814 
2432       76.24535   2.475755   0.2208074 
2432.2     68.61499   2.477113   0.217753  
2432.4     60.79091   2.490842   0.2047768 
2432.6     58.21994   2.50301    0.1963307 
2432.8     57.29053   2.575325   0.1955664 
2433       60.6435    2.625937   0.1985268 
2433.2     75.49133   2.62986    0.2101386 
2433.4     97.10761   2.595538   0.2254193 
2433.6     109.2033   2.518964   0.2409676 
2433.8     110.0551   2.493312   0.2572513 
2434       107.9876   2.489855   0.2625586 
2434.2     104.9381   2.484043   0.2536381 
2434.4     103.1001   2.487501   0.2649598 
2434.6     103.9228   2.516836   0.2941384 
2434.8     103.5963   2.535574   0.3000713 
2435       101.9407   2.561152   0.2785688 
2435.2     103.3217   2.548752   0.2536739 
2435.4     108.8438   2.566774   0.2613704 
2435.6     113.8848   2.554899   0.2767676 
2435.8     115.9789   2.569479   0.2521493 
2436       116.5459   2.588673   0.2209697 
2436.2     117.0266   2.58408    0.2282342 
2436.4     118.5863   2.58987    0.2605099 
2436.6     121.3572   2.595614   0.2931833 
2436.8     117.2602   2.581685   0.3038726 
2437       105.6428   2.556229   0.2865653 
2437.2     94.63397   2.585083   0.268806  
2437.4     88.94393   2.592541   0.2500243 
2437.6     88.90506   2.584145   0.2360266 
2437.8     92.79418   2.596552   0.2369992 
2438       100.9623   2.637073   0.2552592 
2438.2     109.7381   2.643956   0.286462  
2438.4     117.7195   2.607019   0.3198914 
2438.6     123.5224   2.592178   0.3312546 
2438.8     128.5928   2.587951   0.3314974 
2439       136.7627   2.55393    0.3619346 
2439.2     142.3504   2.55196    0.3856248 
2439.4     139.2888   2.524457   0.3594886 
2439.6     134.0417   2.495489   0.337184  
2439.8     132.5709   2.499314   0.3481492 
2440       130.4169   2.548941   0.3635835 
2440.2     124.2512   2.55992    0.363307  
2440.4     118.9432   2.54506    0.3435462 
2440.6     116.6368   2.530313   0.3203657 
2440.8     111.2344   2.52587    0.2995814 
2441       103.3508   2.515861   0.2876536 
2441.2     99.9909    2.54782    0.2750197 
2441.4     105.1477   2.582242   0.2573243 
2441.6     112.118    2.585578   0.2550133 
2441.8     114.8719   2.566095   0.2648846 
2442       116.4174   2.567324   0.2650696 
2442.2     118.0228   2.587859   0.2652333 
2442.4     124.8714   2.563159   0.2795047 
2442.6     136.3063   2.515659   0.3020669 
2442.8     153.7179   2.486441   0.3118086 
2443       181.2028   2.467449   0.3074739 
2443.2     199.7189   2.455383   0.3030172 
2443.4     192.6597   2.445628   0.290799  
2443.6     183.1775   2.443169   0.2626318 
2443.8     184.6355   2.442855   0.249501  
2444       192.4294   2.443944   0.2710936 
2444.2     202.7127   2.44422    0.3004649 
2444.4     213.9589   2.401634   0.3393821 
2444.6     217.1975   2.388232   0.3778455 
2444.8     206.4196   2.384184   0.3893363 
2445       196.5375   2.391204   0.3845071 
2445.2     189.4741   2.418445   0.3684794 
2445.4     182.8235   2.437984   0.3449099 
2445.6     186.6053   2.483662   0.3228656 
2445.8     198.2536   2.482835   0.3134335 
2446       208.8995   2.443209   0.2991691 
2446.2     217.485    2.400925   0.3063184 
2446.4     225.7813   2.383321   0.3256241 
2446.6     231.4714   2.392507   0.3047984 
2446.8     229.1483   2.387758   0.281111  
2447       220.9023   2.392601   0.2823643 
2447.2     213.5799   2.39923    0.2881212 
2447.4     205.6205   2.386875   0.2926475 
2447.6     191.7575   2.402816   0.300667  
2447.8     178.336    2.434536   0.3102991 
2448       171.0309   2.45604    0.3088677 
2448.2     170.6106   2.449661   0.3106247 
2448.4     175.268    2.459176   0.3366937 
2448.6     185.0784   2.506038   0.3582345 
2448.8     199.3716   2.527232   0.3696918 
2449       214.9159   2.488638   0.3870787 
2449.2     230.5085   2.406101   0.3936656 
2449.4     239.3428   2.361914   0.3770488 
2449.6     248.4181   2.368989   0.3563598 
2449.8     272.9227   2.374892   0.3416484 
2450       303.238    2.365097   0.3464787 
2450.2     320.3937   2.352436   0.3432505 
2450.4     320.3407   2.34672    0.3254909 
2450.6     318.8346   2.333912   0.3277172 
2450.8     321.7732   2.31443    0.3315625 
2451       329.8307   2.313598   0.3238273 
2451.2     346.1328   2.328682   0.3038248 
2451.4     356.3569   2.334128   0.2987656 
2451.6     361.9172   2.335052   0.3153862 
2451.8     365.6799   2.313331   0.3379058 
2452       375.6393   2.284363   0.3492777 
2452.2     395.7656   2.255933   0.3402172 
2452.4     403.3647   2.23519    0.3366145 
2452.6     391.3575   2.216546   0.3418938 
