~Version
 VERS              .         2.0                           : CWLS LOG ASCII STANDARD - VERSION 2.0
 WRAP              .         NO                            : ONE LINE PER DEPTH STEP
 DLM               .         SPACE                         : DELIMITING CHARACTER(SPACE TAB OR COMMA)
~Well Information
#_______________________________________________________________________________
#
#PARAMETER_NAME    .UNIT     VALUE                         : DESCRIPTION
#_______________________________________________________________________________
STRT               .m        2380                          : First reference value
STOP               .m        2562                          : Last reference value
STEP               .m        0.2                           : Step increment
NULL               .         -9999                         : Missing value
COMP               .                                       : Company
WELL               .         403                           : Well name
FLD                .                                       : Field
LOC                .                                       : Location
CNTY               .                                       : County
STAT               .                                       : State
CTRY               .                                       : Country
SRVC               .                                       : Service Company
DATE               .                                       : Date
API                .                                       : API number
Cartographic_reference_system .         GCS_WGS_1984                  : GEOGCS["GCS_WGS_1984",DATUM["D_WGS_1984",SPHEROID["WGS_1984",6378137.0,298.257223563]],PRIMEM["Greenwich",0.0],UNIT["Degree",0.0174532925199433],AUTHORITY["EPSG",4326]]
EREF               .m        140.4                         : 
HZCS               .GCS_WGS_1984 World_Mercator                : PROJCS["World_Mercator",GEOGCS["GCS_WGS_1984",DATUM["D_WGS_1984",SPHEROID["WGS_1984",6378137.0,298.257223563]],PRIMEM["Greenwich",0.0],UNIT["Degree",0.0174532925199433]],PROJECTION["Mercator"],PARAMETER["False_Easting",0.0],PARAMETER["False_Northing",0.0],PARAMETER["Central_Meridian",0.0],PARAMETER["Standard_Parallel_1",0.0],UNIT["Meter",1.0],AUTHORITY["ESRI",54004]]
LATI               .dega     2.2605552291                  : GCS_WGS_1984
LONG               .dega     1.995158246                   : GCS_WGS_1984
PROJECT_UPGRADE_TIME .         2014-05-27T11_38_46           : 
Pad                .         Pad4                          : 
X                  .m        222100                        : 
Y                  .m        250025                        : 
group              .         Pad4                          : 
Интер-р            .         Пузин                         : 
Куст               .         4                             : 
Статус             .         Не проверено                  : 
Тип                .         Разведка                      : 
~Parameter Information Block
#_______________________________________________________________________________
#
#PARAMETER_NAME    .UNIT     VALUE                         : DESCRIPTION
#_______________________________________________________________________________
SET                .         LQC                           : 
PROJECT_UPGRADE_TIME .         2014-05-27T11_38_46           : 
TLFamily_GR_NORM   .         Gamma Ray                     : 
TLFamily_MD        .         Measured Depth                : 
TLFamily_RHOB_NORM .         Bulk Density                  : 
TLFamily_TNPH_NORM .         Neutron Porosity              : 
~Curve Information
#_______________________________________________________________________________
#
#LOGNAME           .UNIT     LOG_ID                        : DESCRIPTION
#_______________________________________________________________________________
MD                 .m                                      :  
GR_NORM            .gAPI                                   : Normalised By Techlog 
RHOB_NORM          .g/cm3                                  : Normalized By Techlog 
TNPH_NORM          .v/v                                    : Normalised By Techlog 
~Ascii
# ...
2525.6     40.90159   1.778362   0.4532267 
2525.8     19.20748   1.749788   0.4626324 
2526       10.76717   1.748871   0.4194629 
2526.2     10.11425   1.743357   0.3879688 
2526.4     12.09911   1.748941   0.3996602 
2526.6     18.84208   1.782053   0.4150578 
2526.8     33.14865   1.847803   0.405221  
2527       54.7444    1.94876    0.4106176 
2527.2     74.34374   2.046372   0.4265565 
2527.4     77.28092   2.011922   0.4225664 
2527.6     70.82173   2.026705   0.3917845 
2527.8     71.47306   2.216332   0.355211  
2528       75.18768   2.360318   0.3367163 
2528.2     74.12872   2.366498   0.3299809 
2528.4     73.59879   2.319866   0.3287114 
2528.6     75.45118   2.312577   0.3256816 
2528.8     74.37814   2.436747   0.3025044 
2529       73.5238    2.611813   0.2658364 
2529.2     72.10773   2.633945   0.2309919 
2529.4     68.79235   2.64041    0.2151487 
2529.6     65.54904   2.604651   0.2196322 
2529.8     62.02563   2.574148   0.2210364 
2530       57.40998   2.562538   0.2139437 
2530.2     51.11092   2.529612   0.2006921 
2530.4     48.22778   2.505255   0.1884019 
2530.6     46.69455   2.523098   0.1888686 
2530.8     45.35791   2.563915   0.1971057 
2531       46.59966   2.57031    0.1987107 
2531.2     48.04107   2.587906   0.1910562 
2531.4     48.57712   2.609597   0.1853373 
2531.6     45.61735   2.646759   0.1908395 
2531.8     43.22616   2.663037   0.1902194 
2532       44.33859   2.67812    0.1763408 
2532.2     44.0575    2.694458   0.1597269 
2532.4     42.61554   2.706392   0.1570565 
2532.6     41.12022   2.676038   0.1802135 
2532.8     41.29748   2.622346   0.2154772 
2533       42.1427    2.547892   0.2312503 
2533.2     41.44568   2.533318   0.224046  
2533.4     41.33476   2.559757   0.2062624 
2533.6     42.88546   2.572078   0.1872586 
2533.8     43.45126   2.569232   0.1822825 
2534       44.91259   2.51845    0.1864394 
2534.2     49.39779   2.504829   0.1947056 
2534.4     53.96674   2.56684    0.2118573 
2534.6     59.06716   2.643881   0.2261598 
2534.8     65.99937   2.672678   0.2273494 
2535       73.55799   -9999      0.2443628 
2535.2     81.06779   -9999      0.2820616 
2535.4     86.23701   -9999      0.2774885 
2535.6     84.61151   -9999      0.2407036 
2535.8     75.41665   -9999      0.2251834 
2536       69.73182   -9999      0.2197822 
2536.2     79.80308   -9999      0.2251914 
2536.4     97.24667   -9999      0.2423117 
2536.6     108.6988   -9999      0.2541428 
2536.8     109.2237   -9999      0.2437034 
2537       98.48087   -9999      0.2185844 
2537.2     83.11174   -9999      0.206511  
2537.4     73.14426   -9999      0.2067848 
2537.6     71.96477   -9999      0.2029603 
2537.8     76.84417   -9999      0.1990115 
2538       77.15888   -9999      0.2031825 
2538.2     68.69953   -9999      0.2040088 
2538.4     60.30677   -9999      0.1891058 
2538.6     55.12556   -9999      0.1680684 
2538.8     54.61982   -9999      0.1553908 
2539       57.77786   -9999      0.1583189 
2539.2     61.57521   -9999      0.1714622 
2539.4     67.07959   -9999      0.1882236 
2539.6     76.62784   -9999      0.2111401 
2539.8     85.88654   -9999      0.2353097 
2540       88.64971   -9999      0.2453855 
2540.2     81.95885   -9999      0.2591543 
2540.4     71.17473   -9999      0.2734248 
2540.6     63.11657   -9999      0.2718606 
2540.8     58.27057   -9999      0.2507907 
2541       52.66522   -9999      0.2243638 
2541.2     51.63932   -9999      0.2124676 
2541.4     56.62613   -9999      0.2118281 
2541.6     62.92842   -9999      0.2096298 
2541.8     68.84433   -9999      0.2075518 
2542       73.86546   -9999      0.2070924 
2542.2     77.42241   -9999      0.2151647 
2542.4     82.3746    -9999      0.2329927 
2542.6     89.52053   -9999      0.2422912 
2542.8     94.69922   -9999      0.2345801 
2543       93.82557   -9999      0.2248582 
2543.2     89.46707   -9999      0.217999  
2543.4     87.14264   -9999      0.2112988 
2543.6     84.51191   -9999      0.2136977 
2543.8     84.76531   -9999      0.2254863 
2544       90.26109   -9999      0.2351264 
2544.2     96.85704   -9999      0.2427179 
2544.4     101.6553   -9999      0.2474776 
2544.6     101.3824   -9999      0.2497217 
2544.8     93.53589   -9999      0.2550536 
2545       83.86289   -9999      0.2518395 
2545.2     83.06059   -9999      0.2412238 
2545.4     88.50224   -9999      0.2377231 
2545.6     83.73196   -9999      0.235266  
2545.8     68.51482   -9999      0.222108  
2546       56.84406   -9999      0.2116259 
2546.2     53.11292   -9999      0.2051318 
2546.4     56.49026   -9999      0.1903425 
2546.6     57.40018   -9999      0.1797206 
2546.8     55.34144   -9999      0.178474  
2547       54.07461   -9999      0.1772669 
2547.2     52.42067   -9999      0.1870844 
2547.4     52.66582   -9999      0.2043264 
2547.6     56.77064   -9999      0.2160886 
2547.8     62.6155    -9999      0.2290621 
2548       66.68942   -9999      0.2505512 
2548.2     68.76031   -9999      0.2757119 
2548.4     72.54085   -9999      0.2922401 
2548.6     78.83143   -9999      0.3152852 
2548.8     81.61354   -9999      0.3263688 
2549       79.42975   -9999      0.3044832 
2549.2     74.71729   -9999      0.2812339 
2549.4     70.58788   -9999      0.2777393 
2549.6     71.2011    -9999      0.2881234 
2549.8     76.21597   -9999      0.295577  
2550       79.63289   -9999      0.2984636 
2550.2     82.70052   -9999      0.3094746 
2550.4     85.84216   -9999      0.3193643 
2550.6     87.40255   -9999      0.3262074 
2550.8     83.21725   -9999      0.3387157 
2551       66.44535   -9999      0.3530212 
2551.2     46.63259   -9999      0.3544621 
2551.4     36.92413   -9999      0.3256226 
2551.6     42.0475    -9999      0.2759551 
2551.8     59.21188   -9999      0.2379443 
2552       77.8287    -9999      0.2395812 
2552.2     87.17678   -9999      0.2495767 
2552.4     86.40302   -9999      0.2291277 
2552.6     81.60583   -9999      0.2138406 
2552.8     80.21321   -9999      0.2175302 
2553       81.1953    -9999      0.2296737 
2553.2     82.40841   -9999      0.2446395 
2553.4     85.31196   -9999      0.2568415 
2553.6     86.58038   -9999      0.2498451 
2553.8     85.29606   -9999      0.2434167 
2554       82.94568   -9999      0.2498115 
2554.2     82.37502   -9999      0.2509309 
2554.4     82.1396    -9999      0.2563091 
2554.6     83.739     -9999      0.2667783 
2554.8     85.01024   -9999      0.2698659 
2555       86.18631   -9999      0.2687981 
2555.2     88.61048   -9999      0.264855  
2555.4     89.9788    -9999      0.2552755 
2555.6     89.59833   -9999      0.2431    
2555.8     89.19782   -9999      0.2413465 
2556       90.97593   -9999      0.2490353 
2556.2     94.18228   -9999      0.248597  
2556.4     99.72071   -9999      0.2342898 
2556.6     102.0516   -9999      0.2171061 
2556.8     99.26582   -9999      0.206203  
2557       97.90272   -9999      0.1934233 
2557.2     101.3992   -9999      0.184172  
2557.4     104.1443   -9999      0.2074704 
2557.6     103.6824   -9999      0.2422537 
2557.8     104.2597   -9999      0.2628939 
2558       106.7267   -9999      0.2718888 
2558.2     105.8831   -9999      0.2592779 
2558.4     102.7416   -9999      0.2403703 
2558.6     101.6666   -9999      0.2310357 
2558.8     101.3185   -9999      0.2207337 
2559       98.5124    -9999      0.2101663 
2559.2     97.13952   -9999      0.2173    
2559.4     96.99004   -9999      0.2269747 
2559.6     97.21865   -9999      0.2321657 
2559.8     98.46948   -9999      0.2483382 
2560       99.26407   -9999      0.2483336 
2560.2     100.2658   -9999      0.2280051 
2560.4     100.7737   -9999      0.2172822 
2560.6     97.50074   -9999      0.2137425 
2560.8     96.47485   -9999      0.2177921 
2561       98.43715   -9999      0.2262292 
2561.2     100.3534   -9999      0.2334471 
2561.4     99.50589   -9999      0.2342375 
2561.6     98.13849   -9999      0.2378503 
2561.8     97.47803   -9999      0.2491422 
