~Version
 VERS              .         2.0                           : CWLS LOG ASCII STANDARD - VERSION 2.0
 WRAP              .         NO                            : ONE LINE PER DEPTH STEP
 DLM               .         SPACE                         : DELIMITING CHARACTER(SPACE TAB OR COMMA)
~Well Information
#_______________________________________________________________________________
#
#PARAMETER_NAME    .UNIT     VALUE                         : DESCRIPTION
#_______________________________________________________________________________
STRT               .m        2380                          : First reference value
STOP               .m        2562                          : Last reference value
STEP               .m        0.2                           : Step increment
NULL               .         -9999                         : Missing value
COMP               .                                       : Company
WELL               .         403                           : Well name
FLD                .                                       : Field
LOC                .                                       : Location
CNTY               .                                       : County
STAT               .                                       : State
CTRY               .                                       : Country
SRVC               .                                       : Service Company
DATE               .                                       : Date
API                .                                       : API number
Cartographic_reference_system .         GCS_WGS_1984                  : GEOGCS["GCS_WGS_1984",DATUM["D_WGS_1984",SPHEROID["WGS_1984",6378137.0,298.257223563]],PRIMEM["Greenwich",0.0],UNIT["Degree",0.0174532925199433],AUTHORITY["EPSG",4326]]
EREF               .m        140.4                         : 
HZCS               .GCS_WGS_1984 World_Mercator                : PROJCS["World_Mercator",GEOGCS["GCS_WGS_1984",DATUM["D_WGS_1984",SPHEROID["WGS_1984",6378137.0,298.257223563]],PRIMEM["Greenwich",0.0],UNIT["Degree",0.0174532925199433]],PROJECTION["Mercator"],PARAMETER["False_Easting",0.0],PARAMETER["False_Northing",0.0],PARAMETER["Central_Meridian",0.0],PARAMETER["Standard_Parallel_1",0.0],UNIT["Meter",1.0],AUTHORITY["ESRI",54004]]
LATI               .dega     2.2605552291                  : GCS_WGS_1984
LONG               .dega     1.995158246                   : GCS_WGS_1984
PROJECT_UPGRADE_TIME .         2014-05-27T11_38_46           : 
Pad                .         Pad4                          : 
X                  .m        222100                        : 
Y                  .m        250025                        : 
group              .         Pad4                          : 
Интер-р            .         Пузин                         : 
Куст               .         4                             : 
Статус             .         Не проверено                  : 
Тип                .         Разведка                      : 
~Parameter Information Block
#_______________________________________________________________________________
#
#PARAMETER_NAME    .UNIT     VALUE                         : DESCRIPTION
#_______________________________________________________________________________
SET                .         LQC                           : 
PROJECT_UPGRADE_TIME .         2014-05-27T11_38_46           : 
TLFamily_GR_NORM   .         Gamma Ray                     : 
TLFamily_MD        .         Measured Depth                : 
TLFamily_RHOB_NORM .         Bulk Density                  : 
TLFamily_TNPH_NORM .         Neutron Porosity              : 
~Curve Information
#_______________________________________________________________________________
#
#LOGNAME           .UNIT     LOG_ID                        : DESCRIPTION
#_______________________________________________________________________________
MD                 .m                                      :  
GR_NORM            .gAPI                                   : Normalised By Techlog 
RHOB_NORM          .g/cm3                                  : Normalized By Techlog 
TNPH_NORM          .v/v                                    : Normalised By Techlog 
~Ascii
# ...
2489.2     114.5061   2.523511   0.2614484 
2489.4     114.3839   2.520335   0.273237  
2489.6     115.0724   2.514462   0.2984638 
2489.8     115.1303   2.51771    0.3041798 
2490       114.1936   2.513113   0.2951027 
2490.2     115.3969   2.501983   0.2870429 
2490.4     120.7821   2.480667   0.2987615 
2490.6     123.7146   2.465463   0.3104905 
2490.8     123.762    2.481114   0.3041073 
2491       123.814    2.518808   0.2987627 
2491.2     121.6691   2.523714   0.3084933 
2491.4     118.5519   2.541766   0.3346947 
2491.6     118.9102   2.566637   0.3511097 
2491.8     119.8275   2.536757   0.3375785 
2492       119.2816   2.475087   0.3184519 
2492.2     114.9419   2.477815   0.3041312 
2492.4     107.7741   2.538821   0.2937599 
2492.6     104.9151   2.598637   0.2921151 
2492.8     110.6861   2.59635    0.2726078 
2493       119.1585   2.560359   0.248059  
2493.2     122.8742   2.564555   0.229107  
2493.4     126.6692   2.554511   0.2020971 
2493.6     123.3453   2.526851   0.1845499 
2493.8     101.6365   2.469381   0.1910148 
2494       67.88747   2.416309   0.1956802 
2494.2     44.04936   2.373846   0.1959201 
2494.4     38.19185   2.360705   0.2004047 
2494.6     37.79206   2.370219   0.1934029 
2494.8     37.06718   2.355621   0.1832773 
2495       37.09149   2.342235   0.1698718 
2495.2     38.30408   2.339856   0.1606086 
2495.4     38.37435   2.366914   0.1650467 
2495.6     37.32525   2.37858    0.1697533 
2495.8     36.2092    2.37566    0.1631272 
2496       35.66409   2.364542   0.1578001 
2496.2     37.74208   2.359164   0.154179  
2496.4     39.98651   2.356802   0.1513115 
2496.6     40.29062   2.352327   0.1579314 
2496.8     39.52378   2.368139   0.1665493 
2497       38.48075   2.373438   0.168961  
2497.2     37.32819   2.391483   0.1702776 
2497.4     37.29286   2.418789   0.169436  
2497.6     37.41653   2.428871   0.168741  
2497.8     35.64075   2.415679   0.1712041 
2498       33.08733   2.456497   0.1801154 
2498.2     32.84859   2.464013   0.1879402 
2498.4     34.63099   2.450135   0.1855332 
2498.6     36.04566   2.427597   0.1821467 
2498.8     36.65126   2.407288   0.1795157 
2499       38.09064   2.423241   0.1774275 
2499.2     39.97835   2.438526   0.1780681 
2499.4     41.05358   2.46961    0.1766143 
2499.6     38.53462   2.47261    0.1711128 
2499.8     35.03797   2.459685   0.1638484 
2500       34.87501   2.44969    0.1483482 
2500.2     35.68889   2.456975   0.1431542 
2500.4     36.8005    2.484268   0.1501454 
2500.6     41.28186   2.515137   0.147988  
2500.8     45.11092   2.549109   0.138921  
2501       44.64536   2.613881   0.1176295 
2501.2     42.19879   2.718497   0.09482305
2501.4     39.62526   2.786633   0.08686879
2501.6     36.99064   2.83051    0.07754409
2501.8     37.81578   2.835282   0.06826688
2502       40.58248   2.808587   0.06888258
2502.2     39.23736   2.745165   0.06965365
2502.4     37.04236   2.728709   0.06860252
2502.6     35.65028   2.767337   0.07157748
2502.8     34.13295   2.788889   0.08041677
2503       32.95847   2.768765   0.08817439
2503.2     28.91121   2.777013   0.09176029
2503.4     25.56209   2.784055   0.09045544
2503.6     28.20107   2.775223   0.08537085
2503.8     32.88607   2.782044   0.09055508
2504       37.02953   2.679871   0.1155579 
2504.2     41.64788   2.545413   0.152018  
2504.4     45.14071   2.484277   0.1682252 
2504.6     44.87722   2.479663   0.1592311 
2504.8     44.47266   2.463874   0.1600025 
2505       44.83987   2.477381   0.1728407 
2505.2     41.99413   2.508939   0.1809449 
2505.4     39.46571   2.529404   0.171614  
2505.6     39.82341   2.494249   0.1633558 
2505.8     40.61783   2.487784   0.1697371 
2506       41.41752   2.516567   0.1868175 
2506.2     41.58755   2.504643   0.2021246 
2506.4     40.37518   2.468574   0.2023129 
2506.6     40.88053   2.458386   0.1923138 
2506.8     44.66683   2.468784   0.1818211 
2507       47.60628   2.460389   0.1745024 
2507.2     48.13237   2.441117   0.1727361 
2507.4     46.81033   2.429643   0.1815052 
2507.6     47.28127   2.4258     0.1961394 
2507.8     48.58096   2.452435   0.2010639 
2508       46.28336   2.455577   0.1973687 
2508.2     44.80308   2.478427   0.2020515 
2508.4     45.83889   2.528945   0.209935  
2508.6     47.54737   2.558969   0.2086794 
2508.8     48.27896   2.522465   0.2009857 
2509       48.89025   2.479497   0.2016759 
2509.2     49.94138   2.451295   0.2177221 
2509.4     51.84946   2.455776   0.2320379 
2509.6     59.14073   2.506341   0.2481923 
2509.8     71.99159   2.563494   0.2500125 
2510       83.05529   2.597459   0.2312102 
2510.2     88.26842   2.6101     0.2204336 
2510.4     90.91177   2.626468   0.216268  
2510.6     94.08154   2.613715   0.2146266 
2510.8     94.85085   2.558022   0.2184838 
2511       94.26907   2.517892   0.2328436 
2511.2     95.11717   2.506045   0.256812  
2511.4     92.08723   2.500942   0.2713622 
2511.6     81.48447   2.450629   0.2551313 
2511.8     64.57303   2.36093    0.2273078 
2512       46.00597   2.302661   0.211983  
2512.2     35.91485   2.294349   0.1937694 
2512.4     37.45632   2.325519   0.1840596 
2512.6     41.6852    2.359523   0.1863984 
2512.8     43.40667   2.389371   0.1849064 
2513       43.09846   2.431637   0.1735759 
2513.2     42.65037   2.47342    0.1704845 
2513.4     43.93429   2.460021   0.2011556 
2513.6     49.13529   2.400952   0.2490798 
2513.8     58.46315   2.38671    0.2869364 
2514       64.54494   2.386245   0.3122838 
2514.2     61.7955    2.381297   0.3229971 
2514.4     57.30854   2.337248   0.3266624 
2514.6     60.17701   2.198992   0.3333455 
2514.8     63.83615   2.139136   0.3272319 
2515       63.84761   2.212023   0.2888805 
2515.2     72.91071   2.338699   0.2352017 
2515.4     88.82814   2.385884   0.2131026 
2515.6     98.35966   2.485358   0.2250622 
2515.8     98.1956    2.520799   0.2365108 
2516       93.97453   2.503368   0.2398584 
2516.2     89.67619   2.474753   0.2329972 
2516.4     85.6156    2.475985   0.2261382 
2516.6     86.08012   2.442348   0.2421656 
2516.8     89.02625   2.406272   0.2850454 
2517       90.41311   2.38531    0.3288853 
2517.2     88.39723   2.395034   0.334121  
2517.4     87.63525   2.341163   0.3234023 
2517.6     93.15477   2.236694   0.3271634 
2517.8     95.49406   2.255834   0.3136776 
2518       94.76662   2.381957   0.2762939 
2518.2     93.49365   2.486747   0.2333165 
2518.4     88.94601   2.499805   0.2131993 
2518.6     85.77921   2.491194   0.2216062 
2518.8     82.49239   2.474393   0.226799  
2519       78.81912   2.469094   0.2382385 
2519.2     80.75978   2.487017   0.2423801 
2519.4     84.84871   2.493367   0.2265412 
2519.6     75.18172   2.486962   0.2027889 
2519.8     59.09476   2.518624   0.1843339 
2520       51.99041   2.580699   0.181597  
2520.2     50.96012   2.584661   0.1894567 
2520.4     53.39994   2.554951   0.2033895 
2520.6     59.18682   2.525625   0.2243786 
2520.8     69.91518   2.516584   0.2398813 
2521       79.32267   2.481565   0.2343392 
2521.2     79.88909   2.434902   0.2185236 
2521.4     78.30587   2.431802   0.219541  
2521.6     80.13521   2.427963   0.2282082 
2521.8     84.24176   2.45771    0.2295421 
2522       89.09482   2.471081   0.2388051 
2522.2     92.53867   2.480915   0.2618301 
2522.4     91.37666   2.460812   0.2909625 
2522.6     89.79231   2.443112   0.3137356 
2522.8     92.20596   2.448107   0.3086979 
2523       96.25311   2.457553   0.2730494 
2523.2     95.61407   2.474444   0.2396782 
2523.4     92.94592   2.480602   0.2460098 
2523.6     93.36015   2.497287   0.2784125 
2523.8     95.25301   2.499698   0.3109889 
2524       95.93709   2.478431   0.3294172 
2524.2     95.49623   2.433176   0.3321612 
2524.4     95.18592   2.387188   0.317294  
2524.6     95.13187   2.292436   0.3166604 
2524.8     94.33263   2.17942    0.3442895 
2525       90.78375   2.048637   0.3606968 
2525.2     82.04693   1.917145   0.3723505 
2525.4     65.63741   1.841479   0.4044186 
