~Version
 VERS              .         2.0                           : CWLS LOG ASCII STANDARD - VERSION 2.0
 WRAP              .         NO                            : ONE LINE PER DEPTH STEP
 DLM               .         SPACE                         : DELIMITING CHARACTER(SPACE TAB OR COMMA)
~Well Information
#_______________________________________________________________________________
#
#PARAMETER_NAME    .UNIT     VALUE                         : DESCRIPTION
#_______________________________________________________________________________
STRT               .m        2380                          : First reference value
STOP               .m        2562                          : Last reference value
STEP               .m        0.2                           : Step increment
NULL               .         -9999                         : Missing value
COMP               .                                       : Company
WELL               .         403                           : Well name
FLD                .                                       : Field
LOC                .                                       : Location
CNTY               .                                       : County
STAT               .                                       : State
CTRY               .                                       : Country
SRVC               .                                       : Service Company
DATE               .                                       : Date
API                .                                       : API number
Cartographic_reference_system .         GCS_WGS_1984                  : GEOGCS["GCS_WGS_1984",DATUM["D_WGS_1984",SPHEROID["WGS_1984",6378137.0,298.257223563]],PRIMEM["Greenwich",0.0],UNIT["Degree",0.0174532925199433],AUTHORITY["EPSG",4326]]
EREF               .m        140.4                         : 
HZCS               .GCS_WGS_1984 World_Mercator                : PROJCS["World_Mercator",GEOGCS["GCS_WGS_1984",DATUM["D_WGS_1984",SPHEROID["WGS_1984",6378137.0,298.257223563]],PRIMEM["Greenwich",0.0],UNIT["Degree",0.0174532925199433]],PROJECTION["Mercator"],PARAMETER["False_Easting",0.0],PARAMETER["False_Northing",0.0],PARAMETER["Central_Meridian",0.0],PARAMETER["Standard_Parallel_1",0.0],UNIT["Meter",1.0],AUTHORITY["ESRI",54004]]
LATI               .dega     2.2605552291                  : GCS_WGS_1984
LONG               .dega     1.995158246                   : GCS_WGS_1984
PROJECT_UPGRADE_TIME .         2014-05-27T11_38_46           : 
Pad                .         Pad4                          : 
X                  .m        222100                        : 
Y                  .m        250025                        : 
group              .         Pad4                          : 
Интер-р            .         Пузин                         : 
Куст               .         4                             : 
Статус             .         Не проверено                  : 
Тип                .         Разведка                      : 
~Parameter Information Block
#_______________________________________________________________________________
#
#PARAMETER_NAME    .UNIT     VALUE                         : DESCRIPTION
#_______________________________________________________________________________
SET                .         LQC                           : 
PROJECT_UPGRADE_TIME .         2014-05-27T11_38_46           : 
TLFamily_GR_NORM   .         Gamma Ray                     : 
TLFamily_MD        .         Measured Depth                : 
TLFamily_RHOB_NORM .         Bulk Density                  : 
TLFamily_TNPH_NORM .         Neutron Porosity              : 
~Curve Information
#_______________________________________________________________________________
#
#LOGNAME           .UNIT     LOG_ID                        : DESCRIPTION
#_______________________________________________________________________________
MD                 .m                                      :  
GR_NORM            .gAPI                                   : Normalised By Techlog 
RHOB_NORM          .g/cm3                                  : Normalized By Techlog 
TNPH_NORM          .v/v                                    : Normalised By Techlog 
~Ascii
2380.0     84.99938   2.550461   0.2864022 
2380.2     89.41625   2.569242   0.2734624 
2380.4     93.41321   2.575532   0.2615322 
2380.6     94.07365   2.588223   0.26422   
2380.8     90.67884   2.58992    0.272684  
2381       89.1574    2.574887   0.2736308 
2381.2     89.67947   2.542609   0.2828912 
2381.4     89.70117   2.50527    0.293621  
2381.6     91.18047   2.504044   0.2907716 
2381.8     89.98649   2.534708   0.2907349 
2382       86.18417   2.576999   0.2937991 
2382.2     82.63079   2.594992   0.303215  
2382.4     82.22443   2.597762   0.3069084 
2382.6     84.2136    2.56807    0.2939249 
2382.8     85.40443   2.567388   0.2946956 
2383       86.9612    2.55742    0.2930218 
2383.2     88.25027   2.563632   0.28209   
2383.4     86.48469   2.566516   0.2794447 
2383.6     84.96341   2.558044   0.284072  
2383.8     85.60844   2.561934   0.2933303 
2384       86.13892   2.584814   0.3044687 
2384.2     85.66152   2.601168   0.313532  
2384.4     83.50994   2.598642   0.3167779 
2384.6     85.88701   2.607698   0.3115533 
2384.8     89.87566   2.62593    0.2812469 
2385       86.93904   2.601509   0.2551623 
2385.2     85.24149   2.568759   0.2519167 
2385.4     87.6749    2.56716    0.2448205 
2385.6     89.26778   2.563693   0.243709  
2385.8     90.3014    2.547736   0.2570272 
2386       91.53384   2.557947   0.2653123 
2386.2     91.80989   2.575884   0.2736486 
2386.4     89.78561   2.584584   0.2791651 
2386.6     87.99572   2.564683   0.2643192 
2386.8     87.60505   2.561054   0.2491248 
2387       87.1246    2.525958   0.2453006 
2387.2     86.62061   2.538137   0.2457095 
2387.4     87.12888   2.571574   0.2508713 
2387.6     88.26186   2.599942   0.2579217 
2387.8     87.20495   2.592026   0.2707657 
2388       82.26718   2.569665   0.2782366 
2388.2     78.52204   2.579274   0.261906  
2388.4     78.73637   2.605692   0.2451701 
2388.6     79.54626   2.616204   0.2418481 
2388.8     81.67675   2.618366   0.2279418 
2389       85.22022   2.623463   0.2174358 
2389.2     87.05428   2.580215   0.2227661 
2389.4     85.08441   2.568871   0.2286557 
2389.6     84.25346   2.566373   0.2504102 
2389.8     85.74315   2.575863   0.2789247 
2390       86.87143   2.552913   0.2806599 
2390.2     86.45883   2.555144   0.2577084 
2390.4     86.3507    2.530363   0.2374966 
2390.6     87.69335   2.518382   0.2325813 
2390.8     88.43573   2.531164   0.2355756 
2391       86.48125   2.537154   0.2296841 
2391.2     82.21332   2.55838    0.2234319 
2391.4     78.77579   2.549334   0.2351016 
2391.6     76.37263   2.555509   0.2610197 
2391.8     75.47255   2.563889   0.2750443 
2392       76.73766   2.543119   0.264699  
2392.2     82.53222   2.533609   0.2472442 
2392.4     87.42651   2.537778   0.2380822 
2392.6     87.56226   2.538475   0.2386562 
2392.8     86.50503   2.561429   0.2496484 
2393       84.95474   2.597736   0.2598951 
2393.2     82.77055   2.608502   0.2553258 
2393.4     82.95259   2.59236    0.2450129 
2393.6     84.18269   2.564041   0.2254116 
2393.8     81.52547   2.572879   0.2069112 
2394       78.27891   2.592982   0.2104863 
2394.2     77.91652   2.609769   0.2230525 
2394.4     78.77222   2.599756   0.2312713 
2394.6     81.9756    2.573099   0.2474651 
2394.8     82.96714   2.554234   0.2722383 
2395       81.23176   2.533638   0.2907369 
2395.2     83.79913   2.547851   0.2924055 
2395.4     89.90314   2.543734   0.2756501 
2395.6     92.73735   2.523686   0.2680078 
2395.8     90.28137   2.519293   0.2770227 
2396       88.42747   2.527541   0.2690316 
2396.2     88.16643   2.575583   0.2429426 
2396.4     88.08164   2.603403   0.2335515 
2396.6     89.40906   2.626193   0.2535296 
2396.8     91.26466   2.579825   0.2768752 
2397       92.24868   2.532203   0.272719  
2397.2     93.19865   2.546247   0.2497422 
2397.4     98.26013   2.521927   0.2301968 
2397.6     103.2651   2.515083   0.2275575 
2397.8     104.4207   2.511931   0.2381667 
2398       103.9563   2.524442   0.2464208 
2398.2     103.4829   2.552673   0.2504642 
2398.4     102.7982   2.547121   0.2453388 
2398.6     102.8646   2.576172   0.2266071 
2398.8     101.9211   2.555229   0.2238823 
2399       101.5619   2.531099   0.2655631 
2399.2     100.929    2.53603    0.3058529 
2399.4     98.09751   2.539697   0.3155273 
2399.6     93.58428   2.513744   0.3122688 
2399.8     89.63702   2.518514   0.293595  
2400       89.99723   2.542933   0.2673628 
2400.2     90.3648    2.531019   0.2481625 
2400.4     88.94515   2.503214   0.2293954 
2400.6     89.64511   2.512099   0.2079331 
2400.8     90.46037   2.525888   0.1947269 
2401       88.03644   2.550671   0.1954631 
2401.2     83.88379   2.581246   0.2068986 
2401.4     84.94073   2.59522    0.2437971 
2401.6     91.1068    2.576877   0.284836  
2401.8     93.53447   2.574528   0.3011008 
2402       89.92889   2.568468   0.293516  
2402.2     88.39892   2.533207   0.2769704 
2402.4     89.73506   2.509678   0.265134  
2402.6     89.49777   2.511733   0.2492452 
2402.8     86.17684   2.498151   0.2339491 
2403       82.80968   2.504771   0.2258211 
2403.2     79.32704   2.528156   0.2203959 
2403.4     74.64204   2.553844   0.2186951 
2403.6     70.07655   2.60742    0.2268436 
2403.8     71.04222   2.621528   0.2390324 
2404       79.91817   2.571841   0.2486866 
2404.2     88.62539   2.49669    0.2588943 
2404.4     91.2517    2.450348   0.262683  
2404.6     90.20452   2.449365   0.2494459 
2404.8     86.60984   2.454233   0.2256968 
2405       82.16257   2.468068   0.2065535 
2405.2     81.2197    2.493338   0.1896033 
2405.4     80.3806    2.512532   0.1780224 
2405.6     78.12325   2.506092   0.1820014 
2405.8     75.02838   2.489189   0.1812875 
2406       73.3179    2.470621   0.1772097 
2406.2     72.12672   2.467126   0.1863611 
2406.4     75.7081    2.464513   0.1995076 
2406.6     82.21668   2.460818   0.2009194 
2406.8     82.60094   2.454251   0.2021405 
2407       79.34491   2.454522   0.2089584 
2407.2     75.88345   2.476692   0.2064355 
2407.4     73.93655   2.495807   0.2064522 
2407.6     77.35612   2.497405   0.2262947 
2407.8     85.56211   2.503825   0.2539219 
2408       92.92153   2.533891   0.2451587 
2408.2     92.3118    2.540603   0.2166179 
2408.4     87.29746   2.510218   0.2192228 
2408.6     84.62516   2.494367   0.2410076 
2408.8     85.61197   2.498036   0.2595593 
2409       90.54424   2.496589   0.254426  
2409.2     96.17007   2.48803    0.2394002 
2409.4     97.3619    2.490311   0.2348538 
2409.6     97.60619   2.507115   0.2388884 
2409.8     96.81757   2.503335   0.2414273 
2410       93.77901   2.49748    0.2295762 
2410.2     91.16776   2.501636   0.2276504 
2410.4     91.13483   2.548252   0.2442488 
2410.6     94.8594    2.548503   0.2554025 
2410.8     98.68829   2.521078   0.2604396 
2411       98.47951   2.492656   0.2610101 
2411.2     94.45187   2.475627   0.2582307 
2411.4     91.47843   2.498245   0.2377988 
2411.6     89.9819    2.504299   0.2095339 
2411.8     88.45354   2.483368   0.1957507 
2412       88.55168   2.510685   0.2041465 
2412.2     88.80059   2.535117   0.2270387 
2412.4     88.16833   2.553717   0.2397711 
2412.6     91.31571   2.54593    0.2400596 
2412.8     97.98876   2.56608    0.2472457 
2413       104.3513   2.605155   0.2654864 
2413.2     107.2466   2.5885     0.2997598 
2413.4     107.1336   2.551312   0.3249032 
2413.6     100.8999   2.525353   0.3064209 
2413.8     90.99533   2.51019    0.2562751 
2414       82.23524   2.513339   0.2235796 
2414.2     75.85033   2.527797   0.2145973 
2414.4     71.11021   2.510547   0.2068351 
2414.6     67.64102   2.486379   0.2088775 
2414.8     64.68373   2.460362   0.2109384 
2415       64.59405   2.480432   0.2073589 
2415.2     64.31081   2.509485   0.2054271 
2415.4     60.56493   2.532202   0.2024304 
2415.6     53.60154   2.591012   0.1922579 
2415.8     48.52988   2.638176   0.1839028 
2416       48.07926   2.683356   0.1906145 
2416.2     50.85884   2.671725   0.2086598 
