~Version
 VERS              .         2.0                           : CWLS LOG ASCII STANDARD - VERSION 2.0
 WRAP              .         NO                            : ONE LINE PER DEPTH STEP
 DLM               .         SPACE                         : DELIMITING CHARACTER(SPACE TAB OR COMMA)
~Well Information
#_______________________________________________________________________________
#
#PARAMETER_NAME    .UNIT     VALUE                         : DESCRIPTION
#_______________________________________________________________________________
STRT               .m        2380                          : First reference value
STOP               .m        2562                          : Last reference value
STEP               .m        0.2                           : Step increment
NULL               .         -9999                         : Missing value
COMP               .                                       : Company
WELL               .         403                           : Well name
FLD                .                                       : Field
LOC                .                                       : Location
CNTY               .                                       : County
STAT               .                                       : State
CTRY               .                                       : Country
SRVC               .                                       : Service Company
DATE               .                                       : Date
API                .                                       : API number
Cartographic_reference_system .         GCS_WGS_1984                  : GEOGCS["GCS_WGS_1984",DATUM["D_WGS_1984",SPHEROID["WGS_1984",6378137.0,298.257223563]],PRIMEM["Greenwich",0.0],UNIT["Degree",0.0174532925199433],AUTHORITY["EPSG",4326]]
EREF               .m        140.4                         : 
HZCS               .GCS_WGS_1984 World_Mercator                : PROJCS["World_Mercator",GEOGCS["GCS_WGS_1984",DATUM["D_WGS_1984",SPHEROID["WGS_1984",6378137.0,298.257223563]],PRIMEM["Greenwich",0.0],UNIT["Degree",0.0174532925199433]],PROJECTION["Mercator"],PARAMETER["False_Easting",0.0],PARAMETER["False_Northing",0.0],PARAMETER["Central_Meridian",0.0],PARAMETER["Standard_Parallel_1",0.0],UNIT["Meter",1.0],AUTHORITY["ESRI",54004]]
LATI               .dega     2.2605552291                  : GCS_WGS_1984
LONG               .dega     1.995158246                   : GCS_WGS_1984
PROJECT_UPGRADE_TIME .         2014-05-27T11_38_46           : 
Pad                .         Pad4                          : 
X                  .m        222100                        : 
Y                  .m        250025                        : 
group              .         Pad4                          : 
Интер-р            .         Пузин                         : 
Куст               .         4                             : 
Статус             .         Не проверено                  : 
Тип                .         Разведка                      : 
~Parameter Information Block
#_______________________________________________________________________________
#
#PARAMETER_NAME    .UNIT     VALUE                         : DESCRIPTION
#_______________________________________________________________________________
SET                .         LQC                           : 
PROJECT_UPGRADE_TIME .         2014-05-27T11_38_46           : 
TLFamily_GR_NORM   .         Gamma Ray                     : 
TLFamily_MD        .         Measured Depth                : 
TLFamily_RHOB_NORM .         Bulk Density                  : 
TLFamily_TNPH_NORM .         Neutron Porosity              : 
~Curve Information
#_______________________________________________________________________________
#
#LOGNAME           .UNIT     LOG_ID                        : DESCRIPTION
#_______________________________________________________________________________
MD                 .m                                      :  
GR_NORM            .gAPI                                   : Normalised By Techlog 
RHOB_NORM          .g/cm3                                  : Normalized By Techlog 
TNPH_NORM          .v/v                                    : Normalised By Techlog 
~Ascii
# ...
2452.8     364.4039   2.229806   0.3479891 
2453       330.4983   2.26251    0.3476807 
2453.2     313.304    2.265588   0.3341066 
2453.4     305.1573   2.252936   0.3269398 
2453.6     296.0213   2.257211   0.3320687 
2453.8     291.1748   2.265515   0.3386752 
2454       295.4656   2.264867   0.343641  
2454.2     304.0045   2.241015   0.3560989 
2454.4     308.4684   2.231014   0.3710933 
2454.6     319.4004   2.211849   0.3713579 
2454.8     336.9684   2.215588   0.369101  
2455       340.5017   2.216669   0.3809103 
2455.2     334.1764   2.208956   0.3839349 
2455.4     330.1766   2.195737   0.3670697 
2455.6     320.8821   2.208628   0.3590591 
2455.8     312.9964   2.22011    0.3719091 
2456       307.6108   2.205496   0.3876621 
2456.2     295.595    2.195769   0.3748776 
2456.4     286.3657   2.191212   0.3634672 
2456.6     282.85     2.180968   0.3791049 
2456.8     278.5635   2.174738   0.3899906 
2457       273.3359   2.168877   0.3850321 
2457.2     259.9371   2.174702   0.3800176 
2457.4     235.5186   2.199682   0.3902726 
2457.6     216.0849   2.233588   0.3810821 
2457.8     205.0557   2.243035   0.3417173 
2458       203.2396   2.260616   0.3459968 
2458.2     203.8126   2.281596   0.3969696 
2458.4     196.5985   2.283531   0.411637  
2458.6     189.7009   2.269852   0.3632214 
2458.8     189.1553   2.259475   0.3152375 
2459       184.908    2.26343    0.3048255 
2459.2     170.1305   2.291221   0.3148143 
2459.4     154.0194   2.318011   0.3175387 
2459.6     146.5448   2.321234   0.3153183 
2459.8     144.2857   2.308704   0.3209031 
2460       146.1211   2.299156   0.3311968 
2460.2     147.6294   2.314199   0.3354856 
2460.4     147.2067   2.321736   0.3147473 
2460.6     149.9179   2.324057   0.2836193 
2460.8     151.3288   2.332805   0.2688866 
2461       151.0876   2.338792   0.2736    
2461.2     152.4207   2.328349   0.2782806 
2461.4     155.3461   2.306826   0.2727999 
2461.6     159.3982   2.306051   0.2705543 
2461.8     151.6908   2.321456   0.2718714 
2462       138.4681   2.3279     0.2815402 
2462.2     133.0506   2.339287   0.2832998 
2462.4     126.7154   2.348233   0.2823506 
2462.6     118.8741   2.361789   0.2836671 
2462.8     111.5666   2.383668   0.2670051 
2463       105.3642   2.406242   0.2669157 
2463.2     104.9658   2.405456   0.286014  
2463.4     106.0269   2.401497   0.2949386 
2463.6     106.3399   2.385379   0.2959544 
2463.8     110.725    2.368539   0.2938955 
2464       115.9454   2.383005   0.2877193 
2464.2     120.6948   2.403137   0.2801887 
2464.4     121.675    2.397384   0.2781601 
2464.6     120.1859   2.400486   0.2824719 
2464.8     119.9318   2.388162   0.2732715 
2465       120.9474   2.37922    0.2514826 
2465.2     121.3027   2.356686   0.2414708 
2465.4     119.2345   2.350591   0.2492685 
2465.6     117.3875   2.350029   0.2888629 
2465.8     120.1204   2.336507   0.3194714 
2466       128.0047   2.341269   0.3174616 
2466.2     134.6951   2.342937   0.3336498 
2466.4     138.1743   2.330342   0.3565806 
2466.6     139.2074   2.311117   0.3497921 
2466.8     138.1605   2.285584   0.3261239 
2467       136.124    2.281703   0.3077096 
2467.2     131.7019   2.27279    0.2897392 
2467.4     126.3966   2.285277   0.2795908 
2467.6     120.5436   2.30453    0.2883629 
2467.8     114.1743   2.334042   0.3019433 
2468       115.3201   2.337295   0.3152388 
2468.2     126.7269   2.30916    0.3368471 
2468.4     137.3997   2.283023   0.3542494 
2468.6     135.9951   2.281724   0.3571224 
2468.8     124.6425   2.300213   0.3410288 
2469       110.5683   2.314667   0.3133406 
2469.2     97.59904   2.341964   0.3004301 
2469.4     94.15688   2.376593   0.3084922 
2469.6     98.91466   2.376603   0.3369054 
2469.8     107.6874   2.361644   0.3759365 
2470       119.9546   2.333174   0.3803112 
2470.2     134.977    2.320812   0.3622057 
2470.4     149.8598   2.313569   0.3722305 
2470.6     156.6653   2.309965   0.3825041 
2470.8     150.8531   2.291474   0.35987   
2471       140.1189   2.286515   0.3129984 
2471.2     130.0272   2.299388   0.2852333 
2471.4     118.1973   2.331159   0.2933693 
2471.6     109.9088   2.356611   0.3101389 
2471.8     113.8695   2.358839   0.3165439 
2472       124.6454   2.322591   0.305303  
2472.2     135.7953   2.304961   0.2885599 
2472.4     145.9815   2.312557   0.297694  
2472.6     158.8559   2.323058   0.3266188 
2472.8     178.8901   2.306077   0.3529804 
2473       194.2008   2.270569   0.341465  
2473.2     199.4342   2.254568   0.3188616 
2473.4     197.3679   2.246651   0.334937  
2473.6     192.5858   2.223935   0.3718599 
2473.8     194.1987   2.223825   0.4088402 
2474       205.1753   2.214566   0.4310651 
2474.2     212.3812   2.202829   0.4210066 
2474.4     204.009    2.192974   0.3948532 
2474.6     195.088    2.192388   0.3835919 
2474.8     201.4137   2.210916   0.3719878 
2475       211.3233   2.207422   0.35639   
2475.2     198.5401   2.174605   0.348522  
2475.4     168.3304   2.161351   0.3410435 
2475.6     142.307    2.222646   0.3335566 
2475.8     126.265    2.30708    0.3348484 
2476       115.9705   2.375227   0.3435747 
2476.2     111.7436   2.373502   0.3450862 
2476.4     112.8782   2.357417   0.3335989 
2476.6     113.5635   2.359403   0.3220745 
2476.8     113.3463   2.380062   0.3037201 
2477       113.4977   2.394814   0.2855223 
2477.2     113.823    2.391357   0.2826146 
2477.4     110.5106   2.400619   0.2811444 
2477.6     106.7556   2.420388   0.2739829 
2477.8     105.2366   2.422338   0.2665491 
2478       106.5292   2.433154   0.268709  
2478.2     116.7016   2.492881   0.2802811 
2478.4     131.0359   2.490088   0.286377  
2478.6     137.8298   2.455577   0.2749605 
2478.8     141.9071   2.450038   0.2710004 
2479       142.0222   2.443365   0.2811618 
2479.2     136.4959   2.466008   0.2733203 
2479.4     128.8543   2.488319   0.2629634 
2479.6     126.4768   2.480465   0.2794709 
2479.8     125.1991   2.455789   0.2885421 
2480       121.0788   2.43359    0.2812301 
2480.2     122.2679   2.419215   0.2975886 
2480.4     124.8623   2.429745   0.319692  
2480.6     123.7025   2.433629   0.325038  
2480.8     119.8075   2.421736   0.331597  
2481       118.1915   2.416718   0.3284252 
2481.2     120.1362   2.460902   0.3158993 
2481.4     123.7381   2.479428   0.2996407 
2481.6     127.5631   2.477931   0.2807662 
2481.8     130.9917   2.47884    0.2743812 
2482       131.5209   2.451395   0.2877069 
2482.2     129.0325   2.464929   0.3069178 
2482.4     128.4566   2.507322   0.3042493 
2482.6     129.0156   2.526431   0.295155  
2482.8     125.6547   2.504962   0.294661  
2483       121.2659   2.4918     0.2957784 
2483.2     118.1921   2.505836   0.2829877 
2483.4     117.4503   2.523543   0.267112  
2483.6     118.2715   2.506481   0.2698037 
2483.8     114.4198   2.470343   0.2801764 
2484       101.8417   2.451627   0.2814699 
2484.2     87.15519   2.489021   0.2792578 
2484.4     89.49765   2.521904   0.2827115 
2484.6     109.8329   2.534014   0.2848622 
2484.8     126.0822   2.508339   0.2883202 
2485       130.9862   2.460557   0.3062839 
2485.2     128.5528   2.455408   0.3380516 
2485.4     128.038    2.474448   0.3552568 
2485.6     126.4641   2.49644    0.3369482 
2485.8     121.299    2.499116   0.3076276 
2486       117.8821   2.521272   0.2855014 
2486.2     115.2076   2.51619    0.2679662 
2486.4     109.8148   2.529746   0.2731534 
2486.6     113.7623   2.536581   0.2976145 
2486.8     126.1544   2.566644   0.3191828 
2487       131.6349   2.588462   0.3241984 
2487.2     128.6315   2.555305   0.3138013 
2487.4     126.2504   2.539232   0.2943175 
2487.6     124.4317   2.523072   0.2742196 
2487.8     123.3481   2.498189   0.2734466 
2488       122.0049   2.478705   0.2786797 
2488.2     118.8606   2.437594   0.292389  
2488.4     117.161    2.436152   0.3062011 
2488.6     118.6351   2.452135   0.3065087 
2488.8     117.9139   2.497478   0.3005983 
2489       115.9351   2.501507   0.2810558 
