~Version
 VERS              .         2.0                           : CWLS LOG ASCII STANDARD - VERSION 2.0
 WRAP              .         NO                            : ONE LINE PER DEPTH STEP
 DLM               .         SPACE                         : DELIMITING CHARACTER(SPACE TAB OR COMMA)
~Well Information
#_______________________________________________________________________________
#
#PARAMETER_NAME    .UNIT     VALUE                         : DESCRIPTION
#_______________________________________________________________________________
STRT               .m        2490                          : First reference value
STOP               .m        2665.80000261962              : Last reference value
STEP               .m        0.2                           : Step increment
NULL               .         -9999                         : Missing value
COMP               .                                       : Company
WELL               .         404                           : Well name
FLD                .                                       : Field
LOC                .                                       : Location
CNTY               .                                       : County
STAT               .                                       : State
CTRY               .                                       : Country
SRVC               .                                       : Service Company
DATE               .                                       : Date
API                .                                       : API number
Cartographic_reference_system .         GCS_WGS_1984                  : GEOGCS["GCS_WGS_1984",DATUM["D_WGS_1984",SPHEROID["WGS_1984",6378137.0,298.257223563]],PRIMEM["Greenwich",0.0],UNIT["Degree",0.0174532925199433],AUTHORITY["EPSG",4326]]
EREF               .m        140.4                         : 
HZCS               .GCS_WGS_1984 World_Mercator                : PROJCS["World_Mercator",GEOGCS["GCS_WGS_1984",DATUM["D_WGS_1984",SPHEROID["WGS_1984",6378137.0,298.257223563]],PRIMEM["Greenwich",0.0],UNIT["Degree",0.0174532925199433]],PROJECTION["Mercator"],PARAMETER["False_Easting",0.0],PARAMETER["False_Northing",0.0],PARAMETER["Central_Meridian",0.0],PARAMETER["Standard_Parallel_1",0.0],UNIT["Meter",1.0],AUTHORITY["ESRI",54004]]
LATI               .dega     2.2605552291                  : GCS_WGS_1984
LONG               .dega     1.995158246                   : GCS_WGS_1984
PROJECT_UPGRADE_TIME .         2014-05-27T11_38_46           : 
Pad                .         Pad4                          : 
X                  .m        222100                        : 
Y                  .m        250025                        : 
group              .         Pad4                          : 
Интер-р            .         Зайцев                        : 
Куст               .         4                             : 
Статус             .         Не проверено                  : 
Тип                .         Разведка                      : 
~Parameter Information Block
#_______________________________________________________________________________
#
#PARAMETER_NAME    .UNIT     VALUE                         : DESCRIPTION
#_______________________________________________________________________________
SET                .         LQC                           : 
PROJECT_UPGRADE_TIME .         2014-05-27T11_38_46           : 
TLFamily_GR_NORM   .         Gamma Ray                     : 
TLFamily_MD        .         Measured Depth                : 
TLFamily_RHOB_NORM .         Bulk Density                  : 
TLFamily_TNPH_NORM .         Neutron Porosity              : 
~Curve Information
#_______________________________________________________________________________
#
#LOGNAME           .UNIT     LOG_ID                        : DESCRIPTION
#_______________________________________________________________________________
MD                 .m                                      :  
GR_NORM            .gAPI                                   : Normalised By Techlog 
RHOB_NORM          .g/cm3                                  : Normalized By Techlog 
TNPH_NORM          .v/v                                    : Normalised By Techlog 
~Ascii
# ...
2648.000002354383 83.20831   2.563217   0.2135883 
2648.200002357364 86.8026    2.565102   0.2222983 
2648.400002360344 87.18217   2.524256   0.2386293 
2648.600002363324 86.8026    2.479429   0.227742  
2648.800002366304 86.22163   2.520905   0.273469  
2649.000002369285 84.03716   2.557142   0.2614929 
2649.200002372265 79.55206   2.486552   0.3170186 
2649.400002375245 74.56344   2.392709   0.3507696 
2649.600002378225 77.5535    2.436907   0.3300835 
2649.800002381206 80.35767   2.517134   0.3148412 
2650.000002384186 82.94494   2.619145   0.3039537 
2650.200002387166 80.70626   2.446752   0.29851   
2650.400002390146 72.91348   2.488646   0.2386293 
2650.600002393126 62.93623   2.542061   0.2005235 
2650.800002396107 44.96481   2.452199   0.198346  
2651.000002399087 36.62204   2.461625   0.1820149 
2651.200002402067 33.5545    2.392919   0.2048784 
2651.400002405047 31.18413   2.210053   0.2299194 
2651.600002408028 34.87912   2.290279   0.2974213 
2651.800002411008 41.13039   2.448009   0.3562133 
2652.000002413988 48.89993   2.590867   0.4302476 
2652.200002416968 64.23761   2.509384   0.3431484 
2652.400002419949 81.99989   2.488018   0.3093974 
2652.600002422929 84.40125   2.527188   0.2963326 
2652.800002425909 77.52252   2.545412   0.2898001 
2653.000002428889 77.70069   2.46351    0.2680253 
2653.20000243187 79.03305   2.478173   0.2712916 
2653.40000243485 74.26907   2.472727   0.282179  
2653.60000243783 73.96697   2.423711   0.2364519 
2653.80000244081 66.20517   2.558818   0.2560492 
2654.00000244379 61.06163   2.54625    0.1907248 
2654.200002446771 56.11949   2.489693   0.1852811 
2654.400002449751 54.32234   2.499539   0.227742  
2654.600002452731 54.02023   2.658735   0.2027009 
2654.800002455711 60.9222    2.549602   0.1907248 
2655.000002458692 70.88394   2.514621   0.2114109 
2655.200002461672 74.02894   2.522789   0.2440731 
2655.400002464652 77.99505   2.557771   0.2789127 
2655.600002467632 81.9844    2.527188   0.2876227 
2655.800002470613 88.42157   2.400879   0.2647591 
2656.000002473593 86.3688    2.420569   0.2767352 
2656.200002476573 77.54577   2.612023   0.2364519 
2656.400002479553 68.95512   2.646167   0.2288307 
2656.600002482533 65.2059    2.499539   0.1994347 
2656.800002485514 59.78349   2.611814   0.193991  
2657.000002488494 61.61162   2.597989   0.1787487 
2657.200002491474 61.08487   2.55023    0.2266532 
2657.400002494454 60.55037   2.560284   0.2201208 
2657.600002497435 60.81375   2.689108   0.2266532 
2657.800002500415 63.85804   2.542689   0.2353631 
2658.000002503395 67.3129    2.44361    0.248428  
2658.200002506375 69.04032   2.37679    0.2963326 
2658.400002509356 75.06694   2.295935   0.2669366 
2658.600002512336 75.22187   2.395642   0.3431484 
2658.800002515316 65.79462   2.567825   0.2593154 
2659.000002518296 57.82367   2.557981   0.1700387 
2659.200002521276 53.29209   2.623125   0.1656838 
2659.400002524257 49.65132   2.553791   0.2027009 
2659.600002527237 51.39424   2.494511   0.2157658 
2659.800002530217 52.06817   2.534939   0.2386293 
2660.000002533197 52.83505   2.520066   0.2418956 
2660.200002536178 54.05897   2.495559   0.2299194 
2660.400002539158 56.72369   2.505194   0.2244757 
2660.600002542138 60.87572   2.561332   0.2397181 
2660.800002545118 65.22914   2.555257   0.2124996 
2661.000002548099 69.7065    2.654964   0.2473393 
2661.200002551079 70.58184   2.729954   0.2495168 
2661.400002554059 73.36276   2.616422   0.2299194 
2661.600002557039 79.94711   2.512735   0.2201208 
2661.800002560019 82.20905   2.762003   0.1972572 
2662.000002563 81.59708   2.639045   0.2898001 
2662.20000256598 78.86264   2.430623   0.3420596 
2662.40000256896 78.41335   2.477544   0.3529471 
2662.60000257194 78.83939   2.43984    0.3398822 
2662.800002574921 79.01756   2.50666    0.2898001 
2663.000002577901 78.99432   2.452408   0.3181074 
2663.200002580881 77.42957   2.527398   0.2854452 
2663.400002583861 80.66753   2.572853   0.2832677 
2663.600002586842 82.04636   2.366107   0.2974213 
2663.800002589822 81.26399   2.55421    0.3366159 
2664.000002592802 80.57457   2.514201   0.2887114 
2664.200002595782 85.06743   2.283157   0.2723803 
2664.400002598763 85.12165   2.386216   0.3235511 
2664.600002601743 83.09987   2.477963   0.2767352 
2664.800002604723 84.86602   2.340133   0.277824  
2665.000002607703 85.60966   2.415332   0.3093974 
2665.200002610683 82.75903   2.510012   0.3115749 
2665.400002613664 85.23785   2.580394   0.3115749 
2665.600002616644 87.81737   2.684081   0.2756465 
2665.800002619624 89.78493   2.665647   0.2647591 
