~Version
 VERS              .         2.0                           : CWLS LOG ASCII STANDARD - VERSION 2.0
 WRAP              .         NO                            : ONE LINE PER DEPTH STEP
 DLM               .         SPACE                         : DELIMITING CHARACTER(SPACE TAB OR COMMA)
~Well Information
#_______________________________________________________________________________
#
#PARAMETER_NAME    .UNIT     VALUE                         : DESCRIPTION
#_______________________________________________________________________________
STRT               .m        2490                          : First reference value
STOP               .m        2665.80000261962              : Last reference value
STEP               .m        0.2                           : Step increment
NULL               .         -9999                         : Missing value
COMP               .                                       : Company
WELL               .         404                           : Well name
FLD                .                                       : Field
LOC                .                                       : Location
CNTY               .                                       : County
STAT               .                                       : State
CTRY               .                                       : Country
SRVC               .                                       : Service Company
DATE               .                                       : Date
API                .                                       : API number
Cartographic_reference_system .         GCS_WGS_1984                  : GEOGCS["GCS_WGS_1984",DATUM["D_WGS_1984",SPHEROID["WGS_1984",6378137.0,298.257223563]],PRIMEM["Greenwich",0.0],UNIT["Degree",0.0174532925199433],AUTHORITY["EPSG",4326]]
EREF               .m        140.4                         : 
HZCS               .GCS_WGS_1984 World_Mercator                : PROJCS["World_Mercator",GEOGCS["GCS_WGS_1984",DATUM["D_WGS_1984",SPHEROID["WGS_1984",6378137.0,298.257223563]],PRIMEM["Greenwich",0.0],UNIT["Degree",0.0174532925199433]],PROJECTION["Mercator"],PARAMETER["False_Easting",0.0],PARAMETER["False_Northing",0.0],PARAMETER["Central_Meridian",0.0],PARAMETER["Standard_Parallel_1",0.0],UNIT["Meter",1.0],AUTHORITY["ESRI",54004]]
LATI               .dega     2.2605552291                  : GCS_WGS_1984
LONG               .dega     1.995158246                   : GCS_WGS_1984
PROJECT_UPGRADE_TIME .         2014-05-27T11_38_46           : 
Pad                .         Pad4                          : 
X                  .m        222100                        : 
Y                  .m        250025                        : 
group              .         Pad4                          : 
Интер-р            .         Зайцев                        : 
Куст               .         4                             : 
Статус             .         Не проверено                  : 
Тип                .         Разведка                      : 
~Parameter Information Block
#_______________________________________________________________________________
#
#PARAMETER_NAME    .UNIT     VALUE                         : DESCRIPTION
#_______________________________________________________________________________
SET                .         LQC                           : 
PROJECT_UPGRADE_TIME .         2014-05-27T11_38_46           : 
TLFamily_GR_NORM   .         Gamma Ray                     : 
TLFamily_MD        .         Measured Depth                : 
TLFamily_RHOB_NORM .         Bulk Density                  : 
TLFamily_TNPH_NORM .         Neutron Porosity              : 
~Curve Information
#_______________________________________________________________________________
#
#LOGNAME           .UNIT     LOG_ID                        : DESCRIPTION
#_______________________________________________________________________________
MD                 .m                                      :  
GR_NORM            .gAPI                                   : Normalised By Techlog 
RHOB_NORM          .g/cm3                                  : Normalized By Techlog 
TNPH_NORM          .v/v                                    : Normalised By Techlog 
~Ascii
# ...
2584.80000141263 107.6634   2.574738   0.3464146 
2585.00000141561 103.3332   2.535358   0.3442371 
2585.200001418591 102.1016   2.427272   0.3605683 
2585.400001421571 98.93331   2.408001   0.3366159 
2585.600001424551 101.5593   2.398575   0.3159299 
2585.800001427531 99.25091   2.339295   0.302865  
2586.000001430511 97.74038   2.330078   0.2723803 
2586.200001433492 101.11     2.408839   0.2429843 
2586.400001436472 100.01     2.393966   0.2320969 
2586.600001439452 102.0241   2.426643   0.2908889 
2586.800001442432 105.1691   2.517762   0.2952438 
2587.000001445413 105.6958   2.580603   0.2375406 
2587.200001448393 104.6966   2.569082   0.2320969 
2587.400001451373 105.7965   2.554419   0.227742  
2587.600001454353 104.2473   2.592752   0.1896361 
2587.800001457334 103.4649   2.514201   0.1678613 
2588.000001460314 108.3141   2.539966   0.1373765 
2588.200001463294 109.7239   2.60951    0.1047143 
2588.400001466274 92.36445   2.575576   0.1003594 
2588.600001469254 60.6046    2.535358   0.08511701
2588.800001472235 46.68449   2.554001   0.09927063
2589.000001475215 44.50003   2.535567   0.1351991 
2589.200001478195 46.09577   2.473145   0.1831036 
2589.400001481175 39.24029   2.379932   0.1776599 
2589.600001484156 32.38481   2.488437   0.1602401 
2589.800001487136 34.59251   2.418265   0.1787487 
2590.000001490116 33.4538    2.451989   0.1907248 
2590.200001493096 35.0263    2.474193   0.1972572 
2590.400001496077 37.83046   2.439631   0.16895   
2590.600001499057 35.13475   2.479848   0.1504414 
2590.800001502037 37.8537    2.484247   0.1591513 
2591.000001505017 37.92342   2.50687    0.1809261 
2591.200001507998 34.68546   2.53452    0.1929023 
2591.400001510978 33.34535   2.575576   0.1852811 
2591.600001513958 34.57701   2.622706   0.1635063 
2591.800001516938 35.8474    2.596104   0.173305  
2592.000001519918 35.50657   2.500586   0.1798374 
2592.200001522899 33.79464   2.493464   0.1722162 
2592.400001525879 34.80165   2.453665   0.1667725 
2592.600001528859 34.78616   2.374486   0.1656838 
2592.800001531839 34.72419   2.34893    0.1831036 
2593.00000153482 35.25869   2.401717   0.1950798 
2593.2000015378 37.07907   2.424549   0.2048784 
2593.40000154078 37.99313   2.452617   0.1918135 
2593.60000154376 38.20228   2.588353   0.1504414 
2593.800001546741 35.7622    2.636112   0.1820149 
2594.000001549721 34.00378   2.457226   0.1863698 
2594.200001552701 35.57629   2.432928   0.1994347 
2594.400001555681 35.75445   2.480477   0.1863698 
2594.600001558661 38.31848   2.469166   0.1841923 
2594.800001561642 42.31557   2.495559   0.1831036 
2595.000001564622 41.97474   2.446962   0.1700387 
2595.200001567602 40.62688   2.377628   0.1591513 
2595.400001570582 41.72685   2.357519   0.1624176 
2595.600001573563 38.1713    2.40444    0.1678613 
2595.800001576543 38.44242   2.486342   0.1580626 
2596.000001579523 39.48043   2.512316   0.1449977 
2596.200001582503 38.95367   2.47922    0.1373765 
2596.400001585484 42.20712   2.469375   0.143909  
2596.600001588464 41.45573   2.463929   0.1504414 
2596.800001591444 42.90429   2.542689   0.1351991 
2597.000001594424 42.82683   2.641349   0.1373765 
2597.200001597404 43.3071    2.551277   0.1678613 
2597.400001600385 47.73799   2.493464   0.1765712 
2597.600001603365 48.07108   2.501005   0.2201208 
2597.800001606345 49.67456   2.440887   0.198346  
2598.000001609325 47.14152   2.431671   0.1929023 
2598.200001612306 48.226     2.479639   0.193991  
2598.400001615286 45.081     2.529493   0.2114109 
2598.600001618266 47.8077    2.520066   0.1841923 
2598.800001621246 45.43733   2.562379   0.1852811 
2599.000001624227 38.9924    2.556724   0.1809261 
2599.200001627207 36.77697   2.456179   0.1765712 
2599.400001630187 37.59032   2.610766   0.1754824 
2599.600001633167 35.4446    2.587934   0.2016122 
2599.800001636147 35.30517   2.450732   0.2081446 
2600.000001639128 38.11707   2.574528   0.2201208 
2600.200001642108 39.58113   2.539128   0.2005235 
2600.400001645088 42.49374   2.563846   0.1776599 
2600.600001648068 45.02678   2.610766   0.1667725 
2600.800001651049 43.09795   2.485504   0.1700387 
2601.000001654029 42.16839   2.555467   0.1722162 
2601.200001657009 44.52327   2.479429   0.1820149 
2601.400001659989 45.41409   2.380141   0.2255645 
2601.60000166297 45.80141   2.54646    0.2353631 
2601.80000166595 42.11417   2.67256    0.2222983 
2602.00000166893 39.29451   2.748388   0.219032  
2602.20000167191 40.30928   2.528445   0.2048784 
2602.400001674891 43.22963   2.546669   0.1961685 
2602.600001677871 42.92753   2.490112   0.2179433 
2602.800001680851 46.69223   2.344951   0.2266532 
2603.000001683831 52.409     2.347045   0.2124996 
2603.200001686811 60.74403   2.384331   0.2146771 
2603.400001689792 67.63049   2.446543   0.2201208 
2603.600001692772 74.56344   2.398993   0.2048784 
2603.800001695752 80.4119    2.385797   0.2005235 
2604.000001698732 74.78808   2.546879   0.219032  
2604.200001701713 72.61911   2.536615   0.2386293 
2604.400001704693 71.61984   2.612233   0.2310082 
2604.600001707673 76.80987   2.616632   0.2462505 
2604.800001710653 70.32621   2.552325   0.2418956 
2605.000001713634 69.14877   2.446752   0.2386293 
2605.200001716614 71.85998   2.393757   0.2408068 
2605.400001719594 77.34436   2.433137   0.2168546 
2605.600001722574 76.91057   2.431461   0.2658479 
2605.800001725554 73.57966   2.536824   0.2266532 
2606.000001728535 75.09019   2.523208   0.219032  
2606.200001731515 80.14078   2.517762   0.2386293 
2606.400001734495 81.00062   2.616003   0.2429843 
2606.600001737475 72.27827   2.658525   0.2168546 
2606.800001740456 56.70046   2.530959   0.2222983 
2607.000001743436 53.75686   2.385378   0.2386293 
2607.200001746416 50.29427   2.465186   0.2168546 
2607.400001749396 45.60775   2.590867   0.223387  
2607.600001752377 44.09722   2.550649   0.2255645 
2607.800001755357 46.73871   2.442773   0.193991  
2608.000001758337 51.4717    2.49116    0.1961685 
2608.200001761317 56.86313   2.580813   0.2179433 
2608.400001764297 67.38261   2.527398   0.2124996 
2608.600001767278 79.90064   2.468118   0.2832677 
2608.800001770258 94.15385   2.066985   0.2680253 
2609.000001773238 104.1853   1.633175   0.3366159 
2609.200001776218 102.8065   1.762837   0.2963326 
2609.400001779199 100.5213   1.711517   0.227742  
2609.600001782179 97.6087    2.094426   0.2179433 
2609.800001785159 98.73965   2.235817   0.302865  
2610.000001788139 96.19112   2.362127   0.2865339 
2610.20000179112 102.9304   2.425386   0.2658479 
2610.4000017941 102.3649   2.390824   0.2429843 
2610.60000179708 92.68204   2.477544   0.2375406 
2610.80000180006 86.69415   2.490741   0.2495168 
2611.000001803041 81.93792   2.530121   0.2037897 
2611.200001806021 76.29861   2.474402   0.2288307 
2611.400001809001 69.53609   2.594009   0.2832677 
2611.600001811981 71.64308   2.529912   0.282179  
2611.800001814961 73.85853   2.492626   0.2582267 
2612.000001817942 68.38963   2.458064   0.2516942 
2612.200001820922 61.69682   2.410305   0.2451618 
2612.400001823902 61.24754   2.417846   0.2680253 
2612.600001826882 56.63849   2.439631   0.2397181 
2612.800001829863 54.00474   2.414494   0.2331856 
2613.000001832843 48.35769   2.445705   0.1972572 
2613.200001835823 48.56684   2.541852   0.2092334 
2613.400001838803 49.86047   2.556304   0.2081446 
2613.600001841784 50.17807   2.508546   0.198346  
2613.800001844764 57.04905   2.4124     0.1950798 
2614.000001847744 67.42908   2.419102   0.2092334 
2614.200001850724 80.32669   2.571177   0.2255645 
2614.400001853704 78.44434   2.654755   0.2342744 
2614.600001856685 79.19572   2.634646   0.2353631 
2614.800001859665 79.37389   2.593171   0.2756465 
2615.000001862645 78.66898   2.509803   0.282179  
2615.200001865625 87.1202    2.546669   0.2712916 
2615.400001868606 88.63847   2.597151   0.3061312 
2615.600001871586 89.28916   2.557142   0.2854452 
2615.800001874566 91.86868   2.426643   0.2832677 
2616.000001877546 89.46732   2.495977   0.252783  
2616.200001880527 85.77234   2.583955   0.2212095 
