~Version
 VERS              .         2.0                           : CWLS LOG ASCII STANDARD - VERSION 2.0
 WRAP              .         NO                            : ONE LINE PER DEPTH STEP
 DLM               .         SPACE                         : DELIMITING CHARACTER(SPACE TAB OR COMMA)
~Well Information
#_______________________________________________________________________________
#
#PARAMETER_NAME    .UNIT     VALUE                         : DESCRIPTION
#_______________________________________________________________________________
STRT               .m        2490                          : First reference value
STOP               .m        2665.80000261962              : Last reference value
STEP               .m        0.2                           : Step increment
NULL               .         -9999                         : Missing value
COMP               .                                       : Company
WELL               .         404                           : Well name
FLD                .                                       : Field
LOC                .                                       : Location
CNTY               .                                       : County
STAT               .                                       : State
CTRY               .                                       : Country
SRVC               .                                       : Service Company
DATE               .                                       : Date
API                .                                       : API number
Cartographic_reference_system .         GCS_WGS_1984                  : GEOGCS["GCS_WGS_1984",DATUM["D_WGS_1984",SPHEROID["WGS_1984",6378137.0,298.257223563]],PRIMEM["Greenwich",0.0],UNIT["Degree",0.0174532925199433],AUTHORITY["EPSG",4326]]
EREF               .m        140.4                         : 
HZCS               .GCS_WGS_1984 World_Mercator                : PROJCS["World_Mercator",GEOGCS["GCS_WGS_1984",DATUM["D_WGS_1984",SPHEROID["WGS_1984",6378137.0,298.257223563]],PRIMEM["Greenwich",0.0],UNIT["Degree",0.0174532925199433]],PROJECTION["Mercator"],PARAMETER["False_Easting",0.0],PARAMETER["False_Northing",0.0],PARAMETER["Central_Meridian",0.0],PARAMETER["Standard_Parallel_1",0.0],UNIT["Meter",1.0],AUTHORITY["ESRI",54004]]
LATI               .dega     2.2605552291                  : GCS_WGS_1984
LONG               .dega     1.995158246                   : GCS_WGS_1984
PROJECT_UPGRADE_TIME .         2014-05-27T11_38_46           : 
Pad                .         Pad4                          : 
X                  .m        222100                        : 
Y                  .m        250025                        : 
group              .         Pad4                          : 
Интер-р            .         Зайцев                        : 
Куст               .         4                             : 
Статус             .         Не проверено                  : 
Тип                .         Разведка                      : 
~Parameter Information Block
#_______________________________________________________________________________
#
#PARAMETER_NAME    .UNIT     VALUE                         : DESCRIPTION
#_______________________________________________________________________________
SET                .         LQC                           : 
PROJECT_UPGRADE_TIME .         2014-05-27T11_38_46           : 
TLFamily_GR_NORM   .         Gamma Ray                     : 
TLFamily_MD        .         Measured Depth                : 
TLFamily_RHOB_NORM .         Bulk Density                  : 
TLFamily_TNPH_NORM .         Neutron Porosity              : 
~Curve Information
#_______________________________________________________________________________
#
#LOGNAME           .UNIT     LOG_ID                        : DESCRIPTION
#_______________________________________________________________________________
MD                 .m                                      :  
GR_NORM            .gAPI                                   : Normalised By Techlog 
RHOB_NORM          .g/cm3                                  : Normalized By Techlog 
TNPH_NORM          .v/v                                    : Normalised By Techlog 
~Ascii
# ...
2553.200000941753 239.1956   2.190781   0.3224624 
2553.400000944734 235.9344   2.213823   0.3093974 
2553.600000947714 228.3973   2.150564   0.3235511 
2553.800000950694 221.1545   2.285043   0.382343  
2554.000000953674 197.7374   2.480268   0.3975854 
2554.200000956655 175.3351   2.334058   0.3594795 
2554.400000959635 174.1112   2.258021   0.3126637 
2554.600000962615 179.4174   2.243568   0.3899642 
2554.800000965595 181.1139   2.27415    0.4335138 
2555.000000968575 177.8372   2.271427   0.3997629 
2555.200000971556 175.3506   2.359404   0.3747219 
2555.400000974536 168.5184   2.355005   0.3475033 
2555.600000977516 148.7653   2.261372   0.357302  
2555.800000980496 132.9551   2.205863   0.3355272 
2556.000000983477 120.6075   2.382446   0.3224624 
2556.200000986457 116.0526   2.414913   0.2702028 
2556.400000989437 120.6617   2.453874   0.2832677 
2556.600000992417 119.5772   2.437326   0.2898001 
2556.800000995398 124.7285   2.458273   0.3442371 
2557.000000998378 134.179    2.429366   0.327906  
2557.200001001358 133.598    2.375742   0.3768993 
2557.400001004338 128.0129   2.399622   0.3333497 
2557.600001007318 123.9849   2.445496   0.3268173 
2557.800001010299 121.9476   2.393966   0.3300835 
2558.000001013279 124.9841   2.202512   0.3246398 
2558.200001016259 130.1664   2.226182   0.3202849 
2558.400001019239 117.9892   2.276664   0.2963326 
2558.60000102222 112.6675   2.37281    0.282179  
2558.8000010252 105.4015   2.268075   0.2549605 
2559.00000102818 97.33757   2.384959   0.2516942 
2559.20000103116 94.28552   2.39627    0.277824  
2559.400001034141 94.28552   2.37658    0.2756465 
2559.600001037121 95.16087   2.41994    0.30722   
2559.800001040101 92.69753   2.553372   0.2908889 
2560.000001043081 94.10736   2.540804   0.2843564 
2560.200001046062 97.81784   2.414704   0.2647591 
2560.400001049042 95.22283   2.338457   0.2669366 
2560.600001052022 97.2756    2.185335   0.2865339 
2560.800001055002 98.36783   2.213404   0.2876227 
2561.000001057982 99.31287   2.225344   0.2614929 
2561.200001060963 107.8803   2.289022   0.2789127 
2561.400001063943 113.2098   2.278968   0.2995988 
2561.600001066923 115.6111   2.283366   0.2995988 
2561.800001069903 106.4705   2.466652   0.257138  
2562.000001072884 102.822    2.380979   0.2963326 
2562.200001075864 104.9754   2.280434   0.3377047 
2562.400001078844 110.6225   2.276454   0.3442371 
2562.600001081824 114.5344   2.210891   0.3377047 
2562.800001084805 115.3632   2.313321   0.332261  
2563.000001087785 120.437    2.263467   0.3856093 
2563.200001090765 123.675    2.366945   0.3137524 
2563.400001093745 120.9638   2.444658   0.29851   
2563.600001096725 121.6455   2.439212   0.2386293 
2563.800001099706 112.9154   2.29405    0.2810902 
2564.000001102686 104.8825   2.217803   0.3583907 
2564.200001105666 105.0296   2.321699   0.3681894 
2564.400001108646 110.15     2.309969   0.3747219 
2564.600001111627 113.0936   2.278549   0.3377047 
2564.800001114607 112.5823   2.35312    0.2614929 
2565.000001117587 107.3845   2.414913   0.2418956 
2565.200001120567 98.15093   2.405906   0.3224624 
2565.400001123548 90.44336   2.448638   0.3104862 
2565.600001126528 94.09187   2.421197   0.302865  
2565.800001129508 94.59538   2.218431   0.332261  
2566.000001132488 104.7818   2.179889   0.3475033 
2566.200001135468 119.0505   2.348721   0.2952438 
2566.400001138449 130.5615   2.350187   0.3137524 
2566.600001141429 130.8016   2.43984    0.3398822 
2566.800001144409 129.7249   2.406744   0.2876227 
2567.000001147389 119.7554   2.373019   0.2963326 
2567.20000115037 113.1013   2.30976    0.3387934 
2567.40000115335 101.048    2.356052   0.3594795 
2567.60000115633 96.88828   2.382026   0.3605683 
2567.80000115931 100.2579   2.334896   0.3681894 
2568.000001162291 105.6106   2.382236   0.4030291 
2568.200001165271 118.2991   2.376161   0.3692782 
2568.400001168251 125.5806   2.359404   0.3104862 
2568.600001171231 140.7866   2.465814   0.327906  
2568.800001174212 160.2763   2.391453   0.3300835 
2569.000001177192 169.355    2.296563   0.3246398 
2569.200001180172 170.3387   2.260744   0.2952438 
2569.400001183152 162.4995   2.228905   0.2898001 
2569.600001186132 162.0889   2.129826   0.2712916 
2569.800001189113 165.0093   2.110345   0.2865339 
2570.000001192093 174.0957   2.286299   0.3660119 
2570.200001195073 174.5218   2.188059   0.3888755 
2570.400001198053 162.1432   2.151192   0.4226264 
2570.600001201034 169.355    2.216965   0.4541999 
2570.800001204014 184.2046   2.21487    0.386698  
2571.000001206994 173.2281   2.357728   0.3475033 
2571.200001209974 145.0083   2.280434   0.4052066 
2571.400001212955 132.591    2.271636   0.407384  
2571.600001215935 122.5131   2.282948   0.3932304 
2571.800001218915 114.9837   2.267237   0.3006876 
2572.000001221895 101.3811   2.385797   0.3050425 
2572.200001224875 101.2107   2.418474   0.3213736 
2572.400001227856 101.5826   2.431042   0.3224624 
2572.600001230836 98.72417   2.302638   0.2843564 
2572.800001233816 98.71642   2.273312   0.2865339 
2573.000001236796 100.1417   2.422873   0.2691141 
2573.200001239777 100.4981   2.461206   0.2647591 
2573.400001242757 105.0839   2.502471   0.2614929 
2573.600001245737 107.2064   2.639673   0.2865339 
2573.800001248717 108.8718   2.511478   0.2995988 
2574.000001251698 119.4223   2.467699   0.282179  
2574.200001254678 126.2468   2.524256   0.2625816 
2574.400001257658 127.4629   2.520066   0.2408068 
2574.600001260638 128.315    2.454084   0.2767352 
2574.800001263618 122.6293   2.458902   0.2995988 
2575.000001266599 112.7295   2.404649   0.3453259 
2575.200001269579 112.9696   2.284624   0.3496808 
2575.400001272559 115.3322   2.306199   0.3355272 
2575.600001275539 118.8568   2.398575   0.2952438 
2575.80000127852 110.0725   2.50687    0.252783  
2576.0000012815 108.2986   2.510222   0.2723803 
2576.20000128448 103.4107   2.457435   0.2919776 
2576.40000128746 98.25938   2.525722   0.2854452 
2576.600001290441 99.83189   2.551487   0.3126637 
2576.800001293421 101.5051   2.394385   0.3246398 
2577.000001296401 102.1868   2.368411   0.3213736 
2577.200001299381 104.8747   2.426434   0.3398822 
2577.400001302361 111.1182   2.433766   0.2974213 
2577.600001305342 110.2584   2.381608   0.3714556 
2577.800001308322 109.8091   2.571386   0.3758106 
2578.000001311302 106.85     2.49891    0.3725443 
2578.200001314282 104.5726   2.361708   0.3366159 
2578.400001317263 107.1599   2.241054   0.273469  
2578.600001320243 110.3746   2.618098   0.2712916 
2578.800001323223 108.7789   2.541013   0.2745578 
2579.000001326203 105.2156   2.580184   0.2375406 
2579.200001329184 90.24196   2.583326   0.2473393 
2579.400001332164 72.94447   2.614537   0.2495168 
2579.600001335144 76.59297   2.513573   0.2887114 
2579.800001338124 96.99673   2.477963   0.3191961 
2580.000001341105 111.1028   2.500167   0.2625816 
2580.200001344085 114.0696   2.55819    0.2614929 
2580.400001347065 112.8147   2.68827    0.2930664 
2580.600001350045 115.3865   2.600921   0.3093974 
2580.800001353025 113.7752   2.468328   0.3235511 
2581.000001356006 112.195    2.403183   0.3409709 
2581.200001358986 112.3964   2.49116    0.3377047 
2581.400001361966 107.9578   2.531588   0.3594795 
2581.600001364946 112.2415   2.395433   0.3638344 
2581.800001367927 118.911    2.374905   0.3224624 
2582.000001370907 113.8372   2.415332   0.391053  
2582.200001373887 109.507    2.411771   0.3551245 
2582.400001376867 104.5339   2.420778   0.3137524 
2582.600001379848 102.2875   2.498492   0.3224624 
2582.800001382828 103.9452   2.565102   0.3050425 
2583.000001385808 104.4177   2.531378   0.2680253 
2583.200001388788 105.0219   2.454922   0.2887114 
2583.400001391768 107.2528   2.411981   0.3529471 
2583.600001394749 106.6951   2.40821    0.3551245 
2583.800001397729 101.7917   2.462881   0.3420596 
2584.000001400709 102.5741   2.504775   0.3398822 
2584.200001403689 105.7501   2.507079   0.3050425 
2584.40000140667 106.5092   2.519648   0.3017763 
2584.60000140965 104.9444   2.528236   0.3202849 
