~Version
 VERS              .         2.0                           : CWLS LOG ASCII STANDARD - VERSION 2.0
 WRAP              .         NO                            : ONE LINE PER DEPTH STEP
 DLM               .         SPACE                         : DELIMITING CHARACTER(SPACE TAB OR COMMA)
~Well Information
#_______________________________________________________________________________
#
#PARAMETER_NAME    .UNIT     VALUE                         : DESCRIPTION
#_______________________________________________________________________________
STRT               .m        2490                          : First reference value
STOP               .m        2665.80000261962              : Last reference value
STEP               .m        0.2                           : Step increment
NULL               .         -9999                         : Missing value
COMP               .                                       : Company
WELL               .         404                           : Well name
FLD                .                                       : Field
LOC                .                                       : Location
CNTY               .                                       : County
STAT               .                                       : State
CTRY               .                                       : Country
SRVC               .                                       : Service Company
DATE               .                                       : Date
API                .                                       : API number
Cartographic_reference_system .         GCS_WGS_1984                  : GEOGCS["GCS_WGS_1984",DATUM["D_WGS_1984",SPHEROID["WGS_1984",6378137.0,298.257223563]],PRIMEM["Greenwich",0.0],UNIT["Degree",0.0174532925199433],AUTHORITY["EPSG",4326]]
EREF               .m        140.4                         : 
HZCS               .GCS_WGS_1984 World_Mercator                : PROJCS["World_Mercator",GEOGCS["GCS_WGS_1984",DATUM["D_WGS_1984",SPHEROID["WGS_1984",6378137.0,298.257223563]],PRIMEM["Greenwich",0.0],UNIT["Degree",0.0174532925199433]],PROJECTION["Mercator"],PARAMETER["False_Easting",0.0],PARAMETER["False_Northing",0.0],PARAMETER["Central_Meridian",0.0],PARAMETER["Standard_Parallel_1",0.0],UNIT["Meter",1.0],AUTHORITY["ESRI",54004]]
LATI               .dega     2.2605552291                  : GCS_WGS_1984
LONG               .dega     1.995158246                   : GCS_WGS_1984
PROJECT_UPGRADE_TIME .         2014-05-27T11_38_46           : 
Pad                .         Pad4                          : 
X                  .m        222100                        : 
Y                  .m        250025                        : 
group              .         Pad4                          : 
Интер-р            .         Зайцев                        : 
Куст               .         4                             : 
Статус             .         Не проверено                  : 
Тип                .         Разведка                      : 
~Parameter Information Block
#_______________________________________________________________________________
#
#PARAMETER_NAME    .UNIT     VALUE                         : DESCRIPTION
#_______________________________________________________________________________
SET                .         LQC                           : 
PROJECT_UPGRADE_TIME .         2014-05-27T11_38_46           : 
TLFamily_GR_NORM   .         Gamma Ray                     : 
TLFamily_MD        .         Measured Depth                : 
TLFamily_RHOB_NORM .         Bulk Density                  : 
TLFamily_TNPH_NORM .         Neutron Porosity              : 
~Curve Information
#_______________________________________________________________________________
#
#LOGNAME           .UNIT     LOG_ID                        : DESCRIPTION
#_______________________________________________________________________________
MD                 .m                                      :  
GR_NORM            .gAPI                                   : Normalised By Techlog 
RHOB_NORM          .g/cm3                                  : Normalized By Techlog 
TNPH_NORM          .v/v                                    : Normalised By Techlog 
~Ascii
2490.0     54.98852   -9999      0.3093974 
2490.20000000298 58.45887   -9999      0.3126637 
2490.40000000596 58.97013   -9999      0.3366159 
2490.600000008941 54.04348   -9999      0.332261  
2490.800000011921 52.6259    -9999      0.30722   
2491.000000014901 53.50898   -9999      0.2723803 
2491.200000017881 54.78712   -9999      0.2832677 
2491.400000020862 52.07592   -9999      0.3137524 
2491.600000023842 46.49083   -9999      0.3093974 
2491.800000026822 44.75566   -9999      0.2941551 
2492.000000029802 43.7254    -9999      0.2843564 
2492.200000032783 45.41409   -9999      0.3181074 
2492.400000035763 46.17323   -9999      0.361657  
2492.600000038743 44.65495   -9999      0.30722   
2492.800000041723 45.55353   -9999      0.277824  
2493.000000044703 45.78592   -9999      0.2691141 
2493.200000047684 45.76268   -9999      0.2582267 
2493.400000050664 47.81545   -9999      0.2658479 
2493.600000053644 49.05486   -9999      0.2266532 
2493.800000056624 51.51818   -9999      0.2669366 
2494.000000059605 48.98514   -9999      0.2451618 
2494.200000062585 48.65979   -9999      0.2462505 
2494.400000065565 47.31968   -9999      0.2473393 
2494.600000068545 49.93019   -9999      0.2168546 
2494.800000071526 49.55062   -9999      0.2124996 
2495.000000074506 50.81327   -9999      0.2244757 
2495.200000077486 46.9711    -9999      0.2103221 
2495.400000080466 47.13377   -9999      0.2070559 
2495.600000083447 45.80915   -9999      0.223387  
2495.800000086427 42.72612   -9999      0.2451618 
2496.000000089407 38.87621   -9999      0.2919776 
2496.200000092387 35.57629   -9999      0.2908889 
2496.400000095367 40.63462   -9999      0.2832677 
2496.600000098348 52.57943   -9999      0.2582267 
2496.800000101328 76.78662   -9999      0.2288307 
2497.000000104308 82.84424   -9999      0.2440731 
2497.200000107288 80.63654   -9999      0.2789127 
2497.400000110269 81.80624   -9999      0.2408068 
2497.600000113249 82.20905   -9999      0.1961685 
2497.800000116229 77.80139   -9999      0.1635063 
2498.000000119209 74.37753   -9999      0.1482639 
2498.20000012219 68.28893   -9999      0.1722162 
2498.40000012517 67.98682   -9999      0.2114109 
2498.60000012815 72.40221   2.5186     0.2310082 
2498.80000013113 75.98875   2.5186     0.2353631 
2499.00000013411 77.35986   2.521952   0.198346  
2499.200000137091 73.19234   2.591496   0.1950798 
2499.400000140071 66.10447   2.638626   0.164595  
2499.600000143051 56.52229   2.541642   0.1460865 
2499.800000146031 45.081     2.589191   0.114513  
2500.000000149012 42.28459   2.520276   0.1112468 
2500.200000151992 44.08947   2.634646   0.1199567 
2500.400000154972 44.21341   2.572224   0.1210454 
2500.600000157952 45.60001   2.41219    0.1243117 
2500.800000160933 44.73242   2.544993   0.198346  
2501.000000163913 49.67456   2.561332   0.2201208 
2501.200000166893 50.1316    2.517343   0.2016122 
2501.400000169873 54.80262   2.543946   0.2092334 
2501.600000172853 60.02362   2.603645   0.2157658 
2501.800000175834 63.23059   2.560913   0.2386293 
2502.000000178814 71.11633   2.591914   0.2310082 
2502.200000181794 80.3112    2.54248    0.2429843 
2502.400000184774 84.95898   2.444658   0.252783  
2502.600000187755 89.20396   2.418893   0.223387  
2502.800000190735 90.82293   2.500586   0.2070559 
2503.000000193715 88.58425   2.569292   0.2037897 
2503.200000196695 85.52446   2.618308   0.2462505 
2503.400000199676 85.98924   2.608881   0.2506055 
2503.600000202656 86.02796   2.442563   0.2418956 
2503.800000205636 84.8118    2.307875   0.2179433 
2504.000000208616 85.55544   2.501214   0.1874586 
2504.200000211596 89.17297   2.485713   0.173305  
2504.400000214577 90.35815   2.410095   0.1874586 
2504.600000217557 90.09478   2.541642   0.16895   
2504.800000220537 86.89555   2.375533   0.1667725 
2505.000000223517 78.11899   2.451989   0.2005235 
2505.200000226498 80.89217   2.480477   0.1809261 
2505.400000229478 80.69851   2.460577   0.1776599 
2505.600000232458 81.06258   2.537034   0.2201208 
2505.800000235438 79.19572   2.56992    0.2059672 
2506.000000238419 78.53728   2.604273   0.2179433 
2506.200000241399 74.76484   2.584164   0.2331856 
2506.400000244379 77.29014   2.42413    0.2103221 
2506.600000247359 89.28141   2.472517   0.2048784 
2506.80000025034 94.15385   2.361289   0.2397181 
2507.00000025332 90.45885   2.307665   0.2331856 
2507.2000002563 95.12988   2.440049   0.2037897 
2507.40000025928 92.89893   2.58165    0.1896361 
2507.60000026226 93.44893   2.463929   0.2103221 
2507.800000265241 89.18072   2.522371   0.2255645 
2508.000000268221 81.00836   2.501424   0.2157658 
2508.200000271201 71.52689   2.420359   0.227742  
2508.400000274181 61.68133   2.530959   0.2157658 
2508.600000277162 58.70675   2.592124   0.2114109 
2508.800000280142 57.80818   2.446333   0.2310082 
2509.000000283122 58.37366   2.460368   0.2418956 
2509.200000286102 60.1708    2.481943   0.2429843 
2509.400000289083 65.1052    2.468746   0.2266532 
2509.600000292063 69.67552   2.449057   0.2157658 
2509.800000295043 72.37123   2.48697    0.2429843 
2510.000000298023 70.17128   2.433137   0.2549605 
2510.200000301003 69.43539   2.507708   0.2320969 
2510.400000303984 66.21292   2.429785   0.1961685 
2510.600000306964 60.13207   2.40821    0.2081446 
2510.800000309944 58.70675   2.495559   0.1787487 
2511.000000312924 60.78276   2.501842   0.1874586 
2511.200000315905 64.12917   2.576623   0.2070559 
2511.400000318885 60.21728   2.673817   0.2048784 
2511.600000321865 53.13716   2.543527   0.2320969 
2511.800000324845 51.29354   2.504357   0.248428  
2512.000000327826 52.54844   2.566568   0.2549605 
2512.200000330806 47.87741   2.700838   0.227742  
2512.400000333786 46.44435   2.64889    0.1754824 
2512.600000336766 50.58863   2.684709   0.1776599 
2512.800000339746 52.93576   2.732887   0.1929023 
2513.000000342727 55.68569   2.46351    0.1972572 
2513.200000345707 61.44894   2.482362   0.1885473 
2513.400000348687 69.83044   2.390824   0.2059672 
2513.600000351667 74.16838   2.44382    0.1863698 
2513.800000354648 81.11681   2.496606   0.198346  
2514.000000357628 90.73772   2.59359    0.2157658 
2514.200000360608 96.73336   2.549183   0.2179433 
2514.400000363588 92.48839   2.535777   0.2462505 
2514.600000366569 88.08849   2.462253   0.2353631 
2514.800000369549 88.08849   2.47147    0.1885473 
2515.000000372529 84.66462   2.494511   0.1831036 
2515.200000375509 76.67818   2.571177   0.1711275 
2515.400000378489 67.62275   2.640302   0.198346  
2515.60000038147 58.68351   2.575157   0.1820149 
2515.80000038445 58.67577   2.453037   0.1700387 
2516.00000038743 60.34122   2.43586    0.1874586 
2516.20000039041 65.91856   2.508546   0.2103221 
2516.400000393391 72.17758   2.498492   0.2005235 
2516.600000396371 77.65421   2.40025    0.1896361 
2516.800000399351 79.24995   2.427481   0.1896361 
2517.000000402331 79.91613   2.514621   0.1787487 
2517.200000405312 81.66679   2.51085    0.1874586 
2517.400000408292 76.90282   2.56196    0.193991  
2517.600000411272 66.54601   2.637578   0.1885473 
2517.800000414252 64.64817   2.503099   0.1841923 
2518.000000417233 60.56586   2.572853   0.1874586 
2518.200000420213 57.3589    2.574948   0.1809261 
2518.400000423193 54.68642   2.512526   0.1994347 
2518.600000426173 56.35188   2.489903   0.1656838 
2518.800000429153 56.42159   2.408839   0.1678613 
2519.000000432134 55.50753   2.493255   0.1896361 
2519.200000435114 54.02798   2.695602   0.1863698 
2519.400000438094 53.53997   2.677168   0.16895   
2519.600000441074 54.26037   2.505613   0.1874586 
2519.800000444055 50.77454   2.517972   0.2288307 
2520.000000447035 54.07446   2.560494   0.2331856 
2520.200000450015 57.06454   2.428529   0.2081446 
2520.400000452995 61.01515   2.526979   0.2037897 
2520.600000455976 63.2151    2.557981   0.1863698 
2520.800000458956 66.6777    2.579765   0.1896361 
2521.000000461936 70.29523   2.473774   0.2081446 
2521.200000464916 70.84521   2.406535   0.2103221 
2521.400000467896 72.91348   2.571177   0.2124996 
