~Version
 VERS              .         2.0                           : CWLS LOG ASCII STANDARD - VERSION 2.0
 WRAP              .         NO                            : ONE LINE PER DEPTH STEP
 DLM               .         SPACE                         : DELIMITING CHARACTER(SPACE TAB OR COMMA)
~Well Information
#_______________________________________________________________________________
#
#PARAMETER_NAME    .UNIT     VALUE                         : DESCRIPTION
#_______________________________________________________________________________
STRT               .m        2490                          : First reference value
STOP               .m        2665.80000261962              : Last reference value
STEP               .m        0.2                           : Step increment
NULL               .         -9999                         : Missing value
COMP               .                                       : Company
WELL               .         404                           : Well name
FLD                .                                       : Field
LOC                .                                       : Location
CNTY               .                                       : County
STAT               .                                       : State
CTRY               .                                       : Country
SRVC               .                                       : Service Company
DATE               .                                       : Date
API                .                                       : API number
Cartographic_reference_system .         GCS_WGS_1984                  : GEOGCS["GCS_WGS_1984",DATUM["D_WGS_1984",SPHEROID["WGS_1984",6378137.0,298.257223563]],PRIMEM["Greenwich",0.0],UNIT["Degree",0.0174532925199433],AUTHORITY["EPSG",4326]]
EREF               .m        140.4                         : 
HZCS               .GCS_WGS_1984 World_Mercator                : PROJCS["World_Mercator",GEOGCS["GCS_WGS_1984",DATUM["D_WGS_1984",SPHEROID["WGS_1984",6378137.0,298.257223563]],PRIMEM["Greenwich",0.0],UNIT["Degree",0.0174532925199433]],PROJECTION["Mercator"],PARAMETER["False_Easting",0.0],PARAMETER["False_Northing",0.0],PARAMETER["Central_Meridian",0.0],PARAMETER["Standard_Parallel_1",0.0],UNIT["Meter",1.0],AUTHORITY["ESRI",54004]]
LATI               .dega     2.2605552291                  : GCS_WGS_1984
LONG               .dega     1.995158246                   : GCS_WGS_1984
PROJECT_UPGRADE_TIME .         2014-05-27T11_38_46           : 
Pad                .         Pad4                          : 
X                  .m        222100                        : 
Y                  .m        250025                        : 
group              .         Pad4                          : 
Интер-р            .         Зайцев                        : 
Куст               .         4                             : 
Статус             .         Не проверено                  : 
Тип                .         Разведка                      : 
~Parameter Information Block
#_______________________________________________________________________________
#
#PARAMETER_NAME    .UNIT     VALUE                         : DESCRIPTION
#_______________________________________________________________________________
SET                .         LQC                           : 
PROJECT_UPGRADE_TIME .         2014-05-27T11_38_46           : 
TLFamily_GR_NORM   .         Gamma Ray                     : 
TLFamily_MD        .         Measured Depth                : 
TLFamily_RHOB_NORM .         Bulk Density                  : 
TLFamily_TNPH_NORM .         Neutron Porosity              : 
~Curve Information
#_______________________________________________________________________________
#
#LOGNAME           .UNIT     LOG_ID                        : DESCRIPTION
#_______________________________________________________________________________
MD                 .m                                      :  
GR_NORM            .gAPI                                   : Normalised By Techlog 
RHOB_NORM          .g/cm3                                  : Normalized By Techlog 
TNPH_NORM          .v/v                                    : Normalised By Techlog 
~Ascii
# ...
2616.400001883507 85.78783   2.445077   0.2495168 
2616.600001886487 86.74837   2.497234   0.3126637 
2616.800001889467 85.1294    2.542899   0.3213736 
2617.000001892447 87.46104   2.629828   0.3464146 
2617.200001895428 86.05121   2.548764   0.3551245 
2617.400001898408 82.96043   2.452408   0.3507696 
2617.600001901388 81.59708   1.894593   0.386698  
2617.800001904368 72.89024   1.169202   0.3605683 
2618.000001907349 55.3681    0.7418854  0.4302476 
2618.200001910329 28.837     0.8175038  0.5140806 
2618.400001913309 18.03865   0.7358108  0.4291589 
2618.600001916289 15.79997   0.7326688  0.4607323 
2618.80000191927 18.41047   0.8156185  0.3986741 
2619.00000192225 25.28919   1.261368   0.3507696 
2619.20000192523 41.35503   1.681982   0.3355272 
2619.40000192821 63.64115   1.677164   0.3170186 
2619.60000193119 75.08244   1.534935   0.2952438 
2619.800001934171 76.2134    1.867152   0.3224624 
2620.000001937151 74.12189   2.38873    0.3703669 
2620.200001940131 76.07397   2.480058   0.2789127 
2620.400001943111 79.36614   2.567825   0.3083087 
2620.600001946092 78.29716   2.510222   0.2680253 
2620.800001949072 70.66705   2.513364   0.3660119 
2621.000001952052 64.23761   2.561751   0.3551245 
2621.200001955032 65.45379   2.450523   0.2669366 
2621.400001958013 74.43175   2.465814   0.2473393 
2621.600001960993 79.59079   2.476497   0.2135883 
2621.800001963973 79.46685   2.524465   0.2005235 
2622.000001966953 74.50922   2.524256   0.2331856 
2622.200001969934 77.35986   2.445496   0.2135883 
2622.400001972914 80.91541   2.416589   0.227742  
2622.600001975894 78.41335   2.427481   0.248428  
2622.800001978874 82.32523   2.533682   0.2342744 
2623.000001981854 80.714     2.53054    0.2179433 
2623.200001984835 79.61403   2.542061   0.227742  
2623.400001987815 71.9142    2.654755   0.2266532 
2623.600001990795 70.84521   2.642815   0.2843564 
2623.800001993775 72.97545   2.501005   0.2680253 
2624.000001996756 78.18871   2.494721   0.3017763 
2624.200001999736 78.58377   2.459321   0.2712916 
2624.400002002716 80.72175   2.592543   0.2495168 
2624.600002005696 89.34338   2.493255   0.2593154 
2624.800002008677 96.15238   2.402973   0.257138  
2625.000002011657 88.92509   2.466233   0.2135883 
2625.200002014637 82.20129   2.503728   0.2048784 
2625.400002017617 76.93381   2.624801   0.2495168 
2625.600002020597 75.7951    2.587934   0.2745578 
2625.800002023578 71.41843   2.22702    0.2974213 
2626.000002026558 74.01345   2.408629   0.2908889 
2626.200002029538 78.68447   2.522789   0.2397181 
2626.400002032518 75.51624   2.605111   0.1929023 
2626.600002035499 60.82149   2.604482   0.1787487 
2626.800002038479 67.46782   2.4124     0.2114109 
2627.000002041459 78.67673   2.421616   0.2375406 
2627.200002044439 86.8026    2.529073   0.2092334 
2627.40000204742 90.38914   2.469794   0.2037897 
2627.6000020504 83.40972   2.384121   0.198346  
2627.80000205338 70.27199   2.453874   0.2103221 
2628.00000205636 66.70094   2.494302   0.2168546 
2628.20000205934 72.0304    2.604273   0.2124996 
2628.400002062321 77.2669    2.631923   0.198346  
2628.600002065301 74.85004   2.500586   0.2114109 
2628.800002068281 68.49033   2.486761   0.2059672 
2629.000002071261 64.34606   2.537243   0.1852811 
2629.200002074242 61.72781   2.599246   0.2005235 
2629.400002077222 65.84885   2.49912    0.1929023 
2629.600002080202 71.58111   2.484247   0.1776599 
2629.800002083182 72.40997   2.404021   0.1722162 
2630.000002086163 73.69585   2.423083   0.2146771 
2630.200002089143 79.157     2.441725   0.2266532 
2630.400002092123 81.79073   2.510222   0.2767352 
2630.600002095103 80.9464    2.474821   0.2930664 
2630.800002098083 75.06694   2.631294   0.2386293 
2631.000002101064 63.8348    2.603226   0.2353631 
2631.200002104044 58.68351   2.458064   0.2070559 
2631.400002107024 54.56248   2.40067    0.2081446 
2631.600002110004 53.28434   2.434603   0.2027009 
2631.800002112985 50.08512   2.371763   0.2146771 
2632.000002115965 49.81399   2.374905   0.1874586 
2632.200002118945 53.49349   2.369249   0.1711275 
2632.400002121925 56.18145   2.44382    0.1961685 
2632.600002124906 58.42788   2.47545    0.2451618 
2632.800002127886 61.65809   2.446124   0.2266532 
2633.000002130866 68.47484   2.512106   0.2680253 
2633.200002133846 80.5126    2.43565    0.2810902 
2633.400002136827 80.96963   2.491369   0.2549605 
2633.600002139807 79.89289   2.53452    0.2222983 
2633.800002142787 76.16692   2.517553   0.219032  
2634.000002145767 73.4867    2.466024   0.2124996 
2634.200002148747 70.61282   2.451151   0.2222983 
2634.400002151728 71.18605   2.443401   0.248428  
2634.600002154708 73.38599   2.529073   0.2560492 
2634.800002157688 76.47677   2.655802   0.277824  
2635.000002160668 80.59781   2.658106   0.2691141 
2635.200002163649 80.55907   2.59359    0.2723803 
2635.400002166629 78.16547   2.457435   0.2560492 
2635.600002169609 75.75637   2.423083   0.2560492 
2635.800002172589 71.18605   2.561332   0.2898001 
2636.00000217557 65.57773   2.472517   0.2832677 
2636.20000217855 61.86724   2.417008   0.2005235 
2636.40000218153 59.47364   2.528864   0.1591513 
2636.60000218451 53.83433   2.600084   0.1743937 
2636.80000218749 57.34341   2.625639   0.1787487 
2637.000002190471 60.25601   2.592962   0.1929023 
2637.200002193451 63.66439   2.539757   0.2146771 
2637.400002196431 62.47145   2.431042   0.2201208 
2637.600002199411 64.08269   2.527188   0.2440731 
2637.800002202392 65.54675   2.668789   0.248428  
2638.000002205372 61.28627   2.431461   0.2767352 
2638.200002208352 64.82633   2.492207   0.3191961 
2638.400002211332 69.23398   2.471679   0.3747219 
2638.600002214313 70.96915   2.413237   0.3420596 
2638.800002217293 73.1691    2.496397   0.2789127 
2639.000002220273 67.66922   2.491369   0.2745578 
2639.200002223253 66.75516   2.372601   0.2625816 
2639.400002226233 67.76993   2.365059   0.2625816 
2639.600002229214 71.25577   2.456807   0.3170186 
2639.800002232194 72.16208   2.407163   0.3148412 
2640.000002235174 76.56973   2.378047   0.3093974 
2640.200002238154 79.62952   1.909674   0.3300835 
2640.400002241135 74.96625   1.508332   0.4041178 
2640.600002244115 63.45523   1.141971   0.4378688 
2640.800002247095 49.44992   0.8847432  0.4400463 
2641.000002250075 45.16621   2.088142   0.3442371 
2641.200002253056 56.43708   2.428319   0.3224624 
2641.400002256036 68.85441   2.455341   0.1896361 
2641.600002259016 72.59588   2.423083   0.1776599 
2641.800002261996 69.53609   2.411143   0.2037897 
2642.000002264977 66.31363   2.460996   0.1885473 
2642.200002267957 60.18629   2.519648   0.1972572 
2642.400002270937 53.44701   2.498701   0.2005235 
2642.600002273917 53.29209   2.547297   0.198346  
2642.800002276897 62.66511   2.389777   0.1972572 
2643.000002279878 74.65639   2.450942   0.252783  
2643.200002282858 86.36105   2.512316   0.2614929 
2643.400002285838 93.96018   2.405487   0.2691141 
2643.600002288818 89.70746   2.552534   0.282179  
2643.800002291799 89.11874   2.569082   0.332261  
2644.000002294779 86.08219   2.649728   0.2756465 
2644.200002297759 81.55835   2.636531   0.252783  
2644.400002300739 71.50365   2.507708   0.1841923 
2644.60000230372 63.8503    2.548136   0.1537076 
2644.8000023067 52.6414    2.612652   0.164595  
2645.00000230968 39.04663   2.646167   0.1558851 
2645.20000231266 39.08536   2.613699   0.1537076 
2645.40000231564 45.35212   2.610976   0.1776599 
2645.600002318621 53.95827   2.510012   0.1961685 
2645.800002321601 61.13909   2.465186   0.2310082 
2646.000002324581 65.93405   2.499748   0.2386293 
2646.200002327561 74.55569   2.39229    0.1907248 
2646.400002330542 83.38647   2.509593   0.2157658 
2646.600002333522 84.88926   2.608253   0.2005235 
2646.800002336502 86.15191   2.456807   0.2451618 
2647.000002339482 82.89846   2.497234   0.2810902 
2647.200002342463 83.51041   2.443192   0.2538717 
2647.400002345443 82.71255   2.426853   0.2767352 
2647.600002348423 81.9844    2.45555    0.2560492 
2647.800002351403 82.69706   2.548764   0.2647591 
