~Version
 VERS              .         2.0                           : CWLS LOG ASCII STANDARD - VERSION 2.0
 WRAP              .         NO                            : ONE LINE PER DEPTH STEP
 DLM               .         SPACE                         : DELIMITING CHARACTER(SPACE TAB OR COMMA)
~Well Information
#_______________________________________________________________________________
#
#PARAMETER_NAME    .UNIT     VALUE                         : DESCRIPTION
#_______________________________________________________________________________
STRT               .m        2490                          : First reference value
STOP               .m        2665.80000261962              : Last reference value
STEP               .m        0.2                           : Step increment
NULL               .         -9999                         : Missing value
COMP               .                                       : Company
WELL               .         404                           : Well name
FLD                .                                       : Field
LOC                .                                       : Location
CNTY               .                                       : County
STAT               .                                       : State
CTRY               .                                       : Country
SRVC               .                                       : Service Company
DATE               .                                       : Date
API                .                                       : API number
Cartographic_reference_system .         GCS_WGS_1984                  : GEOGCS["GCS_WGS_1984",DATUM["D_WGS_1984",SPHEROID["WGS_1984",6378137.0,298.257223563]],PRIMEM["Greenwich",0.0],UNIT["Degree",0.0174532925199433],AUTHORITY["EPSG",4326]]
EREF               .m        140.4                         : 
HZCS               .GCS_WGS_1984 World_Mercator                : PROJCS["World_Mercator",GEOGCS["GCS_WGS_1984",DATUM["D_WGS_1984",SPHEROID["WGS_1984",6378137.0,298.257223563]],PRIMEM["Greenwich",0.0],UNIT["Degree",0.0174532925199433]],PROJECTION["Mercator"],PARAMETER["False_Easting",0.0],PARAMETER["False_Northing",0.0],PARAMETER["Central_Meridian",0.0],PARAMETER["Standard_Parallel_1",0.0],UNIT["Meter",1.0],AUTHORITY["ESRI",54004]]
LATI               .dega     2.2605552291                  : GCS_WGS_1984
LONG               .dega     1.995158246                   : GCS_WGS_1984
PROJECT_UPGRADE_TIME .         2014-05-27T11_38_46           : 
Pad                .         Pad4                          : 
X                  .m        222100                        : 
Y                  .m        250025                        : 
group              .         Pad4                          : 
Интер-р            .         Зайцев                        : 
Куст               .         4                             : 
Статус             .         Не проверено                  : 
Тип                .         Разведка                      : 
~Parameter Information Block
#_______________________________________________________________________________
#
#PARAMETER_NAME    .UNIT     VALUE                         : DESCRIPTION
#_______________________________________________________________________________
SET                .         LQC                           : 
PROJECT_UPGRADE_TIME .         2014-05-27T11_38_46           : 
TLFamily_GR_NORM   .         Gamma Ray                     : 
TLFamily_MD        .         Measured Depth                : 
TLFamily_RHOB_NORM .         Bulk Density                  : 
TLFamily_TNPH_NORM .         Neutron Porosity              : 
~Curve Information
#_______________________________________________________________________________
#
#LOGNAME           .UNIT     LOG_ID                        : DESCRIPTION
#_______________________________________________________________________________
MD                 .m                                      :  
GR_NORM            .gAPI                                   : Normalised By Techlog 
RHOB_NORM          .g/cm3                                  : Normalized By Techlog 
TNPH_NORM          .v/v                                    : Normalised By Techlog 
~Ascii
# ...
2521.600000470877 69.71425   2.569501   0.2005235 
2521.800000473857 57.66875   2.497025   0.1700387 
2522.000000476837 45.70071   2.535567   0.1613288 
2522.200000479817 45.48381   2.388311   0.1635063 
2522.400000482798 50.4337    2.362756   0.1722162 
2522.600000485778 53.50124   2.612861   0.1841923 
2522.800000488758 57.70748   2.548973   0.164595  
2523.000000491738 58.52859   2.516924   0.1711275 
2523.200000494719 50.64285   2.547297   0.1874586 
2523.400000497699 54.94205   2.52656    0.193991  
2523.600000500679 66.91783   2.526979   0.2179433 
2523.800000503659 74.56344   2.48341    0.2016122 
2524.000000506639 70.57409   2.470841   0.1885473 
2524.20000050962 66.60798   2.425177   0.2114109 
2524.4000005126 65.66293   2.584792   0.1918135 
2524.60000051558 57.63002   2.543736   0.1863698 
2524.80000051856 49.65132   2.561751   0.1591513 
2525.000000521541 45.08875   2.657059   0.173305  
2525.200000524521 42.5712    2.669418   0.1950798 
2525.400000527501 45.84014   2.620402   0.198346  
2525.600000530481 52.74984   2.43565    0.2135883 
2525.800000533462 59.44265   2.618517   0.2647591 
2526.000000536442 60.26376   2.552325   0.2037897 
2526.200000539422 65.84885   2.627524   0.2059672 
2526.400000542402 72.16983   2.493045   0.2201208 
2526.600000545382 79.74571   2.415332   0.227742  
2526.800000548363 81.72102   2.456807   0.2310082 
2527.000000551343 79.93938   2.350816   0.2386293 
2527.200000554323 79.00982   2.515458   0.2342744 
2527.400000557303 78.03378   2.644072   0.2288307 
2527.600000560284 75.40004   2.578089   0.219032  
2527.800000563264 79.09502   2.664181   0.2462505 
2528.000000566244 86.09769   2.69225    0.2658479 
2528.200000569224 91.45812   2.583535   0.2451618 
2528.400000572205 89.64548   2.517134   0.2375406 
2528.600000575185 83.47943   2.635693   0.2212095 
2528.800000578165 70.41142   2.501842   0.2037897 
2529.000000581145 61.51091   2.48739    0.1852811 
2529.200000584126 56.87087   2.574528   0.1787487 
2529.400000587106 61.09261   2.510012   0.1852811 
2529.600000590086 67.73119   2.49116    0.2059672 
2529.800000593066 75.06694   2.597989   0.2408068 
2530.000000596046 81.66679   2.58563    0.2375406 
2530.200000599027 93.80526   2.556514   0.2408068 
2530.400000602007 99.50654   2.436907   0.2582267 
2530.600000604987 95.27705   2.335734   0.2440731 
2530.800000607967 94.99044   2.58584    0.2320969 
2531.000000610948 95.62564   2.64093    0.2462505 
2531.200000613928 96.86504   2.536405   0.2854452 
2531.400000616908 100.5136   2.521323   0.2604042 
2531.600000619888 100.1572   2.454293   0.2473393 
2531.800000622869 100.041    2.451151   0.2560492 
2532.000000625849 100.2579   2.470632   0.2691141 
2532.200000628829 106.6564   2.513573   0.2255645 
2532.400000631809 109.8711   2.555048   0.2179433 
2532.600000634789 114.4879   2.468537   0.2016122 
2532.80000063777 103.2635   2.544155   0.1994347 
2533.00000064075 93.82075   2.529493   0.2135883 
2533.20000064373 95.47845   2.432508   0.2462505 
2533.40000064671 101.1255   2.37679    0.2506055 
2533.600000649691 100.4748   2.413028   0.2386293 
2533.800000652671 94.30877   2.423501   0.2397181 
2534.000000655651 92.43417   2.483828   0.2353631 
2534.200000658631 88.42157   2.601759   0.252783  
2534.400000661612 94.5489    2.549183   0.2756465 
2534.600000664592 97.7946    2.393757   0.2647591 
2534.800000667572 100.5291   2.383912   0.282179  
2535.000000670552 107.5937   2.389987   0.3148412 
2535.200000673532 112.7062   2.274988   0.3431484 
2535.400000676513 117.9195   2.274779   0.3660119 
2535.600000679493 118.5547   2.329241   0.382343  
2535.800000682473 121.3976   2.368411   0.3453259 
2536.000000685453 124.3412   2.420988   0.3126637 
2536.200000688434 125.2475   2.396689   0.2800015 
2536.400000691414 121.4673   2.456597   0.2723803 
2536.600000694394 120.5145   2.481524   0.2908889 
2536.800000697374 111.1647   2.418474   0.2854452 
2537.000000700355 110.7387   2.503937   0.3061312 
2537.200000703335 103.9916   2.55023    0.2843564 
2537.400000706315 102.3959   2.475869   0.2898001 
2537.600000709295 105.0839   2.51085    0.2843564 
2537.800000712276 103.8212   2.416379   0.2625816 
2538.000000715256 100.8931   2.490322   0.2506055 
2538.200000718236 94.92073   2.473564   0.2310082 
2538.400000721216 96.88828   2.562589   0.2266532 
2538.600000724196 101.079    2.505194   0.252783  
2538.800000727177 99.04951   2.361708   0.2593154 
2539.000000730157 99.8009    2.483828   0.2440731 
2539.200000733137 108.0507   2.617888   0.273469  
2539.400000736117 115.6808   2.499539   0.2930664 
2539.600000739098 121.3124   2.361917   0.257138  
2539.800000742078 134.729    2.502681   0.2397181 
2540.000000745058 146.666    2.472727   0.2723803 
2540.200000748038 164.3973   2.440259   0.3039537 
2540.400000751019 172.2366   2.347255   0.2919776 
2540.600000753999 157.7665   2.417636   0.3257286 
2540.800000756979 151.7941   2.529493   0.2647591 
2541.000000759959 152.7701   2.45157    0.2636704 
2541.200000762939 162.2749   2.344532   0.3104862 
2541.40000076592 176.2724   2.393338   0.3268173 
2541.6000007689 187.6517   2.318977   0.3692782 
2541.80000077188 184.956    2.424549   0.3453259 
2542.00000077486 179.704    2.404859   0.2898001 
2542.200000777841 169.5641   2.366316   0.2549605 
2542.400000780821 162.0734   2.415751   0.30722   
2542.600000783801 169.3937   2.383493   0.3300835 
2542.800000786781 177.7132   2.227648   0.3540358 
2543.000000789762 183.7553   2.241892   0.3104862 
2543.200000792742 190.6186   2.33741    0.3246398 
2543.400000795722 196.622    2.441306   0.3224624 
2543.600000798702 199.4648   2.414284   0.2854452 
2543.800000801682 193.872    2.390405   0.3061312 
2544.000000804663 184.6926   2.438164   0.3213736 
2544.200000807643 179.1231   2.519019   0.3551245 
2544.400000810623 161.2988   2.403183   0.3540358 
2544.600000813603 154.2109   2.424549   0.2963326 
2544.800000816584 146.3484   2.480477   0.2919776 
2545.000000819564 146.9139   2.458483   0.2952438 
2545.200000822544 150.1984   2.410933   0.3246398 
2545.400000825524 155.9074   2.350187   0.327906  
2545.600000828505 168.0613   2.343065   0.3355272 
2545.800000831485 185.8313   2.390615   0.3583907 
2546.000000834465 202.3155   2.378885   0.3115749 
2546.200000837445 209.2639   2.356262   0.2919776 
2546.400000840425 220.9841   2.337828   0.3170186 
2546.600000843406 234.9507   2.29384    0.3420596 
2546.800000846386 260.0719   2.389148   0.3529471 
2547.000000849366 259.3515   2.382236   0.3529471 
2547.200000852346 264.2162   2.439631   0.3355272 
2547.400000855327 267.4619   2.423292   0.3344385 
2547.600000858307 269.6231   2.274988   0.3627457 
2547.800000861287 279.9025   2.437326   0.3540358 
2548.000000864267 287.9431   2.34537    0.3714556 
2548.200000867248 305.0315   2.236446   0.3834318 
2548.400000870228 305.8216   2.360451   0.3562133 
2548.600000873208 301.4914   2.464557   0.3333497 
2548.800000876188 295.2324   2.290279   0.2865339 
2549.000000879169 332.2133   2.211309   0.3191961 
2549.200000882149 333.7315   2.169206   0.332261  
2549.400000885129 333.0809   2.167949   0.3126637 
2549.600000888109 318.9749   2.208796   0.3159299 
2549.800000891089 306.2864   2.281691   0.2712916 
2550.00000089407 295.0543   2.354167   0.2691141 
2550.20000089705 275.4871   2.321071   0.2974213 
2550.40000090003 257.2058   2.290279   0.332261  
2550.60000090301 247.1511   2.249433   0.357302  
2550.800000905991 258.9177   2.397737   0.3779881 
2551.000000908971 264.1155   2.283157   0.3562133 
2551.200000911951 265.7345   2.20314    0.3747219 
2551.400000914931 277.5941   2.189315   0.4335138 
2551.600000917912 276.4864   2.248595   0.3714556 
2551.800000920892 285.1855   2.260535   0.3638344 
2552.000000923872 282.1179   2.241892   0.3877867 
2552.200000926852 275.185    2.063634   0.4041178 
2552.400000929832 260.6451   2.190781   0.4106503 
2552.600000932813 254.8896   2.365897   0.29851   
2552.800000935793 251.7757   2.340133   0.2745578 
2553.000000938773 241.9843   2.255088   0.277824  
