~Version
 VERS              .         2.0                           : CWLS LOG ASCII STANDARD - VERSION 2.0
 WRAP              .         NO                            : ONE LINE PER DEPTH STEP
 DLM               .         SPACE                         : DELIMITING CHARACTER(SPACE TAB OR COMMA)
~Well Information
#_______________________________________________________________________________
#
#PARAMETER_NAME    .UNIT     VALUE                         : DESCRIPTION
#_______________________________________________________________________________
STRT               .m        2699                          : First reference value
STOP               .m        2870.80000256002              : Last reference value
STEP               .m        0.2                           : Step increment
NULL               .         -9999                         : Missing value
COMP               .                                       : Company
WELL               .         405                           : Well name
FLD                .                                       : Field
LOC                .                                       : Location
CNTY               .                                       : County
STAT               .                                       : State
CTRY               .                                       : Country
SRVC               .                                       : Service Company
DATE               .                                       : Date
API                .                                       : API number
Cartographic_reference_system .         GCS_WGS_1984                  : GEOGCS["GCS_WGS_1984",DATUM["D_WGS_1984",SPHEROID["WGS_1984",6378137.0,298.257223563]],PRIMEM["Greenwich",0.0],UNIT["Degree",0.0174532925199433],AUTHORITY["EPSG",4326]]
EREF               .m        140.4                         : 
HZCS               .GCS_WGS_1984 World_Mercator                : PROJCS["World_Mercator",GEOGCS["GCS_WGS_1984",DATUM["D_WGS_1984",SPHEROID["WGS_1984",6378137.0,298.257223563]],PRIMEM["Greenwich",0.0],UNIT["Degree",0.0174532925199433]],PROJECTION["Mercator"],PARAMETER["False_Easting",0.0],PARAMETER["False_Northing",0.0],PARAMETER["Central_Meridian",0.0],PARAMETER["Standard_Parallel_1",0.0],UNIT["Meter",1.0],AUTHORITY["ESRI",54004]]
LATI               .dega     2.2605552291                  : GCS_WGS_1984
LONG               .dega     1.995158246                   : GCS_WGS_1984
PROJECT_UPGRADE_TIME .         2014-05-27T11_38_46           : 
Pad                .         Pad4                          : 
X                  .m        222100                        : 
Y                  .m        250025                        : 
group              .         Pad4                          : 
Интер-р            .         Ярышев                        : 
Куст               .         4                             : 
Статус             .         Проверено                     : 
Тип                .         Нагнетательные                : 
~Parameter Information Block
#_______________________________________________________________________________
#
#PARAMETER_NAME    .UNIT     VALUE                         : DESCRIPTION
#_______________________________________________________________________________
SET                .         LQC                           : 
PROJECT_UPGRADE_TIME .         2014-05-27T11_38_46           : 
TLFamily_GR_NORM   .         Gamma Ray                     : 
TLFamily_MD        .         Measured Depth                : 
TLFamily_RHOB_NORM .         Bulk Density                  : 
TLFamily_TNPH_NORM .         Neutron Porosity              : 
~Curve Information
#_______________________________________________________________________________
#
#LOGNAME           .UNIT     LOG_ID                        : DESCRIPTION
#_______________________________________________________________________________
MD                 .m                                      :  
GR_NORM            .gAPI                                   : Normalised By Techlog 
RHOB_NORM          .g/cm3                                  : Normalized By Techlog 
TNPH_NORM          .v/v                                    : Normalised By Techlog 
~Ascii
# ...
2793.80000141263 111.8861   2.450603   0.315496  
2794.00000141561 115.0252   2.472368   0.3310728 
2794.200001418591 115.9789   2.467034   0.3048516 
2794.400001421571 112.2437   2.448113   0.3012094 
2794.600001424551 108.6755   2.44413    0.2524091 
2794.800001427531 97.67663   2.491147   0.2700557 
2795.000001430511 89.9838    2.489439   0.3107651 
2795.200001433492 96.06336   2.476565   0.2980241 
2795.400001436472 99.16274   2.467887   0.3158051 
2795.600001439452 107.5629   2.503594   0.3123107 
2795.800001442432 111.6715   2.467958   0.2866539 
2796.000001445413 111.8543   2.434385   0.3164905 
2796.200001448393 112.7364   2.441854   0.3132649 
2796.400001451373 119.6266   2.456293   0.2867749 
2796.600001454353 116.7338   2.457075   0.3072707 
2796.800001457334 120.4293   2.420088   0.2836165 
2797.000001460314 114.9299   2.429335   0.2736844 
2797.200001463294 105.6397   2.468741   0.277367  
2797.400001466274 100.8634   2.495628   0.2995025 
2797.600001469254 105.592    2.502954   0.3288015 
2797.800001472235 104.6463   2.498402   0.3170416 
2798.000001475215 93.73485   2.471586   0.2895301 
2798.200001478195 85.24731   2.439364   0.3008599 
2798.400001481175 77.48296   2.497691   0.3071229 
2798.600001484156 84.16651   2.542432   0.3199715 
2798.800001487136 108.898    2.553528   0.2956049 
2799.000001490116 118.4902   2.538733   0.3107786 
2799.200001493096 117.7113   2.536314   0.3026877 
2799.400001496077 119.6028   2.497904   0.3014647 
2799.600001499057 116.265    2.468883   0.2937368 
2799.800001502037 112.0768   2.470732   0.28027   
2800.000001505017 109.8834   2.444343   0.2946373 
2800.200001507998 111.4093   2.419945   0.3028759 
2800.400001510978 110.6146   2.46426    0.3075664 
2800.600001513958 118.1325   2.511917   0.3155363 
2800.800001516938 125.9605   2.53162    0.3192188 
2801.000001519918 124.1803   2.541151   0.3016529 
2801.200001522899 122.3604   2.495984   0.2878098 
2801.400001525879 113.8729   2.538804   0.2714937 
2801.600001528859 107.6582   2.537737   0.3152944 
2801.800001531839 106.633    2.559716   0.317055  
2802.00000153482 108.739    2.559574   0.3312207 
2802.2000015378 113.1497   2.51839    0.324998  
2802.40000154078 109.8993   2.490293   0.3309115 
2802.60000154376 106.7046   2.52657    0.3266779 
2802.800001546741 96.58787   2.546486   0.3307234 
2803.000001549721 106.935    2.62665    0.3393518 
2803.200001552701 106.943    2.601825   0.3443783 
2803.400001555681 116.6623   2.5738     0.3327663 
2803.600001558661 117.3219   2.587173   0.3254952 
2803.800001561642 114.3497   2.530197   0.3142326 
2804.000001564622 114.6755   2.541009   0.3337204 
2804.200001567602 112.6013   2.542858   0.3685836 
2804.400001570582 107.9602   2.56626    0.3414753 
2804.600001573563 105.4489   2.504306   0.2785363 
2804.800001576543 108.3258   2.529272   0.2440763 
2805.000001579523 103.486    2.545348   0.2559303 
2805.200001582503 100.6488   2.551394   0.2495867 
2805.400001585484 91.37455   2.517821   0.2313353 
2805.600001588464 84.08704   2.515189   0.1915935 
2805.800001591444 79.7638    2.503808   0.1989989 
2806.000001594424 89.41161   2.608298   0.1914457 
2806.200001597404 101.1495   2.669257   0.1894028 
2806.400001600385 108.9298   2.619039   0.1797127 
2806.600001603365 77.84854   2.558721   0.1754925 
2806.800001606345 45.02689   2.543854   0.1695521 
2807.000001609325 44.52622   2.43851    0.1848198 
2807.200001612306 46.7991    2.399887   0.1761242 
2807.400001615286 44.35933   2.423715   0.1692161 
2807.600001618266 36.80956   2.407996   0.1728449 
2807.800001621246 34.82277   2.399745   0.2063909 
2808.000001624227 38.0652    2.403656   0.2202474 
2808.200001627207 39.48774   2.36674    0.1992005 
2808.400001630187 38.55792   2.369087   0.1706945 
2808.600001633167 37.76321   2.376841   0.1682619 
2808.800001636147 37.00824   2.38061    0.1740545 
2809.000001639128 39.77384   2.383456   0.1763393 
2809.200001642108 42.70633   2.378619   0.1994021 
2809.400001645088 44.97921   2.350024   0.1955314 
2809.600001648068 47.3395    2.39818    0.186903  
2809.800001651049 51.05876   2.414824   0.1694311 
2810.000001654029 48.80177   2.426987   0.163652  
2810.200001657009 44.97126   2.456364   0.1777908 
2810.400001659989 41.6732    2.427272   0.2008536 
2810.60000166297 41.12484   2.396828   0.218003  
2810.80000166595 40.95795   2.392418   0.2133527 
2811.00000166893 40.22682   2.424      0.2161482 
2811.20000167191 44.21628   2.422079   0.2302198 
2811.400001674891 45.47193   2.455155   0.2078021 
2811.600001677871 46.7991    2.45295    0.2144279 
2811.800001680851 52.72766   2.382673   0.1921311 
2812.000001683831 52.21109   2.418309   0.1815539 
2812.200001686811 49.86669   2.446477   0.1688532 
2812.400001689792 47.84017   2.468314   0.1588674 
2812.600001692772 44.90768   2.494917   0.1433981 
2812.800001695752 41.39505   2.490578   0.09758145
2813.000001698732 34.69562   2.497975   0.05863263
2813.200001701713 31.65187   2.53916    0.06243611
2813.400001704693 30.51542   2.645642   0.0536733 
2813.600001707673 29.7684    2.823609   0.05868639
2813.800001710653 27.61473   2.927317   0.07041942
2814.000001713634 25.97762   2.894028   0.07949135
2814.200001716614 26.4306    2.837977   0.08512267
2814.400001719594 26.85975   2.793521   0.07480083
2814.600001722574 24.26104   2.687964   0.07399443
2814.800001725554 25.54847   2.718977   0.06830935
2815.000001728535 27.89287   2.789609   0.06520473
2815.200001731515 32.17638   2.741667   0.06391451
2815.400001734495 32.48632   2.710797   0.05284003
2815.600001737475 30.85715   2.807818   0.04313642
2815.800001740456 29.9035    2.866287   0.04684583
2816.000001743436 27.9644    2.8224     0.05572961
2816.200001746416 26.63723   2.875748   0.05668384
2816.400001749396 29.66508   2.876317   0.0651913 
2816.600001752377 33.09824   2.790605   0.1040326 
2816.800001755357 35.76054   2.749776   0.1152012 
2817.000001758337 36.97644   2.630562   0.1724417 
2817.200001761317 38.4705    2.533754   0.1830189 
2817.400001764297 40.74339   2.525645   0.1972383 
2817.600001767278 42.45996   2.509854   0.1805997 
2817.800001770258 43.23084   2.530766   0.1828845 
2818.000001773238 42.53149   2.548833   0.1636117 
2818.200001776218 39.78973   2.575649   0.1609775 
2818.400001779199 39.88509   2.537879   0.1652245 
2818.600001782179 38.56587   2.50082    0.2000203 
2818.800001785159 39.94072   2.477063   0.2253546 
2819.000001788139 38.7725    2.464188   0.2088504 
2819.20000179112 40.19503   2.460561   0.2018213 
2819.4000017941 39.8692    2.467318   0.2090654 
2819.60000179708 40.8308    2.45231    0.2329347 
2819.80000180006 42.03877   2.474218   0.2069016 
2820.000001803041 41.46657   2.452096   0.2002354 
2820.200001806021 42.20566   2.452096   0.1986495 
2820.400001809001 39.60695   2.502243   0.2006924 
2820.600001811981 41.18843   2.506511   0.2143607 
2820.800001814961 43.57256   2.513197   0.2280157 
2821.000001817942 43.91429   2.548762   0.2085816 
2821.200001820922 49.20708   2.595068   0.2048856 
2821.400001823902 55.28663   2.562348   0.1801428 
2821.600001826882 55.66015   2.644148   0.1615151 
2821.800001829863 53.85615   2.634759   0.1780999 
2822.000001832843 57.52773   2.622169   0.2107723 
2822.200001835823 67.68416   2.618896   0.1922655 
2822.400001838803 73.6445    2.59457    0.2629728 
2822.600001841784 76.426     2.603675   0.2781331 
2822.800001844764 78.2459    2.646993   0.283173  
2823.000001847744 78.70683   2.58326    0.2965726 
2823.200001850724 74.80479   2.514975   0.3003761 
2823.400001853704 71.75309   2.477703   0.2735769 
2823.600001856685 62.82846   2.450958   0.2606612 
2823.800001859665 63.85365   2.497762   0.3074589 
2824.000001862645 78.07901   2.480619   0.3414887 
2824.200001865625 97.47795   2.331246   0.3475636 
2824.400001868606 104.2727   2.190977   0.389617  
2824.600001871586 109.7324   2.125609   0.3721048 
2824.800001874566 103.629    2.214806   0.3279951 
2825.000001877546 92.51894   2.455084   0.2650426 
2825.200001880527 91.81165   2.557511   0.2768428 
