~Version
 VERS              .         2.0                           : CWLS LOG ASCII STANDARD - VERSION 2.0
 WRAP              .         NO                            : ONE LINE PER DEPTH STEP
 DLM               .         SPACE                         : DELIMITING CHARACTER(SPACE TAB OR COMMA)
~Well Information
#_______________________________________________________________________________
#
#PARAMETER_NAME    .UNIT     VALUE                         : DESCRIPTION
#_______________________________________________________________________________
STRT               .m        2699                          : First reference value
STOP               .m        2870.80000256002              : Last reference value
STEP               .m        0.2                           : Step increment
NULL               .         -9999                         : Missing value
COMP               .                                       : Company
WELL               .         405                           : Well name
FLD                .                                       : Field
LOC                .                                       : Location
CNTY               .                                       : County
STAT               .                                       : State
CTRY               .                                       : Country
SRVC               .                                       : Service Company
DATE               .                                       : Date
API                .                                       : API number
Cartographic_reference_system .         GCS_WGS_1984                  : GEOGCS["GCS_WGS_1984",DATUM["D_WGS_1984",SPHEROID["WGS_1984",6378137.0,298.257223563]],PRIMEM["Greenwich",0.0],UNIT["Degree",0.0174532925199433],AUTHORITY["EPSG",4326]]
EREF               .m        140.4                         : 
HZCS               .GCS_WGS_1984 World_Mercator                : PROJCS["World_Mercator",GEOGCS["GCS_WGS_1984",DATUM["D_WGS_1984",SPHEROID["WGS_1984",6378137.0,298.257223563]],PRIMEM["Greenwich",0.0],UNIT["Degree",0.0174532925199433]],PROJECTION["Mercator"],PARAMETER["False_Easting",0.0],PARAMETER["False_Northing",0.0],PARAMETER["Central_Meridian",0.0],PARAMETER["Standard_Parallel_1",0.0],UNIT["Meter",1.0],AUTHORITY["ESRI",54004]]
LATI               .dega     2.2605552291                  : GCS_WGS_1984
LONG               .dega     1.995158246                   : GCS_WGS_1984
PROJECT_UPGRADE_TIME .         2014-05-27T11_38_46           : 
Pad                .         Pad4                          : 
X                  .m        222100                        : 
Y                  .m        250025                        : 
group              .         Pad4                          : 
Интер-р            .         Ярышев                        : 
Куст               .         4                             : 
Статус             .         Проверено                     : 
Тип                .         Нагнетательные                : 
~Parameter Information Block
#_______________________________________________________________________________
#
#PARAMETER_NAME    .UNIT     VALUE                         : DESCRIPTION
#_______________________________________________________________________________
SET                .         LQC                           : 
PROJECT_UPGRADE_TIME .         2014-05-27T11_38_46           : 
TLFamily_GR_NORM   .         Gamma Ray                     : 
TLFamily_MD        .         Measured Depth                : 
TLFamily_RHOB_NORM .         Bulk Density                  : 
TLFamily_TNPH_NORM .         Neutron Porosity              : 
~Curve Information
#_______________________________________________________________________________
#
#LOGNAME           .UNIT     LOG_ID                        : DESCRIPTION
#_______________________________________________________________________________
MD                 .m                                      :  
GR_NORM            .gAPI                                   : Normalised By Techlog 
RHOB_NORM          .g/cm3                                  : Normalized By Techlog 
TNPH_NORM          .v/v                                    : Normalised By Techlog 
~Ascii
# ...
2762.200000941753 222.3671   2.360267   0.3572538 
2762.400000944734 212.6001   2.403372   0.3150793 
2762.600000947714 199.8449   2.424213   0.3312341 
2762.800000950694 186.6686   2.435523   0.3371477 
2763.000000953674 172.0061   2.470163   0.3190978 
2763.200000956655 163.01     2.484318   0.2551239 
2763.400000959635 156.1119   2.527565   0.2574759 
2763.600000962615 156.6761   2.506297   0.270311  
2763.800000965595 152.4244   2.435523   0.2879576 
2764.000000968575 167.8895   2.413899   0.2913713 
2764.200000971556 193.8449   2.378903   0.3215036 
2764.400000974536 208.857    2.350593   0.3513536 
2764.600000977516 220.6346   2.351945   0.3417172 
2764.800000980496 238.5951   2.314175   0.3422682 
2765.000000983477 269.8115   2.322284   0.3212482 
2765.200000986457 294.7337   2.335229   0.3450234 
2765.400000989437 297.9841   2.331886   0.36099   
2765.600000992417 284.1163   2.31574    0.3521869 
2765.800000995398 288.2568   2.303292   0.3735966 
2766.000000998378 301.743    2.303932   0.3980035 
2766.200001001358 308.4425   2.300802   0.3556544 
2766.400001004338 308.4822   2.36482    0.3316507 
2766.600001007318 321.0705   2.389786   0.370828  
2766.800001010299 325.7036   2.380682   0.3542701 
2767.000001013279 311.9392   2.368092   0.3465152 
2767.200001016259 295.0675   2.343765   0.3314088 
2767.400001019239 290.0846   2.371719   0.3601164 
2767.60000102222 267.0936   2.291129   0.3447546 
2767.8000010252 294.7893   2.313535   0.3701829 
2768.00000102818 303.9444   2.271781   0.3856522 
2768.20000103116 299.7722   2.295468   0.3829777 
2768.400001034141 307.8385   2.288924   0.4048847 
2768.600001037121 289.9654   2.25599    0.3679653 
2768.800001040101 258.8762   2.236785   0.3691884 
2769.000001043081 263.565    2.239061   0.3864452 
2769.200001046062 277.8699   2.216157   0.3629522 
2769.400001049042 284.6408   2.211249   0.3448621 
2769.600001052022 291.4277   2.202074   0.3880849 
2769.800001055002 293.8833   2.212245   0.368597  
2770.000001057982 303.7457   2.211036   0.3828836 
2770.200001060963 309.0941   2.193254   0.3784081 
2770.400001063943 308.5696   2.216869   0.3621055 
2770.600001066923 286.4369   2.235291   0.4084329 
2770.800001069903 274.5082   2.23707    0.3601433 
2771.000001072884 263.2074   2.211676   0.396216  
2771.200001075864 242.9025   2.199442   0.4032988 
2771.400001078844 239.7713   2.184576   0.3838378 
2771.600001081824 230.958    2.201647   0.3546061 
2771.800001084805 231.2679   2.236572   0.3247829 
2772.000001087785 231.848    2.230668   0.3156707 
2772.200001090765 218.0121   2.226329   0.3211407 
2772.400001093745 198.5257   2.245534   0.3167996 
2772.600001096725 188.4011   2.265095   0.3292719 
2772.800001099706 185.5083   2.277543   0.3220949 
2773.000001102686 194.0038   2.278681   0.3262613 
2773.200001105666 192.0488   2.301229   0.3499827 
2773.400001108646 181.1215   2.260898   0.3205763 
2773.600001111627 165.1954   2.288995   0.3563935 
2773.800001114607 146.8614   2.294401   0.3352929 
2774.000001117587 152.3608   2.333095   0.3481011 
2774.200001120567 134.0983   2.317873   0.3251324 
2774.400001123548 124.4267   2.330464   0.295148  
2774.600001126528 123.2664   2.326551   0.3260463 
2774.800001129508 131.7301   2.309267   0.3188022 
2775.000001132488 126.024    2.292267   0.3069616 
2775.200001135468 130.3393   2.323991   0.328788  
2775.400001138449 134.3367   2.317447   0.2809017 
2775.600001141429 137.7937   2.303861   0.3270811 
2775.800001144409 134.6149   2.289635   0.3463943 
2776.000001147389 133.995    2.319794   0.3759352 
2776.20000115037 137.7302   2.362117   0.3132112 
2776.40000115335 133.1924   2.351803   0.308776  
2776.60000115633 116.2491   2.340991   0.3335323 
2776.80000115931 110.7735   2.336012   0.3330888 
2777.000001162291 110.1854   2.359271   0.3108323 
2777.200001165271 106.9112   2.37051    0.2869362 
2777.400001168251 97.94683   2.380895   0.287877  
2777.600001171231 94.78387   2.388577   0.2743161 
2777.800001174212 90.81825   2.357493   0.2792754 
2778.000001177192 93.51233   2.317447   0.2834956 
2778.200001180172 92.08186   2.350665   0.2879845 
2778.400001183152 94.21962   2.431184   0.2957528 
2778.600001186132 98.05014   2.4001     0.2750016 
2778.800001189113 100.3866   2.369585   0.2809286 
2779.000001192093 101.0939   2.355217   0.3062224 
2779.200001195073 101.1972   2.340422   0.2796383 
2779.400001198053 96.34946   2.344548   0.3317314 
2779.600001201034 101.6025   2.335941   0.3181302 
2779.800001204014 105.5999   2.349242   0.316383  
2780.000001206994 102.9933   2.358276   0.3034001 
2780.200001209974 100.7045   2.324275   0.3173507 
2780.400001212955 97.79584   2.33089    0.2968548 
2780.600001215935 102.9615   2.362188   0.308991  
2780.800001218915 109.6132   2.327263   0.351273  
2781.000001221895 110.4953   2.276974   0.3460852 
2781.200001224875 110.9881   2.275267   0.3366235 
2781.400001227856 115.963    2.247028   0.3222965 
2781.600001230836 118.4902   2.269718   0.2872991 
2781.800001233816 111.6477   2.287216   0.2791276 
2782.000001236796 113.5868   2.289422   0.3037898 
2782.200001239777 112.5537   2.312254   0.3014647 
2782.400001242757 105.282    2.306279   0.3361262 
2782.600001245737 109.8675   2.292551   0.3437601 
2782.800001248717 120.5962   2.276263   0.3497811 
2783.000001251698 119.0544   2.324844   0.3377255 
2783.200001254678 116.0981   2.35856    0.3055505 
2783.400001257658 97.23953   2.390853   0.2963307 
2783.600001260638 87.90961   2.390426   0.2633357 
2783.800001263618 83.45921   2.367949   0.2643168 
2784.000001266599 92.49509   2.346681   0.2937368 
2784.200001269579 105.5681   2.326694   0.307674  
2784.400001272559 120.7154   2.279819   0.3186812 
2784.600001275539 134.7341   2.27043    0.3276322 
2784.80000127852 137.6189   2.264597   0.3471066 
2785.0000012815 136.252    2.287287   0.3625625 
2785.20000128448 133.852    2.325982   0.3133321 
2785.40000128746 120.9458   2.358133   0.2984945 
2785.600001290441 105.6476   2.38061    0.3430074 
2785.800001293421 98.86076   2.378832   0.3705323 
2786.000001296401 105.7827   2.359414   0.4492633 
2786.200001299381 110.249    2.341275   0.4084463 
2786.400001302361 115.4862   2.301087   0.3815934 
2786.600001305342 127.4545   2.244823   0.3528455 
2786.800001308322 137.603    2.207622   0.3739327 
2787.000001311302 158.2735   2.203994   0.3684626 
2787.200001314282 167.6591   2.180877   0.3082384 
2787.400001317263 168.5332   2.248735   0.3606675 
2787.600001320243 162.0007   2.246814   0.3628044 
2787.800001323223 162.716    2.205843   0.4137819 
2788.000001326203 164.0193   2.198944   0.3923722 
2788.200001329184 187.1772   2.190408   0.3106307 
2788.400001332164 184.0699   2.218149   0.29078   
2788.600001335144 176.4009   2.213881   0.3057252 
2788.800001338124 175.5982   2.208973   0.3774808 
2789.000001341105 191.1746   2.180023   0.3933802 
2789.200001344085 198.8118   2.180166   0.3676831 
2789.400001347065 166.61     2.248308   0.3215171 
2789.600001350045 139.7169   2.316095   0.3253071 
2789.800001353025 115.3908   2.31951    0.3322421 
2790.000001356006 105.3536   2.323208   0.320415  
2790.200001358986 104.1694   2.336581   0.336059  
2790.400001361966 101.833    2.32079    0.3288149 
2790.600001364946 98.14551   2.31574    0.2978763 
2790.800001367927 95.35607   2.335941   0.3185602 
2791.000001370907 100.3707   2.41838    0.3346344 
2791.200001373887 102.6674   2.44854    0.3435316 
2791.400001376867 102.731    2.477561   0.3212079 
2791.600001379848 103.5813   2.494134   0.298723  
2791.800001382828 108.4768   2.482611   0.2881189 
2792.000001385808 104.0025   2.53603    0.2943147 
2792.200001388788 112.6649   2.557796   0.2983332 
2792.400001391768 120.2544   2.580842   0.3222965 
2792.600001394749 123.9737   2.571026   0.2954436 
2792.800001397729 122.869    2.53603    0.3204419 
2793.000001400709 122.2968   2.451883   0.3585171 
2793.200001403689 117.0835   2.411481   0.3198774 
2793.40000140667 116.0027   2.413757   0.3238153 
2793.60000140965 114.604    2.43659    0.3536921 
