~Version
 VERS              .         2.0                           : CWLS LOG ASCII STANDARD - VERSION 2.0
 WRAP              .         NO                            : ONE LINE PER DEPTH STEP
 DLM               .         SPACE                         : DELIMITING CHARACTER(SPACE TAB OR COMMA)
~Well Information
#_______________________________________________________________________________
#
#PARAMETER_NAME    .UNIT     VALUE                         : DESCRIPTION
#_______________________________________________________________________________
STRT               .m        2699                          : First reference value
STOP               .m        2870.80000256002              : Last reference value
STEP               .m        0.2                           : Step increment
NULL               .         -9999                         : Missing value
COMP               .                                       : Company
WELL               .         405                           : Well name
FLD                .                                       : Field
LOC                .                                       : Location
CNTY               .                                       : County
STAT               .                                       : State
CTRY               .                                       : Country
SRVC               .                                       : Service Company
DATE               .                                       : Date
API                .                                       : API number
Cartographic_reference_system .         GCS_WGS_1984                  : GEOGCS["GCS_WGS_1984",DATUM["D_WGS_1984",SPHEROID["WGS_1984",6378137.0,298.257223563]],PRIMEM["Greenwich",0.0],UNIT["Degree",0.0174532925199433],AUTHORITY["EPSG",4326]]
EREF               .m        140.4                         : 
HZCS               .GCS_WGS_1984 World_Mercator                : PROJCS["World_Mercator",GEOGCS["GCS_WGS_1984",DATUM["D_WGS_1984",SPHEROID["WGS_1984",6378137.0,298.257223563]],PRIMEM["Greenwich",0.0],UNIT["Degree",0.0174532925199433]],PROJECTION["Mercator"],PARAMETER["False_Easting",0.0],PARAMETER["False_Northing",0.0],PARAMETER["Central_Meridian",0.0],PARAMETER["Standard_Parallel_1",0.0],UNIT["Meter",1.0],AUTHORITY["ESRI",54004]]
LATI               .dega     2.2605552291                  : GCS_WGS_1984
LONG               .dega     1.995158246                   : GCS_WGS_1984
PROJECT_UPGRADE_TIME .         2014-05-27T11_38_46           : 
Pad                .         Pad4                          : 
X                  .m        222100                        : 
Y                  .m        250025                        : 
group              .         Pad4                          : 
Интер-р            .         Ярышев                        : 
Куст               .         4                             : 
Статус             .         Проверено                     : 
Тип                .         Нагнетательные                : 
~Parameter Information Block
#_______________________________________________________________________________
#
#PARAMETER_NAME    .UNIT     VALUE                         : DESCRIPTION
#_______________________________________________________________________________
SET                .         LQC                           : 
PROJECT_UPGRADE_TIME .         2014-05-27T11_38_46           : 
TLFamily_GR_NORM   .         Gamma Ray                     : 
TLFamily_MD        .         Measured Depth                : 
TLFamily_RHOB_NORM .         Bulk Density                  : 
TLFamily_TNPH_NORM .         Neutron Porosity              : 
~Curve Information
#_______________________________________________________________________________
#
#LOGNAME           .UNIT     LOG_ID                        : DESCRIPTION
#_______________________________________________________________________________
MD                 .m                                      :  
GR_NORM            .gAPI                                   : Normalised By Techlog 
RHOB_NORM          .g/cm3                                  : Normalized By Techlog 
TNPH_NORM          .v/v                                    : Normalised By Techlog 
~Ascii
# ...
2825.400001883507 87.13873   2.59834    0.2752838 
2825.600001886487 78.66709   2.591654   0.2707814 
2825.800001889467 74.90015   2.571666   0.2676365 
2826.000001892447 79.31876   2.54044    0.286963  
2826.200001895428 79.04855   2.525574   0.2780121 
2826.400001898408 77.54655   2.507791   0.2834956 
2826.600001901388 75.58361   2.539088   0.2534036 
2826.800001904368 75.15446   2.571951   0.2694106 
2827.000001907349 67.23117   2.522728   0.255675  
2827.200001910329 68.88417   2.478557   0.2684698 
2827.400001913309 66.56361   2.478912   0.2643706 
2827.600001916289 62.90793   2.450389   0.2554062 
2827.80000191927 63.85365   2.44228    0.285861  
2828.00000192225 66.79408   2.406217   0.3297557 
2828.20000192523 66.69077   2.351803   0.3119882 
2828.40000192821 66.03115   2.324986   0.2594247 
2828.60000193119 74.11339   2.440502   0.223473  
2828.800001934171 74.74915   2.614131   0.2499227 
2829.000001937151 65.904     2.581269   0.2454203 
2829.200001940131 63.44039   2.450176   0.2488744 
2829.400001943111 57.8933    2.513268   0.2299779 
2829.600001946092 55.8032    2.502599   0.2668032 
2829.800001949072 57.91713   2.512486   0.2960484 
2830.000001952052 59.11715   2.473649   0.3413005 
2830.200001955032 62.22448   2.474645   0.3030103 
2830.400001958013 66.39672   2.497051   0.2702976 
2830.600001960993 72.78622   2.470092   0.3063837 
2830.800001963973 81.52011   2.447757   0.3165981 
2831.000001966953 88.45      2.421937   0.3466765 
2831.200001969934 83.79299   2.438439   0.3448218 
2831.400001972914 80.51083   2.491218   0.3010884 
2831.600001975894 84.16651   2.521662   0.3141789 
2831.800001978874 83.16517   2.547268   0.326772  
2832.000001981854 87.09105   2.555875   0.3177942 
2832.200001984835 84.89764   2.5499     0.3155632 
2832.400001987815 88.56921   2.571239   0.3110877 
2832.600001990795 91.34277   2.544068   0.3245007 
2832.800001993775 89.07784   2.445125   0.3031985 
2833.000001996756 89.45929   2.334305   0.2920299 
2833.200001999736 82.41019   2.262961   0.3028356 
2833.400002002716 76.21938   2.125395   0.3412065 
2833.600002005696 65.92784   1.992809   0.4141582 
2833.800002008677 52.13957   1.850264   0.5013429 
2834.000002011657 29.37899   1.774724   0.6827815 
2834.200002014637 15.7576    1.742857   0.5014101 
2834.400002017617 8.176044   1.747267   0.4208647 
2834.600002020597 6.308467   1.747481   0.3694034 
2834.800002023578 7.174705   1.759288   0.3128617 
2835.000002026558 10.67144   1.762276   0.2915729 
2835.200002029538 11.49794   1.763556   0.3413678 
2835.400002032518 17.50597   1.774297   0.3486253 
2835.600002035499 28.71938   1.800117   0.3470663 
2835.800002038479 44.97126   2.017562   0.3760965 
2836.000002041459 62.14501   2.263957   0.4154351 
2836.200002044439 74.29617   2.2742     0.3861495 
2836.40000204742 72.72263   2.315598   0.3109802 
2836.6000020504 73.26305   2.286434   0.3023517 
2836.80000205338 74.84452   2.334803   0.2652039 
2837.00000205636 78.26973   2.423929   0.2594919 
2837.20000205934 72.61137   2.392205   0.2779852 
2837.400002062321 68.51066   2.326196   0.3678041 
2837.600002065301 70.54513   2.196383   0.3847249 
2837.800002068281 65.54638   2.073257   0.2983466 
2838.000002071261 70.84711   2.039399   0.2332169 
2838.200002074242 77.70549   2.05711    0.2615348 
2838.400002077222 79.50948   2.326196   0.2275587 
2838.600002080202 73.85908   2.545917   0.2445064 
2838.800002083182 75.74255   2.528917   0.2452187 
2839.000002086163 77.68959   2.546913   0.2634701 
2839.200002089143 93.31365   2.631913   0.2626503 
2839.400002092123 99.25811   2.570315   0.2551643 
2839.600002095103 88.83147   2.551323   0.2700019 
2839.800002098083 82.47377   2.521804   0.2944894 
2840.000002101064 77.3717    2.529059   0.2555809 
2840.200002104044 81.2817    2.537808   0.2872991 
2840.400002107024 87.83013   2.537879   0.2942475 
2840.600002110004 94.07658   2.551678   0.2659968 
2840.800002112985 91.82754   2.513339   0.2694778 
2841.000002115965 83.52279   2.546059   0.2345071 
2841.200002118945 76.43394   2.487021   0.2242928 
2841.400002121925 65.74506   2.48759    0.1978834 
2841.600002124906 60.13438   2.505515   0.2084069 
2841.800002127886 62.61389   2.503737   0.2305827 
2842.000002130866 66.87355   2.536741   0.2913713 
2842.200002133846 69.83783   2.547411   0.2944894 
2842.400002136827 64.46557   2.532402   0.270983  
2842.600002139807 66.37288   2.429975   0.2945297 
2842.800002142787 66.80997   2.445125   0.2502318 
2843.000002145767 65.83247   2.45231    0.2752031 
2843.200002148747 64.64835   2.401309   0.265271  
2843.400002151728 53.60979   2.378619   0.2047915 
2843.600002154708 47.59381   2.381891   0.232182  
2843.800002157688 49.9859    2.42649    0.2418453 
2844.000002160668 54.08662   2.440716   0.2862373 
2844.200002163649 56.89991   2.439577   0.2793829 
2844.400002166629 55.85088   2.451598   0.2380015 
2844.600002169609 58.00455   2.471088   0.2312816 
2844.800002172589 56.54228   2.473435   0.2206372 
2845.00000217557 55.2469    2.5398     0.2449768 
2845.20000217855 55.95419   2.504164   0.2561051 
2845.40000218153 60.67479   2.499469   0.2963576 
2845.60000218451 70.27493   2.507862   0.2929573 
2845.80000218749 79.16776   2.531122   0.3005373 
2846.000002190471 80.71745   2.546842   0.2841138 
2846.200002193451 77.39555   2.562775   0.2850008 
2846.400002196431 71.41931   2.613918   0.2526376 
2846.600002199411 66.08678   2.701265   0.2445736 
2846.800002202392 54.61908   2.641232   0.2213764 
2847.000002205372 61.55692   2.597842   0.2039448 
2847.200002208352 64.96624   2.553172   0.2181776 
2847.400002211332 63.29734   2.525787   0.2489147 
2847.600002214313 71.27626   2.538946   0.3090717 
2847.800002217293 77.33197   2.544921   0.3775748 
2848.000002220273 71.84846   2.602679   0.3717554 
2848.200002223253 63.30529   2.568892   0.3367579 
2848.400002226233 53.63363   2.519883   0.2584033 
2848.600002229214 52.96607   2.446548   0.2334992 
2848.800002232194 48.27726   2.448753   0.1935154 
2849.000002235174 46.6481    2.48823    0.2265373 
2849.200002238154 54.57934   2.471444   0.2442914 
2849.400002241135 57.40852   2.487661   0.2599623 
2849.600002244115 58.37807   2.498971   0.2509576 
2849.800002247095 65.76096   2.477774   0.254667  
2850.000002250075 70.16367   2.455368   0.2594381 
2850.200002253056 75.5995    2.42528    0.3251055 
2850.400002256036 82.99828   2.410627   0.3419726 
2850.600002259016 93.21829   2.410627   0.2747193 
2850.800002261996 101.8568   2.417811   0.2498286 
2851.000002264977 95.23685   2.566687   0.2283382 
2851.200002267957 90.57189   2.640022   0.2722867 
2851.400002270937 87.14668   2.575294   0.2760767 
2851.600002273917 85.66057   2.537524   0.3096899 
2851.800002276897 80.94792   2.499184   0.2807807 
2852.000002279878 75.79023   2.532189   0.2768025 
2852.200002282858 69.3769    2.582407   0.2896376 
2852.400002285838 68.15304   2.551892   0.3061149 
2852.600002288818 65.02982   2.535105   0.2394396 
2852.800002291799 55.57273   2.444556   0.2252067 
2853.000002294779 46.67989   2.450745   0.2253142 
2853.200002297759 51.76606   2.425493   0.2484712 
2853.400002300739 51.925     2.404866   0.2439823 
2853.60000230372 52.28262   2.380753   0.2421276 
2853.8000023067 52.99786   2.435096   0.2326525 
2854.00000230968 52.09189   2.462481   0.2901886 
2854.20000231266 53.72899   2.40828    0.3164905 
2854.40000231564 62.66952   2.357137   0.3384379 
2854.600002318621 72.07098   2.309623   0.3486657 
2854.800002321601 74.54253   2.249944   0.2889925 
2855.000002324581 74.12928   2.29184    0.2253411 
2855.200002327561 68.2643    2.382673   0.2200996 
2855.400002330542 69.86167   2.451883   0.2327734 
2855.600002333522 65.02982   2.498616   0.2681203 
2855.800002336502 66.46825   2.443987   0.3278472 
2856.000002339482 70.8948    2.432109   0.3273231 
2856.200002342463 70.23518   2.428196   0.3045828 
2856.400002345443 71.06964   2.415678   0.3266511 
2856.600002348423 66.30135   2.304359   0.3299438 
2856.800002351403 59.10126   2.181161   0.3801822 
