~Version
 VERS              .         2.0                           : CWLS LOG ASCII STANDARD - VERSION 2.0
 WRAP              .         NO                            : ONE LINE PER DEPTH STEP
 DLM               .         SPACE                         : DELIMITING CHARACTER(SPACE TAB OR COMMA)
~Well Information
#_______________________________________________________________________________
#
#PARAMETER_NAME    .UNIT     VALUE                         : DESCRIPTION
#_______________________________________________________________________________
STRT               .m        2699                          : First reference value
STOP               .m        2870.80000256002              : Last reference value
STEP               .m        0.2                           : Step increment
NULL               .         -9999                         : Missing value
COMP               .                                       : Company
WELL               .         405                           : Well name
FLD                .                                       : Field
LOC                .                                       : Location
CNTY               .                                       : County
STAT               .                                       : State
CTRY               .                                       : Country
SRVC               .                                       : Service Company
DATE               .                                       : Date
API                .                                       : API number
Cartographic_reference_system .         GCS_WGS_1984                  : GEOGCS["GCS_WGS_1984",DATUM["D_WGS_1984",SPHEROID["WGS_1984",6378137.0,298.257223563]],PRIMEM["Greenwich",0.0],UNIT["Degree",0.0174532925199433],AUTHORITY["EPSG",4326]]
EREF               .m        140.4                         : 
HZCS               .GCS_WGS_1984 World_Mercator                : PROJCS["World_Mercator",GEOGCS["GCS_WGS_1984",DATUM["D_WGS_1984",SPHEROID["WGS_1984",6378137.0,298.257223563]],PRIMEM["Greenwich",0.0],UNIT["Degree",0.0174532925199433]],PROJECTION["Mercator"],PARAMETER["False_Easting",0.0],PARAMETER["False_Northing",0.0],PARAMETER["Central_Meridian",0.0],PARAMETER["Standard_Parallel_1",0.0],UNIT["Meter",1.0],AUTHORITY["ESRI",54004]]
LATI               .dega     2.2605552291                  : GCS_WGS_1984
LONG               .dega     1.995158246                   : GCS_WGS_1984
PROJECT_UPGRADE_TIME .         2014-05-27T11_38_46           : 
Pad                .         Pad4                          : 
X                  .m        222100                        : 
Y                  .m        250025                        : 
group              .         Pad4                          : 
Интер-р            .         Ярышев                        : 
Куст               .         4                             : 
Статус             .         Проверено                     : 
Тип                .         Нагнетательные                : 
~Parameter Information Block
#_______________________________________________________________________________
#
#PARAMETER_NAME    .UNIT     VALUE                         : DESCRIPTION
#_______________________________________________________________________________
SET                .         LQC                           : 
PROJECT_UPGRADE_TIME .         2014-05-27T11_38_46           : 
TLFamily_GR_NORM   .         Gamma Ray                     : 
TLFamily_MD        .         Measured Depth                : 
TLFamily_RHOB_NORM .         Bulk Density                  : 
TLFamily_TNPH_NORM .         Neutron Porosity              : 
~Curve Information
#_______________________________________________________________________________
#
#LOGNAME           .UNIT     LOG_ID                        : DESCRIPTION
#_______________________________________________________________________________
MD                 .m                                      :  
GR_NORM            .gAPI                                   : Normalised By Techlog 
RHOB_NORM          .g/cm3                                  : Normalized By Techlog 
TNPH_NORM          .v/v                                    : Normalised By Techlog 
~Ascii
# ...
2730.600000470877 97.28722   2.622453   0.2465762 
2730.800000473857 91.54144   2.603746   0.2173444 
2731.000000476837 90.64342   2.577356   0.2529198 
2731.200000479817 90.22222   2.584967   0.2464552 
2731.400000482798 92.06595   2.581411   0.2355151 
2731.600000485778 97.38258   2.630633   0.228392  
2731.800000488758 87.71093   2.640307   0.2363484 
2732.000000491738 85.46189   2.573729   0.2184196 
2732.200000494719 84.88175   2.604671   0.2289833 
2732.400000497699 75.72665   2.585394   0.2091729 
2732.600000500679 69.42458   2.530411   0.2198173 
2732.800000503659 67.68416   2.512201   0.211283  
2733.000000506639 58.98204   2.497406   0.1891475 
2733.20000050962 55.95419   2.537595   0.1718503 
2733.4000005126 54.61908   2.535532   0.1762586 
2733.60000051558 53.94357   2.531122   0.1664475 
2733.80000051856 53.58595   2.573658   0.177186  
2734.000000521541 53.08528   2.575436   0.179296  
2734.200000524521 54.84159   2.5669     0.1896179 
2734.400000527501 54.28529   2.528988   0.214522  
2734.600000530481 51.24949   2.526925   0.2434044 
2734.800000533462 54.5555    2.499113   0.2282845 
2735.000000536442 61.01651   2.51839    0.1841344 
2735.200000539422 60.15823   2.523724   0.1877094 
2735.400000542402 55.11974   2.529272   0.1930585 
2735.600000545382 50.91571   2.550967   0.1875481 
2735.800000548363 45.48782   2.593005   0.1943487 
2736.000000551343 44.9951    2.587244   0.2055307 
2736.200000554323 49.67596   2.56811    0.2180298 
2736.400000557303 62.90793   2.49136    0.2028024 
2736.600000560284 65.92784   2.454159   0.2285533 
2736.800000563264 62.07349   2.409062   0.2721523 
2737.000000566244 55.14359   2.401523   0.268537  
2737.200000569224 57.91713   2.389928   0.2786707 
2737.400000572205 65.93578   2.446761   0.2806463 
2737.600000575185 72.83389   2.506866   0.2550299 
2737.800000578165 83.7612    2.546273   0.2166455 
2738.000000581145 87.87782   2.571097   0.2431625 
2738.200000584126 79.77174   2.587315   0.246509  
2738.400000587106 64.70398   2.563486   0.234534  
2738.600000590086 56.2244    2.493992   0.2294941 
2738.800000593066 55.20716   2.512272   0.2384585 
2739.000000596046 60.38074   2.513766   0.2150462 
2739.200000599027 64.84704   2.510281   0.2248304 
2739.400000602007 65.54638   2.508858   0.2322223 
2739.600000604987 67.53316   2.541934   0.2404207 
2739.800000607967 64.36225   2.529059   0.2236612 
2740.000000610948 54.91312   2.507293   0.2158526 
2740.200000613928 54.77007   2.528277   0.2145758 
2740.400000616908 65.42718   2.529059   0.2620993 
2740.600000619888 74.46307   2.542432   0.3047172 
2740.800000622869 74.04186   2.550327   0.2915998 
2741.000000625849 73.70808   2.484745   0.2724883 
2741.200000628829 75.03526   2.528846   0.2414825 
2741.400000631809 78.2459    2.46305    0.211955  
2741.600000634789 69.26564   2.415109   0.1883948 
2741.80000063777 61.34235   2.559076   0.1691758 
2742.00000064075 57.035     2.545846   0.1987167 
2742.20000064373 54.35682   2.479481   0.2136619 
2742.40000064671 60.99267   2.469808   0.2259594 
2742.600000649691 66.07883   2.516042   0.2137291 
2742.800000652671 62.78078   2.618612   0.2090251 
2743.000000655651 55.44558   2.619821   0.197991  
2743.200000658631 50.34352   2.502385   0.198757  
2743.400000661612 54.22172   2.605169   0.1985689 
2743.600000664592 52.85481   2.604528   0.2028159 
2743.800000667572 48.8574    2.526854   0.2223843 
2744.000000670552 50.28789   2.467745   0.2242256 
2744.200000673532 49.81106   2.494845   0.2332169 
2744.400000676513 51.0985    2.488657   0.2444258 
2744.600000679493 60.42048   2.470306   0.2636045 
2744.800000682473 67.8431    2.465966   0.265056  
2745.000000685453 70.41797   2.509641   0.2693971 
2745.200000688434 71.63388   2.491289   0.2676499 
2745.400000691414 76.577     2.483536   0.2451381 
2745.600000694394 83.85657   2.481544   0.2816812 
2745.800000697374 80.4552    2.461557   0.2831864 
2746.000000700355 71.62594   2.462481   0.2643168 
2746.200000703335 64.17947   2.459209   0.2615617 
2746.400000706315 61.81123   2.474502   0.2528795 
2746.600000709295 67.89079   2.423289   0.2405551 
2746.800000712276 69.19411   2.438439   0.239574  
2747.000000715256 69.86167   2.49762    0.2455816 
2747.200000718236 72.17429   2.50395    0.2301526 
2747.400000721216 73.99419   2.534536   0.2362947 
2747.600000724196 70.90274   2.513482   0.2132721 
2747.800000727177 77.49091   2.524151   0.2244003 
2748.000000730157 77.47502   2.577072   0.1987032 
2748.200000733137 66.46825   2.522088   0.1638536 
2748.400000736117 63.02714   2.589733   0.1596335 
2748.600000739098 53.32369   2.625725   0.1501046 
2748.800000742078 50.3912    2.590942   0.1674421 
2749.000000745058 52.57666   2.551252   0.1847795 
2749.200000748038 55.27869   2.555306   0.1984479 
2749.400000751019 63.56755   2.574654   0.1703719 
2749.600000753999 75.61539   2.597202   0.2134065 
2749.800000756979 91.44608   2.624445   0.2573818 
2750.000000759959 100.2277   2.597273   0.2457026 
2750.200000762939 96.95345   2.57821    0.2279485 
2750.40000076592 92.73351   2.563557   0.2368053 
2750.6000007689 95.10175   2.562917   0.2469928 
2750.80000077188 102.6356   2.598624   0.2422888 
2751.00000077486 101.9045   2.592436   0.2654995 
2751.200000777841 102.5164   2.598696   0.2631476 
2751.400000780821 102.1191   2.595139   0.2211479 
2751.600000783801 102.2303   2.524222   0.237558  
2751.800000786781 109.3112   2.519599   0.2498689 
2752.000000789762 115.0252   2.503737   0.2811973 
2752.200000792742 116.4239   2.504448   0.2975268 
2752.400000795722 105.4569   2.522302   0.347792  
2752.600000798702 99.66341   2.526214   0.3582886 
2752.800000801682 98.43161   2.559645   0.2959543 
2753.000000804663 99.25016   2.616905   0.2657683 
2753.200000807643 103.8198   2.592223   0.2563873 
2753.400000810623 97.81173   2.621386   0.2188093 
2753.600000813603 89.50698   2.622169   0.2199652 
2753.800000816584 86.06586   2.560427   0.2867211 
2754.000000819564 91.00104   2.544565   0.3329006 
2754.200000822544 103.8277   2.541151   0.3146089 
2754.400000825524 107.7695   2.542503   0.2847858 
2754.600000828505 115.0967   2.512415   0.2616961 
2754.800000831485 118.4822   2.495415   0.2850008 
2755.000000834465 122.7578   2.520666   0.2533768 
2755.200000837445 131.3009   2.557085   0.2700288 
2755.400000840425 127.5419   2.543997   0.2861163 
2755.600000843406 109.4543   2.559076   0.3196623 
2755.800000846386 110.9801   2.579633   0.335508  
2756.000000849366 107.9999   2.589449   0.3180361 
2756.200000852346 110.3761   2.529557   0.2984004 
2756.400000855327 107.7298   2.534536   0.2803237 
2756.600000858307 107.7774   2.522017   0.2497748 
2756.800000861287 97.81173   2.594926   0.2793292 
2757.000000864267 89.45135   2.620319   0.2913579 
2757.200000867248 91.6686    2.607018   0.2834284 
2757.400000870228 101.531    2.61911    0.2514011 
2757.600000873208 106.943    2.609365   0.2308112 
2757.800000876188 107.7059   2.57693    0.2748537 
2758.000000879169 110.4874   2.535176   0.2853099 
2758.200000882149 117.4173   2.532047   0.2521    
2758.400000885129 129.1314   2.510779   0.235542  
2758.600000888109 140.7819   2.46995    0.2390364 
2758.800000891089 157.0814   2.425778   0.2948254 
2759.00000089407 172.9757   2.423786   0.2823532 
2759.20000089705 171.8234   2.44292    0.2483771 
2759.40000090003 172.4115   2.491289   0.2732678 
2759.60000090301 170.679    2.564766   0.3204822 
2759.800000905991 173.0234   2.508929   0.3155901 
2760.000000908971 166.3796   2.468314   0.3603046 
2760.200000911951 176.0989   2.413615   0.3437332 
2760.400000914931 180.0963   2.444628   0.3366773 
2760.600000917912 174.7956   2.458569   0.3259656 
2760.800000920892 171.275    2.438439   0.3100528 
2761.000000923872 172.5227   2.464331   0.3269871 
2761.200000926852 176.6155   2.410485   0.3253609 
2761.400000929832 190.6978   2.403514   0.3099587 
2761.600000932813 196.0224   2.404083   0.3263689 
2761.800000935793 206.5205   2.397184   0.3188559 
2762.000000938773 221.3101   2.381748   0.358759  
