~Version
 VERS              .         2.0                           : CWLS LOG ASCII STANDARD - VERSION 2.0
 WRAP              .         NO                            : ONE LINE PER DEPTH STEP
 DLM               .         SPACE                         : DELIMITING CHARACTER(SPACE TAB OR COMMA)
~Well Information
#_______________________________________________________________________________
#
#PARAMETER_NAME    .UNIT     VALUE                         : DESCRIPTION
#_______________________________________________________________________________
STRT               .m        2699                          : First reference value
STOP               .m        2870.80000256002              : Last reference value
STEP               .m        0.2                           : Step increment
NULL               .         -9999                         : Missing value
COMP               .                                       : Company
WELL               .         405                           : Well name
FLD                .                                       : Field
LOC                .                                       : Location
CNTY               .                                       : County
STAT               .                                       : State
CTRY               .                                       : Country
SRVC               .                                       : Service Company
DATE               .                                       : Date
API                .                                       : API number
Cartographic_reference_system .         GCS_WGS_1984                  : GEOGCS["GCS_WGS_1984",DATUM["D_WGS_1984",SPHEROID["WGS_1984",6378137.0,298.257223563]],PRIMEM["Greenwich",0.0],UNIT["Degree",0.0174532925199433],AUTHORITY["EPSG",4326]]
EREF               .m        140.4                         : 
HZCS               .GCS_WGS_1984 World_Mercator                : PROJCS["World_Mercator",GEOGCS["GCS_WGS_1984",DATUM["D_WGS_1984",SPHEROID["WGS_1984",6378137.0,298.257223563]],PRIMEM["Greenwich",0.0],UNIT["Degree",0.0174532925199433]],PROJECTION["Mercator"],PARAMETER["False_Easting",0.0],PARAMETER["False_Northing",0.0],PARAMETER["Central_Meridian",0.0],PARAMETER["Standard_Parallel_1",0.0],UNIT["Meter",1.0],AUTHORITY["ESRI",54004]]
LATI               .dega     2.2605552291                  : GCS_WGS_1984
LONG               .dega     1.995158246                   : GCS_WGS_1984
PROJECT_UPGRADE_TIME .         2014-05-27T11_38_46           : 
Pad                .         Pad4                          : 
X                  .m        222100                        : 
Y                  .m        250025                        : 
group              .         Pad4                          : 
Интер-р            .         Ярышев                        : 
Куст               .         4                             : 
Статус             .         Проверено                     : 
Тип                .         Нагнетательные                : 
~Parameter Information Block
#_______________________________________________________________________________
#
#PARAMETER_NAME    .UNIT     VALUE                         : DESCRIPTION
#_______________________________________________________________________________
SET                .         LQC                           : 
PROJECT_UPGRADE_TIME .         2014-05-27T11_38_46           : 
TLFamily_GR_NORM   .         Gamma Ray                     : 
TLFamily_MD        .         Measured Depth                : 
TLFamily_RHOB_NORM .         Bulk Density                  : 
TLFamily_TNPH_NORM .         Neutron Porosity              : 
~Curve Information
#_______________________________________________________________________________
#
#LOGNAME           .UNIT     LOG_ID                        : DESCRIPTION
#_______________________________________________________________________________
MD                 .m                                      :  
GR_NORM            .gAPI                                   : Normalised By Techlog 
RHOB_NORM          .g/cm3                                  : Normalized By Techlog 
TNPH_NORM          .v/v                                    : Normalised By Techlog 
~Ascii
2699.0     77.9439    2.526499   0.2990455 
2699.20000000298 78.07901   2.533896   0.2589946 
2699.40000000596 79.59691   2.492      0.2684295 
2699.600000008941 83.31616   2.482611   0.2778642 
2699.800000011921 78.72272   2.484034   0.280821  
2700.000000014901 78.94524   2.52849    0.3269468 
2700.200000017881 76.87899   2.534821   0.3339221 
2700.400000020862 75.01936   2.534963   0.3246485 
2700.600000023842 76.40216   2.527637   0.3083459 
2700.800000026822 79.12008   2.544139   0.2733887 
2701.000000029802 72.45244   2.510494   0.2433775 
2701.200000032783 77.00614   2.537808   0.2170487 
2701.400000035763 70.95043   2.57508    0.2122372 
2701.600000038743 75.72665   2.583972   0.2214032 
2701.800000041723 77.78496   2.575649   0.2477186 
2702.000000044703 75.38493   2.561566   0.2370204 
2702.200000047684 74.42332   2.551465   0.2183524 
2702.400000050664 80.9956    2.526356   0.225153  
2702.600000053644 81.18633   2.552603   0.2564276 
2702.800000056624 83.38769   2.567398   0.2567233 
2703.000000059605 79.4777    2.552461   0.2888178 
2703.200000062585 78.18232   2.611712   0.3225923 
2703.400000065565 81.11481   2.565264   0.3212482 
2703.600000068545 79.12803   2.542005   0.3040721 
2703.800000071526 82.8155    2.554168   0.2838719 
2704.000000074506 80.83665   2.540155   0.2691686 
2704.200000077486 80.28831   2.526356   0.2815871 
2704.400000080466 80.93202   2.544494   0.2620724 
2704.600000083447 75.64718   2.601185   0.2726227 
2704.800000086427 76.5452    2.594641   0.2660506 
2705.000000089407 79.43797   2.591511   0.2503259 
2705.200000092387 75.55181   2.627005   0.2521537 
2705.400000095367 72.36501   2.648273   0.2318192 
2705.600000098348 72.30939   2.608227   0.2251126 
2705.800000101328 72.31734   2.604457   0.2409314 
2706.000000104308 73.42198   2.563059   0.252651  
2706.200000107288 74.61405   2.60275    0.2638061 
2706.400000110269 76.76773   2.615696   0.2707008 
2706.600000113249 75.96507   2.587173   0.2725017 
2706.800000116229 78.39689   2.553599   0.3214767 
2707.000000119209 80.28036   2.528277   0.3181033 
2707.20000012219 78.32536   2.593503   0.2848261 
2707.40000012517 73.89087   2.542361   0.2770041 
2707.60000012815 71.20473   2.500252   0.2598145 
2707.80000013113 72.59548   2.499256   0.2591828 
2708.00000013411 74.02597   2.496766   0.2864523 
2708.200000137091 75.3134    2.550612   0.2817081 
2708.400000140071 79.31876   2.549331   0.2606477 
2708.600000143051 80.90819   2.555093   0.2611181 
2708.800000146031 86.55065   2.534038   0.283845  
2709.000000149012 88.94273   2.493138   0.2617901 
2709.200000151992 88.16392   2.524364   0.2730797 
2709.400000154972 85.30295   2.508289   0.2956721 
2709.600000157952 80.5903    2.520168   0.3205225 
2709.800000160933 75.76639   2.52785    0.2784959 
2710.000000163913 74.79684   2.527565   0.3035076 
2710.200000166893 74.39153   2.49826    0.280606  
2710.400000169873 76.33858   2.53603    0.2747999 
2710.600000172853 77.90417   2.553457   0.2607687 
2710.800000175834 78.23      2.555164   0.268201  
2711.000000178814 80.66977   2.550967   0.2612122 
2711.200000181794 83.14928   2.577356   0.2372086 
2711.400000184774 83.29232   2.589875   0.2504737 
2711.600000187755 80.12142   2.569817   0.2959275 
2711.800000190735 79.29491   2.551323   0.2887237 
2712.000000193715 76.76773   2.553884   0.2982257 
2712.200000196695 73.87497   2.572947   0.2691552 
2712.400000199676 75.89354   2.575578   0.272112  
2712.600000202656 77.58628   2.607373   0.2772863 
2712.800000205636 77.45118   2.559289   0.2707545 
2713.000000208616 79.2234    2.592507   0.2588468 
2713.200000211596 78.15847   2.599265   0.2441839 
2713.400000214577 77.09356   2.589947   0.2539681 
2713.600000217557 71.96767   2.586959   0.2909547 
2713.800000220537 74.68559   2.583545   0.3149315 
2714.000000223517 77.80085   2.604528   0.3342177 
2714.200000226498 75.79023   2.640164   0.303306  
2714.400000229478 78.60352   2.648202   0.2713997 
2714.600000232458 76.10017   2.605809   0.2629325 
2714.800000235438 75.76639   2.638955   0.2698675 
2715.000000238419 76.17169   2.63988    0.2950673 
2715.200000241399 77.32403   2.609152   0.2752031 
2715.400000244379 81.18633   2.63483    0.2544385 
2715.600000247359 81.23402   2.607231   0.2729183 
2715.80000025034 81.83005   2.554381   0.2775014 
2716.00000025332 80.50288   2.526996   0.2798533 
2716.2000002563 73.60477   2.541151   0.2537127 
2716.40000025928 67.54111   2.52785    0.2326525 
2716.60000026226 67.79542   2.576076   0.2402728 
2716.800000265241 73.85908   2.582549   0.2694509 
2717.000000268221 74.18491   2.581553   0.2979838 
2717.200000271201 76.9823    2.56249    0.3158723 
2717.400000274181 77.35581   2.557013   0.3277263 
2717.600000277162 73.27894   2.579206   0.3332769 
2717.800000280142 75.93328   2.566616   0.3152406 
2718.000000283122 81.56779   2.584043   0.2908203 
2718.200000286102 88.53743   2.607089   0.3004836 
2718.400000289083 86.74932   2.578281   0.2848261 
2718.600000292063 83.16517   2.592721   0.2562663 
2718.800000295043 77.82469   2.625867   0.2781599 
2719.000000298023 81.2817    2.633976   0.2920971 
2719.200000301003 78.55583   2.571879   0.3010212 
2719.400000303984 82.36251   2.576219   0.2985885 
2719.600000306964 84.73076   2.548193   0.3140042 
2719.800000309944 83.21285   2.579775   0.3067735 
2720.000000312924 90.38116   2.60026    0.2660103 
2720.200000315905 90.41296   2.575294   0.2375042 
2720.400000318885 92.10569   2.582549   0.220664  
2720.600000321865 89.8646    2.592365   0.2506216 
2720.800000324845 88.45      2.56811    0.2708755 
2721.000000327826 83.57047   2.548051   0.2877426 
2721.200000330806 78.15053   2.563913   0.2598817 
2721.400000333786 73.33457   2.582762   0.3093136 
2721.600000336766 74.84452   2.547837   0.3140445 
2721.800000339746 76.9823    2.536812   0.2870706 
2722.000000342727 80.19294   2.550042   0.2618842 
2722.200000345707 80.64593   2.591156   0.2779449 
2722.400000348687 77.10945   2.589164   0.2589946 
2722.600000351667 75.55181   2.62978    0.2647335 
2722.800000354648 78.26179   2.61029    0.2370876 
2723.000000357628 79.73995   2.611712   0.2597204 
2723.200000360608 80.56646   2.59144    0.2644109 
2723.400000363588 79.31081   2.580984   0.2456488 
2723.600000366569 79.50154   2.550469   0.2437    
2723.800000369549 80.13731   2.562277   0.230287  
2724.000000372529 83.40359   2.543499   0.2216183 
2724.200000375509 80.75719   2.565691   0.2221021 
2724.400000378489 80.59824   2.592294   0.2242794 
2724.60000038147 83.5069    2.625369   0.2212151 
2724.80000038445 79.93069   2.620106   0.1987301 
2725.00000038743 72.90543   2.570386   0.1982866 
2725.20000039041 76.30679   2.572306   0.2010955 
2725.400000393391 78.70683   2.571666   0.1890265 
2725.600000396371 84.19035   2.627717   0.2273571 
2725.800000399351 82.37046   2.618612   0.2348969 
2726.000000402331 82.70424   2.576716   0.2370338 
2726.200000405312 82.56118   2.595281   0.233311  
2726.400000408292 78.93729   2.588524   0.2233923 
2726.600000411272 77.90417   2.594997   0.237101  
2726.800000414252 69.87756   2.514975   0.2236208 
2727.000000417233 70.82327   2.549402   0.205356  
2727.200000420213 71.94382   2.587599   0.1993752 
2727.400000423193 64.53709   2.579846   0.2141995 
2727.600000426173 73.93855   2.559361   0.2495329 
2727.800000429153 80.35188   2.555591   0.2611988 
2728.000000432134 87.90166   2.624871   0.2819768 
2728.200000435114 85.9864    2.570741   0.2872319 
2728.400000438094 88.10828   2.601897   0.2684967 
2728.600000441074 85.8513    2.630348   0.2183658 
2728.800000444055 84.11088   2.584754   0.2170084 
2729.000000447035 82.64861   2.566829   0.2334857 
2729.200000450015 87.09899   2.570172   0.2231908 
2729.400000452995 87.28178   2.562562   0.2076273 
2729.600000455976 88.73611   2.565336   0.2054635 
2729.800000458956 89.06194   2.566829   0.233432  
2730.000000461936 84.44466   2.602039   0.2229085 
2730.200000464916 83.84068   2.569746   0.2297897 
2730.400000467896 89.03015   2.5977     0.2481218 
