~Version
 VERS              .         2.0                           : CWLS LOG ASCII STANDARD - VERSION 2.0
 WRAP              .         NO                            : ONE LINE PER DEPTH STEP
 DLM               .         SPACE                         : DELIMITING CHARACTER(SPACE TAB OR COMMA)
~Well Information
#_______________________________________________________________________________
#
#PARAMETER_NAME    .UNIT     VALUE                         : DESCRIPTION
#_______________________________________________________________________________
STRT               .m        2792                          : First reference value
STOP               .m        3023.80000345409              : Last reference value
STEP               .m        0.2                           : Step increment
NULL               .         -9999                         : Missing value
COMP               .                                       : Company
WELL               .         406                           : Well name
FLD                .                                       : Field
LOC                .                                       : Location
CNTY               .                                       : County
STAT               .                                       : State
CTRY               .                                       : Country
SRVC               .                                       : Service Company
DATE               .                                       : Date
API                .                                       : API number
Cartographic_reference_system .         GCS_WGS_1984                  : GEOGCS["GCS_WGS_1984",DATUM["D_WGS_1984",SPHEROID["WGS_1984",6378137.0,298.257223563]],PRIMEM["Greenwich",0.0],UNIT["Degree",0.0174532925199433],AUTHORITY["EPSG",4326]]
EREF               .m        140.4                         : 
HZCS               .GCS_WGS_1984 World_Mercator                : PROJCS["World_Mercator",GEOGCS["GCS_WGS_1984",DATUM["D_WGS_1984",SPHEROID["WGS_1984",6378137.0,298.257223563]],PRIMEM["Greenwich",0.0],UNIT["Degree",0.0174532925199433]],PROJECTION["Mercator"],PARAMETER["False_Easting",0.0],PARAMETER["False_Northing",0.0],PARAMETER["Central_Meridian",0.0],PARAMETER["Standard_Parallel_1",0.0],UNIT["Meter",1.0],AUTHORITY["ESRI",54004]]
LATI               .dega     2.2605552291                  : GCS_WGS_1984
LONG               .dega     1.995158246                   : GCS_WGS_1984
PROJECT_UPGRADE_TIME .         2014-05-27T11_38_46           : 
Pad                .         Pad4                          : 
X                  .m        222100                        : 
Y                  .m        250025                        : 
group              .         Pad4                          : 
Интер-р            .         Пузин                         : 
Куст               .         4                             : 
Статус             .         Проверено                     : 
Тип                .         Нагнетательные                : 
~Parameter Information Block
#_______________________________________________________________________________
#
#PARAMETER_NAME    .UNIT     VALUE                         : DESCRIPTION
#_______________________________________________________________________________
SET                .         LQC                           : 
PROJECT_UPGRADE_TIME .         2014-05-27T11_38_46           : 
TLFamily_GR_NORM   .         Gamma Ray                     : 
TLFamily_MD        .         Measured Depth                : 
TLFamily_RHOB_NORM .         Bulk Density                  : 
TLFamily_TNPH_NORM .         Neutron Porosity              : 
~Curve Information
#_______________________________________________________________________________
#
#LOGNAME           .UNIT     LOG_ID                        : DESCRIPTION
#_______________________________________________________________________________
MD                 .m                                      :  
GR_NORM            .gAPI                                   : Normalised By Techlog 
RHOB_NORM          .g/cm3                                  : Normalized By Techlog 
TNPH_NORM          .v/v                                    : Normalised By Techlog 
~Ascii
# ...
2950.000002354383 124.1142   2.451571   0.3056076 
2950.200002357364 122.6777   2.516611   0.3015838 
2950.400002360344 120.0674   2.494474   0.3086255 
2950.600002363324 119.0688   2.53483    0.2955482 
2950.800002366304 118.0265   2.494082   0.2864947 
2951.000002369285 116.4323   2.419835   0.2925303 
2951.200002372265 113.4278   2.469398   0.298566  
2951.400002375245 112.7797   2.504661   0.3025898 
2951.600002378225 117.4484   2.478802   0.298566  
2951.800002381206 124.2368   2.481152   0.2965541 
2952.000002384186 129.4136   2.451375   0.298566  
2952.200002387166 130.3683   2.469007   0.3015838 
2952.400002390146 132.637    2.49467    0.3126493 
2952.600002393126 132.2603   2.487226   0.3277384 
2952.800002396107 127.0661   2.517199   0.3367919 
2953.000002399087 125.2792   2.550306   0.3488632 
2953.200002402067 124.6573   2.498196   0.3629465 
2953.400002405047 121.1535   2.446478   0.3548989 
2953.600002408028 119.0776   2.464501   0.3367919 
2953.800002411008 121.8105   2.453726   0.3247206 
2954.000002413988 125.9799   2.438446   0.3257265 
2954.200002416968 125.2003   2.464305   0.3267325 
2954.400002419949 121.9857   2.455685   0.316673  
2954.600002422929 114.6366   2.570877   0.2935363 
2954.800002425909 105.6408   2.622007   0.2824709 
2955.000002428889 103.5474   2.539532   0.2744233 
2955.20000243187 114.2775   2.590075   0.2784471 
2955.40000243485 120.8295   2.599087   0.2925303 
2955.60000243783 120.9521   2.565587   0.299572  
2955.80000244081 125.6471   2.536201   0.3005779 
2956.00000244379 129.0457   2.541883   0.3005779 
2956.200002446771 127.9508   2.546976   0.316673  
2956.400002449751 124.9376   2.480173   0.3186849 
2956.600002452731 125.1566   2.47939    0.3227087 
2956.800002455711 129.2734   2.453726   0.317679  
2957.000002458692 131.8049   2.505641   0.3287444 
2957.200002461672 132.4355   2.48703    0.3398097 
2957.400002464652 131.218    2.490556   0.3297503 
2957.600002467632 129.9128   2.406709   0.3287444 
2957.800002470613 128.9493   2.443735   0.3247206 
2958.000002473593 122.4412   2.424536   0.3146611 
2958.200002476573 115.6965   2.393388   0.3116433 
2958.400002479553 114.9082   2.488597   0.3066136 
2958.600002482533 118.6396   2.490752   0.3076195 
2958.800002485514 118.4557   2.52817    0.3106374 
2959.000002488494 116.441    2.5315     0.3096314 
2959.200002491474 114.4089   2.549523   0.316673  
2959.400002494454 114.1724   2.527581   0.3015838 
2959.600002497435 116.2308   2.432569   0.2895125 
2959.800002500415 116.8615   2.427867   0.280459  
2960.000002503395 117.825    2.462346   0.2784471 
2960.200002506375 117.7549   2.528561   0.2895125 
2960.400002509356 115.5126   2.470182   0.3046017 
2960.600002512336 115.5651   2.447849   0.3206968 
2960.800002515316 120.6543   2.469398   0.3227087 
2961.000002518296 122.7915   2.483307   0.3257265 
2961.200002521276 121.8193   2.459603   0.3297503 
2961.400002524257 121.4251   2.497609   0.3337741 
2961.600002527237 121.2061   2.432177   0.3398097 
2961.800002530217 121.1623   2.450984   0.3468513 
2962.000002533197 120.19     2.4741     0.335786  
2962.200002536178 119.174    2.412195   0.3126493 
2962.400002539158 119.2791   2.337947   0.298566  
2962.600002542138 119.1039   2.45451    0.298566  
2962.800002545118 118.0703   2.548543   0.2875006 
2963.000002548099 117.9301   2.524447   0.2714055 
2963.200002551079 118.3418   2.494474   0.2653698 
2963.400002554059 115.9943   2.548347   0.2502806 
2963.600002557039 110.0818   2.582238   0.2311677 
2963.800002560019 101.9882   2.638855   0.2120547 
2964.000002563 98.05528   2.606923   0.1949537 
2964.20000256598 104.0642   2.655506   0.1798645 
2964.40000256896 111.8687   2.605355   0.1657813 
2964.60000257194 109.4424   2.575578   0.1486802 
2964.800002574921 92.44057   2.562257   0.1285613 
2965.000002577901 64.37578   2.561669   0.1185019 
2965.200002580881 41.87314   2.593601   0.1174959 
2965.400002583861 36.74895   2.633957   0.1295673 
2965.600002586842 39.17527   2.653352   0.1396267 
2965.800002589822 39.95485   2.555792   0.151698  
2966.000002592802 37.0818    2.551874   0.1506921 
2966.200002595782 36.32851   2.479781   0.1496862 
2966.400002598763 37.19567   2.463325   0.1587397 
2966.600002601743 36.32851   2.361847   0.1718169 
2966.800002604723 35.27739   2.369096   0.1818764 
2967.000002607703 34.72555   2.429826   0.1879121 
2967.200002610683 35.90805   2.435899   0.1909299 
2967.400002613664 36.89786   2.46548    0.1818764 
2967.600002616644 35.40878   2.531108   0.1718169 
2967.800002619624 33.14888   2.554029   0.1718169 
2968.000002622604 31.35322   2.428846   0.1738288 
2968.200002625585 31.01161   2.345979   0.170811  
2968.400002628565 31.0554    2.352836   0.1677932 
2968.600002631545 32.03645   2.352248   0.1587397 
2968.800002634525 35.08468   2.368312   0.1486802 
2969.000002637506 36.98545   2.466264   0.1436505 
2969.200002640486 37.07304   2.608686   0.1396267 
2969.400002643466 37.44969   2.647866   0.1426445 
2969.600002646446 37.47597   2.549131   0.1456624 
2969.800002649426 38.15919   2.559122   0.1446564 
2970.000002652407 36.79275   2.523076   0.1456624 
2970.200002655387 35.3387    2.53914    0.151698  
2970.400002658367 35.62776   2.55109    0.1647753 
2970.600002661347 35.19855   2.57166    0.1748348 
2970.800002664328 33.42041   2.492123   0.1728229 
2971.000002667308 33.58684   2.449612   0.170811  
2971.200002670288 34.51533   2.439621   0.170811  
2971.400002673268 33.63064   2.423361   0.1758407 
2971.600002676249 33.84962   2.430218   0.1838883 
2971.800002679229 36.54749   2.468419   0.1748348 
2972.000002682209 40.8483    2.474688   0.1728229 
2972.200002685189 41.82058   2.396131   0.1808704 
2972.400002688169 42.81914   2.386335   0.1899239 
2972.60000269115 43.02937   2.403967   0.1949537 
2972.80000269413 43.43229   2.409648   0.1919358 
2973.00000269711 43.79142   2.484875   0.1879121 
2973.20000270009 42.00453   2.487226   0.1838883 
2973.400002703071 40.77823   2.481936   0.1808704 
2973.600002706051 41.3651    2.480761   0.1768467 
2973.800002709031 40.20887   2.555596   0.1758407 
2974.000002712011 36.74895   2.464109   0.1788586 
2974.200002714992 36.95918   2.422578   0.1808704 
2974.400002717972 41.21619   2.435311   0.1788586 
2974.600002720952 46.72579   2.402987   0.1828823 
2974.800002723932 50.77259   2.493299   0.1838883 
2975.000002726912 52.08648   2.503877   0.1798645 
2975.200002729893 52.54197   2.543058   0.1828823 
2975.400002732873 51.95509   2.566958   0.1869061 
2975.600002735853 51.18428   2.535418   0.1909299 
2975.800002738833 49.8003    2.518766   0.1909299 
2976.000002741814 47.93457   2.504073   0.1969656 
2976.200002744794 47.42653   2.464893   0.2019953 
2976.400002747774 46.71703   2.461758   0.2090369 
2976.600002750754 45.69219   2.471553   0.2150726 
2976.800002753735 47.18127   2.485071   0.2110488 
2977.000002756715 48.52145   2.486442   0.1979715 
2977.200002759695 47.70683   2.590662   0.1869061 
2977.400002762675 45.35058   2.534634   0.1919358 
2977.600002765656 44.22063   2.48174    0.1979715 
2977.800002768636 44.06297   2.510734   0.1949537 
2978.000002771616 41.15487   2.526015   0.1919358 
2978.200002774596 38.68476   2.548739   0.1909299 
2978.400002777576 38.81614   2.507404   0.1959596 
2978.600002780557 39.19279   2.521509   0.2060191 
2978.800002783537 39.16652   2.52719    0.2110488 
2979.000002786517 39.07016   2.577341   0.2150726 
2979.200002789497 38.73731   2.581847   0.2180904 
2979.400002792478 39.95485   2.568917   0.2201023 
2979.600002795458 41.87314   2.536593   0.2201023 
2979.800002798438 43.78267   2.475275   0.2140666 
2980.000002801418 43.1082    2.453922   0.2140666 
2980.200002804399 37.31831   2.429434   0.2100428 
2980.400002807379 35.3825    2.430022   0.207025  
2980.600002810359 37.69495   2.459211   0.207025  
2980.800002813339 38.34314   2.503094   0.2040072 
2981.000002816319 37.26575   2.562648   0.2009894 
2981.2000028193 35.75039   2.536201   0.1919358 
2981.40000282228 35.08468   2.501918   0.1788586 
