~Version
 VERS              .         2.0                           : CWLS LOG ASCII STANDARD - VERSION 2.0
 WRAP              .         NO                            : ONE LINE PER DEPTH STEP
 DLM               .         SPACE                         : DELIMITING CHARACTER(SPACE TAB OR COMMA)
~Well Information
#_______________________________________________________________________________
#
#PARAMETER_NAME    .UNIT     VALUE                         : DESCRIPTION
#_______________________________________________________________________________
STRT               .m        2792                          : First reference value
STOP               .m        3023.80000345409              : Last reference value
STEP               .m        0.2                           : Step increment
NULL               .         -9999                         : Missing value
COMP               .                                       : Company
WELL               .         406                           : Well name
FLD                .                                       : Field
LOC                .                                       : Location
CNTY               .                                       : County
STAT               .                                       : State
CTRY               .                                       : Country
SRVC               .                                       : Service Company
DATE               .                                       : Date
API                .                                       : API number
Cartographic_reference_system .         GCS_WGS_1984                  : GEOGCS["GCS_WGS_1984",DATUM["D_WGS_1984",SPHEROID["WGS_1984",6378137.0,298.257223563]],PRIMEM["Greenwich",0.0],UNIT["Degree",0.0174532925199433],AUTHORITY["EPSG",4326]]
EREF               .m        140.4                         : 
HZCS               .GCS_WGS_1984 World_Mercator                : PROJCS["World_Mercator",GEOGCS["GCS_WGS_1984",DATUM["D_WGS_1984",SPHEROID["WGS_1984",6378137.0,298.257223563]],PRIMEM["Greenwich",0.0],UNIT["Degree",0.0174532925199433]],PROJECTION["Mercator"],PARAMETER["False_Easting",0.0],PARAMETER["False_Northing",0.0],PARAMETER["Central_Meridian",0.0],PARAMETER["Standard_Parallel_1",0.0],UNIT["Meter",1.0],AUTHORITY["ESRI",54004]]
LATI               .dega     2.2605552291                  : GCS_WGS_1984
LONG               .dega     1.995158246                   : GCS_WGS_1984
PROJECT_UPGRADE_TIME .         2014-05-27T11_38_46           : 
Pad                .         Pad4                          : 
X                  .m        222100                        : 
Y                  .m        250025                        : 
group              .         Pad4                          : 
Интер-р            .         Пузин                         : 
Куст               .         4                             : 
Статус             .         Проверено                     : 
Тип                .         Нагнетательные                : 
~Parameter Information Block
#_______________________________________________________________________________
#
#PARAMETER_NAME    .UNIT     VALUE                         : DESCRIPTION
#_______________________________________________________________________________
SET                .         LQC                           : 
PROJECT_UPGRADE_TIME .         2014-05-27T11_38_46           : 
TLFamily_GR_NORM   .         Gamma Ray                     : 
TLFamily_MD        .         Measured Depth                : 
TLFamily_RHOB_NORM .         Bulk Density                  : 
TLFamily_TNPH_NORM .         Neutron Porosity              : 
~Curve Information
#_______________________________________________________________________________
#
#LOGNAME           .UNIT     LOG_ID                        : DESCRIPTION
#_______________________________________________________________________________
MD                 .m                                      :  
GR_NORM            .gAPI                                   : Normalised By Techlog 
RHOB_NORM          .g/cm3                                  : Normalized By Techlog 
TNPH_NORM          .v/v                                    : Normalised By Techlog 
~Ascii
# ...
2918.400001883507 331.7183   2.25939    0.3740119 
2918.600001886487 331.5256   2.305427   0.3398097 
2918.800001889467 339.8119   2.315027   0.3217027 
2919.000001892447 352.6706   2.278001   0.3196909 
2919.200001895428 361.2459   2.286425   0.3327681 
2919.400001898408 361.6751   2.342453   0.3377979 
2919.600001901388 358.2502   2.281919   0.3548989 
2919.800001904368 373.0797   2.261349   0.3820595 
2920.000001907349 395.1357   2.241563   0.3850773 
2920.200001910329 401.3109   2.297787   0.3669703 
2920.400001913309 386.28     2.3689     0.3649584 
2920.600001916289 364.7234   2.32776    0.373006  
2920.80000191927 348.4486   2.239604   0.3569108 
2921.00000192225 332.8307   2.266247   0.352887  
2921.20000192523 311.9311   2.350289   0.3599286 
2921.40000192821 293.2562   2.332854   0.372     
2921.60000193119 287.9568   2.296024   0.3830654 
2921.800001934171 300.5965   2.289363   0.3850773 
2922.000001937151 311.7909   2.25077    0.4031843 
2922.200001940131 317.5458   2.254101   0.3961427 
2922.400001943111 318.921    2.29093    0.3740119 
2922.600001946092 325.1313   2.26801    0.3770297 
2922.800001949072 332.3665   2.252141   0.3750179 
2923.000001952052 336.4046   2.253317   0.3921189 
2923.200001955032 337.736    2.279372   0.3931248 
2923.400001958013 334.968    2.287796   0.3911129 
2923.600001960993 320.6729   2.266051   0.3981546 
2923.800001963973 305.6419   2.282702   0.4031843 
2924.000001966953 296.2432   2.227654   0.4162616 
2924.200001969934 289.9452   2.183379   0.4192794 
2924.400001972914 288.097    2.17711    0.4112318 
2924.600001975894 290.2606   2.167707   0.40922   
2924.800001978874 286.2751   2.145962   0.4041902 
2925.000001981854 280.1961   2.139497   0.3941308 
2925.200001984835 275.4135   2.110504   0.3860832 
2925.400001987815 257.5533   2.168883   0.3810535 
2925.600001990795 232.4667   2.169471   0.390107  
2925.800001993775 214.2737   2.203753   0.3911129 
2926.000001996756 207.6341   2.209043   0.3639524 
2926.200001999736 208.983    2.200423   0.3438335 
2926.400002002716 209.3509   2.241955   0.3458454 
2926.600002005696 204.8399   2.301509   0.3367919 
2926.800002008677 199.5055   2.344216   0.3277384 
2927.000002011657 191.8849   2.38183    0.3367919 
2927.200002014637 183.2745   2.345783   0.3649584 
2927.400002017617 171.6684   2.340298   0.3790416 
2927.600002020597 160.9295   2.317965   0.3659643 
2927.800002023578 150.6812   2.34069    0.3488632 
2928.000002026558 141.37     2.351269   0.3398097 
2928.200002029538 135.221    2.410823   0.3257265 
2928.400002032518 134.8268   2.418856   0.3116433 
2928.600002035499 139.1977   2.408473   0.3116433 
2928.800002038479 145.0927   2.396131   0.317679  
2929.000002041459 152.0476   2.396131   0.3277384 
2929.200002044439 153.3615   2.381242   0.3498692 
2929.40000204742 150.5322   2.396131   0.3458454 
2929.6000020504 147.3176   2.333637   0.3267325 
2929.80000205338 145.2241   2.351465   0.3066136 
2930.00000205636 146.7657   2.462542   0.3015838 
2930.20000205934 147.8431   2.491732   0.3015838 
2930.400002062321 140.0298   2.536985   0.2885065 
2930.600002065301 132.4793   2.47508    0.2935363 
2930.800002068281 129.2734   2.4406     0.2965541 
2931.000002071261 127.5391   2.439229   0.2955482 
2931.200002074242 121.4163   2.426887   0.2875006 
2931.400002077222 113.9184   2.412978   0.2864947 
2931.600002080202 108.9694   2.455294   0.280459  
2931.800002083182 106.7708   2.459211   0.2734174 
2932.000002086163 103.8101   2.461562   0.2794531 
2932.200002089143 100.6042   2.396914   0.2895125 
2932.400002092123 100.8145   2.36126    0.2955482 
2932.600002095103 103.9415   2.360672   0.3035957 
2932.800002098083 108.6102   2.341865   0.3146611 
2933.000002101064 113.3665   2.392213   0.3126493 
2933.200002104044 114.9169   2.402596   0.3106374 
2933.400002107024 115.1272   2.386532   0.3035957 
2933.600002110004 114.8994   2.396718   0.2885065 
2933.800002112985 116.2834   2.375365   0.2683877 
2934.000002115965 119.0163   2.358713   0.2734174 
2934.200002118945 117.6236   2.367529   0.3005779 
2934.400002121925 116.1082   2.335205   0.3136552 
2934.600002124906 116.8878   2.339906   0.3287444 
2934.800002127886 116.9491   2.308366   0.33478   
2935.000002130866 116.0118   2.295436   0.3398097 
2935.200002133846 117.8688   2.316202   0.3659643 
2935.400002136827 121.3725   2.26801    0.3398097 
2935.600002139807 126.4617   2.2876     0.3227087 
2935.800002142787 134.1699   2.226282   0.3237146 
2936.000002145767 140.4065   2.281135   0.3206968 
2936.200002148747 139.5218   2.318749   0.3126493 
2936.400002151728 134.9056   2.282702   0.2975601 
2936.600002154708 127.4778   2.33638    0.3086255 
2936.800002157688 118.2017   2.339906   0.3247206 
2937.000002160668 114.9782   2.292693   0.3418216 
2937.200002163649 116.9929   2.249595   0.3709941 
2937.400002166629 123.0105   2.251554   0.3911129 
2937.600002169609 129.9216   2.222756   0.3760238 
2937.800002172589 133.0574   2.228437   0.3488632 
2938.00000217557 126.0062   2.275454   0.3116433 
2938.20000217855 112.2278   2.339514   0.2935363 
2938.40000218153 100.1225   2.393584   0.2915244 
2938.60000218451 95.33989   2.461562   0.2905184 
2938.80000218749 94.92821   2.45451    0.2975601 
2939.000002190471 98.31805   2.413958   0.3056076 
2939.200002193451 104.4671   2.381046   0.3046017 
2939.400002196431 115.1622   2.386335   0.3156671 
2939.600002199411 131.8924   2.402987   0.3388038 
2939.800002202392 146.0737   2.387707   0.3639524 
2940.000002205372 151.6096   2.305427   0.3508751 
2940.200002208352 147.7906   2.313655   0.3388038 
2940.400002211332 138.8473   2.310521   0.3257265 
2940.600002214313 128.196    2.30915    0.3136552 
2940.800002217293 116.9841   2.396131   0.3206968 
2941.000002220273 110.6336   2.411215   0.3257265 
2941.200002223253 111.1855   2.454902   0.3297503 
2941.400002226233 112.3242   2.436683   0.3418216 
2941.600002229214 117.86     2.348134   0.3589227 
2941.800002232194 130.5435   2.315223   0.372     
2942.000002235174 144.646    2.236273   0.3649584 
2942.200002238154 163.531    2.293477   0.3629465 
2942.400002241135 183.0555   2.307974   0.3488632 
2942.600002244115 196.4747   2.237841   0.3508751 
2942.800002247095 197.885    2.194742   0.3458454 
2943.000002250075 190.1243   2.170058   0.3438335 
2943.200002253056 183.949    2.152231   0.3619405 
2943.400002256036 182.3197   2.223344   0.372     
2943.600002259016 189.5724   2.233531   0.3659643 
2943.800002261996 196.0193   2.225695   0.3629465 
2944.000002264977 192.682    2.205517   0.3559048 
2944.200002267957 188.7053   2.19866    0.353893  
2944.400002270937 194.8105   2.235882   0.3911129 
2944.600002273917 205.8034   2.171625   0.4172675 
2944.800002276897 206.4253   2.099729   0.408214  
2945.000002279878 183.7913   2.087975   0.3740119 
2945.200002282858 153.2564   2.143807   0.3458454 
2945.400002285838 133.7845   2.237253   0.3428276 
2945.600002288818 122.012    2.287013   0.3559048 
2945.800002291799 116.441    2.324038   0.3629465 
2946.000002294779 116.8878   2.366549   0.3589227 
2946.200002297759 115.1885   2.411411   0.3458454 
2946.400002300739 110.4322   2.450788   0.3327681 
2946.60000230372 106.7445   2.440797   0.3257265 
2946.8000023067 107.2613   2.337359   0.3196909 
2947.00000230968 105.9036   2.353816   0.2965541 
2947.20000231266 98.7385    2.414937   0.2573223 
2947.40000231564 91.88873   2.456469   0.2271439 
2947.600002318621 82.27103   2.43727    0.2090369 
2947.800002321601 75.61395   2.540511   0.1929418 
2948.000002324581 94.04352   2.600849   0.1969656 
2948.200002327561 117.8163   2.567546   0.225132  
2948.400002330542 136.3334   2.550111   0.2553104 
2948.600002333522 144.208    2.567154   0.2703996 
2948.800002336502 150.541    2.448633   0.2764352 
2949.000002339482 150.5322   2.483112   0.2915244 
2949.200002342463 143.0956   2.541099   0.3056076 
2949.400002345443 130.6311   2.502702   0.3096314 
2949.600002348423 123.6587   2.416504   0.3227087 
2949.800002351403 122.4937   2.386727   0.3227087 
