~Version
 VERS              .         2.0                           : CWLS LOG ASCII STANDARD - VERSION 2.0
 WRAP              .         NO                            : ONE LINE PER DEPTH STEP
 DLM               .         SPACE                         : DELIMITING CHARACTER(SPACE TAB OR COMMA)
~Well Information
#_______________________________________________________________________________
#
#PARAMETER_NAME    .UNIT     VALUE                         : DESCRIPTION
#_______________________________________________________________________________
STRT               .m        2792                          : First reference value
STOP               .m        3023.80000345409              : Last reference value
STEP               .m        0.2                           : Step increment
NULL               .         -9999                         : Missing value
COMP               .                                       : Company
WELL               .         406                           : Well name
FLD                .                                       : Field
LOC                .                                       : Location
CNTY               .                                       : County
STAT               .                                       : State
CTRY               .                                       : Country
SRVC               .                                       : Service Company
DATE               .                                       : Date
API                .                                       : API number
Cartographic_reference_system .         GCS_WGS_1984                  : GEOGCS["GCS_WGS_1984",DATUM["D_WGS_1984",SPHEROID["WGS_1984",6378137.0,298.257223563]],PRIMEM["Greenwich",0.0],UNIT["Degree",0.0174532925199433],AUTHORITY["EPSG",4326]]
EREF               .m        140.4                         : 
HZCS               .GCS_WGS_1984 World_Mercator                : PROJCS["World_Mercator",GEOGCS["GCS_WGS_1984",DATUM["D_WGS_1984",SPHEROID["WGS_1984",6378137.0,298.257223563]],PRIMEM["Greenwich",0.0],UNIT["Degree",0.0174532925199433]],PROJECTION["Mercator"],PARAMETER["False_Easting",0.0],PARAMETER["False_Northing",0.0],PARAMETER["Central_Meridian",0.0],PARAMETER["Standard_Parallel_1",0.0],UNIT["Meter",1.0],AUTHORITY["ESRI",54004]]
LATI               .dega     2.2605552291                  : GCS_WGS_1984
LONG               .dega     1.995158246                   : GCS_WGS_1984
PROJECT_UPGRADE_TIME .         2014-05-27T11_38_46           : 
Pad                .         Pad4                          : 
X                  .m        222100                        : 
Y                  .m        250025                        : 
group              .         Pad4                          : 
Интер-р            .         Пузин                         : 
Куст               .         4                             : 
Статус             .         Проверено                     : 
Тип                .         Нагнетательные                : 
~Parameter Information Block
#_______________________________________________________________________________
#
#PARAMETER_NAME    .UNIT     VALUE                         : DESCRIPTION
#_______________________________________________________________________________
SET                .         LQC                           : 
PROJECT_UPGRADE_TIME .         2014-05-27T11_38_46           : 
TLFamily_GR_NORM   .         Gamma Ray                     : 
TLFamily_MD        .         Measured Depth                : 
TLFamily_RHOB_NORM .         Bulk Density                  : 
TLFamily_TNPH_NORM .         Neutron Porosity              : 
~Curve Information
#_______________________________________________________________________________
#
#LOGNAME           .UNIT     LOG_ID                        : DESCRIPTION
#_______________________________________________________________________________
MD                 .m                                      :  
GR_NORM            .gAPI                                   : Normalised By Techlog 
RHOB_NORM          .g/cm3                                  : Normalized By Techlog 
TNPH_NORM          .v/v                                    : Normalised By Techlog 
~Ascii
# ...
2981.60000282526 38.02781   2.486638   0.1788586 
2981.80000282824 42.30234   2.467047   0.1838883 
2982.000002831221 43.95785   2.542078   0.1798645 
2982.200002834201 44.62356   2.577929   0.1848942 
2982.400002837181 46.61192   2.571464   0.1969656 
2982.600002840161 46.22651   2.587528   0.2170845 
2982.800002843142 47.33894   2.527386   0.226138  
2983.000002846122 47.88202   2.530128   0.2241261 
2983.200002849102 47.70683   2.52386    0.2221142 
2983.400002852082 49.35358   2.484679   0.2211082 
2983.600002855062 50.62368   2.375952   0.2281499 
2983.800002858043 51.43829   2.49134    0.2412271 
2984.000002861023 52.74343   2.60751    0.2462569 
2984.200002864003 56.85154   2.594776   0.2452509 
2984.400002866983 64.6298    2.544429   0.2372034 
2984.600002869964 74.5716    2.452942   0.2351915 
2984.800002872944 83.49733   2.503094   0.2382093 
2985.000002875924 88.5602    2.476451   0.2361974 
2985.200002878904 89.16459   2.526994   0.2321736 
2985.400002881885 86.51053   2.575186   0.2281499 
2985.600002884865 87.67551   2.625925   0.244245  
2985.800002887845 88.49013   2.530324   0.2573223 
2986.000002890825 86.84338   2.557359   0.2512866 
2986.200002893806 84.26814   2.569897   0.2553104 
2986.400002896786 79.07388   2.564216   0.2633579 
2986.600002899766 70.99781   2.530912   0.2583282 
2986.800002902746 64.98893   2.498588   0.2532985 
2987.000002905726 61.8093    2.507796   0.2502806 
2987.200002908707 57.78002   2.51857    0.2201023 
2987.400002911687 59.0764    2.543646   0.2150726 
2987.600002914667 69.39485   2.540119   0.2372034 
2987.800002917647 83.24331   2.517982   0.262352  
2988.000002920628 90.52229   2.504661   0.3035957 
2988.200002923608 95.61143   2.428846   0.3609346 
2988.400002926588 100.0699   2.223736   0.3689822 
2988.600002929568 102.8466   2.124021   0.3277384 
2988.800002932549 101.7429   2.134208   0.2925303 
2989.000002935529 95.90049   2.384572   0.2653698 
2989.200002938509 89.47116   2.589879   0.2462569 
2989.400002941489 87.71931   2.564608   0.2482688 
2989.600002944469 92.27415   2.533459   0.262352  
2989.80000294745 96.15451   2.471161   0.2834768 
2990.00000295043 96.38226   2.431001   0.3156671 
2990.20000295341 95.46252   2.379087   0.33478   
2990.40000295639 93.54424   2.399657   0.3247206 
2990.600002959371 92.50188   2.356166   0.3076195 
2990.800002962351 94.84937   2.45353    0.3035957 
2991.000002965331 96.18954   2.495257   0.2945422 
2991.200002968311 89.40109   2.362239   0.2925303 
2991.400002971292 76.96289   2.315418   0.2754293 
2991.600002974272 68.24739   2.230396   0.2472628 
2991.800002977252 66.91597   2.34069    0.2372034 
2992.000002980232 71.74235   2.500939   0.2492747 
2992.200002983212 79.10015   2.53914    0.2512866 
2992.400002986193 83.75134   2.556772   0.2482688 
2992.600002989173 81.8243    2.642969   0.2452509 
2992.800002992153 73.96721   2.649238   0.2331796 
2993.000002995133 63.05312   2.612604   0.226138  
2993.200002998114 58.12164   2.622203   0.2190963 
2993.400003001094 55.18727   2.653548   0.208031  
2993.600003004074 49.36234   2.587528   0.2060191 
2993.800003007054 45.11408   2.593013   0.2019953 
2994.000003010035 48.65284   2.67686    0.1989775 
2994.200003013015 52.97993   2.648258   0.2009894 
2994.400003015995 52.52445   2.582043   0.2050131 
2994.600003018975 50.61492   2.621615   0.2040072 
2994.800003021955 47.89077   2.654135   0.1979715 
2995.000003024936 47.93457   2.65296    0.1949537 
2995.200003027916 48.8105    2.636896   0.2090369 
2995.400003030896 47.09368   2.551286   0.2221142 
2995.600003033876 46.79586   2.509362   0.2281499 
2995.800003036857 47.41777   2.522684   0.2331796 
2996.000003039837 49.5638    2.533655   0.2382093 
2996.200003042817 50.01929   2.496629   0.2341855 
2996.400003045797 50.51857   2.501331   0.2201023 
2996.600003048778 50.72879   2.45353    0.2100428 
2996.800003051758 54.48653   2.473513   0.2160785 
2997.000003054738 61.92317   2.495649   0.2301618 
2997.200003057718 72.46061   2.538553   0.2472628 
2997.400003060699 87.98209   2.496237   0.262352  
2997.600003063679 97.9852    2.476059   0.2885065 
2997.800003066659 99.70203   2.518962   0.3217027 
2998.000003069639 100.3064   2.445498   0.3277384 
2998.200003072619 99.22903   2.518766   0.3206968 
2998.4000030756 95.88297   2.454705   0.3086255 
2998.60000307858 93.36906   2.285445   0.3146611 
2998.80000308156 91.15295   2.085428   0.3287444 
2999.00000308454 83.19074   1.919694   0.3408157 
2999.200003087521 70.95401   1.579606   0.3880951 
2999.400003090501 52.41057   1.185644   0.4343686 
2999.600003093481 31.62476   1.051646   0.4544875 
2999.800003096461 20.28147   0.6390741  0.4585112 
3000.000003099442 16.09453   0.5642391  0.4776242 
3000.200003102422 14.58792   0.6065542  0.5027728 
3000.400003105402 16.98797   0.5920573  0.4977431 
3000.600003108382 23.03189   0.5842212  0.4575053 
3000.800003111362 35.29491   0.6960819  0.4393983 
3001.000003114343 52.95365   0.8878713  0.40922   
3001.200003117323 75.55264   1.913033   0.3911129 
3001.400003120303 96.0494    2.427475   0.3599286 
3001.600003123283 106.3503   2.537573   0.3408157 
3001.800003126264 107.5416   2.54776    0.3468513 
3002.000003129244 100.4203   2.486638   0.3438335 
3002.200003132224 93.24643   2.3928     0.33478   
3002.400003135204 86.32658   2.38849    0.3046017 
3002.600003138185 78.99505   2.371839   0.262352  
3002.800003141165 73.17011   2.461171   0.2452509 
3003.000003144145 73.75698   2.501135   0.2553104 
3003.200003147125 79.10892   2.504269   0.2824709 
3003.400003150105 85.46816   2.58361    0.2925303 
3003.600003153086 87.12367   2.518766   0.2875006 
3003.800003156066 86.07256   2.465676   0.2915244 
3004.000003159046 83.75134   2.464501   0.2854887 
3004.200003162026 81.37757   2.456665   0.2764352 
3004.400003165007 76.63004   2.436486   0.2693936 
3004.600003167987 69.78027   2.501331   0.2593341 
3004.800003170967 66.24151   2.443735   0.2714055 
3005.000003173947 65.82106   2.420031   0.3025898 
3005.200003176928 67.38022   2.37752    0.3035957 
3005.400003179908 74.40517   2.470574   0.2673817 
3005.600003182888 83.66376   2.467047   0.2311677 
3005.800003185868 86.2565    2.623379   0.2211082 
3006.000003188848 82.5776    2.55442    0.2201023 
3006.200003191829 75.95557   2.51759    0.2100428 
3006.400003194809 70.97153   2.5219     0.1929418 
3006.600003197789 75.22855   2.544821   0.1929418 
3006.800003200769 84.07544   2.552658   0.2110488 
3007.00000320375 87.48281   2.545213   0.2160785 
3007.20000320673 82.63891   2.570877   0.2170845 
3007.40000320971 74.65044   2.576362   0.2211082 
3007.60000321269 70.2883    2.608294   0.2311677 
3007.800003215671 69.28974   2.535222   0.2361974 
3008.000003218651 73.31902   2.602025   0.2412271 
3008.200003221631 79.81842   2.661383   0.2543044 
3008.400003224611 91.43324   2.687439   0.2583282 
3008.600003227592 106.9197   2.602221   0.2573223 
3008.800003230572 117.8163   2.581847   0.2512866 
3009.000003233552 117.9038   2.65296    0.2382093 
3009.200003236532 112.2103   2.602809   0.2231201 
3009.400003239512 105.0802   2.634937   0.2160785 
3009.600003242493 99.41297   2.651197   0.2120547 
3009.800003245473 93.68439   2.596931   0.2100428 
3010.000003248453 85.63459   2.565195   0.2150726 
3010.200003251433 74.24751   2.525623   0.208031  
3010.400003254414 63.85897   2.496041   0.2030012 
3010.600003257394 59.33042   2.492319   0.2030012 
3010.800003260374 56.21211   2.46646    0.207025  
3011.000003263354 54.44273   2.504661   0.2110488 
3011.200003266335 53.03248   2.40906    0.2090369 
3011.400003269315 50.57988   2.424928   0.2110488 
3011.600003272295 50.85142   2.42532    0.2160785 
3011.800003275275 52.69963   2.399853   0.2211082 
3012.000003278255 52.34926   2.472729   0.225132  
3012.200003281236 48.79298   2.563824   0.2291558 
3012.400003284216 44.67612   2.547172   0.2271439 
3012.600003287196 44.36078   2.463717   0.2160785 
3012.800003290176 46.22651   2.552266   0.1939477 
3013.000003293157 44.15932   2.583414   0.1687991 
