~Version
 VERS              .         2.0                           : CWLS LOG ASCII STANDARD - VERSION 2.0
 WRAP              .         NO                            : ONE LINE PER DEPTH STEP
 DLM               .         SPACE                         : DELIMITING CHARACTER(SPACE TAB OR COMMA)
~Well Information
#_______________________________________________________________________________
#
#PARAMETER_NAME    .UNIT     VALUE                         : DESCRIPTION
#_______________________________________________________________________________
STRT               .m        2792                          : First reference value
STOP               .m        3023.80000345409              : Last reference value
STEP               .m        0.2                           : Step increment
NULL               .         -9999                         : Missing value
COMP               .                                       : Company
WELL               .         406                           : Well name
FLD                .                                       : Field
LOC                .                                       : Location
CNTY               .                                       : County
STAT               .                                       : State
CTRY               .                                       : Country
SRVC               .                                       : Service Company
DATE               .                                       : Date
API                .                                       : API number
Cartographic_reference_system .         GCS_WGS_1984                  : GEOGCS["GCS_WGS_1984",DATUM["D_WGS_1984",SPHEROID["WGS_1984",6378137.0,298.257223563]],PRIMEM["Greenwich",0.0],UNIT["Degree",0.0174532925199433],AUTHORITY["EPSG",4326]]
EREF               .m        140.4                         : 
HZCS               .GCS_WGS_1984 World_Mercator                : PROJCS["World_Mercator",GEOGCS["GCS_WGS_1984",DATUM["D_WGS_1984",SPHEROID["WGS_1984",6378137.0,298.257223563]],PRIMEM["Greenwich",0.0],UNIT["Degree",0.0174532925199433]],PROJECTION["Mercator"],PARAMETER["False_Easting",0.0],PARAMETER["False_Northing",0.0],PARAMETER["Central_Meridian",0.0],PARAMETER["Standard_Parallel_1",0.0],UNIT["Meter",1.0],AUTHORITY["ESRI",54004]]
LATI               .dega     2.2605552291                  : GCS_WGS_1984
LONG               .dega     1.995158246                   : GCS_WGS_1984
PROJECT_UPGRADE_TIME .         2014-05-27T11_38_46           : 
Pad                .         Pad4                          : 
X                  .m        222100                        : 
Y                  .m        250025                        : 
group              .         Pad4                          : 
Интер-р            .         Пузин                         : 
Куст               .         4                             : 
Статус             .         Проверено                     : 
Тип                .         Нагнетательные                : 
~Parameter Information Block
#_______________________________________________________________________________
#
#PARAMETER_NAME    .UNIT     VALUE                         : DESCRIPTION
#_______________________________________________________________________________
SET                .         LQC                           : 
PROJECT_UPGRADE_TIME .         2014-05-27T11_38_46           : 
TLFamily_GR_NORM   .         Gamma Ray                     : 
TLFamily_MD        .         Measured Depth                : 
TLFamily_RHOB_NORM .         Bulk Density                  : 
TLFamily_TNPH_NORM .         Neutron Porosity              : 
~Curve Information
#_______________________________________________________________________________
#
#LOGNAME           .UNIT     LOG_ID                        : DESCRIPTION
#_______________________________________________________________________________
MD                 .m                                      :  
GR_NORM            .gAPI                                   : Normalised By Techlog 
RHOB_NORM          .g/cm3                                  : Normalized By Techlog 
TNPH_NORM          .v/v                                    : Normalised By Techlog 
~Ascii
# ...
2886.80000141263 89.73395   2.511714   0.2422331 
2887.00000141561 87.36893   2.552266   0.2412271 
2887.200001418591 79.79214   2.600066   0.2361974 
2887.400001421571 71.6022    2.524839   0.2201023 
2887.600001424551 66.89845   2.54345    0.2060191 
2887.800001427531 62.93049   2.535026   0.2100428 
2888.000001430511 59.88226   2.51426    0.2160785 
2888.200001433492 58.86618   2.493299   0.207025  
2888.400001436472 58.69975   2.534047   0.1959596 
2888.600001439452 59.40049   2.544821   0.1969656 
2888.800001442432 60.64432   2.543254   0.2090369 
2889.000001445413 60.83702   2.482524   0.2030012 
2889.200001448393 61.04724   2.446869   0.1869061 
2889.400001451373 62.70275   2.448241   0.1768467 
2889.600001454353 63.14948   2.440797   0.1728229 
2889.800001457334 63.98161   2.536593   0.1788586 
2890.000001460314 65.01521   2.529345   0.1879121 
2890.200001463294 65.42689   2.472729   0.1909299 
2890.400001466274 66.40794   2.469007   0.1798645 
2890.600001469254 66.87218   2.485658   0.1557218 
2890.800001472235 59.93481   2.54247    0.133591  
2891.000001475215 47.50537   2.642381   0.1285613 
2891.200001478195 42.69651   2.649238   0.1456624 
2891.400001481175 46.62068   2.584394   0.1758407 
2891.600001484156 53.77702   2.651588   0.1909299 
2891.800001487136 58.86618   2.602612   0.208031  
2892.000001490116 62.59764   2.556772   0.2231201 
2892.200001493096 66.39917   2.492123   0.2372034 
2892.400001496077 74.58912   2.417288   0.244245  
2892.600001499057 86.43169   2.365766   0.2512866 
2892.800001502037 99.7721    2.513085   0.2593341 
2893.000001505017 112.5519   2.546192   0.262352  
2893.200001507998 116.879    2.557947   0.2643639 
2893.400001510978 110.6511   2.57597    0.2593341 
2893.600001513958 91.38946   2.553049   0.244245  
2893.800001516938 80.39654   2.469594   0.2382093 
2894.000001519918 72.74091   2.449024   0.2331796 
2894.200001522899 64.41082   2.464501   0.226138  
2894.400001525879 57.65739   2.491927   0.2150726 
2894.600001528859 53.27774   2.514652   0.2060191 
2894.800001531839 51.0704    2.552853   0.1979715 
2895.00000153482 49.36234   2.637875   0.188918  
2895.2000015378 45.07028   2.622007   0.1848942 
2895.40000154078 41.84686   2.635329   0.1838883 
2895.60000154376 43.78267   2.593797   0.1859002 
2895.800001546741 49.8441    2.620244   0.1949537 
2896.000001549721 54.68799   2.605943   0.1939477 
2896.200001552701 57.23695   2.560885   0.1969656 
2896.400001555681 60.28518   2.511518   0.207025  
2896.600001558661 63.00932   2.501526   0.2231201 
2896.800001561642 68.74667   2.467243   0.2341855 
2897.000001564622 76.09572   2.459995   0.2452509 
2897.200001567602 85.90613   2.470966   0.2492747 
2897.400001570582 97.49468   2.479977   0.2452509 
2897.600001573563 102.2335   2.553637   0.2472628 
2897.800001576543 102.9868   2.592818   0.2412271 
2898.000001579523 103.486    2.582043   0.2382093 
2898.200001582503 105.7459   2.590467   0.2462569 
2898.400001585484 109.8103   2.585961   0.2603401 
2898.600001588464 116.187    2.493299   0.2673817 
2898.800001591444 122.0645   2.43825    0.2774412 
2899.000001594424 123.431    2.444323   0.2774412 
2899.200001597404 123.0456   2.469594   0.2693936 
2899.400001600385 122.4061   2.501918   0.262352  
2899.600001603365 120.5579   2.548347   0.2603401 
2899.800001606345 116.4586   2.489772   0.2774412 
2900.000001609325 113.4629   2.478214   0.2925303 
2900.200001612306 112.1402   2.479193   0.2935363 
2900.400001615286 110.5898   2.42865    0.2935363 
2900.600001618266 109.0657   2.470574   0.2875006 
2900.800001621246 107.1562   2.503094   0.2794531 
2901.000001624227 108.2161   2.518374   0.280459  
2901.200001627207 113.5154   2.525623   0.2864947 
2901.400001630187 112.622    2.474492   0.2864947 
2901.600001633167 109.3635   2.44922    0.2794531 
2901.800001636147 106.0087   2.476059   0.2784471 
2902.000001639128 101.8043   2.395543   0.2724114 
2902.200001642108 100.0612   2.442951   0.2633579 
2902.400001645088 98.57207   2.469594   0.2482688 
2902.600001648068 95.12968   2.484679   0.2351915 
2902.800001651049 91.28435   2.552658   0.225132  
2903.000001654029 94.72675   2.566958   0.2221142 
2903.200001657009 104.397    2.597323   0.2291558 
2903.400001659989 115.5914   2.561865   0.2573223 
2903.60000166297 126.8033   2.554029   0.2955482 
2903.80000166595 132.856    2.531108   0.3126493 
2904.00000166893 133.2063   2.53385    0.3146611 
2904.20000167191 133.0049   2.513673   0.3186849 
2904.400001674891 131.3231   2.505053   0.3156671 
2904.600001677871 133.3027   2.481936   0.3136552 
2904.800001680851 135.7553   2.507012   0.3035957 
2905.000001683831 134.0647   2.46548    0.2905184 
2905.200001686811 132.5143   2.407885   0.2764352 
2905.400001689792 130.5085   2.481349   0.2764352 
2905.600001692772 125.9186   2.474296   0.3015838 
2905.800001695752 122.0733   2.476451   0.3136552 
2906.000001698732 120.3827   2.519745   0.3056076 
2906.200001701713 121.4514   2.495846   0.3035957 
2906.400001704693 120.6017   2.48605    0.3066136 
2906.600001707673 119.0075   2.554616   0.3015838 
2906.800001710653 118.6046   2.555792   0.2784471 
2907.000001713634 112.4293   2.550111   0.2683877 
2907.200001716614 104.4758   2.597911   0.2653698 
2907.400001719594 102.2335   2.566762   0.261346  
2907.600001722574 105.0364   2.602221   0.2744233 
2907.800001725554 108.4263   2.564019   0.2854887 
2908.000001728535 110.4234   2.519354   0.2854887 
2908.200001731515 113.384    2.588116   0.2693936 
2908.400001734495 117.5447   2.553441   0.2563163 
2908.600001737475 119.2265   2.566762   0.2683877 
2908.800001740456 120.5929   2.595168   0.2784471 
2909.000001743436 127.3113   2.574207   0.2703996 
2909.200001746416 138.0502   2.565195   0.2673817 
2909.400001749396 149.6563   2.537964   0.2754293 
2909.600001752377 163.023    2.578125   0.280459  
2909.800001755357 182.6613   2.616718   0.2814649 
2910.000001758337 189.1958   2.483504   0.2925303 
2910.200001761317 179.9284   2.419443   0.2965541 
2910.400001764297 173.8495   2.44158    0.2915244 
2910.600001767278 173.5955   2.453334   0.280459  
2910.800001770258 174.3488   2.507991   0.2794531 
2911.000001773238 176.4335   2.536397   0.2794531 
2911.200001776218 185.7972   2.525427   0.2935363 
2911.400001779199 200.7756   2.472337   0.3106374 
2911.600001782179 210.0429   2.50662    0.3367919 
2911.800001785159 207.1523   2.499763   0.3418216 
2912.000001788139 200.9245   2.424536   0.3217027 
2912.20000179112 194.8893   2.442951   0.3126493 
2912.4000017941 189.3184   2.402987   0.3217027 
2912.60000179708 191.771    2.419443   0.3227087 
2912.80000180006 201.4851   2.352444   0.3146611 
2913.000001803041 212.6882   2.394955   0.3136552 
2913.200001806021 225.3542   2.419247   0.3317622 
2913.400001809001 235.4186   2.467243   0.3468513 
2913.600001811981 235.1208   2.419639   0.3428276 
2913.800001814961 230.3119   2.401028   0.3237146 
2914.000001817942 219.1      2.377128   0.3096314 
2914.200001820922 205.418    2.325606   0.2975601 
2914.400001823902 194.1448   2.386335   0.2885065 
2914.600001826882 185.1227   2.431981   0.2925303 
2914.800001829863 176.8276   2.421206   0.298566  
2915.000001832843 167.7618   2.45784    0.3035957 
2915.200001835823 161.569    2.564411   0.3106374 
2915.400001838803 161.9543   2.515436   0.3136552 
2915.600001841784 169.8728   2.467243   0.3186849 
2915.800001844764 183.2219   2.440992   0.3257265 
2916.000001847744 196.7726   2.402987   0.3367919 
2916.200001850724 211.2955   2.380066   0.3418216 
2916.400001853704 223.0855   2.426104   0.3418216 
2916.600001856685 231.9149   2.408277   0.3548989 
2916.800001859665 244.064    2.332462   0.3599286 
2917.000001862645 268.5287   2.30915    0.3639524 
2917.200001865625 292.7044   2.332462   0.3639524 
2917.400001868606 303.7499   2.338927   0.3559048 
2917.600001871586 307.4375   2.283682   0.3569108 
2917.800001874566 314.5676   2.372427   0.3750179 
2918.000001877546 324.6934   2.368116   0.4031843 
2918.200001880527 330.3869   2.29289    0.4021783 
