~Version
 VERS              .         2.0                           : CWLS LOG ASCII STANDARD - VERSION 2.0
 WRAP              .         NO                            : ONE LINE PER DEPTH STEP
 DLM               .         SPACE                         : DELIMITING CHARACTER(SPACE TAB OR COMMA)
~Well Information
#_______________________________________________________________________________
#
#PARAMETER_NAME    .UNIT     VALUE                         : DESCRIPTION
#_______________________________________________________________________________
STRT               .m        2792                          : First reference value
STOP               .m        3023.80000345409              : Last reference value
STEP               .m        0.2                           : Step increment
NULL               .         -9999                         : Missing value
COMP               .                                       : Company
WELL               .         406                           : Well name
FLD                .                                       : Field
LOC                .                                       : Location
CNTY               .                                       : County
STAT               .                                       : State
CTRY               .                                       : Country
SRVC               .                                       : Service Company
DATE               .                                       : Date
API                .                                       : API number
Cartographic_reference_system .         GCS_WGS_1984                  : GEOGCS["GCS_WGS_1984",DATUM["D_WGS_1984",SPHEROID["WGS_1984",6378137.0,298.257223563]],PRIMEM["Greenwich",0.0],UNIT["Degree",0.0174532925199433],AUTHORITY["EPSG",4326]]
EREF               .m        140.4                         : 
HZCS               .GCS_WGS_1984 World_Mercator                : PROJCS["World_Mercator",GEOGCS["GCS_WGS_1984",DATUM["D_WGS_1984",SPHEROID["WGS_1984",6378137.0,298.257223563]],PRIMEM["Greenwich",0.0],UNIT["Degree",0.0174532925199433]],PROJECTION["Mercator"],PARAMETER["False_Easting",0.0],PARAMETER["False_Northing",0.0],PARAMETER["Central_Meridian",0.0],PARAMETER["Standard_Parallel_1",0.0],UNIT["Meter",1.0],AUTHORITY["ESRI",54004]]
LATI               .dega     2.2605552291                  : GCS_WGS_1984
LONG               .dega     1.995158246                   : GCS_WGS_1984
PROJECT_UPGRADE_TIME .         2014-05-27T11_38_46           : 
Pad                .         Pad4                          : 
X                  .m        222100                        : 
Y                  .m        250025                        : 
group              .         Pad4                          : 
Интер-р            .         Пузин                         : 
Куст               .         4                             : 
Статус             .         Проверено                     : 
Тип                .         Нагнетательные                : 
~Parameter Information Block
#_______________________________________________________________________________
#
#PARAMETER_NAME    .UNIT     VALUE                         : DESCRIPTION
#_______________________________________________________________________________
SET                .         LQC                           : 
PROJECT_UPGRADE_TIME .         2014-05-27T11_38_46           : 
TLFamily_GR_NORM   .         Gamma Ray                     : 
TLFamily_MD        .         Measured Depth                : 
TLFamily_RHOB_NORM .         Bulk Density                  : 
TLFamily_TNPH_NORM .         Neutron Porosity              : 
~Curve Information
#_______________________________________________________________________________
#
#LOGNAME           .UNIT     LOG_ID                        : DESCRIPTION
#_______________________________________________________________________________
MD                 .m                                      :  
GR_NORM            .gAPI                                   : Normalised By Techlog 
RHOB_NORM          .g/cm3                                  : Normalized By Techlog 
TNPH_NORM          .v/v                                    : Normalised By Techlog 
~Ascii
# ...
2823.600000470877 79.80966   2.437075   0.2402212 
2823.800000473857 81.50896   2.584785   0.2563163 
2824.000000476837 84.89005   2.571464   0.2663758 
2824.200000479817 87.8507    2.581259   0.2643639 
2824.400000482798 89.80402   2.561669   0.2553104 
2824.600000485778 89.97921   2.532479   0.2553104 
2824.800000488758 88.62152   2.482132   0.2522925 
2825.000000491738 89.75146   2.439425   0.2422331 
2825.200000494719 89.72518   2.429042   0.2472628 
2825.400000497699 88.28867   2.451571   0.2553104 
2825.600000500679 87.59667   2.53052    0.261346  
2825.800000503659 87.97333   2.485071   0.2573223 
2826.000000506639 87.90325   2.456665   0.2412271 
2826.20000050962 87.8069    2.494866   0.2372034 
2826.4000005126 86.33533   2.456861   0.2472628 
2826.60000051558 84.38202   2.375561   0.2472628 
2826.80000051856 83.06812   2.402987   0.2412271 
2827.000000521541 79.76586   2.468027   0.2351915 
2827.200000524521 79.03884   2.545213   0.2382093 
2827.400000527501 82.31482   2.593013   0.2502806 
2827.600000530481 87.0536    2.637287   0.262352  
2827.800000533462 87.30762   2.656486   0.2653698 
2828.000000536442 84.89881   2.623182   0.2744233 
2828.200000539422 84.18056   2.635133   0.2844828 
2828.400000542402 85.71342   2.567938   0.2794531 
2828.600000545382 85.80978   2.558338   0.2683877 
2828.800000548363 84.96013   2.558534   0.2714055 
2829.000000551343 84.32945   2.611624   0.2734174 
2829.200000554323 82.66519   2.591446   0.2683877 
2829.400000557303 83.07688   2.544429   0.2633579 
2829.600000560284 85.2667    2.500743   0.2573223 
2829.800000563264 87.41273   2.583806   0.2532985 
2830.000000566244 87.99084   2.574794   0.261346  
2830.200000569224 87.26382   2.528365   0.2593341 
2830.400000572205 84.90757   2.461171   0.262352  
2830.600000575185 84.46961   2.416896   0.2724114 
2830.800000578165 87.20251   2.398873   0.2754293 
2831.000000581145 89.86533   2.46313    0.2703996 
2831.200000584126 89.90038   2.51955    0.2714055 
2831.400000587106 86.48425   2.582827   0.2693936 
2831.600000590086 82.92797   2.561277   0.261346  
2831.800000593066 80.35274   2.524251   0.2633579 
2832.000000596046 80.71186   2.528365   0.2633579 
2832.200000599027 82.46373   2.553049   0.261346  
2832.400000602007 84.3645    2.556183   0.261346  
2832.600000604987 83.8039    2.497217   0.261346  
2832.800000607967 83.72507   2.47508    0.2583282 
2833.000000610948 84.91633   2.441384   0.2512866 
2833.200000613928 83.83894   2.488989   0.2472628 
2833.400000616908 81.74546   2.555204   0.2472628 
2833.600000619888 79.74834   2.499959   0.2522925 
2833.800000622869 80.87829   2.459799   0.2492747 
2834.000000625849 81.40385   2.422381   0.2392152 
2834.200000628829 78.63592   2.404946   0.2341855 
2834.400000631809 75.3687    2.458624   0.2221142 
2834.600000634789 72.49564   2.494474   0.208031  
2834.80000063777 73.21391   2.478802   0.1909299 
2835.00000064075 71.5584    2.460191   0.1667872 
2835.20000064373 67.38022   2.50231    0.152704  
2835.40000064671 63.34218   2.592621   0.1506921 
2835.600000649691 60.01364   2.617893   0.1466683 
2835.800000652671 58.93626   2.616718   0.1446564 
2836.000000655651 61.21367   2.575186   0.1496862 
2836.200000658631 63.22831   2.529345   0.1537099 
2836.400000661612 62.8429    2.510342   0.152704  
2836.600000664592 62.80786   2.527973   0.1567278 
2836.800000667572 66.41669   2.634153   0.1677932 
2837.000000670552 70.79634   2.6367     0.169805  
2837.200000673532 70.91022   2.590467   0.1687991 
2837.400000676513 69.21967   2.659817   0.1818764 
2837.600000679493 68.00213   2.648258   0.1959596 
2837.800000682473 69.22842   2.587332   0.1969656 
2838.000000685453 70.34962   2.561277   0.1869061 
2838.200000688434 70.91022   2.54345    0.1818764 
2838.400000691414 71.24306   2.522292   0.1828823 
2838.600000694394 71.0854    2.52621    0.1939477 
2838.800000697374 71.67227   2.553049   0.2090369 
2839.000000700355 74.2037    2.612212   0.225132  
2839.200000703335 78.02277   2.608098   0.2402212 
2839.400000706315 81.13232   2.569113   0.2462569 
2839.600000709295 81.94693   2.546976   0.2392152 
2839.800000712276 81.50896   2.44589    0.2543044 
2840.000000715256 82.18343   2.424341   0.2653698 
2840.200000718236 83.92653   2.466852   0.2482688 
2840.400000721216 84.60976   2.594972   0.2392152 
2840.600000724196 84.38202   2.5219     0.2422331 
2840.800000727177 84.34697   2.578125   0.2452509 
2841.000000730157 83.5674    2.684696   0.2452509 
2841.200000733137 83.5236    2.674313   0.2462569 
2841.400000736117 85.73094   2.567938   0.2452509 
2841.600000739098 85.65211   2.481544   0.2392152 
2841.800000742078 82.68271   2.464109   0.2351915 
2842.000000745058 79.25783   2.501918   0.2372034 
2842.200000748038 78.02277   2.562257   0.2512866 
2842.400000751019 81.06223   2.58792    0.2563163 
2842.600000753999 85.31925   2.569309   0.2583282 
2842.800000756979 88.62152   2.52817    0.2653698 
2843.000000759959 90.23323   2.538944   0.2754293 
2843.200000762939 90.08432   2.537964   0.2764352 
2843.40000076592 88.07844   2.649433   0.2754293 
2843.6000007689 84.52216   2.613387   0.2673817 
2843.80000077188 84.7937    2.512497   0.262352  
2844.00000077486 85.93241   2.529149   0.2633579 
2844.200000777841 85.87109   2.588116   0.2643639 
2844.400000780821 86.63316   2.660208   0.2573223 
2844.600000783801 85.52073   2.678427   0.2512866 
2844.800000786781 82.8579    2.742879   0.2512866 
2845.000000789762 81.52648   2.630431   0.2402212 
2845.200000792742 79.31914   2.586941   0.2110488 
2845.400000795722 76.97164   2.618089   0.1939477 
2845.600000798702 73.49421   2.607118   0.1848942 
2845.800000801682 67.77438   2.621419   0.1869061 
2846.000000804663 65.4444    2.659817   0.1979715 
2846.200000807643 67.63423   2.644732   0.2120547 
2846.400000810623 69.97297   2.672354   0.2241261 
2846.600000813603 70.79634   2.641401   0.2311677 
2846.800000816584 72.43433   2.588116   0.2331796 
2847.000000819564 71.20802   2.622595   0.2392152 
2847.200000822544 69.3861    2.587724   0.2482688 
2847.400000825524 69.50873   2.532087   0.2593341 
2847.600000828505 75.09715   2.463913   0.2603401 
2847.800000831485 82.94549   2.469398   0.2643639 
2848.000000834465 87.20251   2.442755   0.2824709 
2848.200000837445 88.50764   2.49036    0.2895125 
2848.400000840425 88.3237    2.51093    0.2834768 
2848.600000843406 87.40398   2.564411   0.280459  
2848.800000846386 87.28134   2.560102   0.2764352 
2849.000000849366 85.43313   2.578516   0.2603401 
2849.200000852346 83.38345   2.526406   0.2472628 
2849.400000855327 81.96445   2.515828   0.2372034 
2849.600000858307 80.46661   2.551482   0.2351915 
2849.800000861287 80.64179   2.509362   0.2422331 
2850.000000864267 83.24331   2.50231    0.2462569 
2850.200000867248 87.48281   2.495649   0.2422331 
2850.400000870228 90.99529   2.475471   0.2412271 
2850.600000873208 92.63327   2.494278   0.2543044 
2850.800000876188 95.0158    2.493103   0.2754293 
2851.000000879169 96.96037   2.476451   0.2895125 
2851.200000882149 98.03777   2.502506   0.2915244 
2851.400000885129 98.8261    2.553049   0.2905184 
2851.600000888109 97.87134   2.614954   0.2905184 
2851.800000891089 98.41441   2.583022   0.2905184 
2852.00000089407 100.9283   2.51759    0.2945422 
2852.20000089705 102.0933   2.58361    0.298566  
2852.40000090003 102.8116   2.652176   0.2844828 
2852.60000090301 104.651    2.657661   0.2714055 
2852.800000905991 105.1503   2.543842   0.2784471 
2853.000000908971 102.0758   2.512693   0.2774412 
2853.200000911951 97.36329   2.58263    0.2663758 
2853.400000914931 96.53117   2.593993   0.2714055 
2853.600000917912 97.63483   2.608098   0.2784471 
2853.800000920892 99.22903   2.617697   0.2915244 
2854.000000923872 100.14     2.603201   0.2955482 
2854.200000926852 97.73119   2.534634   0.2824709 
2854.400000929832 94.99828   2.540315   0.2663758 
2854.600000932813 91.0128    2.520921   0.261346  
2854.800000935793 87.94704   2.485658   0.262352  
2855.000000938773 88.44633   2.531695   0.2724114 
