~Version
 VERS              .         2.0                           : CWLS LOG ASCII STANDARD - VERSION 2.0
 WRAP              .         NO                            : ONE LINE PER DEPTH STEP
 DLM               .         SPACE                         : DELIMITING CHARACTER(SPACE TAB OR COMMA)
~Well Information
#_______________________________________________________________________________
#
#PARAMETER_NAME    .UNIT     VALUE                         : DESCRIPTION
#_______________________________________________________________________________
STRT               .m        2792                          : First reference value
STOP               .m        3023.80000345409              : Last reference value
STEP               .m        0.2                           : Step increment
NULL               .         -9999                         : Missing value
COMP               .                                       : Company
WELL               .         406                           : Well name
FLD                .                                       : Field
LOC                .                                       : Location
CNTY               .                                       : County
STAT               .                                       : State
CTRY               .                                       : Country
SRVC               .                                       : Service Company
DATE               .                                       : Date
API                .                                       : API number
Cartographic_reference_system .         GCS_WGS_1984                  : GEOGCS["GCS_WGS_1984",DATUM["D_WGS_1984",SPHEROID["WGS_1984",6378137.0,298.257223563]],PRIMEM["Greenwich",0.0],UNIT["Degree",0.0174532925199433],AUTHORITY["EPSG",4326]]
EREF               .m        140.4                         : 
HZCS               .GCS_WGS_1984 World_Mercator                : PROJCS["World_Mercator",GEOGCS["GCS_WGS_1984",DATUM["D_WGS_1984",SPHEROID["WGS_1984",6378137.0,298.257223563]],PRIMEM["Greenwich",0.0],UNIT["Degree",0.0174532925199433]],PROJECTION["Mercator"],PARAMETER["False_Easting",0.0],PARAMETER["False_Northing",0.0],PARAMETER["Central_Meridian",0.0],PARAMETER["Standard_Parallel_1",0.0],UNIT["Meter",1.0],AUTHORITY["ESRI",54004]]
LATI               .dega     2.2605552291                  : GCS_WGS_1984
LONG               .dega     1.995158246                   : GCS_WGS_1984
PROJECT_UPGRADE_TIME .         2014-05-27T11_38_46           : 
Pad                .         Pad4                          : 
X                  .m        222100                        : 
Y                  .m        250025                        : 
group              .         Pad4                          : 
Интер-р            .         Пузин                         : 
Куст               .         4                             : 
Статус             .         Проверено                     : 
Тип                .         Нагнетательные                : 
~Parameter Information Block
#_______________________________________________________________________________
#
#PARAMETER_NAME    .UNIT     VALUE                         : DESCRIPTION
#_______________________________________________________________________________
SET                .         LQC                           : 
PROJECT_UPGRADE_TIME .         2014-05-27T11_38_46           : 
TLFamily_GR_NORM   .         Gamma Ray                     : 
TLFamily_MD        .         Measured Depth                : 
TLFamily_RHOB_NORM .         Bulk Density                  : 
TLFamily_TNPH_NORM .         Neutron Porosity              : 
~Curve Information
#_______________________________________________________________________________
#
#LOGNAME           .UNIT     LOG_ID                        : DESCRIPTION
#_______________________________________________________________________________
MD                 .m                                      :  
GR_NORM            .gAPI                                   : Normalised By Techlog 
RHOB_NORM          .g/cm3                                  : Normalized By Techlog 
TNPH_NORM          .v/v                                    : Normalised By Techlog 
~Ascii
2792.0     59.77715   0.8510414  -9999     
2792.20000000298 59.67204   0.9440955  -9999     
2792.40000000596 57.58732   1.194852   -9999     
2792.600000008941 55.46757   1.542384   -9999     
2792.800000011921 53.48797   1.83095    0.3669703 
2793.000000014901 52.33174   2.178874   0.3629465 
2793.200000017881 51.65728   2.226674   0.3689822 
2793.400000020862 51.94633   2.101296   0.3971486 
2793.600000023842 52.19159   1.861706   0.3921189 
2793.800000026822 51.22807   1.758857   0.3740119 
2794.000000029802 47.33894   1.354317   0.3609346 
2794.200000032783 43.39725   1.46892    0.3609346 
2794.400000035763 42.93301   1.550024   0.3508751 
2794.600000038743 52.36678   1.748278   0.3136552 
2794.800000041723 66.91597   1.985713   0.2925303 
2795.000000044703 76.38477   2.13891    0.2734174 
2795.200000047684 81.31626   2.347155   0.2703996 
2795.400000050664 82.70023   2.466656   0.2824709 
2795.600000053644 81.24619   2.483699   0.2834768 
2795.800000056624 81.50896   2.548152   0.2905184 
2796.000000059605 82.18343   2.509362   0.2965541 
2796.200000062585 82.67395   2.503094   0.2864947 
2796.400000065565 83.73383   2.533263   0.280459  
2796.600000068545 85.50321   2.521705   0.2754293 
2796.800000071526 85.73094   2.508187   0.2784471 
2797.000000074506 85.27547   2.518962   0.2794531 
2797.200000077486 86.05504   2.510342   0.2834768 
2797.400000080466 87.06236   2.491927   0.2915244 
2797.600000083447 89.12079   2.534634   0.2814649 
2797.800000086427 91.09164   2.593797   0.2764352 
2798.000000089407 92.49313   2.604768   0.2764352 
2798.200000092387 93.3165    2.584982   0.2673817 
2798.400000095367 91.87121   2.593993   0.2673817 
2798.600000098348 91.2931    2.58263    0.2734174 
2798.800000101328 93.15883   2.505249   0.280459  
2799.000000104308 93.96468   2.439621   0.2844828 
2799.200000107288 92.73838   2.489185   0.280459  
2799.400000110269 88.97189   2.581063   0.2834768 
2799.600000113249 89.28722   2.527386   0.2774412 
2799.800000116229 93.2727    2.419443   0.2744233 
2800.000000119209 93.80702   2.421794   0.2824709 
2800.20000012219 92.22158   2.479193   0.2975601 
2800.40000012517 91.10915   2.487617   0.2955482 
2800.60000012815 89.39233   2.47077    0.2935363 
2800.80000013113 86.8171    2.497217   0.2945422 
2801.00000013411 84.13676   2.503485   0.2885065 
2801.200000137091 83.53236   2.546584   0.2864947 
2801.400000140071 85.14407   2.607118   0.2774412 
2801.600000143051 83.12067   2.612604   0.2703996 
2801.800000146031 81.40385   2.569309   0.2703996 
2802.000000149012 81.67539   2.600066   0.2633579 
2802.200000151992 83.66376   2.645711   0.2583282 
2802.400000154972 84.29442   2.620048   0.262352  
2802.600000157952 82.09583   2.619265   0.2844828 
2802.800000160933 83.40974   2.586157   0.3076195 
2803.000000163913 86.65067   2.556967   0.3227087 
2803.200000166893 89.43613   2.523664   0.3056076 
2803.400000169873 91.12667   2.480761   0.2764352 
2803.600000172853 93.01868   2.348722   0.2663758 
2803.800000175834 94.79682   2.348918   0.2784471 
2804.000000178814 98.32682   2.403967   0.3015838 
2804.200000181794 99.44801   2.437466   0.2824709 
2804.400000184774 97.45088   2.366158   0.2553104 
2804.600000187755 96.15451   2.314047   0.243239  
2804.800000190735 93.85957   2.458232   0.2331796 
2805.000000193715 91.16171   2.48605    0.2402212 
2805.200000196695 87.2901    2.464893   0.2593341 
2805.400000199676 83.44477   2.375561   0.2663758 
2805.600000202656 83.4798    2.399657   0.2693936 
2805.800000205636 87.06236   2.446282   0.2754293 
2806.000000208616 90.78506   2.454314   0.280459  
2806.200000211596 91.06535   2.493495   0.2693936 
2806.400000214577 87.64047   2.518374   0.2512866 
2806.600000217557 85.87985   2.51759    0.2482688 
2806.800000220537 85.48568   2.44158    0.2492747 
2807.000000223517 85.73094   2.514652   0.2553104 
2807.200000226498 85.75723   2.525231   0.2653698 
2807.400000229478 85.51196   2.530324   0.2673817 
2807.600000232458 85.57328   2.553441   0.2693936 
2807.800000235438 84.97765   2.508579   0.2774412 
2808.000000238419 86.2565    2.486638   0.2905184 
2808.200000241399 90.7325    2.467243   0.3046017 
2808.400000244379 96.11948   2.409452   0.3237146 
2808.600000247359 100.4028   2.475667   0.317679  
2808.80000025034 100.359    2.539728   0.3035957 
2809.00000025332 96.50488   2.54776    0.3005779 
2809.2000002563 91.1004    2.513085   0.2834768 
2809.40000025928 86.09884   2.524839   0.261346  
2809.60000026226 84.46961   2.536985   0.244245  
2809.800000265241 86.23898   2.485266   0.2412271 
2810.000000268221 86.51053   2.464501   0.2543044 
2810.200000271201 83.89149   2.529541   0.2643639 
2810.400000274181 83.33965   2.546976   0.2724114 
2810.600000277162 86.3003    2.49898    0.2744233 
2810.800000280142 88.47261   2.459211   0.2653698 
2811.000000283122 89.55875   2.440992   0.2512866 
2811.200000286102 91.86246   2.364002   0.2502806 
2811.400000289083 95.0596    2.397893   0.2583282 
2811.600000292063 99.11516   2.461366   0.2673817 
2811.800000295043 102.032    2.437858   0.2734174 
2812.000000298023 103.8539   2.448633   0.2824709 
2812.200000301003 103.1182   2.501135   0.2895125 
2812.400000303984 103.1357   2.551678   0.2854887 
2812.600000306964 102.2948   2.617306   0.2895125 
2812.800000309944 98.17791   2.564216   0.2854887 
2813.000000312924 92.93109   2.543842   0.2553104 
2813.200000315905 88.05216   2.592818   0.2281499 
2813.400000318885 83.19951   2.519745   0.2110488 
2813.600000321865 79.24906   2.451375   0.2130607 
2813.800000324845 78.74978   2.462933   0.2331796 
2814.000000327826 80.93961   2.53385    0.2492747 
2814.200000330806 83.06812   2.59321    0.2512866 
2814.400000333786 84.92509   2.614759   0.2482688 
2814.600000336766 86.44044   2.571856   0.262352  
2814.800000339746 87.85945   2.544625   0.2714055 
2815.000000342727 88.17479   2.59321    0.2673817 
2815.200000345707 89.13831   2.559122   0.261346  
2815.400000348687 90.26826   2.474492   0.261346  
2815.600000351667 90.07555   2.454902   0.2653698 
2815.800000354648 89.60255   2.567938   0.2744233 
2816.000000357628 90.5398    2.572835   0.2854887 
2816.200000360608 92.59824   2.549914   0.2945422 
2816.400000363588 92.58072   2.503094   0.2925303 
2816.600000366569 90.68871   2.469986   0.2864947 
2816.800000369549 91.45953   2.492907   0.2935363 
2817.000000372529 93.7457    2.520137   0.3015838 
2817.200000375509 96.02312   2.540707   0.3066136 
2817.400000378489 97.76622   2.539336   0.299572  
2817.60000038147 99.64071   2.513476   0.2905184 
2817.80000038445 98.76479   2.446478   0.2895125 
2818.00000038743 98.37937   2.411411   0.2824709 
2818.20000039041 98.06404   2.415721   0.2653698 
2818.400000393391 96.81145   2.461366   0.2633579 
2818.600000396371 94.81434   2.436095   0.2683877 
2818.800000399351 92.95737   2.371251   0.2673817 
2819.000000402331 91.08287   2.430609   0.2693936 
2819.200000405312 87.67551   2.440013   0.2703996 
2819.400000408292 84.46085   2.42532    0.261346  
2819.600000411272 82.5338    2.396327   0.2583282 
2819.800000414252 79.73959   2.374973   0.2512866 
2820.000000417233 79.36294   2.411999   0.2583282 
2820.200000420213 85.33678   2.537181   0.2734174 
2820.400000423193 89.36606   2.532284   0.2854887 
2820.600000426173 88.60399   2.463717   0.2824709 
2820.800000429153 89.2697    2.483307   0.2724114 
2821.000000432134 90.17191   2.573815   0.2814649 
2821.200000435114 88.34998   2.586353   0.2955482 
2821.400000438094 88.18355   2.534438   0.2955482 
2821.600000441074 90.023     2.558926   0.2875006 
2821.800000444055 88.26238   2.513868   0.2844828 
2822.000000447035 84.13676   2.437858   0.2744233 
2822.200000450015 80.01988   2.453726   0.2573223 
2822.400000452995 79.59943   2.538553   0.243239  
2822.600000455976 82.99805   2.5554     0.2301618 
2822.800000458956 82.22723   2.461954   0.2160785 
2823.000000461936 80.21259   2.507991   0.208031  
2823.200000464916 80.85202   2.519942   0.2120547 
2823.400000467896 80.30894   2.478802   0.2271439 
