~Version
 VERS              .         2.0                           : CWLS LOG ASCII STANDARD - VERSION 2.0
 WRAP              .         NO                            : ONE LINE PER DEPTH STEP
 DLM               .         SPACE                         : DELIMITING CHARACTER(SPACE TAB OR COMMA)
~Well Information
#_______________________________________________________________________________
#
#PARAMETER_NAME    .UNIT     VALUE                         : DESCRIPTION
#_______________________________________________________________________________
STRT               .m        2792                          : First reference value
STOP               .m        3023.80000345409              : Last reference value
STEP               .m        0.2                           : Step increment
NULL               .         -9999                         : Missing value
COMP               .                                       : Company
WELL               .         406                           : Well name
FLD                .                                       : Field
LOC                .                                       : Location
CNTY               .                                       : County
STAT               .                                       : State
CTRY               .                                       : Country
SRVC               .                                       : Service Company
DATE               .                                       : Date
API                .                                       : API number
Cartographic_reference_system .         GCS_WGS_1984                  : GEOGCS["GCS_WGS_1984",DATUM["D_WGS_1984",SPHEROID["WGS_1984",6378137.0,298.257223563]],PRIMEM["Greenwich",0.0],UNIT["Degree",0.0174532925199433],AUTHORITY["EPSG",4326]]
EREF               .m        140.4                         : 
HZCS               .GCS_WGS_1984 World_Mercator                : PROJCS["World_Mercator",GEOGCS["GCS_WGS_1984",DATUM["D_WGS_1984",SPHEROID["WGS_1984",6378137.0,298.257223563]],PRIMEM["Greenwich",0.0],UNIT["Degree",0.0174532925199433]],PROJECTION["Mercator"],PARAMETER["False_Easting",0.0],PARAMETER["False_Northing",0.0],PARAMETER["Central_Meridian",0.0],PARAMETER["Standard_Parallel_1",0.0],UNIT["Meter",1.0],AUTHORITY["ESRI",54004]]
LATI               .dega     2.2605552291                  : GCS_WGS_1984
LONG               .dega     1.995158246                   : GCS_WGS_1984
PROJECT_UPGRADE_TIME .         2014-05-27T11_38_46           : 
Pad                .         Pad4                          : 
X                  .m        222100                        : 
Y                  .m        250025                        : 
group              .         Pad4                          : 
Интер-р            .         Пузин                         : 
Куст               .         4                             : 
Статус             .         Проверено                     : 
Тип                .         Нагнетательные                : 
~Parameter Information Block
#_______________________________________________________________________________
#
#PARAMETER_NAME    .UNIT     VALUE                         : DESCRIPTION
#_______________________________________________________________________________
SET                .         LQC                           : 
PROJECT_UPGRADE_TIME .         2014-05-27T11_38_46           : 
TLFamily_GR_NORM   .         Gamma Ray                     : 
TLFamily_MD        .         Measured Depth                : 
TLFamily_RHOB_NORM .         Bulk Density                  : 
TLFamily_TNPH_NORM .         Neutron Porosity              : 
~Curve Information
#_______________________________________________________________________________
#
#LOGNAME           .UNIT     LOG_ID                        : DESCRIPTION
#_______________________________________________________________________________
MD                 .m                                      :  
GR_NORM            .gAPI                                   : Normalised By Techlog 
RHOB_NORM          .g/cm3                                  : Normalized By Techlog 
TNPH_NORM          .v/v                                    : Normalised By Techlog 
~Ascii
# ...
2855.200000941753 86.8171    2.467439   0.2673817 
2855.400000944734 85.28422   2.460387   0.2573223 
2855.600000947714 84.96013   2.499763   0.2683877 
2855.800000950694 84.82874   2.468419   0.2724114 
2856.000000953674 84.50465   2.506424   0.2643639 
2856.200000956655 84.72363   2.481152   0.2583282 
2856.400000959635 85.547     2.49369    0.2543044 
2856.600000962615 83.7601    2.589879   0.2422331 
2856.800000965595 80.33522   2.533263   0.2372034 
2857.000000968575 76.11324   2.467243   0.2321736 
2857.200000971556 75.07964   2.438054   0.2341855 
2857.400000974536 78.32058   2.490556   0.2372034 
2857.600000977516 80.0374    2.581063   0.2361974 
2857.800000980496 82.54256   2.629451   0.2402212 
2858.000000983477 84.25063   2.557359   0.2472628 
2858.200000986457 84.41705   2.489968   0.2392152 
2858.400000989437 82.80534   2.461562   0.2180904 
2858.600000992417 81.71043   2.470182   0.208031  
2858.800000995398 80.35274   2.519354   0.2160785 
2859.000000998378 79.65199   2.544234   0.2311677 
2859.200001001358 82.62139   2.550111   0.2382093 
2859.400001004338 86.97476   2.534438   0.2291558 
2859.600001007318 88.93684   2.473513   0.2190963 
2859.800001010299 91.14419   2.496433   0.2100428 
2860.000001013279 90.80258   2.554029   0.2040072 
2860.200001016259 88.07844   2.609861   0.2090369 
2860.400001019239 86.98353   2.616522   0.2180904 
2860.60000102222 84.89005   2.625534   0.2090369 
2860.8000010252 82.00825   2.516023   0.2030012 
2861.00000102818 79.62572   2.526994   0.2160785 
2861.20000103116 81.21991   2.579692   0.2190963 
2861.400001034141 85.73094   2.637484   0.2221142 
2861.600001037121 90.39966   2.675488   0.2301618 
2861.800001040101 95.62895   2.61515    0.2341855 
2862.000001043081 97.92389   2.544038   0.2331796 
2862.200001046062 97.38957   2.495257   0.2281499 
2862.400001049042 95.61143   2.532479   0.2211082 
2862.600001052022 93.57928   2.534047   0.2201023 
2862.800001055002 94.50777   2.514456   0.2412271 
2863.000001057982 94.79682   2.549719   0.2583282 
2863.200001060963 90.39089   2.568722   0.262352  
2863.400001063943 90.19819   2.59321    0.2532985 
2863.600001066923 94.08732   2.5793     0.244245  
2863.800001069903 96.39101   2.607118   0.2361974 
2864.000001072884 96.97788   2.591838   0.2311677 
2864.200001075864 94.10484   2.540315   0.2221142 
2864.400001078844 93.9822    2.531108   0.2120547 
2864.600001081824 94.09608   2.547956   0.2150726 
2864.800001084805 92.95737   2.590662   0.2231201 
2865.000001087785 93.30774   2.600849   0.2201023 
2865.200001090765 92.37926   2.612995   0.2170845 
2865.400001093745 90.79382   2.572052   0.2140666 
2865.600001096725 90.23323   2.471553   0.2090369 
2865.800001099706 90.62739   2.46646    0.2201023 
2866.000001102686 91.18799   2.456077   0.2351915 
2866.200001105666 92.0026    2.404554   0.244245  
2866.400001108646 93.76322   2.428259   0.2412271 
2866.600001111627 94.51652   2.460387   0.2281499 
2866.800001114607 95.73406   2.515436   0.2130607 
2867.000001117587 97.41585   2.529345   0.2050131 
2867.200001120567 98.04652   2.5458     0.2130607 
2867.400001123548 97.19686   2.531892   0.2221142 
2867.600001126528 95.64648   2.512693   0.226138  
2867.800001129508 96.43481   2.568134   0.2321736 
2868.000001132488 98.31805   2.54678    0.2301618 
2868.200001135468 101.9444   2.523076   0.226138  
2868.400001138449 103.4685   2.580084   0.225132  
2868.600001141429 103.3634   2.541883   0.2301618 
2868.800001144409 103.635    2.492123   0.2462569 
2869.000001147389 102.8203   2.502702   0.2603401 
2869.20000115037 100.7444   2.564608   0.2522925 
2869.40000115335 98.23046   2.576753   0.2392152 
2869.60000115633 95.23478   2.611624   0.2271439 
2869.80000115931 92.08144   2.614171   0.2160785 
2870.000001162291 90.39089   2.567154   0.2110488 
2870.200001165271 90.63615   2.591642   0.207025  
2870.400001168251 88.07844   2.566371   0.1949537 
2870.600001171231 78.32934   2.497412   0.1818764 
2870.800001174212 68.31746   2.484287   0.1728229 
2871.000001177192 67.62548   2.486834   0.1657813 
2871.200001180172 69.58756   2.42199    0.1617575 
2871.400001183152 69.51748   2.43727    0.1627634 
2871.600001186132 69.48244   2.457056   0.1607516 
2871.800001189113 74.32634   2.427671   0.1728229 
2872.000001192093 81.57903   2.392017   0.1999834 
2872.200001195073 89.37481   2.465872   0.2160785 
2872.400001198053 97.37206   2.494866   0.2150726 
2872.600001201034 100.8057   2.513673   0.2130607 
2872.800001204014 99.63196   2.475863   0.2100428 
2873.000001206994 94.55157   2.456273   0.208031  
2873.200001209974 90.10184   2.511322   0.1989775 
2873.400001212955 88.05216   2.532871   0.1949537 
2873.600001215935 86.37914   2.546389   0.1979715 
2873.800001218915 86.22147   2.541687   0.1939477 
2874.000001221895 86.0638    2.569897   0.1808704 
2874.200001224875 83.17323   2.581259   0.1587397 
2874.400001227856 76.99792   2.649238   0.1486802 
2874.600001230836 70.99781   2.630039   0.1547159 
2874.800001233816 69.82406   2.538944   0.1758407 
2875.000001236796 73.12632   2.559906   0.1979715 
2875.200001239777 79.74834   2.577537   0.2120547 
2875.400001242757 87.56164   2.597715   0.2160785 
2875.600001245737 93.57928   2.61515    0.2190963 
2875.800001248717 97.59103   2.562257   0.2301618 
2876.000001251698 101.8481   2.54247    0.2331796 
2876.200001254678 104.1342   2.497217   0.2351915 
2876.400001257658 102.3298   2.450592   0.226138  
2876.600001260638 97.22314   2.505641   0.2140666 
2876.800001263618 86.52805   2.590271   0.2130607 
2877.000001266599 72.72339   2.600654   0.208031  
2877.200001269579 63.5524    2.542666   0.2100428 
2877.400001272559 62.11588   2.540315   0.2180904 
2877.600001275539 62.35238   2.505445   0.2221142 
2877.80000127852 61.22243   2.509167   0.226138  
2878.0000012815 61.21367   2.421402   0.2301618 
2878.20000128448 63.30714   2.373406   0.2291558 
2878.40000128746 65.96997   2.384572   0.2271439 
2878.600001290441 69.74522   2.406709   0.2281499 
2878.800001293421 73.18764   2.378303   0.226138  
2879.000001296401 74.02853   2.444127   0.2180904 
2879.200001299381 68.40505   2.516415   0.207025  
2879.400001302361 59.57568   2.546584   0.1919358 
2879.600001305342 52.88357   2.497412   0.1798645 
2879.800001308322 46.32286   2.543646   0.1728229 
2880.000001311302 40.1826    2.491535   0.1778526 
2880.200001314282 39.18403   2.364394   0.1859002 
2880.400001317263 43.01185   2.573227   0.1969656 
2880.600001320243 51.80619   2.628472   0.2060191 
2880.800001323223 64.46337   2.553833   0.2201023 
2881.000001326203 78.04028   2.491732   0.2311677 
2881.200001329184 91.73106   2.421206   0.2331796 
2881.400001332164 101.34     2.460191   0.2412271 
2881.600001335144 105.0364   2.493299   0.243239  
2881.800001338124 101.9006   2.549327   0.2341855 
2882.000001341105 93.14131   2.564019   0.2190963 
2882.200001344085 81.61407   2.573227   0.2130607 
2882.400001347065 74.2037    2.526015   0.207025  
2882.600001350045 68.3087    2.492711   0.1929418 
2882.800001353025 61.63412   2.506424   0.1828823 
2883.000001356006 59.29538   2.483504   0.1808704 
2883.200001358986 56.93913   2.530912   0.1838883 
2883.400001361966 54.23251   2.549914   0.1848942 
2883.600001364946 54.96829   2.503877   0.1848942 
2883.800001367927 58.0428    2.427083   0.1919358 
2884.000001370907 57.55229   2.423557   0.1959596 
2884.200001373887 54.1274    2.441972   0.2019953 
2884.400001376867 51.77991   2.453139   0.2140666 
2884.600001379848 52.75219   2.487617   0.2231201 
2884.800001382828 54.69675   2.537964   0.2211082 
2885.000001385808 56.79898   2.574991   0.2160785 
2885.200001388788 60.37278   2.506424   0.2231201 
2885.400001391768 66.01376   2.454118   0.2211082 
2885.600001394749 69.20216   2.428846   0.2150726 
2885.800001397729 69.25471   2.459016   0.2140666 
2886.000001400709 69.71019   2.522096   0.2180904 
2886.200001403689 71.61972   2.48703    0.2201023 
2886.40000140667 77.1118    2.52621    0.226138  
2886.60000140965 85.40685   2.500743   0.2372034 
