~Version
 VERS              .         2.0                           : CWLS LOG ASCII STANDARD - VERSION 2.0
 WRAP              .         NO                            : ONE LINE PER DEPTH STEP
 DLM               .         SPACE                         : DELIMITING CHARACTER(SPACE TAB OR COMMA)
~Well Information
#_______________________________________________________________________________
#
#PARAMETER_NAME    .UNIT     VALUE                         : DESCRIPTION
#_______________________________________________________________________________
STRT               .m        2636.80004882813              : First reference value
STOP               .m        2825.10005163401              : Last reference value
STEP               .m        0.1                           : Step increment
NULL               .         -9999                         : Missing value
COMP               .                                       : Company
WELL               .         407                           : Well name
FLD                .                                       : Field
LOC                .                                       : Location
CNTY               .                                       : County
STAT               .                                       : State
CTRY               .                                       : Country
SRVC               .                                       : Service Company
DATE               .                                       : Date
API                .                                       : API number
Cartographic_reference_system .         GCS_WGS_1984                  : GEOGCS["GCS_WGS_1984",DATUM["D_WGS_1984",SPHEROID["WGS_1984",6378137.0,298.257223563]],PRIMEM["Greenwich",0.0],UNIT["Degree",0.0174532925199433],AUTHORITY["EPSG",4326]]
EREF               .m        140.4                         : 
HZCS               .GCS_WGS_1984 World_Mercator                : PROJCS["World_Mercator",GEOGCS["GCS_WGS_1984",DATUM["D_WGS_1984",SPHEROID["WGS_1984",6378137.0,298.257223563]],PRIMEM["Greenwich",0.0],UNIT["Degree",0.0174532925199433]],PROJECTION["Mercator"],PARAMETER["False_Easting",0.0],PARAMETER["False_Northing",0.0],PARAMETER["Central_Meridian",0.0],PARAMETER["Standard_Parallel_1",0.0],UNIT["Meter",1.0],AUTHORITY["ESRI",54004]]
LATI               .dega     2.2605552291                  : GCS_WGS_1984
LONG               .dega     1.995158246                   : GCS_WGS_1984
PROJECT_UPGRADE_TIME .         2014-05-27T11_38_46           : 
Pad                .         Pad4                          : 
X                  .m        222100                        : 
Y                  .m        250025                        : 
group              .         Pad4                          : 
Интер-р            .         Зайцев                        : 
Куст               .         4                             : 
Статус             .         Не проверено                  : 
Тип                .         Эксплуатация                  : 
~Parameter Information Block
#_______________________________________________________________________________
#
#PARAMETER_NAME    .UNIT     VALUE                         : DESCRIPTION
#_______________________________________________________________________________
SET                .         LQC                           : 
PROJECT_UPGRADE_TIME .         2014-05-27T11_38_46           : 
TLFamily_GR_NORM   .         Gamma Ray                     : 
TLFamily_MD        .         Measured Depth                : 
TLFamily_RHOB_NORM .         Bulk Density                  : 
TLFamily_TNPH_NORM .         Neutron Porosity              : 
~Curve Information
#_______________________________________________________________________________
#
#LOGNAME           .UNIT     LOG_ID                        : DESCRIPTION
#_______________________________________________________________________________
MD                 .m                                      :  
GR_NORM            .gAPI                                   : Normalised By Techlog 
RHOB_NORM          .g/cm3                                  : Normalized By Techlog 
TNPH_NORM          .v/v                                    : Normalised By Techlog 
~Ascii
# ...
2794.800051182508 75.04495   2.546085   0.198443  
2794.900051183999 75.92115   2.621646   0.1959396 
2795.000051185489 75.58946   2.625468   0.1920006 
2795.100051186979 72.68192   2.625233   0.189298  
2795.200051188469 67.07957   2.644777   0.1870122 
2795.300051189959 65.2328    2.64061    0.1814007 
2795.400051191449 62.12376   2.665457   0.1805485 
2795.500051192939 56.87637   2.643608   0.1730862 
2795.600051194429 54.92566   2.66773    0.1695523 
2795.70005119592 53.94218   2.642124   0.1680978 
2795.80005119741 53.58056   2.619293   0.1662287 
2795.9000511989 53.30177   2.630073   0.1678798 
2796.00005120039 53.98698   2.605242   0.1641487 
2796.10005120188 54.25208   2.59897    0.1626942 
2796.20005120337 53.08506   2.621221   0.1635251 
2796.30005120486 53.23208   2.615286   0.1629    
2796.40005120635 54.90613   2.646256   0.1631424 
2796.50005120784 57.80664   2.612537   0.1753726 
2796.600051209331 61.47932   2.57956    0.1818175 
2796.700051210821 65.88947   2.534214   0.1882593 
2796.800051212311 69.033     2.50689    0.2053061 
2796.900051213801 73.16694   2.522947   0.2142888 
2797.000051215291 78.42808   2.562387   0.2327393 
2797.100051216781 80.698     2.537077   0.2500066 
2797.200051218271 80.72765   2.537407   0.2776349 
2797.300051219761 78.70409   2.537436   0.2886596 
2797.400051221251 74.96024   2.553598   0.3038368 
2797.500051222742 69.84801   2.591165   0.3065261 
2797.600051224232 63.80941   2.54777    0.3009147 
2797.700051225722 63.83927   2.536788   0.3004985 
2797.800051227212 64.21021   2.488405   0.2930098 
2797.900051228702 65.00144   2.400211   0.2807248 
2798.000051230192 63.11655   2.382771   0.272023  
2798.100051231682 58.68261   2.353731   0.2668099 
2798.200051233172 57.36166   2.34862    0.2379355 
2798.300051234663 55.41373   2.394901   0.2285736 
2798.400051236153 53.9306    2.426618   0.2133965 
2798.500051237643 53.15973   2.407736   0.2088365 
2798.600051239133 53.66333   2.472959   0.2069653 
2798.700051240623 54.47527   2.481593   0.2057187 
2798.800051242113 55.46887   2.443173   0.2040559 
2798.900051243603 56.48675   2.432907   0.2038455 
2799.000051245093 56.64044   2.433129   0.2030167 
2799.100051246583 57.27695   2.434966   0.2042668 
2799.200051248074 58.62493   2.434165   0.2107071 
2799.300051249564 60.99671   2.452581   0.2175687 
2799.400051251054 59.16078   2.428714   0.222144  
2799.500051252544 58.55774   2.42752    0.2225546 
2799.600051254034 60.46789   2.433543   0.2173578 
2799.700051255524 61.3441    2.44277    0.2146563 
2799.800051257014 63.31797   2.459392   0.2084238 
2799.900051258504 66.20107   2.448793   0.2150923 
2800.000051259995 70.20041   2.41177    0.223386  
2800.100051261485 75.28081   2.398231   0.2312873 
2800.200051262975 76.23006   2.409225   0.2356492 
2800.300051264465 77.64842   2.451849   0.230863  
2800.400051265955 80.20113   2.461047   0.2196193 
2800.500051267445 81.65045   2.483182   0.2111228 
2800.600051268935 80.36671   2.478375   0.2077911 
2800.700051270425 78.3579    2.456566   0.1978204 
2800.800051271915 76.95199   2.460318   0.1961535 
2800.900051273406 75.14701   2.417868   0.189296  
2801.000051274896 72.41486   2.419037   0.1888828 
2801.100051276386 69.73862   2.440576   0.190754  
2801.200051277876 68.92371   2.493986   0.1917928 
2801.300051279366 68.14423   2.47854    0.193666  
2801.400051280856 68.39831   2.464101   0.1980308 
2801.500051282346 69.79425   2.497979   0.1984439 
2801.600051283836 71.18144   2.533968   0.1978229 
2801.700051285326 70.67525   2.549093   0.2019774 
2801.800051286817 69.13824   2.588056   0.2026025 
2801.900051288307 71.0229    2.594985   0.2053055 
2802.000051289797 71.59956   2.654467   0.2065501 
2802.100051291287 70.28684   2.589424   0.2090464 
2802.200051292777 70.16607   2.586563   0.2129935 
2802.300051294267 70.93689   2.581162   0.2165295 
2802.400051295757 71.52718   2.622878   0.2217359 
2802.500051297247 71.82504   2.573881   0.227543  
2802.600051298738 72.06563   2.566186   0.2360694 
2802.700051300228 72.68066   2.583272   0.2447946 
2802.800051301718 74.48423   2.576492   0.2520749 
2802.900051303208 77.69398   2.573905   0.2622667 
2803.000051304698 83.65585   2.564404   0.2647482 
2803.100051306188 89.71815   2.576921   0.2608057 
2803.200051307678 92.42706   2.560651   0.2716073 
2803.300051309168 94.82826   2.558049   0.272024  
2803.400051310658 94.48454   2.561843   0.2726339 
2803.500051312149 92.63612   2.606776   0.2670346 
2803.600051313639 93.26319   2.58101    0.2580894 
2803.700051315129 93.12887   2.58431    0.2443789 
2803.800051316619 92.29975   2.56964    0.2398072 
2803.900051318109 88.60885   2.599836   0.2429417 
2804.000051319599 86.21524   2.599689   0.2501987 
2804.100051321089 86.25657   2.565716   0.2572686 
2804.200051322579 84.98632   2.538244   0.2628776 
2804.300051324069 83.1424    2.589935   0.2662052 
2804.40005132556 83.54915   2.618906   0.2701599 
2804.50005132705 83.44083   2.592795   0.2728544 
2804.60005132854 81.94159   2.583898   0.2745192 
2804.70005133003 81.46082   2.551688   0.2782585 
2804.80005133152 79.57576   2.504776   0.2792962 
2804.90005133301 78.56975   2.545076   0.2740685 
2805.0000513345 78.34595   2.608531   0.2618383 
2805.10005133599 77.54672   2.582336   0.2531015 
2805.200051337481 76.69145   2.50934    0.2423004 
2805.300051338971 75.23333   2.521879   0.2441675 
2805.400051340461 74.24836   2.512914   0.2381409 
2805.500051341951 74.96529   2.479369   0.2377277 
2805.600051343441 73.89099   2.467447   0.240849  
2805.700051344931 72.57912   2.47112    0.2479123 
2805.800051346421 71.6981    2.453852   0.2570679 
2805.900051347911 71.81464   2.466335   0.276     
2806.000051349401 72.14011   2.438683   0.2840783 
2806.100051350892 71.50121   2.444637   0.2842968 
2806.200051352382 72.07441   2.397678   0.3023691 
2806.300051353872 73.31747   2.353911   0.3071553 
2806.400051355362 74.47112   2.289439   0.3162951 
2806.500051356852 74.2142    2.276696   0.3175422 
2806.600051358342 73.02998   2.284833   0.3187802 
2806.700051359832 72.6478    2.324473   0.3023691 
2806.800051361322 71.44959   2.361233   0.2946741 
2806.900051362813 70.11047   2.367955   0.2863545 
2807.000051364303 68.64297   2.420888   0.2819998 
2807.100051365793 67.02106   2.412309   0.276801  
2807.200051367283 66.28517   2.40909    0.2701523 
2807.300051368773 65.0681    2.408786   0.2599671 
2807.400051370263 65.03993   2.451899   0.2582947 
2807.500051371753 65.92083   2.414547   0.2545635 
2807.600051373243 67.34087   2.427409   0.2537342 
2807.700051374733 67.61564   2.434951   0.2578892 
2807.800051376224 69.21432   2.384471   0.2626733 
2807.900051377714 71.15673   2.338907   0.2699622 
2808.000051379204 73.4855    2.295665   0.2765957 
2808.100051380694 76.11215   2.200075   0.2830467 
2808.200051382184 75.85526   2.09944    0.2957179 
2808.300051383674 73.90245   2.024701   0.302175  
2808.400051385164 71.31026   1.934878   0.3279753 
2808.500051386654 66.8974    1.862631   0.3406136 
2808.600051388144 59.84338   1.818422   0.3439534 
2808.700051389635 56.34179   1.771903   0.3657635 
2808.800051391125 51.47798   1.728883   0.363069  
2808.900051392615 47.68113   1.69596    0.3742701 
2809.000051394105 44.07197   1.680419   0.3701283 
2809.100051395595 41.66576   1.694455   0.365953  
2809.200051397085 43.92265   1.746388   0.3387429 
2809.300051398575 48.54292   1.854066   0.3397583 
2809.400051400065 55.09085   2.065711   0.2977609 
2809.500051401556 60.63182   2.244962   0.2857411 
2809.600051403046 62.93031   2.466383   0.2784526 
2809.700051404536 63.29574   2.480836   0.2529007 
2809.800051406026 61.90206   2.430186   0.2387629 
2809.900051407516 60.9422    2.421544   0.2312742 
2810.000051409006 60.55567   2.384153   0.227543  
2810.100051410496 61.32936   2.400676   0.2254635 
2810.200051411986 62.19075   2.437278   0.2238017 
2810.300051413476 64.97716   2.481138   0.2238017 
2810.400051414967 67.62472   2.49668    0.2244329 
2810.500051416457 68.10542   2.484951   0.227543  
