~Version
 VERS              .         2.0                           : CWLS LOG ASCII STANDARD - VERSION 2.0
 WRAP              .         NO                            : ONE LINE PER DEPTH STEP
 DLM               .         SPACE                         : DELIMITING CHARACTER(SPACE TAB OR COMMA)
~Well Information
#_______________________________________________________________________________
#
#PARAMETER_NAME    .UNIT     VALUE                         : DESCRIPTION
#_______________________________________________________________________________
STRT               .m        2636.80004882813              : First reference value
STOP               .m        2825.10005163401              : Last reference value
STEP               .m        0.1                           : Step increment
NULL               .         -9999                         : Missing value
COMP               .                                       : Company
WELL               .         407                           : Well name
FLD                .                                       : Field
LOC                .                                       : Location
CNTY               .                                       : County
STAT               .                                       : State
CTRY               .                                       : Country
SRVC               .                                       : Service Company
DATE               .                                       : Date
API                .                                       : API number
Cartographic_reference_system .         GCS_WGS_1984                  : GEOGCS["GCS_WGS_1984",DATUM["D_WGS_1984",SPHEROID["WGS_1984",6378137.0,298.257223563]],PRIMEM["Greenwich",0.0],UNIT["Degree",0.0174532925199433],AUTHORITY["EPSG",4326]]
EREF               .m        140.4                         : 
HZCS               .GCS_WGS_1984 World_Mercator                : PROJCS["World_Mercator",GEOGCS["GCS_WGS_1984",DATUM["D_WGS_1984",SPHEROID["WGS_1984",6378137.0,298.257223563]],PRIMEM["Greenwich",0.0],UNIT["Degree",0.0174532925199433]],PROJECTION["Mercator"],PARAMETER["False_Easting",0.0],PARAMETER["False_Northing",0.0],PARAMETER["Central_Meridian",0.0],PARAMETER["Standard_Parallel_1",0.0],UNIT["Meter",1.0],AUTHORITY["ESRI",54004]]
LATI               .dega     2.2605552291                  : GCS_WGS_1984
LONG               .dega     1.995158246                   : GCS_WGS_1984
PROJECT_UPGRADE_TIME .         2014-05-27T11_38_46           : 
Pad                .         Pad4                          : 
X                  .m        222100                        : 
Y                  .m        250025                        : 
group              .         Pad4                          : 
Интер-р            .         Зайцев                        : 
Куст               .         4                             : 
Статус             .         Не проверено                  : 
Тип                .         Эксплуатация                  : 
~Parameter Information Block
#_______________________________________________________________________________
#
#PARAMETER_NAME    .UNIT     VALUE                         : DESCRIPTION
#_______________________________________________________________________________
SET                .         LQC                           : 
PROJECT_UPGRADE_TIME .         2014-05-27T11_38_46           : 
TLFamily_GR_NORM   .         Gamma Ray                     : 
TLFamily_MD        .         Measured Depth                : 
TLFamily_RHOB_NORM .         Bulk Density                  : 
TLFamily_TNPH_NORM .         Neutron Porosity              : 
~Curve Information
#_______________________________________________________________________________
#
#LOGNAME           .UNIT     LOG_ID                        : DESCRIPTION
#_______________________________________________________________________________
MD                 .m                                      :  
GR_NORM            .gAPI                                   : Normalised By Techlog 
RHOB_NORM          .g/cm3                                  : Normalized By Techlog 
TNPH_NORM          .v/v                                    : Normalised By Techlog 
~Ascii
# ...
2700.000049769878 282.8311   2.290332   0.3329231 
2700.100049771369 288.6873   2.301425   0.3379135 
2700.200049772859 291.8487   2.288153   0.3424842 
2700.300049774349 297.5594   2.294836   0.3478894 
2700.400049775839 304.9768   2.318446   0.3497615 
2700.500049777329 312.4895   2.308845   0.3507982 
2700.600049778819 320.0405   2.309867   0.3520464 
2700.700049780309 322.6554   2.29658    0.3551631 
2700.800049781799 325.5566   2.258515   0.3620247 
2700.900049783289 328.0007   2.225037   0.3670207 
2701.00004978478 327.7234   2.220108   0.3699205 
2701.10004978627 323.0117   2.211086   0.3674242 
2701.20004978776 322.5345   2.216942   0.3616064 
2701.30004978925 325.4596   2.213103   0.351838  
2701.40004979074 329.7763   2.247741   0.3524585 
2701.50004979223 339.5647   2.233398   0.3512139 
2701.60004979372 345.5353   2.269677   0.3499679 
2701.70004979521 343.0081   2.27095    0.3520454 
2701.8000497967 337.6593   2.259799   0.3545416 
2701.900049798191 335.2996   2.274302   0.3578652 
2702.000049799681 334.5684   2.261706   0.3568259 
2702.100049801171 328.7543   2.26994    0.3507937 
2702.200049802661 319.5017   2.278365   0.3433156 
2702.300049804151 305.7554   2.302061   0.3424822 
2702.400049805641 294.6601   2.312331   0.339369  
2702.500049807131 286.2357   2.31491    0.3401979 
2702.600049808621 281.3834   2.283023   0.3395728 
2702.700049810112 277.5272   2.249128   0.3381194 
2702.800049811602 276.7449   2.253707   0.3435265 
2702.900049813092 273.8632   2.232031   0.3508261 
2703.000049814582 269.5997   2.217524   0.3618143 
2703.100049816072 263.5664   2.242793   0.3717972 
2703.200049817562 261.9887   2.245376   0.3809365 
2703.300049819052 259.8016   2.247821   0.3794862 
2703.400049820542 261.2374   2.242239   0.3869642 
2703.500049822032 263.9911   2.240112   0.3857171 
2703.600049823523 265.5817   2.232611   0.3826039 
2703.700049825013 266.652    2.211658   0.3898741 
2703.800049826503 269.6163   2.192629   0.3900845 
2703.900049827993 272.9791   2.206219   0.3944494 
2704.000049829483 275.801    2.207149   0.3952782 
2704.100049830973 279.0372   2.216267   0.3952782 
2704.200049832463 279.8223   2.199513   0.3942389 
2704.300049833953 280.3854   2.189949   0.3886234 
2704.400049835443 280.9484   2.207179   0.3815449 
2704.500049836934 282.3219   2.199191   0.3767795 
2704.600049838424 283.6212   2.226932   0.3774026 
2704.700049839914 283.4314   2.242195   0.3784423 
2704.800049841404 281.5813   2.240928   0.3873834 
2704.900049842894 281.1456   2.238145   0.3955139 
2705.000049844384 277.7706   2.197961   0.4071257 
2705.100049845874 271.0572   2.202976   0.4187693 
2705.200049847364 268.0751   2.203405   0.4250008 
2705.300049848855 264.3137   2.218505   0.4237547 
2705.400049850345 261.4346   2.183172   0.4243646 
2705.500049851835 258.7275   2.196441   0.4179339 
2705.600049853325 255.0717   2.182198   0.4083717 
2705.700049854815 251.7467   2.213343   0.4056707 
2705.800049856305 250.091    2.203336   0.4015137 
2705.900049857795 248.112    2.192717   0.4015137 
2706.000049859285 247.2297   2.19285    0.4008902 
2706.100049860775 246.1641   2.219831   0.3975625 
2706.200049862266 247.1445   2.21225    0.3931997 
2706.300049863756 246.7734   2.220522   0.3898761 
2706.400049865246 244.3342   2.20113    0.3946724 
2706.500049866736 238.4644   2.220674   0.4035922 
2706.600049868226 232.6496   2.241121   0.4173134 
2706.700049869716 231.7449   2.248221   0.4243772 
2706.800049871206 228.3931   2.258363   0.430816  
2706.900049872696 222.5886   2.231506   0.4216549 
2707.000049874187 211.3445   2.226366   0.4144004 
2707.100049875677 192.9868   2.227872   0.4087809 
2707.200049877167 189.2119   2.245468   0.3954861 
2707.300049878657 183.2931   2.236838   0.3894518 
2707.400049880147 181.2459   2.237783   0.3771775 
2707.500049881637 181.4456   2.259896   0.3713754 
2707.600049883127 183.5521   2.2535     0.3715838 
2707.700049884617 182.367    2.253886   0.3728304 
2707.800049886107 180.3502   2.250806   0.3734514 
2707.900049887598 179.0762   2.256928   0.3680346 
2708.000049889088 178.6488   2.257879   0.3632693 
2708.100049890578 174.4195   2.254798   0.3636839 
2708.200049892068 172.9716   2.285654   0.3632692 
2708.300049893558 169.8955   2.29945    0.3680493 
2708.400049895048 166.938    2.338489   0.367008  
2708.500049896538 164.6304   2.320215   0.3661792 
2708.600049898028 161.962    2.308403   0.3665959 
2708.700049899518 158.5127   2.326137   0.3699205 
2708.800049901009 154.0746   2.308085   0.3765717 
2708.900049902499 150.4384   2.308215   0.3761509 
2709.000049903989 146.3952   2.326998   0.3724147 
2709.100049905479 142.4021   2.344475   0.3628505 
2709.200049906969 141.3481   2.345442   0.3553709 
2709.300049908459 136.4851   2.322605   0.3437273 
2709.400049909949 129.8224   2.35535    0.3356074 
2709.500049911439 129.2485   2.357309   0.3268955 
2709.60004991293 128.1402   2.388187   0.3133806 
2709.70004991442 128.1196   2.390771   0.3048633 
2709.80004991591 130.7261   2.361206   0.3000813 
2709.9000499174 132.0399   2.369398   0.2982197 
2710.00004991889 132.6485   2.335329   0.3019534 
2710.10004992038 136.5734   2.297087   0.3086087 
2710.20004992187 137.6688   2.27177    0.3162951 
2710.30004992336 137.0431   2.249231   0.3204521 
2710.40004992485 134.1      2.27055    0.3191898 
2710.500049926341 131.6526   2.300086   0.3127616 
2710.600049927831 129.4839   2.34424    0.3042331 
2710.700049929321 128.2749   2.392693   0.2919766 
2710.800049930811 125.2451   2.372341   0.2865735 
2710.900049932301 120.3197   2.330772   0.2880249 
2711.000049933791 120.4205   2.311774   0.2896903 
2711.100049935281 121.3933   2.287375   0.3021674 
2711.200049936771 128.3197   2.299391   0.3138009 
2711.300049938262 132.2831   2.319911   0.3196187 
2711.400049939752 131.0538   2.334725   0.3167158 
2711.500049941242 121.5957   2.288232   0.3179579 
2711.600049942732 111.7461   2.271474   0.3152533 
2711.700049944222 105.6033   2.266225   0.3098517 
2711.800049945712 102.9608   2.284557   0.3038215 
2711.900049947202 103.6201   2.281283   0.2977736 
2712.000049948692 102.802    2.290028   0.2892745 
2712.100049950182 101.3062   2.299271   0.2851175 
2712.200049951673 99.24512   2.334988   0.2863646 
2712.300049953163 98.2303    2.347943   0.2930199 
2712.400049954653 99.14639   2.340724   0.3013501 
2712.500049956143 98.86584   2.323171   0.3090203 
2712.600049957633 97.91299   2.339473   0.3127606 
2712.700049959123 97.65782   2.324709   0.310891  
2712.800049960613 97.47801   2.302324   0.3088094 
2712.900049962103 96.52989   2.322604   0.3031929 
2713.000049963593 97.09488   2.321196   0.3000827 
2713.100049965084 98.55633   2.304106   0.2965468 
2713.200049966574 99.37354   2.318042   0.2911452 
2713.300049968064 95.53275   2.301025   0.2863652 
2713.400049969554 94.94637   2.297817   0.2867753 
2713.500049971044 93.85159   2.323807   0.284494  
2713.600049972534 93.44786   2.307436   0.2807496 
2713.700049974024 95.27016   2.284286   0.274725  
2713.800049975514 97.10228   2.316761   0.2714014 
2713.900049977005 99.56178   2.318884   0.275777  
2714.000049978495 100.3397   2.312229   0.2813762 
2714.100049979985 101.4448   2.309646   0.2890713 
2714.200049981475 101.7194   2.304342   0.2963414 
2714.300049982965 102.098    2.286615   0.2961352 
2714.400049984455 103.4172   2.295677   0.2973655 
2714.500049985945 103.4635   2.298856   0.2921844 
2714.600049987435 104.4465   2.287638   0.2915614 
2714.700049988925 107.9133   2.306629   0.2936394 
2714.800049990416 109.8415   2.303415   0.2994612 
2714.900049991906 113.3153   2.278751   0.303416  
2715.000049993396 114.4029   2.284847   0.3056947 
2715.100049994886 113.7539   2.301357   0.3050717 
2715.200049996376 114.9792   2.280708   0.3054869 
2715.300049997866 115.1063   2.31502    0.3044491 
2715.400049999356 112.2565   2.324469   0.3067314 
2715.500050000846 109.4095   2.335992   0.305279  
2715.600050002337 108.5001   2.32465    0.301118  
2715.700050003827 108.3538   2.295658   0.2932237 
