~Version
 VERS              .         2.0                           : CWLS LOG ASCII STANDARD - VERSION 2.0
 WRAP              .         NO                            : ONE LINE PER DEPTH STEP
 DLM               .         SPACE                         : DELIMITING CHARACTER(SPACE TAB OR COMMA)
~Well Information
#_______________________________________________________________________________
#
#PARAMETER_NAME    .UNIT     VALUE                         : DESCRIPTION
#_______________________________________________________________________________
STRT               .m        2636.80004882813              : First reference value
STOP               .m        2825.10005163401              : Last reference value
STEP               .m        0.1                           : Step increment
NULL               .         -9999                         : Missing value
COMP               .                                       : Company
WELL               .         407                           : Well name
FLD                .                                       : Field
LOC                .                                       : Location
CNTY               .                                       : County
STAT               .                                       : State
CTRY               .                                       : Country
SRVC               .                                       : Service Company
DATE               .                                       : Date
API                .                                       : API number
Cartographic_reference_system .         GCS_WGS_1984                  : GEOGCS["GCS_WGS_1984",DATUM["D_WGS_1984",SPHEROID["WGS_1984",6378137.0,298.257223563]],PRIMEM["Greenwich",0.0],UNIT["Degree",0.0174532925199433],AUTHORITY["EPSG",4326]]
EREF               .m        140.4                         : 
HZCS               .GCS_WGS_1984 World_Mercator                : PROJCS["World_Mercator",GEOGCS["GCS_WGS_1984",DATUM["D_WGS_1984",SPHEROID["WGS_1984",6378137.0,298.257223563]],PRIMEM["Greenwich",0.0],UNIT["Degree",0.0174532925199433]],PROJECTION["Mercator"],PARAMETER["False_Easting",0.0],PARAMETER["False_Northing",0.0],PARAMETER["Central_Meridian",0.0],PARAMETER["Standard_Parallel_1",0.0],UNIT["Meter",1.0],AUTHORITY["ESRI",54004]]
LATI               .dega     2.2605552291                  : GCS_WGS_1984
LONG               .dega     1.995158246                   : GCS_WGS_1984
PROJECT_UPGRADE_TIME .         2014-05-27T11_38_46           : 
Pad                .         Pad4                          : 
X                  .m        222100                        : 
Y                  .m        250025                        : 
group              .         Pad4                          : 
Интер-р            .         Зайцев                        : 
Куст               .         4                             : 
Статус             .         Не проверено                  : 
Тип                .         Эксплуатация                  : 
~Parameter Information Block
#_______________________________________________________________________________
#
#PARAMETER_NAME    .UNIT     VALUE                         : DESCRIPTION
#_______________________________________________________________________________
SET                .         LQC                           : 
PROJECT_UPGRADE_TIME .         2014-05-27T11_38_46           : 
TLFamily_GR_NORM   .         Gamma Ray                     : 
TLFamily_MD        .         Measured Depth                : 
TLFamily_RHOB_NORM .         Bulk Density                  : 
TLFamily_TNPH_NORM .         Neutron Porosity              : 
~Curve Information
#_______________________________________________________________________________
#
#LOGNAME           .UNIT     LOG_ID                        : DESCRIPTION
#_______________________________________________________________________________
MD                 .m                                      :  
GR_NORM            .gAPI                                   : Normalised By Techlog 
RHOB_NORM          .g/cm3                                  : Normalized By Techlog 
TNPH_NORM          .v/v                                    : Normalised By Techlog 
~Ascii
# ...
2779.00005094707 85.69112   2.460732   0.2792977 
2779.10005094856 85.65904   2.465374   0.27472   
2779.20005095005 84.63242   2.460775   0.2651639 
2779.30005095154 85.53658   2.475335   0.2593421 
2779.400050953031 87.29683   2.442495   0.2564393 
2779.500050954521 89.33757   2.423831   0.2597598 
2779.600050956011 89.53139   2.374178   0.2684946 
2779.700050957501 91.14736   2.358777   0.278882  
2779.800050958991 89.43362   2.315379   0.289488  
2779.900050960481 86.98981   2.247114   0.300942  
2780.000050961971 83.57671   2.175193   0.313593  
2780.100050963461 82.04281   2.085033   0.3343943 
2780.200050964952 81.12633   1.998376   0.3659713 
2780.300050966442 78.01602   1.940012   0.3878002 
2780.400050967932 69.77437   1.880266   0.4076909 
2780.500050969422 64.61575   1.809359   0.4547234 
2780.600050970912 58.90842   1.771048   0.4634928 
2780.700050972402 52.1966    1.7487     0.5332909 
2780.800050973892 43.52899   1.718494   0.5499107 
2780.900050975382 31.43562   1.706896   0.5450318 
2781.000050976872 27.49717   1.703491   0.5786022 
2781.100050978363 23.80161   1.701971   0.5769313 
2781.200050979853 21.33463   1.699471   0.5605192 
2781.300050981343 19.84075   1.694358   0.54909   
2781.400050982833 18.78292   1.686466   0.5481952 
2781.500050984323 19.1814    1.688901   0.5251846 
2781.600050985813 21.08816   1.692618   0.504796  
2781.700050987303 24.11801   1.7048     0.4674023 
2781.800050988793 28.63136   1.711835   0.4414144 
2781.900050990283 35.66129   1.738023   0.4249324 
2782.000050991774 41.82616   1.763547   0.4033844 
2782.100050993264 55.85826   1.815686   0.3992091 
2782.200050994754 65.97756   2.012754   0.366387  
2782.300050996244 75.92231   2.283769   0.3462047 
2782.400050997734 79.00446   2.352269   0.3129796 
2782.500050999224 82.90626   2.386156   0.3127616 
2782.600051000714 84.77412   2.328007   0.297586  
2782.700051002204 84.29047   2.280658   0.2915609 
2782.800051003695 83.13998   2.249038   0.2851201 
2782.900051005185 81.81418   2.230943   0.2892745 
2783.000051006675 81.29805   2.188774   0.2894824 
2783.100051008165 81.50021   2.184767   0.2882302 
2783.200051009655 79.63311   2.345426   0.2807527 
2783.300051011145 77.98411   2.423126   0.2782443 
2783.400051012635 77.07979   2.526246   0.2575039 
2783.500051014125 76.69743   2.543418   0.2630854 
2783.600051015615 77.01851   2.528      0.2447926 
2783.700051017106 76.97517   2.526204   0.2406376 
2783.800051018596 76.10654   2.518992   0.2366869 
2783.900051020086 74.20158   2.577397   0.2339838 
2784.000051021576 73.68709   2.583815   0.2350256 
2784.100051023066 75.01591   2.521894   0.2441751 
2784.200051024556 77.91441   2.527195   0.2516536 
2784.300051026046 80.79956   2.497965   0.2578963 
2784.400051027536 81.26139   2.531835   0.2703703 
2784.500051029027 81.44737   2.530653   0.2741015 
2784.600051030517 81.12589   2.485808   0.2751392 
2784.700051032007 80.06167   2.527006   0.2718151 
2784.800051033497 78.36144   2.608738   0.267031  
2784.900051034987 76.64726   2.584093   0.2599525 
2785.000051036477 75.57602   2.593803   0.2545635 
2785.100051037967 74.18826   2.564197   0.2529007 
2785.200051039457 73.15549   2.544956   0.2535243 
2785.300051040947 72.33063   2.515096   0.2556018 
2785.400051042438 71.07085   2.448032   0.25394   
2785.500051043928 69.27013   2.371843   0.2541479 
2785.600051045418 65.92184   2.317396   0.2564377 
2785.700051046908 64.90096   2.249925   0.2628776 
2785.800051048398 62.64157   2.190515   0.2707891 
2785.900051049888 57.71016   2.107157   0.2919715 
2786.000051051378 59.04453   2.040188   0.296965  
2786.100051052868 62.76983   1.953979   0.3239866 
2786.200051054358 68.29208   1.924986   0.3235698 
2786.300051055849 73.60398   1.946616   0.3123388 
2786.400051057339 76.93407   2.011715   0.3013375 
2786.500051058829 77.30219   2.182488   0.2971729 
2786.600051060319 79.03574   2.329278   0.2684844 
2786.700051061809 84.6369    2.401117   0.2614226 
2786.800051063299 89.13113   2.520305   0.2618271 
2786.900051064789 92.76579   2.557764   0.2431267 
2787.000051066279 89.93487   2.479397   0.2389748 
2787.10005106777 88.31082   2.47126    0.2283729 
2787.20005106926 86.65873   2.500817   0.2262959 
2787.30005107075 85.84444   2.534065   0.2294172 
2787.40005107224 84.95985   2.534279   0.2364958 
2787.50005107373 84.65781   2.562414   0.2416768 
2787.60005107522 84.56297   2.589451   0.2422999 
2787.70005107671 83.12427   2.603043   0.2402219 
2787.8000510782 81.7923    2.651884   0.2341917 
2787.90005107969 78.68298   2.622898   0.2258295 
2788.000051081181 75.26841   2.59904    0.2059266 
2788.100051082671 70.76794   2.616571   0.1911656 
2788.200051084161 65.73268   2.631572   0.1814002 
2788.300051085651 63.69568   2.676019   0.1651869 
2788.400051087141 60.29652   2.658987   0.1620524 
2788.500051088631 58.03362   2.674278   0.1564582 
2788.600051090121 58.27353   2.679722   0.1572896 
2788.700051091611 60.06887   2.709942   0.1589524 
2788.800051093102 61.35152   2.714385   0.165812  
2788.900051094592 64.70216   2.677989   0.170009  
2789.000051096082 69.76439   2.652643   0.1863886 
2789.100051097572 76.07824   2.649148   0.2028185 
2789.200051099062 82.49562   2.624909   0.2231781 
2789.300051100552 85.78168   2.580817   0.2427191 
2789.400051102042 87.75658   2.702979   0.248546  
2789.500051103532 89.60337   2.712119   0.2518615 
2789.600051105022 90.03178   2.688357   0.2501946 
2789.700051106513 87.04996   2.636672   0.2418847 
2789.800051108003 84.8765    2.642517   0.233775  
2789.900051109493 80.53246   2.596534   0.2290106 
2790.000051110983 77.96517   2.62685    0.2333628 
2790.100051112473 77.00532   2.603433   0.2354444 
2790.200051113963 77.47092   2.58759    0.2418847 
2790.300051115453 77.70438   2.591759   0.2495797 
2790.400051116943 78.53403   2.604845   0.2591616 
2790.500051118433 77.94875   2.534452   0.267866  
2790.600051119924 74.63567   2.517155   0.2699455 
2790.700051121414 70.1825    2.552043   0.2728544 
2790.800051122904 68.6127    2.624805   0.2793013 
2790.900051124394 64.69115   2.687039   0.2882733 
2791.000051125884 60.84834   2.770545   0.3038241 
2791.100051127374 57.11569   2.742486   0.3179619 
2791.200051128864 52.75805   2.710068   0.3237777 
2791.300051130354 52.14723   2.685276   0.3208688 
2791.400051131845 52.49375   2.624289   0.3214787 
2791.500051133335 55.38911   2.628135   0.3152559 
2791.600051134825 60.92731   2.522087   0.3044415 
2791.700051136315 68.78035   2.450511   0.2915609 
2791.800051137805 73.19881   2.374109   0.2784628 
2791.900051139295 79.25128   2.298428   0.2697011 
2792.000051140785 84.68171   2.29467    0.2547714 
2792.100051142275 88.73848   2.294449   0.2416773 
2792.200051143765 90.22007   2.298979   0.2395983 
2792.300051145256 88.12288   2.332193   0.2262918 
2792.400051146746 86.68508   2.458475   0.2188031 
2792.500051148236 85.25211   2.475128   0.2148641 
2792.600051149726 83.523     2.423651   0.2107031 
2792.700051151216 80.89488   2.394148   0.2036402 
2792.800051152706 79.23438   2.398963   0.2009356 
2792.900051154196 75.57551   2.400291   0.1957292 
2793.000051155686 70.21684   2.421358   0.1920006 
2793.100051157176 67.38357   2.436127   0.1936634 
2793.200051158667 68.79827   2.496181   0.194287  
2793.300051160157 69.64706   2.489413   0.1965728 
2793.400051161647 74.02946   2.584658   0.1984769 
2793.500051163137 78.89545   2.650226   0.2111228 
2793.600051164627 85.13059   2.60661    0.2188138 
2793.700051166117 89.41672   2.589896   0.2217232 
2793.800051167607 90.94774   2.613642   0.2298288 
2793.900051169097 91.78428   2.64596    0.2296291 
2794.000051170588 91.61326   2.614099   0.2321157 
2794.100051172078 88.92461   2.630345   0.2331575 
2794.200051173568 84.55926   2.554271   0.2350256 
2794.300051175058 81.81339   2.576133   0.2258802 
2794.400051176548 79.00714   2.573549   0.2239867 
2794.500051178038 76.06281   2.587821   0.2152798 
2794.600051179528 74.41718   2.534148   0.209458  
2794.700051181018 74.37547   2.543041   0.2046795 
