~Version
 VERS              .         2.0                           : CWLS LOG ASCII STANDARD - VERSION 2.0
 WRAP              .         NO                            : ONE LINE PER DEPTH STEP
 DLM               .         SPACE                         : DELIMITING CHARACTER(SPACE TAB OR COMMA)
~Well Information
#_______________________________________________________________________________
#
#PARAMETER_NAME    .UNIT     VALUE                         : DESCRIPTION
#_______________________________________________________________________________
STRT               .m        2636.80004882813              : First reference value
STOP               .m        2825.10005163401              : Last reference value
STEP               .m        0.1                           : Step increment
NULL               .         -9999                         : Missing value
COMP               .                                       : Company
WELL               .         407                           : Well name
FLD                .                                       : Field
LOC                .                                       : Location
CNTY               .                                       : County
STAT               .                                       : State
CTRY               .                                       : Country
SRVC               .                                       : Service Company
DATE               .                                       : Date
API                .                                       : API number
Cartographic_reference_system .         GCS_WGS_1984                  : GEOGCS["GCS_WGS_1984",DATUM["D_WGS_1984",SPHEROID["WGS_1984",6378137.0,298.257223563]],PRIMEM["Greenwich",0.0],UNIT["Degree",0.0174532925199433],AUTHORITY["EPSG",4326]]
EREF               .m        140.4                         : 
HZCS               .GCS_WGS_1984 World_Mercator                : PROJCS["World_Mercator",GEOGCS["GCS_WGS_1984",DATUM["D_WGS_1984",SPHEROID["WGS_1984",6378137.0,298.257223563]],PRIMEM["Greenwich",0.0],UNIT["Degree",0.0174532925199433]],PROJECTION["Mercator"],PARAMETER["False_Easting",0.0],PARAMETER["False_Northing",0.0],PARAMETER["Central_Meridian",0.0],PARAMETER["Standard_Parallel_1",0.0],UNIT["Meter",1.0],AUTHORITY["ESRI",54004]]
LATI               .dega     2.2605552291                  : GCS_WGS_1984
LONG               .dega     1.995158246                   : GCS_WGS_1984
PROJECT_UPGRADE_TIME .         2014-05-27T11_38_46           : 
Pad                .         Pad4                          : 
X                  .m        222100                        : 
Y                  .m        250025                        : 
group              .         Pad4                          : 
Интер-р            .         Зайцев                        : 
Куст               .         4                             : 
Статус             .         Не проверено                  : 
Тип                .         Эксплуатация                  : 
~Parameter Information Block
#_______________________________________________________________________________
#
#PARAMETER_NAME    .UNIT     VALUE                         : DESCRIPTION
#_______________________________________________________________________________
SET                .         LQC                           : 
PROJECT_UPGRADE_TIME .         2014-05-27T11_38_46           : 
TLFamily_GR_NORM   .         Gamma Ray                     : 
TLFamily_MD        .         Measured Depth                : 
TLFamily_RHOB_NORM .         Bulk Density                  : 
TLFamily_TNPH_NORM .         Neutron Porosity              : 
~Curve Information
#_______________________________________________________________________________
#
#LOGNAME           .UNIT     LOG_ID                        : DESCRIPTION
#_______________________________________________________________________________
MD                 .m                                      :  
GR_NORM            .gAPI                                   : Normalised By Techlog 
RHOB_NORM          .g/cm3                                  : Normalized By Techlog 
TNPH_NORM          .v/v                                    : Normalised By Techlog 
~Ascii
# ...
2668.400049299002 68.57101   2.449543   0.228998  
2668.500049300492 68.1517    2.424176   0.2287901 
2668.600049301982 67.02922   2.403135   0.2298339 
2668.700049303472 68.01582   2.403522   0.237312  
2668.800049304962 70.08762   2.41673    0.237312  
2668.900049306452 74.31621   2.438982   0.2358393 
2669.000049307942 77.59038   2.394487   0.2292058 
2669.100049309433 80.17783   2.386806   0.2244217 
2669.200049310923 79.85709   2.388891   0.2198525 
2669.300049312413 80.76847   2.383808   0.2244242 
2669.400049313903 82.08617   2.406023   0.2238144 
2669.500049315393 84.41889   2.423417   0.2296215 
2669.600049316883 86.62657   2.458397   0.2360643 
2669.700049318373 87.35009   2.469185   0.2354413 
2669.800049319863 85.26897   2.444734   0.2350226 
2669.900049321353 83.00004   2.403539   0.2287749 
2670.000049322844 80.10348   2.400994   0.223386  
2670.100049324334 76.46987   2.399806   0.2202647 
2670.200049325824 74.61588   2.402761   0.2148641 
2670.300049327314 70.35402   2.434814   0.2161102 
2670.400049328804 67.12005   2.451924   0.2142381 
2670.500049330294 64.83077   2.483735   0.2123699 
2670.600049331784 63.36166   2.528262   0.2069628 
2670.700049333274 63.63321   2.539921   0.2001068 
2670.800049334764 63.15356   2.531136   0.1917907 
2670.900049336255 62.72961   2.515115   0.187836  
2671.000049337745 63.30022   2.512126   0.1857651 
2671.100049339235 63.78526   2.48263    0.1874279 
2671.200049340725 62.89854   2.515915   0.1876357 
2671.300049342215 60.67722   2.514267   0.1874253 
2671.400049343705 59.03202   2.546538   0.1826397 
2671.500049345195 58.32778   2.64796    0.1805688 
2671.600049346685 58.25624   2.653486   0.1813982 
2671.700049348176 58.2785    2.617589   0.1793217 
2671.800049349666 57.25203   2.573494   0.1836851 
2671.900049351156 56.79657   2.553701   0.180982  
2672.000049352646 59.33421   2.573301   0.1799453 
2672.100049354136 60.63795   2.588222   0.1793222 
2672.200049355626 60.84238   2.576565   0.180361  
2672.300049357116 60.65865   2.540296   0.1816091 
2672.400049358606 60.27892   2.484451   0.1830605 
2672.500049360096 58.07244   2.485158   0.1822316 
2672.600049361587 53.17159   2.464352   0.1818149 
2672.700049363077 49.9926    2.465691   0.1809845 
2672.800049364567 47.30553   2.442482   0.1843101 
2672.900049366057 46.0971    2.446089   0.1849413 
2673.000049367547 46.63882   2.440175   0.1872201 
2673.100049369037 48.76013   2.449141   0.1878472 
2673.200049370527 51.14686   2.457926   0.1934555 
2673.300049372017 55.29529   2.490615   0.1938743 
2673.400049373507 58.67163   2.503002   0.19907   
2673.500049374998 61.256     2.557302   0.1994832 
2673.600049376488 63.44253   2.53115    0.197612  
2673.700049377978 64.63665   2.528083   0.1957419 
2673.800049379468 67.132     2.483749   0.192835  
2673.900049380958 70.14432   2.483428   0.198662  
2674.000049382448 71.36064   2.502704   0.2017696 
2674.100049383938 71.32148   2.497454   0.2021883 
2674.200049385428 70.72453   2.504097   0.206758  
2674.300049386919 71.09312   2.471978   0.2053035 
2674.400049388409 73.47618   2.477416   0.205924  
2674.500049389899 75.36398   2.484744   0.2055109 
2674.600049391389 77.82253   2.475252   0.2071737 
2674.700049392879 79.58084   2.510541   0.2080051 
2674.800049394369 82.17953   2.511988   0.2113307 
2674.900049395859 83.26825   2.510077   0.2123826 
2675.000049397349 85.13265   2.476454   0.217774  
2675.100049398839 87.95361   2.461548   0.2250544 
2675.20004940033 88.58649   2.484792   0.2354413 
2675.30004940182 89.56777   2.484039   0.2420966 
2675.40004940331 89.30737   2.511074   0.2489541 
2675.5000494048 85.52686   2.479231   0.2501987 
2675.60004940629 79.97347   2.472379   0.2506113 
2675.70004940778 76.85123   2.472047   0.2454181 
2675.80004940927 74.23989   2.537201   0.2422948 
2675.90004941076 71.93858   2.576723   0.2329446 
2676.000049412251 70.77381   2.602106   0.2329471 
2676.100049413741 72.33978   2.602673   0.2377312 
2676.200049415231 74.88466   2.563931   0.244171  
2676.300049416721 79.01866   2.566849   0.2491655 
2676.400049418211 83.64165   2.6028     0.2601882 
2676.500049419701 88.41028   2.573909   0.2643325 
2676.600049421191 93.23132   2.548267   0.2659994 
2676.700049422681 95.3478    2.554026   0.2732701 
2676.800049424171 98.55987   2.585155   0.2763893 
2676.900049425662 101.727    2.610449   0.278882  
2677.000049427152 103.7084   2.644161   0.2790899 
2677.100049428642 103.3492   2.60574    0.2792962 
2677.200049430132 101.5342   2.593129   0.2774271 
2677.300049431622 98.86572   2.590128   0.2790878 
2677.400049433112 96.09734   2.639751   0.2753435 
2677.500049434602 95.30749   2.655725   0.2728544 
2677.600049436092 94.19054   2.651428   0.2695288 
2677.700049437582 94.19802   2.662505   0.2695288 
2677.800049439073 94.45818   2.592684   0.2707789 
2677.900049440563 95.3385    2.603852   0.2763954 
2678.000049442053 96.80967   2.586771   0.2778428 
2678.100049443543 97.48509   2.601927   0.2730607 
2678.200049445033 98.14312   2.572771   0.2695288 
2678.300049446523 97.78514   2.565827   0.264955  
2678.400049448013 98.43737   2.54288    0.2632932 
2678.500049449503 99.25259   2.54118    0.2639168 
2678.600049450994 102.3434   2.57384    0.2668277 
2678.700049452484 102.2271   2.587156   0.2693209 
2678.800049453974 102.5765   2.575802   0.2736883 
2678.900049455464 102.8771   2.559338   0.2784739 
2679.000049456954 104.1489   2.563299   0.2807527 
2679.100049458444 104.9903   2.532462   0.2815881 
2679.200049459934 106.2857   2.537669   0.2884431 
2679.300049461424 106.7444   2.507677   0.2909414 
2679.400049462914 107.0706   2.519943   0.2973782 
2679.500049464405 106.9546   2.521645   0.2957179 
2679.600049465895 109.3218   2.512941   0.2932257 
2679.700049467385 110.3905   2.485248   0.296965  
2679.800049468875 112.1303   2.492715   0.3000863 
2679.900049470365 112.2765   2.461842   0.3059026 
2680.000049471855 111.0655   2.46583    0.3038241 
2680.100049473345 108.0519   2.466286   0.2940516 
2680.200049474835 107.64     2.471714   0.2861568 
2680.300049476326 107.1268   2.495078   0.2770093 
2680.400049477816 105.2948   2.542104   0.2730546 
2680.500049479306 105.3046   2.502538   0.2697366 
2680.600049480796 106.3691   2.478457   0.2659943 
2680.700049482286 105.7317   2.476082   0.2635011 
2680.800049483776 104.8466   2.470583   0.2603838 
2680.900049485266 105.8511   2.538778   0.2620563 
2681.000049486756 107.8894   2.5578     0.2670346 
2681.100049488246 110.1049   2.550133   0.2749359 
2681.200049489737 109.2273   2.562563   0.2801291 
2681.300049491227 107.7113   2.537201   0.2797104 
2681.400049492717 104.4454   2.557276   0.2726212 
2681.500049494207 103.5605   2.562511   0.262254  
2681.600049495697 102.8964   2.548889   0.2526899 
2681.700049497187 103.1484   2.522356   0.2466652 
2681.800049498677 101.4912   2.54071    0.2425082 
2681.900049500167 99.29458   2.573472   0.2431394 
2682.000049501657 98.21779   2.545933   0.2468731 
2682.100049503148 97.74633   2.526964   0.2526949 
2682.200049504638 98.86734   2.545747   0.2568499 
2682.300049506128 101.0708   2.544675   0.2610089 
2682.400049507618 102.8448   2.537447   0.2651741 
2682.500049509108 103.7785   2.540683   0.2686974 
2682.600049510598 104.2922   2.586385   0.2701539 
2682.700049512088 104.0936   2.586441   0.2732701 
2682.800049513578 103.2915   2.567361   0.276181  
2682.900049515069 102.5985   2.570038   0.2784739 
2683.000049516559 101.0385   2.574406   0.2819998 
2683.100049518049 99.12841   2.5389     0.2853234 
2683.200049519539 98.60751   2.521234   0.2822076 
2683.300049521029 97.92313   2.519711   0.2819972 
2683.400049522519 96.93281   2.537909   0.2767908 
2683.500049524009 95.63898   2.578551   0.2711916 
2683.600049525499 93.24481   2.582102   0.2637049 
2683.700049526989 92.09109   2.584878   0.2558106 
2683.80004952848 90.63732   2.58358    0.2491554 
2683.90004952997 88.8384    2.571434   0.2414563 
2684.00004953146 86.3571    2.596746   0.2381434 
2684.10004953295 82.70878   2.591123   0.2398021 
