~Version
 VERS              .         2.0                           : CWLS LOG ASCII STANDARD - VERSION 2.0
 WRAP              .         NO                            : ONE LINE PER DEPTH STEP
 DLM               .         SPACE                         : DELIMITING CHARACTER(SPACE TAB OR COMMA)
~Well Information
#_______________________________________________________________________________
#
#PARAMETER_NAME    .UNIT     VALUE                         : DESCRIPTION
#_______________________________________________________________________________
STRT               .m        2636.80004882813              : First reference value
STOP               .m        2825.10005163401              : Last reference value
STEP               .m        0.1                           : Step increment
NULL               .         -9999                         : Missing value
COMP               .                                       : Company
WELL               .         407                           : Well name
FLD                .                                       : Field
LOC                .                                       : Location
CNTY               .                                       : County
STAT               .                                       : State
CTRY               .                                       : Country
SRVC               .                                       : Service Company
DATE               .                                       : Date
API                .                                       : API number
Cartographic_reference_system .         GCS_WGS_1984                  : GEOGCS["GCS_WGS_1984",DATUM["D_WGS_1984",SPHEROID["WGS_1984",6378137.0,298.257223563]],PRIMEM["Greenwich",0.0],UNIT["Degree",0.0174532925199433],AUTHORITY["EPSG",4326]]
EREF               .m        140.4                         : 
HZCS               .GCS_WGS_1984 World_Mercator                : PROJCS["World_Mercator",GEOGCS["GCS_WGS_1984",DATUM["D_WGS_1984",SPHEROID["WGS_1984",6378137.0,298.257223563]],PRIMEM["Greenwich",0.0],UNIT["Degree",0.0174532925199433]],PROJECTION["Mercator"],PARAMETER["False_Easting",0.0],PARAMETER["False_Northing",0.0],PARAMETER["Central_Meridian",0.0],PARAMETER["Standard_Parallel_1",0.0],UNIT["Meter",1.0],AUTHORITY["ESRI",54004]]
LATI               .dega     2.2605552291                  : GCS_WGS_1984
LONG               .dega     1.995158246                   : GCS_WGS_1984
PROJECT_UPGRADE_TIME .         2014-05-27T11_38_46           : 
Pad                .         Pad4                          : 
X                  .m        222100                        : 
Y                  .m        250025                        : 
group              .         Pad4                          : 
Интер-р            .         Зайцев                        : 
Куст               .         4                             : 
Статус             .         Не проверено                  : 
Тип                .         Эксплуатация                  : 
~Parameter Information Block
#_______________________________________________________________________________
#
#PARAMETER_NAME    .UNIT     VALUE                         : DESCRIPTION
#_______________________________________________________________________________
SET                .         LQC                           : 
PROJECT_UPGRADE_TIME .         2014-05-27T11_38_46           : 
TLFamily_GR_NORM   .         Gamma Ray                     : 
TLFamily_MD        .         Measured Depth                : 
TLFamily_RHOB_NORM .         Bulk Density                  : 
TLFamily_TNPH_NORM .         Neutron Porosity              : 
~Curve Information
#_______________________________________________________________________________
#
#LOGNAME           .UNIT     LOG_ID                        : DESCRIPTION
#_______________________________________________________________________________
MD                 .m                                      :  
GR_NORM            .gAPI                                   : Normalised By Techlog 
RHOB_NORM          .g/cm3                                  : Normalized By Techlog 
TNPH_NORM          .v/v                                    : Normalised By Techlog 
~Ascii
# ...
2763.200050711632 39.36383   2.563212   0.1957419 
2763.300050713122 38.64651   2.58999    0.1863861 
2763.400050714612 37.69717   2.668454   0.182442  
2763.500050716102 37.76608   2.616972   0.1826473 
2763.600050717592 38.18383   2.540959   0.1799448 
2763.700050719082 37.58987   2.486511   0.1799453 
2763.800050720572 37.87449   2.42647    0.1841043 
2763.900050722063 39.93994   2.398814   0.1876383 
2764.000050723553 42.17856   2.401574   0.1907535 
2764.100050725043 41.72462   2.404255   0.200524  
2764.200050726533 41.61561   2.368316   0.2038481 
2764.300050728023 40.94009   2.358939   0.2071737 
2764.400050729513 40.13162   2.384022   0.2075944 
2764.500050731003 41.35877   2.348011   0.2090443 
2764.600050732493 43.88065   2.372797   0.2077962 
2764.700050733984 43.90174   2.391443   0.2059266 
2764.800050735474 45.37297   2.389555   0.2050952 
2764.900050736964 46.27271   2.37482    0.2050952 
2765.000050738454 47.10023   2.376251   0.205303  
2765.100050739944 46.89574   2.431291   0.2065511 
2765.200050741434 47.21819   2.461859   0.2090443 
2765.300050742924 48.4498    2.46011    0.2136201 
2765.400050744414 51.06821   2.461109   0.2200781 
2765.500050745904 54.66191   2.473457   0.2273352 
2765.600050747395 59.12039   2.504652   0.2350302 
2765.700050748885 61.93093   2.516793   0.2427161 
2765.800050750375 65.99416   2.518896   0.2454227 
2765.900050751865 69.14568   2.512414   0.25248   
2766.000050753355 72.03111   2.51978    0.2485359 
2766.100050754845 76.76246   2.52416    0.2393905 
2766.200050756335 78.52812   2.53648    0.2379355 
2766.300050757825 80.25132   2.545021   0.231699  
2766.400050759315 80.28715   2.572371   0.2296164 
2766.500050760806 80.10646   2.560452   0.2281666 
2766.600050762296 78.75056   2.558684   0.228998  
2766.700050763786 76.02995   2.569361   0.2285822 
2766.800050765276 74.9616    2.604994   0.2275445 
2766.900050766766 73.83357   2.573547   0.2296164 
2767.000050768256 73.83192   2.621075   0.2273352 
2767.100050769746 73.41628   2.621932   0.2240075 
2767.200050771236 72.5612    2.590689   0.2196447 
2767.300050772727 72.3874    2.528829   0.2163211 
2767.400050774217 71.34012   2.473725   0.2196447 
2767.500050775707 71.28897   2.499913   0.2202682 
2767.600050777197 73.30221   2.481027   0.2227625 
2767.700050778687 76.57947   2.492463   0.2227625 
2767.800050780177 77.77625   2.468151   0.2221374 
2767.900050781667 79.13084   2.472756   0.2202758 
2768.000050783157 80.19157   2.520319   0.2229703 
2768.100050784647 81.2473    2.534466   0.2248435 
2768.200050786138 81.09946   2.532104   0.2304529 
2768.300050787628 80.26881   2.524643   0.2362727 
2768.400050789118 79.01987   2.538189   0.2358519 
2768.500050790608 76.63621   2.560508   0.233155  
2768.600050792098 76.34527   2.598127   0.2264977 
2768.700050793588 76.75865   2.59335    0.2154877 
2768.800050795078 76.86019   2.600089   0.2073719 
2768.900050796568 76.50803   2.65205    0.1886395 
2769.000050798059 74.55316   2.640306   0.1770354 
2769.100050799549 70.40488   2.693095   0.1766187 
2769.200050801039 61.78609   2.773012   0.1710077 
2769.300050802529 55.99373   2.81481    0.1552111 
2769.400050804019 49.96064   2.842597   0.1522657 
2769.500050805509 45.75632   2.801436   0.140038  
2769.600050806999 43.32518   2.781404   0.1375438 
2769.700050808489 43.35671   2.785188   0.1396223 
2769.800050809979 45.34893   2.748869   0.1473113 
2769.90005081147 49.18142   2.748006   0.1500782 
2770.00005081296 54.10793   2.688674   0.1743333 
2770.10005081445 60.97193   2.665381   0.1888839 
2770.20005081594 70.89326   2.597026   0.1961576 
2770.30005081743 75.24809   2.570718   0.2192305 
2770.40005081892 81.29913   2.558397   0.2236167 
2770.50005082041 81.82666   2.528691   0.2310765 
2770.6000508219 79.97657   2.507608   0.232535  
2770.70005082339 77.02892   2.500149   0.2377277 
2770.800050824881 74.07197   2.507249   0.2364836 
2770.900050826371 70.52291   2.503743   0.2410482 
2771.000050827861 68.35777   2.510979   0.2398062 
2771.100050829351 67.5574    2.526384   0.2410523 
2771.200050830841 67.63206   2.534091   0.2408454 
2771.300050832331 67.92622   2.495354   0.2466652 
2771.400050833821 68.11236   2.507926   0.247086  
2771.500050835311 69.02076   2.4793     0.2495751 
2771.600050836802 68.44195   2.444706   0.2526924 
2771.700050838292 63.68547   2.434154   0.2520694 
2771.800050839782 60.61105   2.3748     0.2522757 
2771.900050841272 61.14962   2.301609   0.2499934 
2772.000050842762 63.12402   2.251856   0.2520694 
2772.100050844252 66.3122    2.22649    0.2585163 
2772.200050845742 70.08244   2.185662   0.2643325 
2772.300050847232 74.96513   2.127654   0.2728752 
2772.400050848722 78.76869   2.055874   0.3077834 
2772.500050850213 87.00964   2.019271   0.3216992 
2772.600050851703 95.85914   1.994487   0.3676428 
2772.700050853193 102.4212   1.99856    0.378858  
2772.800050854683 104.5587   2.070776   0.3720106 
2772.900050856173 102.789    2.211465   0.3881758 
2773.000050857663 100.2307   2.310903   0.3742853 
2773.100050859153 96.62313   2.365613   0.3622229 
2773.200050860643 94.45486   2.33509    0.3528768 
2773.300050862134 94.82217   2.291838   0.3574383 
2773.400050863624 94.8196    2.225275   0.342104  
2773.500050865114 94.99242   2.17091    0.3485119 
2773.600050866604 95.34228   2.208268   0.3273101 
2773.700050868094 96.33632   2.258502   0.3250248 
2773.800050869584 97.38453   2.284336   0.323364  
2773.900050871074 97.66944   2.266201   0.3258461 
2774.000050872564 99.42281   2.19448    0.3244013 
2774.100050874054 101.5071   2.19745    0.3329256 
2774.200050875545 104.2131   2.303428   0.33999   
2774.300050877035 106.9529   2.404379   0.348921  
2774.400050878525 106.2091   2.478864   0.3364363 
2774.500050880015 104.243    2.540821   0.3250248 
2774.600050881505 102.0672   2.546803   0.3011103 
2774.700050882995 98.13118   2.579109   0.2801291 
2774.800050884485 92.90295   2.543294   0.2670208 
2774.900050885975 91.74538   2.498779   0.2454283 
2775.000050887465 89.21812   2.482865   0.245626  
2775.100050888956 85.40305   2.473249   0.2327383 
2775.200050890446 83.27209   2.471081   0.2304529 
2775.300050891936 83.66306   2.491209   0.2273336 
2775.400050893426 82.96892   2.484611   0.2246306 
2775.500050894916 82.02824   2.527668   0.2240096 
2775.600050896406 81.7942    2.542506   0.224841  
2775.700050897896 79.33895   2.498489   0.2254645 
2775.800050899386 76.26188   2.515345   0.2271253 
2775.900050900877 73.7592    2.550059   0.2248536 
2776.000050902367 69.85398   2.605781   0.2294137 
2776.100050903857 65.90839   2.569682   0.232535  
2776.200050905347 59.97033   2.564404   0.2371041 
2776.300050906837 58.57773   2.558242   0.2321157 
2776.400050908327 56.63033   2.521668   0.2321157 
2776.500050909817 54.50812   2.487811   0.2325314 
2776.600050911307 53.90763   2.472296   0.2329441 
2776.700050912797 56.46275   2.480141   0.2302451 
2776.800050914288 59.2171    2.498573   0.2387654 
2776.900050915778 63.81256   2.513345   0.2379558 
2777.000050917268 67.85007   2.486636   0.2452103 
2777.100050918758 72.98153   2.462252   0.2485379 
2777.200050920248 77.03638   2.44547    0.2533164 
2777.300050921738 78.47689   2.458038   0.260178  
2777.400050923228 77.14898   2.456622   0.2643325 
2777.500050924718 74.79207   2.465996   0.2637089 
2777.600050926208 75.35749   2.513328   0.2605897 
2777.700050927699 80.21696   2.49746    0.2589284 
2777.800050929189 84.07988   2.476095   0.2626707 
2777.900050930679 86.65546   2.48495    0.2666467 
2778.000050932169 87.49942   2.465623   0.277427  
2778.100050933659 87.35009   2.445812   0.2853284 
2778.200050935149 87.07533   2.447593   0.2909374 
2778.300050936639 85.92543   2.435201   0.2932232 
2778.400050938129 85.9371    2.427671   0.2904989 
2778.50005093962 86.7991    2.457223   0.2811684 
2778.60005094111 87.00101   2.473885   0.2722273 
2778.7000509426 87.53675   2.460695   0.2676581 
2778.80005094409 87.37965   2.442523   0.2736883 
2778.90005094558 86.61985   2.484685   0.2782635 
