~Version
 VERS              .         2.0                           : CWLS LOG ASCII STANDARD - VERSION 2.0
 WRAP              .         NO                            : ONE LINE PER DEPTH STEP
 DLM               .         SPACE                         : DELIMITING CHARACTER(SPACE TAB OR COMMA)
~Well Information
#_______________________________________________________________________________
#
#PARAMETER_NAME    .UNIT     VALUE                         : DESCRIPTION
#_______________________________________________________________________________
STRT               .m        2636.80004882813              : First reference value
STOP               .m        2825.10005163401              : Last reference value
STEP               .m        0.1                           : Step increment
NULL               .         -9999                         : Missing value
COMP               .                                       : Company
WELL               .         407                           : Well name
FLD                .                                       : Field
LOC                .                                       : Location
CNTY               .                                       : County
STAT               .                                       : State
CTRY               .                                       : Country
SRVC               .                                       : Service Company
DATE               .                                       : Date
API                .                                       : API number
Cartographic_reference_system .         GCS_WGS_1984                  : GEOGCS["GCS_WGS_1984",DATUM["D_WGS_1984",SPHEROID["WGS_1984",6378137.0,298.257223563]],PRIMEM["Greenwich",0.0],UNIT["Degree",0.0174532925199433],AUTHORITY["EPSG",4326]]
EREF               .m        140.4                         : 
HZCS               .GCS_WGS_1984 World_Mercator                : PROJCS["World_Mercator",GEOGCS["GCS_WGS_1984",DATUM["D_WGS_1984",SPHEROID["WGS_1984",6378137.0,298.257223563]],PRIMEM["Greenwich",0.0],UNIT["Degree",0.0174532925199433]],PROJECTION["Mercator"],PARAMETER["False_Easting",0.0],PARAMETER["False_Northing",0.0],PARAMETER["Central_Meridian",0.0],PARAMETER["Standard_Parallel_1",0.0],UNIT["Meter",1.0],AUTHORITY["ESRI",54004]]
LATI               .dega     2.2605552291                  : GCS_WGS_1984
LONG               .dega     1.995158246                   : GCS_WGS_1984
PROJECT_UPGRADE_TIME .         2014-05-27T11_38_46           : 
Pad                .         Pad4                          : 
X                  .m        222100                        : 
Y                  .m        250025                        : 
group              .         Pad4                          : 
Интер-р            .         Зайцев                        : 
Куст               .         4                             : 
Статус             .         Не проверено                  : 
Тип                .         Эксплуатация                  : 
~Parameter Information Block
#_______________________________________________________________________________
#
#PARAMETER_NAME    .UNIT     VALUE                         : DESCRIPTION
#_______________________________________________________________________________
SET                .         LQC                           : 
PROJECT_UPGRADE_TIME .         2014-05-27T11_38_46           : 
TLFamily_GR_NORM   .         Gamma Ray                     : 
TLFamily_MD        .         Measured Depth                : 
TLFamily_RHOB_NORM .         Bulk Density                  : 
TLFamily_TNPH_NORM .         Neutron Porosity              : 
~Curve Information
#_______________________________________________________________________________
#
#LOGNAME           .UNIT     LOG_ID                        : DESCRIPTION
#_______________________________________________________________________________
MD                 .m                                      :  
GR_NORM            .gAPI                                   : Normalised By Techlog 
RHOB_NORM          .g/cm3                                  : Normalized By Techlog 
TNPH_NORM          .v/v                                    : Normalised By Techlog 
~Ascii
# ...
2715.800050005317 107.9899   2.302655   0.2869852 
2715.900050006807 109.8359   2.302528   0.2826309 
2716.000050008297 113.925    2.28971    0.2857411 
2716.100050009787 113.7237   2.274624   0.2919858 
2716.200050011277 114.0848   2.26925    0.3083968 
2716.300050012767 113.6846   2.256636   0.3165085 
2716.400050014257 113.7348   2.244438   0.3260691 
2716.500050015748 114.1729   2.250598   0.3277268 
2716.600050017238 114.7208   2.256263   0.3300188 
2716.700050018728 114.7806   2.229206   0.3406136 
2716.800050020218 115.6707   2.24901    0.3464334 
2716.900050021708 115.9174   2.261398   0.3447503 
2717.000050023198 116.3963   2.269305   0.3364566 
2717.100050024688 117.8164   2.268697   0.3281385 
2717.200050026178 117.4849   2.250396   0.321907  
2717.300050027668 115.7264   2.260062   0.3239866 
2717.400050029159 113.7785   2.282675   0.3262795 
2717.500050030649 110.961    2.30289    0.3293897 
2717.600050032139 107.1878   2.32266    0.332509  
2717.700050033629 104.455    2.305493   0.335833  
2717.800050035119 101.7786   2.296521   0.339992  
2717.900050036609 101.751    2.302617   0.3441572 
2718.000050038099 106.1826   2.277621   0.3474726 
2718.100050039589 113.6679   2.250391   0.3483061 
2718.20005004108 120.8521   2.242463   0.3512139 
2718.30005004257 122.0457   2.217262   0.3478843 
2718.40005004406 121.1375   2.228237   0.3412371 
2718.50005004555 113.81     2.246634   0.3391586 
2718.60005004704 111.1332   2.242047   0.3306363 
2718.70005004853 108.9884   2.287073   0.3252326 
2718.80005005002 104.5924   2.339294   0.3059    
2718.90005005151 96.57722   2.372201   0.2998521 
2719.000050053 92.96014   2.36774    0.2911452 
2719.100050054491 88.93286   2.385811   0.2871986 
2719.200050055981 87.03353   2.387041   0.2930158 
2719.300050057471 91.07939   2.346782   0.2992504 
2719.400050058961 97.32862   2.374727   0.3001132 
2719.500050060451 98.75086   2.34728    0.3088125 
2719.600050061941 102.3982   2.302434   0.3052826 
2719.700050063431 106.9457   2.329531   0.3113067 
2719.800050064921 111.1868   2.324111   0.3119297 
2719.900050066411 117.0408   2.296068   0.3121507 
2720.000050067902 119.9069   2.295623   0.3162951 
2720.100050069392 125.3102   2.267053   0.3169202 
2720.200050070882 129.6457   2.242094   0.3206599 
2720.300050072372 133.3128   2.233702   0.3289821 
2720.400050073862 140.0941   2.243883   0.344801  
2720.500050075352 139.0082   2.254508   0.3568259 
2720.600050076842 135.7008   2.224846   0.3649316 
2720.700050078332 132.1931   2.210743   0.3649321 
2720.800050079823 126.5893   2.217759   0.3676326 
2720.900050081313 123.4637   2.212813   0.3649295 
2721.000050082803 117.8821   2.240776   0.3616064 
2721.100050084293 112.2233   2.282996   0.3482959 
2721.200050085783 106.8979   2.308715   0.3320917 
2721.300050087273 100.9481   2.327509   0.3183685 
2721.400050088763 99.55841   2.357752   0.3096388 
2721.500050090253 98.39697   2.373391   0.3100596 
2721.600050091743 96.39831   2.354395   0.3202488 
2721.700050093234 98.68964   2.360706   0.3281426 
2721.800050094724 103.3497   2.332193   0.3331391 
2721.900050096214 106.2359   2.277441   0.3468542 
2722.000050097704 111.3746   2.258183   0.3510061 
2722.100050099194 118.5026   2.242613   0.3605662 
2722.200050100684 126.7876   2.239312   0.3582808 
2722.300050102174 135.0893   2.263364   0.3557867 
2722.400050103664 137.272    2.24786    0.357049  
2722.500050105155 143.0922   2.259813   0.3641007 
2722.600050106645 156.3995   2.262853   0.3736649 
2722.700050108135 166.3491   2.263019   0.3801051 
2722.800050109625 169.6862   2.230566   0.3852999 
2722.900050111115 171.5696   2.242665   0.3823864 
2723.000050112605 170.9542   2.234545   0.3794816 
2723.100050114095 170.1237   2.222387   0.3738681 
2723.200050115585 169.3326   2.191573   0.3707519 
2723.300050117075 167.5264   2.179822   0.3676326 
2723.400050118566 165.388    2.206179   0.3651399 
2723.500050120056 162.5399   2.210133   0.3649321 
2723.600050121546 162.716    2.218947   0.364309  
2723.700050123036 165.0276   2.218422   0.3655556 
2723.800050124526 166.3583   2.238275   0.3680518 
2723.900050126016 169.5372   2.233394   0.3717962 
2724.000050127506 170.9393   2.213725   0.3734539 
2724.100050128996 169.5479   2.173079   0.3734539 
2724.200050130486 164.6737   2.166684   0.3724147 
2724.300050131977 162.2918   2.187213   0.3682577 
2724.400050133467 159.229    2.143526   0.3686784 
2724.500050134957 158.217    2.171242   0.3713754 
2724.600050136447 160.4105   2.167664   0.3753241 
2724.700050137937 167.8334   2.16276    0.3749089 
2724.800050139427 168.9526   2.179463   0.3759466 
2724.900050140917 167.9765   2.144599   0.3713501 
2725.000050142407 154.6273   2.126065   0.3613986 
2725.100050143898 135.6669   2.117486   0.3522471 
2725.200050145388 130.0473   2.122555   0.3416528 
2725.300050146878 122.5617   2.152052   0.3379085 
2725.400050148368 119.7816   2.203993   0.332292  
2725.500050149858 119.0289   2.219596   0.3298054 
2725.600050151348 117.9933   2.233675   0.3291803 
2725.700050152838 118.4943   2.227777   0.3258562 
2725.800050154328 114.8879   2.251828   0.3219055 
2725.900050155818 110.8862   2.254591   0.3194129 
2726.000050157309 104.3863   2.292142   0.3204521 
2726.100050158799 97.96088   2.297682   0.3250258 
2726.200050160289 98.04308   2.326921   0.327519  
2726.300050161779 98.91983   2.333395   0.3312613 
2726.400050163269 98.96488   2.338241   0.3333439 
2726.500050164759 98.15805   2.311995   0.3352095 
2726.600050166249 100.5227   2.296963   0.3354158 
2726.700050167739 102.0748   2.284063   0.3329231 
2726.80005016923 102.3587   2.298068   0.332298  
2726.90005017072 102.6544   2.316969   0.329595  
2727.00005017221 103.4276   2.32878    0.328974  
2727.1000501737 106.0434   2.322177   0.3281385 
2727.20005017519 104.8537   2.32766    0.31775   
2727.30005017668 102.062    2.317175   0.3009096 
2727.40005017817 101.004    2.329393   0.2921693 
2727.50005017966 102.2734   2.353234   0.284494  
2727.60005018115 103.9002   2.372755   0.2724356 
2727.700050182641 105        2.36172    0.2651639 
2727.800050184131 106.1142   2.41474    0.2553934 
2727.900050185621 111.4379   2.452825   0.2545838 
2728.000050187111 111.6031   2.482782   0.2647482 
2728.100050188601 111.8487   2.47441    0.2803406 
2728.200050190091 113.8309   2.500003   0.2869882 
2728.300050191581 117.0739   2.511325   0.2909389 
2728.400050193071 118.8801   2.504024   0.2951146 
2728.500050194561 118.8049   2.528498   0.3023691 
2728.600050196052 119.9269   2.508686   0.3063218 
2728.700050197542 121.2911   2.458438   0.3127617 
2728.800050199032 123.0032   2.524118   0.3148391 
2728.900050200522 124.3613   2.457096   0.3144396 
2729.000050202012 124.167    2.451959   0.3179579 
2729.100050203502 123.0167   2.469077   0.3129715 
2729.200050204992 120.867    2.465348   0.3165029 
2729.300050206482 115.7897   2.460124   0.3177511 
2729.400050207973 114.7683   2.506978   0.3223583 
2729.500050209463 112.8783   2.486374   0.3347937 
2729.600050210953 111.853    2.501792   0.3383277 
2729.700050212443 112.8514   2.485674   0.3401979 
2729.800050213933 113.3533   2.43802    0.3428964 
2729.900050215423 113.2577   2.405652   0.3356074 
2730.000050216913 111.6508   2.395482   0.3279347 
2730.100050218403 111.0375   2.392567   0.3192019 
2730.200050219893 111.3223   2.447524   0.3138009 
2730.300050221384 109.8802   2.449321   0.311513  
2730.400050222874 109.7306   2.43014    0.3088099 
2730.500050224364 106.8994   2.395413   0.3083968 
2730.600050225854 104.8497   2.383324   0.310893  
2730.700050227344 103.4485   2.397177   0.3146323 
2730.800050228834 104.5252   2.377563   0.3173369 
2730.900050230324 104.6146   2.384798   0.3214913 
2731.000050231814 105.1135   2.411701   0.3225306 
2731.100050233305 105.4705   2.469657   0.3277294 
2731.200050234795 105.8019   2.451413   0.3335467 
2731.300050236285 106.4009   2.471453   0.3416564 
2731.400050237775 107.3581   2.471114   0.3481038 
2731.500050239265 108.9989   2.446309   0.3505904 
