~Version
 VERS              .         2.0                           : CWLS LOG ASCII STANDARD - VERSION 2.0
 WRAP              .         NO                            : ONE LINE PER DEPTH STEP
 DLM               .         SPACE                         : DELIMITING CHARACTER(SPACE TAB OR COMMA)
~Well Information
#_______________________________________________________________________________
#
#PARAMETER_NAME    .UNIT     VALUE                         : DESCRIPTION
#_______________________________________________________________________________
STRT               .m        2636.80004882813              : First reference value
STOP               .m        2825.10005163401              : Last reference value
STEP               .m        0.1                           : Step increment
NULL               .         -9999                         : Missing value
COMP               .                                       : Company
WELL               .         407                           : Well name
FLD                .                                       : Field
LOC                .                                       : Location
CNTY               .                                       : County
STAT               .                                       : State
CTRY               .                                       : Country
SRVC               .                                       : Service Company
DATE               .                                       : Date
API                .                                       : API number
Cartographic_reference_system .         GCS_WGS_1984                  : GEOGCS["GCS_WGS_1984",DATUM["D_WGS_1984",SPHEROID["WGS_1984",6378137.0,298.257223563]],PRIMEM["Greenwich",0.0],UNIT["Degree",0.0174532925199433],AUTHORITY["EPSG",4326]]
EREF               .m        140.4                         : 
HZCS               .GCS_WGS_1984 World_Mercator                : PROJCS["World_Mercator",GEOGCS["GCS_WGS_1984",DATUM["D_WGS_1984",SPHEROID["WGS_1984",6378137.0,298.257223563]],PRIMEM["Greenwich",0.0],UNIT["Degree",0.0174532925199433]],PROJECTION["Mercator"],PARAMETER["False_Easting",0.0],PARAMETER["False_Northing",0.0],PARAMETER["Central_Meridian",0.0],PARAMETER["Standard_Parallel_1",0.0],UNIT["Meter",1.0],AUTHORITY["ESRI",54004]]
LATI               .dega     2.2605552291                  : GCS_WGS_1984
LONG               .dega     1.995158246                   : GCS_WGS_1984
PROJECT_UPGRADE_TIME .         2014-05-27T11_38_46           : 
Pad                .         Pad4                          : 
X                  .m        222100                        : 
Y                  .m        250025                        : 
group              .         Pad4                          : 
Интер-р            .         Зайцев                        : 
Куст               .         4                             : 
Статус             .         Не проверено                  : 
Тип                .         Эксплуатация                  : 
~Parameter Information Block
#_______________________________________________________________________________
#
#PARAMETER_NAME    .UNIT     VALUE                         : DESCRIPTION
#_______________________________________________________________________________
SET                .         LQC                           : 
PROJECT_UPGRADE_TIME .         2014-05-27T11_38_46           : 
TLFamily_GR_NORM   .         Gamma Ray                     : 
TLFamily_MD        .         Measured Depth                : 
TLFamily_RHOB_NORM .         Bulk Density                  : 
TLFamily_TNPH_NORM .         Neutron Porosity              : 
~Curve Information
#_______________________________________________________________________________
#
#LOGNAME           .UNIT     LOG_ID                        : DESCRIPTION
#_______________________________________________________________________________
MD                 .m                                      :  
GR_NORM            .gAPI                                   : Normalised By Techlog 
RHOB_NORM          .g/cm3                                  : Normalized By Techlog 
TNPH_NORM          .v/v                                    : Normalised By Techlog 
~Ascii
# ...
2810.600051417947 67.71371   2.468344   0.2302456 
2810.700051419437 66.60622   2.511782   0.2304529 
2810.800051420927 65.09762   2.473788   0.2279587 
2810.900051422417 64.26659   2.493064   0.2277483 
2811.000051423907 63.61379   2.464089   0.2265038 
2811.100051425397 62.88125   2.505342   0.2256744 
2811.200051426888 64.62769   2.525109   0.2279587 
2811.300051428378 68.32698   2.552495   0.2248435 
2811.400051429868 72.88465   2.57106    0.2298395 
2811.500051431358 79.19708   2.603101   0.2354413 
2811.600051432848 85.83336   2.609581   0.2462536 
2811.700051434338 87.13058   2.621487   0.2553949 
2811.800051435828 90.6087    2.627251   0.2668303 
2811.900051437318 94.16946   2.71263    0.2732777 
2812.000051438808 96.38859   2.738866   0.2751407 
2812.100051440299 97.88527   2.661181   0.2724382 
2812.200051441789 98.55077   2.579621   0.270568  
2812.300051443279 97.79892   2.63717    0.2662027 
2812.400051444769 96.39703   2.648329   0.2653718 
2812.500051446259 95.26568   2.60498    0.2657875 
2812.600051447749 93.10585   2.643512   0.2680753 
2812.700051449239 91.54903   2.626704   0.2701523 
2812.800051450729 88.42587   2.617207   0.267031  
2812.900051452219 84.07338   2.597972   0.2595317 
2813.00005145371 80.53352   2.608033   0.2526929 
2813.1000514552 74.72882   2.586495   0.2495696 
2813.20005145669 73.56017   2.514714   0.2412611 
2813.30005145818 71.93741   2.509363   0.2414614 
2813.40005145967 69.41556   2.528446   0.2281564 
2813.50005146116 65.39521   2.527627   0.2252567 
2813.60005146265 59.6777    2.485531   0.2254609 
2813.70005146414 57.26609   2.478652   0.2190211 
2813.800051465631 57.50008   2.535971   0.2190272 
2813.900051467121 60.02814   2.518188   0.2311018 
2814.000051468611 63.74818   2.503505   0.2404297 
2814.100051470101 65.70779   2.500673   0.2475037 
2814.200051471591 66.91232   2.53668    0.2597598 
2814.300051473081 68.57152   2.542078   0.2628791 
2814.400051474571 69.11414   2.581493   0.2653718 
2814.500051476061 70.61105   2.526688   0.2655796 
2814.600051477551 74.16481   2.544247   0.2672445 
2814.700051479042 77.0782    2.557245   0.2703601 
2814.800051480532 80.1539    2.580775   0.2705705 
2814.900051482022 82.22768   2.557087   0.274725  
2815.000051483512 83.11083   2.587075   0.2749329 
2815.100051485002 83.58715   2.589479   0.2768061 
2815.200051486492 83.72754   2.589216   0.2799213 
2815.300051487982 84.60903   2.585099   0.2753476 
2815.400051489472 85.43913   2.59474    0.273265  
2815.500051490963 85.42532   2.594093   0.2728544 
2815.600051492453 84.98356   2.554111   0.2784678 
2815.700051493943 85.64185   2.568336   0.2817919 
2815.800051495433 87.09686   2.5494     0.2853259 
2815.900051496923 88.29452   2.569501   0.2855256 
2816.000051498413 88.91499   2.532518   0.2815841 
2816.100051499903 88.52978   2.534231   0.2736807 
2816.200051501393 88.75074   2.566233   0.2643325 
2816.300051502883 89.21169   2.575691   0.2589253 
2816.400051504374 88.11322   2.534349   0.2537296 
2816.500051505864 86.39742   2.534894   0.2531086 
2816.600051507354 85.21014   2.525887   0.2535233 
2816.700051508844 85.18193   2.602389   0.2518615 
2816.800051510334 86.69154   2.553711   0.2516531 
2816.900051511824 89.18369   2.578129   0.2510326 
2817.000051513314 89.0897    2.619887   0.2520694 
2817.100051514804 86.80189   2.645791   0.2529007 
2817.200051516294 86.51687   2.619605   0.2535243 
2817.300051517785 86.84594   2.593416   0.257477  
2817.400051519275 87.55376   2.644333   0.2649763 
2817.500051520765 86.41086   2.642296   0.2734779 
2817.600051522255 84.77377   2.653735   0.2838776 
2817.700051523745 84.2621    2.639316   0.2977964 
2817.800051525235 85.36812   2.633205   0.3077752 
2817.900051526725 84.15508   2.664132   0.3104677 
2818.000051528215 82.04168   2.634338   0.3059026 
2818.100051529706 80.83834   2.619583   0.2967551 
2818.200051531196 81.5967    2.573852   0.2921845 
2818.300051532686 83.5264    2.600103   0.287196  
2818.400051534176 84.28623   2.615163   0.2869856 
2818.500051535666 84.34424   2.601996   0.2855332 
2818.600051537156 84.2142    2.611087   0.2834558 
2818.700051538646 84.2606    2.60867    0.2849097 
2818.800051540136 85.63973   2.674541   0.2857451 
2818.900051541626 87.5047    2.735502   0.2932338 
2819.000051543117 89.11658   2.731986   0.2963414 
2819.100051544607 88.22108   2.689669   0.2946766 
2819.200051546097 85.68217   2.624172   0.290106  
2819.300051547587 80.9464    2.589907   0.2832423 
2819.400051549077 74.26839   2.654535   0.2747123 
2819.500051550567 70.9948    2.637875   0.2711916 
2819.600051552057 66.82806   2.567319   0.2713938 
2819.700051553547 64.68145   2.46058    0.2635011 
2819.800051555037 58.89316   2.42466    0.2647391 
2819.900051556528 51.44494   2.395846   0.2489414 
2820.000051558018 42.89531   2.331599   0.2470809 
2820.100051559508 34.48613   2.305998   0.2512339 
2820.200051560998 32.83694   2.286137   0.2447946 
2820.300051562488 31.6513    2.26936    0.2462511 
2820.400051563978 31.52177   2.267716   0.250006  
2820.500051565468 31.23023   2.222332   0.2551871 
2820.600051566958 31.59771   2.15114    0.262686  
2820.700051568449 31.88725   2.076541   0.2919766 
2820.800051569939 32.1965    2.069049   0.3163281 
2820.900051571429 32.43534   2.015826   0.376227  
2821.000051572919 32.40092   1.937567   0.3938233 
2821.100051574409 32.28922   1.873932   0.3678333 
2821.200051575899 32.91011   1.862288   0.3518375 
2821.300051577389 33.515     1.910046   0.3358122 
2821.400051578879 33.64367   2.069978   0.2994313 
2821.500051580369 32.9788    2.368362   0.2911452 
2821.60005158186 31.38907   2.560798   0.2898869 
2821.70005158335 30.06253   2.569131   0.2722308 
2821.80005158484 31.20717   2.628245   0.2743083 
2821.90005158633 32.34764   2.637176   0.2739088 
2822.00005158782 31.19589   2.622498   0.2805448 
2822.10005158931 29.80103   2.574959   0.2886545 
2822.2000515908 29.70117   2.522376   0.2948865 
2822.30005159229 30.6228    2.492218   0.2963409 
2822.400051593781 30.98962   2.457047   0.2942478 
2822.500051595271 30.71358   2.459379   0.287196  
2822.600051596761 31.92033   2.483155   0.2784653 
2822.700051598251 32.34567   2.469814   0.2759721 
2822.800051599741 32.24496   2.497509   0.2720214 
2822.900051601231 30.90774   2.504024   0.2695288 
2823.000051602721 29.78031   2.488957   0.2707759 
2823.100051604211 29.16968   2.505771   0.2763893 
2823.200051605701 29.22185   2.495399   0.2792977 
2823.300051607192 28.85019   2.484316   0.2807522 
2823.400051608682 29.28975   2.464666   0.2795005 
2823.500051610172 30.01774   2.461534   0.277427  
2823.600051611662 29.89192   2.513508   0.276181  
2823.700051613152 29.23678   2.49804    0.2782585 
2823.800051614642 29.08892   2.51109    0.2801296 
2823.900051616132 29.02447   2.492486   0.2811709 
2824.000051617622 29.14719   2.48245    0.2817919 
2824.100051619112 29.9175    2.462556   0.2813773 
2824.200051620603 29.51004   2.476477   0.2828312 
2824.300051622093 29.00055   2.482368   0.2822081 
2824.400051623583 28.49891   2.442439   0.2830391 
2824.500051625073 28.18107   2.44117    0.2826234 
2824.600051626563 27.34373   2.480185   0.2809606 
2824.700051628053 27.93319   2.475158   0.2813762 
2824.800051629543 27.97213   2.469519   0.2836641 
2824.900051631033 28.29026   2.506899   0.2865776 
2825.000051632524 28.97845   2.546568   0.2888589 
2825.100051634014 -9999      -9999      -9999     
