~Version
 VERS              .         2.0                           : CWLS LOG ASCII STANDARD - VERSION 2.0
 WRAP              .         NO                            : ONE LINE PER DEPTH STEP
 DLM               .         SPACE                         : DELIMITING CHARACTER(SPACE TAB OR COMMA)
~Well Information
#_______________________________________________________________________________
#
#PARAMETER_NAME    .UNIT     VALUE                         : DESCRIPTION
#_______________________________________________________________________________
STRT               .m        2636.80004882813              : First reference value
STOP               .m        2825.10005163401              : Last reference value
STEP               .m        0.1                           : Step increment
NULL               .         -9999                         : Missing value
COMP               .                                       : Company
WELL               .         407                           : Well name
FLD                .                                       : Field
LOC                .                                       : Location
CNTY               .                                       : County
STAT               .                                       : State
CTRY               .                                       : Country
SRVC               .                                       : Service Company
DATE               .                                       : Date
API                .                                       : API number
Cartographic_reference_system .         GCS_WGS_1984                  : GEOGCS["GCS_WGS_1984",DATUM["D_WGS_1984",SPHEROID["WGS_1984",6378137.0,298.257223563]],PRIMEM["Greenwich",0.0],UNIT["Degree",0.0174532925199433],AUTHORITY["EPSG",4326]]
EREF               .m        140.4                         : 
HZCS               .GCS_WGS_1984 World_Mercator                : PROJCS["World_Mercator",GEOGCS["GCS_WGS_1984",DATUM["D_WGS_1984",SPHEROID["WGS_1984",6378137.0,298.257223563]],PRIMEM["Greenwich",0.0],UNIT["Degree",0.0174532925199433]],PROJECTION["Mercator"],PARAMETER["False_Easting",0.0],PARAMETER["False_Northing",0.0],PARAMETER["Central_Meridian",0.0],PARAMETER["Standard_Parallel_1",0.0],UNIT["Meter",1.0],AUTHORITY["ESRI",54004]]
LATI               .dega     2.2605552291                  : GCS_WGS_1984
LONG               .dega     1.995158246                   : GCS_WGS_1984
PROJECT_UPGRADE_TIME .         2014-05-27T11_38_46           : 
Pad                .         Pad4                          : 
X                  .m        222100                        : 
Y                  .m        250025                        : 
group              .         Pad4                          : 
Интер-р            .         Зайцев                        : 
Куст               .         4                             : 
Статус             .         Не проверено                  : 
Тип                .         Эксплуатация                  : 
~Parameter Information Block
#_______________________________________________________________________________
#
#PARAMETER_NAME    .UNIT     VALUE                         : DESCRIPTION
#_______________________________________________________________________________
SET                .         LQC                           : 
PROJECT_UPGRADE_TIME .         2014-05-27T11_38_46           : 
TLFamily_GR_NORM   .         Gamma Ray                     : 
TLFamily_MD        .         Measured Depth                : 
TLFamily_RHOB_NORM .         Bulk Density                  : 
TLFamily_TNPH_NORM .         Neutron Porosity              : 
~Curve Information
#_______________________________________________________________________________
#
#LOGNAME           .UNIT     LOG_ID                        : DESCRIPTION
#_______________________________________________________________________________
MD                 .m                                      :  
GR_NORM            .gAPI                                   : Normalised By Techlog 
RHOB_NORM          .g/cm3                                  : Normalized By Techlog 
TNPH_NORM          .v/v                                    : Normalised By Techlog 
~Ascii
2636.800048828125 -9999      -9999      -9999     
2636.900048829615 -9999      -9999      -9999     
2637.000048831105 -9999      -9999      -9999     
2637.100048832595 -9999      -9999      -9999     
2637.200048834085 -9999      -9999      -9999     
2637.300048835576 48.00977   -9999      -9999     
2637.400048837066 48.38691   -9999      -9999     
2637.500048838556 48.98318   -9999      -9999     
2637.600048840046 50.19458   -9999      -9999     
2637.700048841536 51.10804   -9999      -9999     
2637.800048843026 52.19807   -9999      -9999     
2637.900048844516 52.2333    -9999      -9999     
2638.000048846006 52.6371    -9999      -9999     
2638.100048847497 52.92628   -9999      -9999     
2638.200048848987 51.89198   -9999      -9999     
2638.300048850477 50.957     -9999      -9999     
2638.400048851967 50.56272   -9999      -9999     
2638.500048853457 50.13595   -9999      -9999     
2638.600048854947 48.49113   -9999      -9999     
2638.700048856437 46.63135   -9999      -9999     
2638.800048857927 44.28701   -9999      -9999     
2638.900048859417 44.35306   -9999      -9999     
2639.000048860908 44.88428   -9999      -9999     
2639.100048862398 46.97887   -9999      -9999     
2639.200048863888 49.82387   -9999      -9999     
2639.300048865378 55.3429    -9999      -9999     
2639.400048866868 61.60868   -9999      -9999     
2639.500048868358 67.43198   -9999      -9999     
2639.600048869848 70.88898   -9999      -9999     
2639.700048871338 71.29942   -9999      -9999     
2639.800048872828 71.76691   -9999      -9999     
2639.900048874319 71.71179   -9999      -9999     
2640.000048875809 70.34077   -9999      0.2535243 
2640.100048877299 68.54913   -9999      0.2431206 
2640.200048878789 68.87442   -9999      0.224841  
2640.300048880279 68.50825   -9999      0.2210905 
2640.400048881769 67.73848   -9999      0.2052929 
2640.500048883259 67.27368   -9999      0.2034324 
2640.600048884749 68.96892   -9999      0.2082104 
2640.70004888624 70.06602   -9999      0.2050952 
2640.80004888773 72.0768    -9999      0.2109191 
2640.90004888922 73.96541   -9999      0.2192493 
2641.00004889071 75.94037   -9999      0.2262959 
2641.1000488922 77.37424   -9999      0.2298339 
2641.20004889369 78.14885   -9999      0.2366884 
2641.30004889518 79.02002   -9999      0.2350276 
2641.40004889667 80.51082   -9999      0.238772  
2641.50004889816 83.5812    -9999      0.2420925 
2641.600048899651 88.72302   -9999      0.2491604 
2641.700048901141 89.72881   -9999      0.2514458 
2641.800048902631 89.1172    -9999      0.2526899 
2641.900048904121 87.53502   -9999      0.2468629 
2642.000048905611 86.73339   -9999      0.2435475 
2642.100048907101 85.80764   -9999      0.2443809 
2642.200048908591 85.9166    -9999      0.2495751 
2642.300048910081 86.4117    -9999      0.2578912 
2642.400048911572 87.95988   -9999      0.2618459 
2642.500048913062 88.42074   -9999      0.2645404 
2642.600048914552 87.68928   -9999      0.264955  
2642.700048916042 87.82345   -9999      0.2637089 
2642.800048917532 86.87524   -9999      0.2645383 
2642.900048919022 86.68201   -9999      0.2605836 
2643.000048920512 85.79266   -9999      0.2578892 
2643.100048922002 84.83061   -9999      0.2549742 
2643.200048923492 84.31287   -9999      0.2454181 
2643.300048924983 84.81585   -9999      0.2385545 
2643.400048926473 84.02142   -9999      0.2298141 
2643.500048927963 82.06856   -9999      0.2242174 
2643.600048929453 80.59505   2.507221   0.2202647 
2643.700048930943 81.03525   2.487871   0.2138249 
2643.800048932433 80.66295   2.478637   0.2102889 
2643.900048933923 79.51083   2.48832    0.2057136 
2644.000048935413 77.48586   2.47155    0.2046795 
2644.100048936903 74.89627   2.495547   0.2061319 
2644.200048938394 74.3023    2.478794   0.202601  
2644.300048939884 73.76398   2.477725   0.203845  
2644.400048941374 72.2488    2.514495   0.1984389 
2644.500048942864 71.12173   2.513991   0.1967812 
2644.600048944354 70.72704   2.527171   0.1951143 
2644.700048945844 69.35076   2.542489   0.1884671 
2644.800048947334 66.66064   2.505978   0.1880504 
2644.900048948824 65.38407   2.558214   0.1872302 
2645.000048950315 66.06866   2.547052   0.1903378 
2645.100048951805 67.991     2.555327   0.1911733 
2645.200048953295 69.32836   2.559443   0.196989  
2645.300048954785 71.48582   2.574324   0.1953303 
2645.400048956275 74.09878   2.490808   0.201767  
2645.500048957765 77.15137   2.47213    0.1998989 
2645.600048959255 80.36526   2.53412    0.1967837 
2645.700048960745 81.59073   2.541995   0.2007303 
2645.800048962235 84.04581   2.528166   0.2017741 
2645.900048963726 87.05079   2.552794   0.2109353 
2646.000048965216 88.17735   2.570925   0.2183976 
2646.100048966706 89.52995   2.591275   0.2219316 
2646.200048968196 88.97919   2.59372    0.2229703 
2646.300048969686 87.98209   2.577722   0.2229683 
2646.400048971176 85.61478   2.595758   0.2198551 
2646.500048972666 83.86192   2.547425   0.2210996 
2646.600048974156 85.31435   2.548405   0.2238042 
2646.700048975646 87.29185   2.551624   0.2292058 
2646.800048977137 88.61337   2.578882   0.2360694 
2646.900048978627 88.87779   2.493134   0.244389  
2647.000048980117 89.6855    2.505274   0.248328  
2647.100048981607 88.82236   2.539025   0.2504055 
2647.200048983097 88.6507    2.520753   0.2481202 
2647.300048984587 87.90462   2.530514   0.2450009 
2647.400048986077 85.79814   2.563777   0.2420875 
2647.500048987567 83.42292   2.550326   0.2402219 
2647.600048989058 82.38364   2.609498   0.2395988 
2647.700048990548 82.28507   2.614417   0.2408454 
2647.800048992038 81.63214   2.585238   0.2414664 
2647.900048993528 80.88778   2.579276   0.2360497 
2648.000048995018 81.19353   2.604717   0.2300372 
2648.100048996508 83.69868   2.557468   0.2250468 
2648.200048997998 83.13771   2.516474   0.2217232 
2648.300048999488 83.96937   2.507926   0.2215148 
2648.400049000978 83.94966   2.533465   0.2208943 
2648.500049002469 84.98483   2.547729   0.2213075 
2648.600049003959 87.79094   2.522391   0.2200614 
2648.700049005449 89.36147   2.53087    0.2210996 
2648.800049006939 94.38264   2.555521   0.2194389 
2648.900049008429 97.94804   2.537302   0.2244455 
2649.000049009919 95.80623   2.547107   0.233155  
2649.100049011409 94.24104   2.559016   0.2427191 
2649.200049012899 93.66644   2.561558   0.2481202 
2649.30004901439 93.0372    2.525527   0.249783  
2649.40004901588 91.659     2.526243   0.2493622 
2649.50004901737 89.49138   2.552744   0.2472888 
2649.60004901886 87.04462   2.516837   0.2443758 
2649.70004902035 85.35963   2.514391   0.2385591 
2649.80004902184 83.85809   2.489856   0.2333582 
2649.90004902333 81.96848   2.468035   0.2248283 
2650.00004902482 78.31907   2.514958   0.2213075 
2650.10004902631 71.40352   2.487824   0.2231766 
2650.200049027801 70.53041   2.531814   0.2215153 
2650.300049029291 69.87937   2.557634   0.225466  
2650.400049030781 70.04865   2.524889   0.2288002 
2650.500049032271 71.13965   2.548944   0.2325314 
2650.600049033761 73.17274   2.567706   0.2369029 
2650.700049035251 74.9175    2.539986   0.248328  
2650.800049036741 76.78318   2.554609   0.2524891 
2650.900049038231 77.71307   2.535783   0.2589259 
2651.000049039721 77.38282   2.518481   0.2578892 
2651.100049041212 77.41802   2.524021   0.256016  
2651.200049042702 76.55109   2.523207   0.2518615 
2651.300049044192 77.79919   2.500894   0.250403  
2651.400049045682 80.24113   2.531091   0.243114  
2651.500049047172 82.05511   2.553158   0.2360649 
2651.600049048662 83.08392   2.557703   0.2294096 
2651.700049050152 83.21386   2.582841   0.2217232 
2651.800049051642 83.89026   2.535626   0.2165244 
2651.900049053133 84.1825    2.540418   0.2127907 
2652.000049054623 86.17194   2.56392    0.2148641 
2652.100049056113 88.95852   2.529478   0.2188189 
2652.200049057603 89.90649   2.561672   0.227543  
2652.300049059093 92.23597   2.566214   0.2277554 
2652.400049060583 92.20634   2.521272   0.2354438 
2652.500049062073 91.88502   2.524228   0.2364806 
