~Version
 VERS              .         2.0                           : CWLS LOG ASCII STANDARD - VERSION 2.0
 WRAP              .         NO                            : ONE LINE PER DEPTH STEP
 DLM               .         SPACE                         : DELIMITING CHARACTER(SPACE TAB OR COMMA)
~Well Information
#_______________________________________________________________________________
#
#PARAMETER_NAME    .UNIT     VALUE                         : DESCRIPTION
#_______________________________________________________________________________
STRT               .m        2636.80004882813              : First reference value
STOP               .m        2825.10005163401              : Last reference value
STEP               .m        0.1                           : Step increment
NULL               .         -9999                         : Missing value
COMP               .                                       : Company
WELL               .         407                           : Well name
FLD                .                                       : Field
LOC                .                                       : Location
CNTY               .                                       : County
STAT               .                                       : State
CTRY               .                                       : Country
SRVC               .                                       : Service Company
DATE               .                                       : Date
API                .                                       : API number
Cartographic_reference_system .         GCS_WGS_1984                  : GEOGCS["GCS_WGS_1984",DATUM["D_WGS_1984",SPHEROID["WGS_1984",6378137.0,298.257223563]],PRIMEM["Greenwich",0.0],UNIT["Degree",0.0174532925199433],AUTHORITY["EPSG",4326]]
EREF               .m        140.4                         : 
HZCS               .GCS_WGS_1984 World_Mercator                : PROJCS["World_Mercator",GEOGCS["GCS_WGS_1984",DATUM["D_WGS_1984",SPHEROID["WGS_1984",6378137.0,298.257223563]],PRIMEM["Greenwich",0.0],UNIT["Degree",0.0174532925199433]],PROJECTION["Mercator"],PARAMETER["False_Easting",0.0],PARAMETER["False_Northing",0.0],PARAMETER["Central_Meridian",0.0],PARAMETER["Standard_Parallel_1",0.0],UNIT["Meter",1.0],AUTHORITY["ESRI",54004]]
LATI               .dega     2.2605552291                  : GCS_WGS_1984
LONG               .dega     1.995158246                   : GCS_WGS_1984
PROJECT_UPGRADE_TIME .         2014-05-27T11_38_46           : 
Pad                .         Pad4                          : 
X                  .m        222100                        : 
Y                  .m        250025                        : 
group              .         Pad4                          : 
Интер-р            .         Зайцев                        : 
Куст               .         4                             : 
Статус             .         Не проверено                  : 
Тип                .         Эксплуатация                  : 
~Parameter Information Block
#_______________________________________________________________________________
#
#PARAMETER_NAME    .UNIT     VALUE                         : DESCRIPTION
#_______________________________________________________________________________
SET                .         LQC                           : 
PROJECT_UPGRADE_TIME .         2014-05-27T11_38_46           : 
TLFamily_GR_NORM   .         Gamma Ray                     : 
TLFamily_MD        .         Measured Depth                : 
TLFamily_RHOB_NORM .         Bulk Density                  : 
TLFamily_TNPH_NORM .         Neutron Porosity              : 
~Curve Information
#_______________________________________________________________________________
#
#LOGNAME           .UNIT     LOG_ID                        : DESCRIPTION
#_______________________________________________________________________________
MD                 .m                                      :  
GR_NORM            .gAPI                                   : Normalised By Techlog 
RHOB_NORM          .g/cm3                                  : Normalized By Techlog 
TNPH_NORM          .v/v                                    : Normalised By Techlog 
~Ascii
# ...
2731.600050240755 107.2875   2.442717   0.3462149 
2731.700050242245 106.8337   2.443863   0.3268955 
2731.800050243735 106.08     2.451338   0.3189961 
2731.900050245225 106.7114   2.452153   0.3173344 
2732.000050246716 106.9143   2.446433   0.3177501 
2732.100050248206 107.1899   2.467309   0.3189961 
2732.200050249696 106.1617   2.461494   0.3169186 
2732.300050251186 106.1207   2.475874   0.3137973 
2732.400050252676 105.022    2.484928   0.3069291 
2732.500050254166 105.2509   2.490325   0.3032005 
2732.600050255656 104.6653   2.471688   0.3061135 
2732.700050257146 104.2385   2.502128   0.310891  
2732.800050258636 104.1566   2.517445   0.3086011 
2732.900050260127 104.5189   2.508648   0.299629  
2733.000050261617 104.3027   2.504569   0.2847018 
2733.100050263107 103.5539   2.483846   0.2745167 
2733.200050264597 102.5168   2.484812   0.2711916 
2733.300050266087 103.0036   2.494497   0.2622566 
2733.400050267577 102.0652   2.4984     0.2640968 
2733.500050269067 96.99036   2.518605   0.25394   
2733.600050270557 91.36395   2.466604   0.2506164 
2733.700050272048 83.89626   2.437087   0.2516536 
2733.800050273538 81.9932    2.473139   0.2445918 
2733.900050275028 77.88574   2.524052   0.2526904 
2734.000050276518 76.55259   2.51692    0.2529007 
2734.100050278008 81.9044    2.507608   0.2549742 
2734.200050279498 92.75706   2.584415   0.2510301 
2734.300050280988 97.96617   2.544952   0.2668226 
2734.400050282478 105.3923   2.517169   0.2660663 
2734.500050283968 111.1237   2.57268    0.2919766 
2734.600050285459 113.2743   2.550146   0.3052851 
2734.700050286949 114.1266   2.576761   0.3171265 
2734.800050288439 116.1165   2.573494   0.326901  
2734.900050289929 116.9579   2.543346   0.3351993 
2735.000050291419 114.3491   2.539412   0.331676  
2735.100050292909 115.9554   2.515828   0.3306363 
2735.200050294399 117.7312   2.521546   0.3287661 
2735.300050295889 117.494    2.507553   0.3254425 
2735.400050297379 117.8343   2.537305   0.3283454 
2735.50005029887 117.664    2.515096   0.3258562 
2735.60005030036 116.567    2.505909   0.3225306 
2735.70005030185 113.9265   2.501227   0.3214914 
2735.80005030334 109.4889   2.522916   0.3154591 
2735.90005030483 106.7175   2.480752   0.3079811 
2736.00005030632 103.359    2.488847   0.3069418 
2736.10005030781 100.6201   2.490035   0.3021598 
2736.2000503093 97.28004   2.482549   0.2982121 
2736.300050310791 95.52153   2.424149   0.2913505 
2736.400050312281 97.22766   2.431463   0.2850922 
2736.500050313771 101.7463   2.428225   0.2786742 
2736.600050315261 107.6673   2.411162   0.2884487 
2736.700050316751 113.9609   2.423123   0.3000828 
2736.800050318241 117.273    2.463951   0.3150602 
2736.900050319731 117.6195   2.500724   0.3360536 
2737.000050321221 117.7148   2.506475   0.3395743 
2737.100050322711 117.4963   2.520899   0.3345798 
2737.200050324202 116.3918   2.428126   0.3246091 
2737.300050325692 114.7131   2.467599   0.323359  
2737.400050327182 111.3763   2.451216   0.3177424 
2737.500050328672 109.8172   2.481911   0.3152559 
2737.600050330162 109.2124   2.510081   0.3154642 
2737.700050331652 108.8988   2.486947   0.3144244 
2737.800050333142 107.4165   2.470638   0.3059    
2737.900050334632 105.6556   2.480738   0.3025871 
2738.000050336123 105.781    2.474161   0.3059026 
2738.100050337613 106.1078   2.518177   0.3065276 
2738.200050339103 105.6301   2.557473   0.3092282 
2738.300050340593 104.9102   2.533443   0.3102679 
2738.400050342083 104.3306   2.532717   0.3108884 
2738.500050343573 102.7557   2.49791    0.3096439 
2738.600050345063 100.8862   2.498366   0.3065226 
2738.700050346553 100.4651   2.46392    0.2982121 
2738.800050348043 99.49923   2.479425   0.2882353 
2738.900050349534 102.3751   2.505137   0.2876042 
2739.000050351024 102.4063   2.511049   0.2853254 
2739.100050352514 102.7282   2.488418   0.2867819 
2739.200050354004 104.4878   2.502893   0.2903138 
2739.300050355494 105.6389   2.497827   0.2953042 
2739.400050356984 105.3334   2.495059   0.2988382 
2739.500050358474 105.4629   2.536621   0.3002906 
2739.600050359964 105.3881   2.518385   0.3032016 
2739.700050361454 105.4002   2.514475   0.305279  
2739.800050362945 106.5374   2.598127   0.3061084 
2739.900050364435 108.4576   2.57391    0.3019433 
2740.000050365925 110.631    2.527254   0.2975886 
2740.100050367415 112.6712   2.52322    0.2936399 
2740.200050368905 113.3994   2.477807   0.2957179 
2740.300050370395 113.1419   2.509294   0.3025815 
2740.400050371885 112.0865   2.505503   0.3100596 
2740.500050373375 112.0316   2.521562   0.3119302 
2740.600050374866 112.1628   2.513867   0.3204546 
2740.700050376356 111.6045   2.490801   0.3239855 
2740.800050377846 111.1944   2.459751   0.3196161 
2740.900050379336 111.9717   2.462307   0.3100342 
2741.000050380826 112.0271   2.459323   0.2994592 
2741.100050382316 112.5768   2.452706   0.2890637 
2741.200050383806 113.0724   2.463575   0.2826234 
2741.300050385296 114.1733   2.492964   0.2759701 
2741.400050386786 115.268    2.506681   0.271805  
2741.500050388277 116.8921   2.521755   0.2678659 
2741.600050389767 116.4298   2.523551   0.2647467 
2741.700050391257 114.5014   2.515624   0.2632932 
2741.800050392747 112.16     2.540475   0.2691171 
2741.900050394237 111.7837   2.553307   0.2782889 
2742.000050395727 110.2188   2.530887   0.2882353 
2742.100050397217 110.052    2.502165   0.2905273 
2742.200050398707 110.0322   2.503614   0.3015377 
2742.300050400198 106.8443   2.469906   0.309437  
2742.400050401688 104.8763   2.506616   0.3110988 
2742.500050403178 105.336    2.49621    0.3113067 
2742.600050404668 104.8311   2.487728   0.3113047 
2742.700050406158 104.8835   2.51705    0.3083968 
2742.800050407648 106.1816   2.501005   0.3069342 
2742.900050409138 106.9991   2.524028   0.2917358 
2743.000050410628 107.6281   2.50736    0.2797135 
2743.100050412118 108.6794   2.543501   0.2693077 
2743.200050413609 109.1661   2.537315   0.2468731 
2743.300050415099 110.938    2.563009   0.2375051 
2743.400050416589 112.7662   2.566367   0.2106742 
2743.500050418079 113.713    2.50461    0.2005225 
2743.600050419569 113.8657   2.499733   0.1980161 
2743.700050421059 114.9434   2.493739   0.1780746 
2743.800050422549 117.0629   2.538431   0.1778663 
2743.900050424039 116.1692   2.543972   0.1730381 
2744.000050425529 105.8885   2.508465   0.1556268 
2744.10005042702 89.94094   2.473429   0.1489756 
2744.20005042851 71.72948   2.483897   0.1464814 
2744.30005043 65.1739    2.491044   0.1356711 
2744.40005043149 58.96152   2.476583   0.1304541 
2744.50005043298 55.20844   2.444858   0.121955  
2744.60005043447 52.32472   2.437412   0.1180064 
2744.70005043596 49.31318   2.511415   0.1188373 
2744.80005043745 48.57307   2.615577   0.1198791 
2744.900050438941 46.60263   2.650534   0.1263478 
2745.000050440431 44.97835   2.548102   0.1381674 
2745.100050441921 44.79319   2.56316    0.1502257 
2745.200050443411 45.34867   2.543507   0.1593681 
2745.300050444901 47.73375   2.505053   0.1759961 
2745.400050446391 48.65948   2.486601   0.1762065 
2745.500050447881 50.17776   2.482174   0.1793217 
2745.600050449371 52.32452   2.509957   0.1886755 
2745.700050450861 54.63504   2.478522   0.1888828 
2745.800050452352 57.25539   2.498545   0.1851385 
2745.900050453842 56.34474   2.552676   0.1793116 
2746.000050455332 52.99548   2.579145   0.1707999 
2746.100050456822 46.03956   2.62113    0.1470978 
2746.200050458312 39.05772   2.665191   0.135881  
2746.300050459802 33.95583   2.735882   0.1340017 
2746.400050461292 34.72602   2.735642   0.1198765 
2746.500050462782 34.79456   2.755707   0.1196687 
2746.600050464272 34.83777   2.701702   0.1194624 
2746.700050465763 34.6766    2.680403   0.121955  
2746.800050467253 34.60325   2.663682   0.1236219 
2746.900050468743 34.53596   2.589094   0.1302691 
2747.000050470233 35.15144   2.522253   0.1298534 
2747.100050471723 33.80691   2.500783   0.1281906 
2747.200050473213 32.50694   2.465439   0.1267356 
2747.300050474703 31.31211   2.470514   0.1200824 
