~Version
 VERS              .         2.0                           : CWLS LOG ASCII STANDARD - VERSION 2.0
 WRAP              .         NO                            : ONE LINE PER DEPTH STEP
 DLM               .         SPACE                         : DELIMITING CHARACTER(SPACE TAB OR COMMA)
~Well Information
#_______________________________________________________________________________
#
#PARAMETER_NAME    .UNIT     VALUE                         : DESCRIPTION
#_______________________________________________________________________________
STRT               .m        2636.80004882813              : First reference value
STOP               .m        2825.10005163401              : Last reference value
STEP               .m        0.1                           : Step increment
NULL               .         -9999                         : Missing value
COMP               .                                       : Company
WELL               .         407                           : Well name
FLD                .                                       : Field
LOC                .                                       : Location
CNTY               .                                       : County
STAT               .                                       : State
CTRY               .                                       : Country
SRVC               .                                       : Service Company
DATE               .                                       : Date
API                .                                       : API number
Cartographic_reference_system .         GCS_WGS_1984                  : GEOGCS["GCS_WGS_1984",DATUM["D_WGS_1984",SPHEROID["WGS_1984",6378137.0,298.257223563]],PRIMEM["Greenwich",0.0],UNIT["Degree",0.0174532925199433],AUTHORITY["EPSG",4326]]
EREF               .m        140.4                         : 
HZCS               .GCS_WGS_1984 World_Mercator                : PROJCS["World_Mercator",GEOGCS["GCS_WGS_1984",DATUM["D_WGS_1984",SPHEROID["WGS_1984",6378137.0,298.257223563]],PRIMEM["Greenwich",0.0],UNIT["Degree",0.0174532925199433]],PROJECTION["Mercator"],PARAMETER["False_Easting",0.0],PARAMETER["False_Northing",0.0],PARAMETER["Central_Meridian",0.0],PARAMETER["Standard_Parallel_1",0.0],UNIT["Meter",1.0],AUTHORITY["ESRI",54004]]
LATI               .dega     2.2605552291                  : GCS_WGS_1984
LONG               .dega     1.995158246                   : GCS_WGS_1984
PROJECT_UPGRADE_TIME .         2014-05-27T11_38_46           : 
Pad                .         Pad4                          : 
X                  .m        222100                        : 
Y                  .m        250025                        : 
group              .         Pad4                          : 
Интер-р            .         Зайцев                        : 
Куст               .         4                             : 
Статус             .         Не проверено                  : 
Тип                .         Эксплуатация                  : 
~Parameter Information Block
#_______________________________________________________________________________
#
#PARAMETER_NAME    .UNIT     VALUE                         : DESCRIPTION
#_______________________________________________________________________________
SET                .         LQC                           : 
PROJECT_UPGRADE_TIME .         2014-05-27T11_38_46           : 
TLFamily_GR_NORM   .         Gamma Ray                     : 
TLFamily_MD        .         Measured Depth                : 
TLFamily_RHOB_NORM .         Bulk Density                  : 
TLFamily_TNPH_NORM .         Neutron Porosity              : 
~Curve Information
#_______________________________________________________________________________
#
#LOGNAME           .UNIT     LOG_ID                        : DESCRIPTION
#_______________________________________________________________________________
MD                 .m                                      :  
GR_NORM            .gAPI                                   : Normalised By Techlog 
RHOB_NORM          .g/cm3                                  : Normalized By Techlog 
TNPH_NORM          .v/v                                    : Normalised By Techlog 
~Ascii
# ...
2684.20004953444 81.63702   2.571027   0.2335707 
2684.30004953593 79.50394   2.569888   0.2339833 
2684.40004953742 78.11996   2.587823   0.2285772 
2684.50004953891 77.62024   2.600697   0.2267116 
2684.600049540401 78.50038   2.602286   0.2265053 
2684.700049541891 80.36628   2.604192   0.2279587 
2684.800049543381 84.57483   2.590101   0.2254686 
2684.900049544871 89.06741   2.567696   0.2325365 
2685.000049546361 93.52458   2.556115   0.2341942 
2685.100049547851 95.50739   2.510938   0.2362778 
2685.200049549341 95.39858   2.50939    0.2458338 
2685.300049550831 96.51926   2.526425   0.2520724 
2685.400049552321 98.27763   2.536752   0.2574785 
2685.500049553812 100.7518   2.52934    0.2587205 
2685.600049555302 102.7978   2.534507   0.2570578 
2685.700049556792 103.12     2.508832   0.2572656 
2685.800049558282 103.359    2.530514   0.2589304 
2685.900049559772 106.539    2.520536   0.2628852 
2686.000049561262 110.0576   2.528981   0.2657875 
2686.100049562752 113.4541   2.544247   0.2676586 
2686.200049564242 115.5168   2.532273   0.2678659 
2686.300049565732 117.7515   2.509004   0.2653718 
2686.400049567223 119.4967   2.491006   0.2657925 
2686.500049568713 121.7256   2.518536   0.2684895 
2686.600049570203 124.357    2.526508   0.2736883 
2686.700049571693 124.2133   2.533745   0.2782585 
2686.800049573183 120.7103   2.531385   0.2801296 
2686.900049574673 118.0696   2.525555   0.2809606 
2687.000049576163 116.3336   2.539508   0.2815841 
2687.100049577653 113.9996   2.541125   0.28387   
2687.200049579144 113.3322   2.556041   0.2847019 
2687.300049580634 110.6236   2.513314   0.2921865 
2687.400049582124 107.8741   2.522218   0.2969828 
2687.500049583614 106.4708   2.525085   0.3036162 
2687.600049585104 107.2294   2.492287   0.3071502 
2687.700049586594 107.5624   2.492231   0.3081889 
2687.800049588084 108.6014   2.548834   0.3092287 
2687.900049589574 107.5698   2.528405   0.3100596 
2688.000049591064 104.6879   2.529989   0.3098517 
2688.100049592555 103.1098   2.524021   0.308812  
2688.200049594045 103.5859   2.543067   0.3079811 
2688.300049595535 104.3302   2.527738   0.3092313 
2688.400049597025 105.5417   2.538877   0.3150581 
2688.500049598515 106.3753   2.567029   0.3187893 
2688.600049600005 106.169    2.596856   0.3189936 
2688.700049601495 105.4793   2.583308   0.3117224 
2688.800049602985 103.2099   2.569281   0.3027772 
2688.900049604475 100.7861   2.600958   0.2888411 
2689.000049605966 99.5826    2.603295   0.2826234 
2689.100049607456 100.9046   2.619942   0.2799187 
2689.200049608946 101.9016   2.629017   0.2753485 
2689.300049610436 103.0599   2.618381   0.2743109 
2689.400049611926 105.3151   2.647897   0.2770139 
2689.500049613416 107.6998   2.629599   0.277427  
2689.600049614906 109.0681   2.616254   0.2763893 
2689.700049616396 107.1682   2.60037    0.278882  
2689.800049617887 105.2604   2.537809   0.278882  
2689.900049619377 103.3656   2.552852   0.2786717 
2690.000049620867 102.033    2.562553   0.2780506 
2690.100049622357 101.8244   2.568839   0.2780486 
2690.200049623847 103.0752   2.560248   0.2743093 
2690.300049625337 105.4191   2.570911   0.2720214 
2690.400049626827 107.3622   2.529208   0.2688976 
2690.500049628317 109.1557   2.466231   0.2655796 
2690.600049629807 110.9603   2.470693   0.2630875 
2690.700049631298 112.8156   2.498883   0.2670346 
2690.800049632788 116.1376   2.48759    0.2711956 
2690.900049634278 121.1423   2.486001   0.2791051 
2691.000049635768 126.2411   2.487617   0.284494  
2691.100049637258 134.9408   2.495133   0.2882404 
2691.200049638748 139.2904   2.503406   0.2957179 
2691.300049640238 147.604    2.50747    0.2940592 
2691.400049641728 155.1278   2.50945    0.3000752 
2691.500049643219 162.0128   2.495948   0.2961336 
2691.600049644709 167.9907   2.480253   0.2898971 
2691.700049646199 168.3157   2.436788   0.2876118 
2691.800049647689 165.0485   2.425033   0.283659  
2691.900049649179 158.6826   2.466998   0.2767908 
2692.000049650669 153.37     2.43545    0.2734779 
2692.100049652159 154.3939   2.375228   0.2763868 
2692.200049653649 156.8433   2.406275   0.2768035 
2692.300049655139 160.8948   2.403591   0.2855343 
2692.40004965663 164.6143   2.413676   0.2876168 
2692.50004965812 167.6736   2.435989   0.2888588 
2692.60004965961 170.2445   2.410609   0.287196  
2692.7000496611 172.9014   2.41362    0.2859489 
2692.80004966259 178.822    2.397637   0.2826274 
2692.90004966408 186.5692   2.383072   0.2896953 
2693.00004966557 187.9367   2.403951   0.2917688 
2693.10004966706 184.845    2.410651   0.2946817 
2693.20004966855 183.4197   2.441949   0.3000827 
2693.300049670041 181.8473   2.457569   0.3004954 
2693.400049671531 178.6737   2.419036   0.2940374 
2693.500049673021 174.1064   2.40775    0.2867804 
2693.600049674511 168.063    2.395164   0.279502  
2693.700049676001 167.1495   2.379929   0.2734779 
2693.800049677491 165.3649   2.368928   0.2724382 
2693.900049678981 161.8587   2.406019   0.2724488 
2694.000049680471 160.0686   2.357558   0.2770114 
2694.100049681962 165.3718   2.343383   0.2845001 
2694.200049683452 167.4019   2.328535   0.2957179 
2694.300049684942 171.4724   2.334445   0.3032066 
2694.400049686432 174.7318   2.32069    0.3142293 
2694.500049687922 179.2237   2.315379   0.3183736 
2694.600049689412 184.3345   2.312975   0.3200404 
2694.700049690902 186.6615   2.312754   0.3279347 
2694.800049692392 190.2816   2.34185    0.335215  
2694.900049693882 194.4942   2.334364   0.346038  
2695.000049695373 198.3325   2.357945   0.3530846 
2695.100049696863 201.0772   2.381459   0.3534972 
2695.200049698353 201.6326   2.370093   0.3478883 
2695.300049699843 202.3436   2.383614   0.3445607 
2695.400049701333 199.466    2.407971   0.3410268 
2695.500049702823 195.1624   2.404835   0.3397821 
2695.600049704313 190.8696   2.417269   0.3372859 
2695.700049705803 187.6754   2.455887   0.3329231 
2695.800049707294 182.2116   2.465001   0.3273076 
2695.900049708784 175.96     2.436138   0.320229  
2696.000049710274 170.4645   2.425116   0.3152559 
2696.100049711764 169.2501   2.445756   0.3131723 
2696.200049713254 167.9603   2.484444   0.3038241 
2696.300049714744 163.9691   2.462376   0.2975835 
2696.400049716234 158.1906   2.44913    0.2882226 
2696.500049717724 152.4233   2.463053   0.2840783 
2696.600049719214 148.371    2.455026   0.28387   
2696.700049720705 148.9142   2.454198   0.2832469 
2696.800049722195 149.1301   2.448879   0.284495  
2696.900049723685 148.4283   2.478573   0.2869983 
2697.000049725175 151.0212   2.468427   0.291353  
2697.100049726665 154.8327   2.453756   0.2973853 
2697.200049728155 157.4451   2.427554   0.3063183 
2697.300049729645 162.7185   2.421814   0.313805  
2697.400049731135 165.2845   2.406525   0.3208728 
2697.500049732625 171.8756   2.414229   0.3221149 
2697.600049734116 181.5763   2.406189   0.3219106 
2697.700049735606 186.8645   2.38641    0.3285583 
2697.800049737096 194.8733   2.398618   0.3345925 
2697.900049738586 201.5057   2.328412   0.3468668 
2698.000049740076 206.8469   2.320878   0.3537081 
2698.100049741566 214.9982   2.302255   0.3586986 
2698.200049743056 218.2745   2.301053   0.3616064 
2698.300049744546 224.0725   2.295803   0.360152  
2698.400049746037 230.3273   2.273147   0.3603518 
2698.500049747527 240.1996   2.278464   0.3566181 
2698.600049749017 254.3435   2.296107   0.3524631 
2698.700049750507 261.6886   2.314629   0.3547474 
2698.800049751997 272.4808   2.329043   0.3514238 
2698.900049753487 279.1957   2.319345   0.3549578 
2699.000049754977 281.0915   2.336172   0.3568259 
2699.100049756467 278.1618   2.332082   0.3601495 
2699.200049757957 278.3708   2.346322   0.3572416 
2699.300049759448 277.7737   2.335426   0.3576542 
2699.400049760938 272.0973   2.34824    0.3514066 
2699.500049762428 268.8366   2.349158   0.3447706 
2699.600049763918 270.3526   2.333795   0.3368692 
2699.700049765408 271.5125   2.360687   0.3312603 
2699.800049766898 274.0645   2.358898   0.3289745 
2699.900049768388 277.6643   2.317961   0.3302261 
