~Version
 VERS              .         2.0                           : CWLS LOG ASCII STANDARD - VERSION 2.0
 WRAP              .         NO                            : ONE LINE PER DEPTH STEP
 DLM               .         SPACE                         : DELIMITING CHARACTER(SPACE TAB OR COMMA)
~Well Information
#_______________________________________________________________________________
#
#PARAMETER_NAME    .UNIT     VALUE                         : DESCRIPTION
#_______________________________________________________________________________
STRT               .m        2636.80004882813              : First reference value
STOP               .m        2825.10005163401              : Last reference value
STEP               .m        0.1                           : Step increment
NULL               .         -9999                         : Missing value
COMP               .                                       : Company
WELL               .         407                           : Well name
FLD                .                                       : Field
LOC                .                                       : Location
CNTY               .                                       : County
STAT               .                                       : State
CTRY               .                                       : Country
SRVC               .                                       : Service Company
DATE               .                                       : Date
API                .                                       : API number
Cartographic_reference_system .         GCS_WGS_1984                  : GEOGCS["GCS_WGS_1984",DATUM["D_WGS_1984",SPHEROID["WGS_1984",6378137.0,298.257223563]],PRIMEM["Greenwich",0.0],UNIT["Degree",0.0174532925199433],AUTHORITY["EPSG",4326]]
EREF               .m        140.4                         : 
HZCS               .GCS_WGS_1984 World_Mercator                : PROJCS["World_Mercator",GEOGCS["GCS_WGS_1984",DATUM["D_WGS_1984",SPHEROID["WGS_1984",6378137.0,298.257223563]],PRIMEM["Greenwich",0.0],UNIT["Degree",0.0174532925199433]],PROJECTION["Mercator"],PARAMETER["False_Easting",0.0],PARAMETER["False_Northing",0.0],PARAMETER["Central_Meridian",0.0],PARAMETER["Standard_Parallel_1",0.0],UNIT["Meter",1.0],AUTHORITY["ESRI",54004]]
LATI               .dega     2.2605552291                  : GCS_WGS_1984
LONG               .dega     1.995158246                   : GCS_WGS_1984
PROJECT_UPGRADE_TIME .         2014-05-27T11_38_46           : 
Pad                .         Pad4                          : 
X                  .m        222100                        : 
Y                  .m        250025                        : 
group              .         Pad4                          : 
Интер-р            .         Зайцев                        : 
Куст               .         4                             : 
Статус             .         Не проверено                  : 
Тип                .         Эксплуатация                  : 
~Parameter Information Block
#_______________________________________________________________________________
#
#PARAMETER_NAME    .UNIT     VALUE                         : DESCRIPTION
#_______________________________________________________________________________
SET                .         LQC                           : 
PROJECT_UPGRADE_TIME .         2014-05-27T11_38_46           : 
TLFamily_GR_NORM   .         Gamma Ray                     : 
TLFamily_MD        .         Measured Depth                : 
TLFamily_RHOB_NORM .         Bulk Density                  : 
TLFamily_TNPH_NORM .         Neutron Porosity              : 
~Curve Information
#_______________________________________________________________________________
#
#LOGNAME           .UNIT     LOG_ID                        : DESCRIPTION
#_______________________________________________________________________________
MD                 .m                                      :  
GR_NORM            .gAPI                                   : Normalised By Techlog 
RHOB_NORM          .g/cm3                                  : Normalized By Techlog 
TNPH_NORM          .v/v                                    : Normalised By Techlog 
~Ascii
# ...
2652.600049063563 92.43211   2.556184   0.237937  
2652.700049065053 93.55295   2.56461    0.2406376 
2652.800049066544 94.4194    2.540669   0.2418857 
2652.900049068034 94.95708   2.521619   0.2435475 
2653.000049069524 94.53997   2.527434   0.2433396 
2653.100049071014 93.94209   2.486374   0.2414664 
2653.200049072504 92.97806   2.469784   0.2371041 
2653.300049073994 93.11436   2.482879   0.2350226 
2653.400049075484 93.64666   2.46915    0.2294061 
2653.500049076974 92.29715   2.504914   0.2271273 
2653.600049078465 89.14301   2.523496   0.2269169 
2653.700049079955 87.36801   2.529077   0.2227625 
2653.800049081445 82.34413   2.551155   0.2223457 
2653.900049082935 78.00165   2.534114   0.2206839 
2654.000049084425 74.7861    2.503408   0.2202682 
2654.100049085915 74.68138   2.501972   0.2183971 
2654.200049087405 73.91256   2.525534   0.2171505 
2654.300049088895 72.13266   2.517694   0.2165295 
2654.400049090385 72.07944   2.451718   0.2213151 
2654.500049091876 71.88029   2.425047   0.2244252 
2654.600049093366 72.52741   2.440893   0.2287947 
2654.700049094856 73.82894   2.459926   0.2377277 
2654.800049096346 75.72019   2.419797   0.2454227 
2654.900049097836 77.37153   2.410017   0.2541631 
2655.000049099326 79.22098   2.410706   0.2599677 
2655.100049100816 81.8685    2.414201   0.2641267 
2655.200049102306 81.86697   2.418428   0.2672424 
2655.300049103796 81.21936   2.429302   0.2655776 
2655.400049105287 79.1569    2.444298   0.2605709 
2655.500049106777 77.08119   2.42553    0.2529007 
2655.600049108267 74.23303   2.450882   0.2468685 
2655.700049109757 72.56866   2.48055    0.2391826 
2655.800049111247 68.96669   2.498186   0.2360593 
2655.900049112737 65.57661   2.48112    0.2260779 
2656.000049114227 63.40325   2.525099   0.2225546 
2656.100049115717 61.35852   2.549856   0.2206814 
2656.200049117208 60.60345   2.571431   0.2171505 
2656.300049118698 60.79721   2.555313   0.2188113 
2656.400049120188 59.68352   2.540818   0.2148565 
2656.500049121678 57.84547   2.548668   0.2117464 
2656.600049123168 58.33796   2.581148   0.208002  
2656.700049124658 58.03809   2.584395   0.2028088 
2656.800049126148 58.54115   2.595433   0.2019774 
2656.900049127638 57.86128   2.562137   0.2023982 
2657.000049129128 55.52052   2.519103   0.2042638 
2657.100049130619 52.74591   2.498449   0.2046784 
2657.200049132109 52.38026   2.491294   0.2023931 
2657.300049133599 52.0409    2.510592   0.2003156 
2657.400049135089 51.1924    2.46494    0.2021878 
2657.500049136579 50.39129   2.447069   0.202601  
2657.600049138069 50.07313   2.417932   0.2023967 
2657.700049139559 49.9493    2.426163   0.2084208 
2657.800049141049 50.36943   2.446323   0.2109191 
2657.90004914254 51.53242   2.486938   0.2184077 
2658.00004914403 52.63113   2.507401   0.2221389 
2658.10004914552 52.5441    2.52724    0.2242184 
2658.20004914701 52.64159   2.543041   0.2254645 
2658.3000491485 56.54082   2.552661   0.223385  
2658.40004914999 59.81969   2.47977    0.2213024 
2658.50004915148 60.89314   2.515663   0.2194368 
2658.60004915297 63.19019   2.519918   0.2179804 
2658.70004915446 64.52317   2.510401   0.2154877 
2658.800049155951 67.32885   2.5469     0.2146543 
2658.900049157441 70.38719   2.594947   0.2117514 
2659.000049158931 74.19777   2.549967   0.215072  
2659.100049160421 77.79105   2.535488   0.222765  
2659.200049161911 79.3927    2.493473   0.2273352 
2659.300049163401 82.59557   2.50917    0.229623  
2659.400049164891 85.2493    2.523013   0.2323261 
2659.500049166381 87.66815   2.504251   0.2341942 
2659.600049167871 91.7069    2.48922    0.239393  
2659.700049169362 93.97553   2.504951   0.2445867 
2659.800049170852 96.5046    2.477891   0.2497855 
2659.900049172342 98.39023   2.518297   0.2543608 
2660.000049173832 99.08236   2.52228    0.2564342 
2660.100049175322 99.06773   2.519213   0.2587221 
2660.200049176812 99.33173   2.50123    0.2612147 
2660.300049178302 97.97926   2.554595   0.2612147 
2660.400049179792 95.76688   2.537684   0.260794  
2660.500049181283 94.50712   2.474879   0.2585127 
2660.600049182773 95.96288   2.432742   0.2562269 
2660.700049184263 95.63898   2.425324   0.2568499 
2660.800049185753 94.8212    2.443214   0.2560185 
2660.900049187243 92.76823   2.451228   0.2553874 
2661.000049188733 90.895     2.467295   0.2518615 
2661.100049190223 89.92808   2.446502   0.2456209 
2661.200049191713 87.79507   2.411185   0.2356492 
2661.300049193203 83.82122   2.41673    0.2264977 
2661.400049194694 80.17854   2.428845   0.2142127 
2661.500049196184 76.54662   2.430172   0.2034324 
2661.600049197674 70.59449   2.445853   0.1946976 
2661.700049199164 67.20351   2.421241   0.1857651 
2661.800049200654 63.8532    2.447898   0.1832709 
2661.900049202144 61.94564   2.428002   0.1843228 
2662.000049203634 60.50491   2.420391   0.1899221 
2662.100049205124 59.17054   2.409007   0.1976171 
2662.200049206614 60.18237   2.411907   0.2061344 
2662.300049208105 61.06036   2.415846   0.2121667 
2662.400049209595 64.12193   2.431439   0.2204862 
2662.500049211085 66.9631    2.426249   0.2238017 
2662.600049212575 67.61172   2.412309   0.2254686 
2662.700049214065 65.71924   2.410471   0.2337785 
2662.800049215555 63.90877   2.378475   0.2416799 
2662.900049217045 62.41624   2.390754   0.2481379 
2663.000049218535 60.51386   2.396573   0.2553949 
2663.100049220026 58.63662   2.437688   0.2620482 
2663.200049221516 58.50398   2.427413   0.2657875 
2663.300049223006 59.84394   2.439691   0.2682837 
2663.400049224496 60.6185    2.445975   0.2718177 
2663.500049225986 60.44218   2.498338   0.2716073 
2663.600049227476 61.64447   2.489552   0.267867  
2663.700049228966 62.34157   2.508073   0.267866  
2663.800049230456 63.55999   2.560549   0.2597562 
2663.900049231946 63.08784   2.621472   0.2518362 
2664.000049233437 61.06934   2.654453   0.2425082 
2664.100049234927 59.00646   2.673864   0.2368927 
2664.200049236417 57.39153   2.632802   0.2319079 
2664.300049237907 55.2341    2.568093   0.2341917 
2664.400049239397 52.98176   2.547224   0.2289853 
2664.500049240887 51.76207   2.577017   0.2240096 
2664.600049242377 51.04208   2.543197   0.2179753 
2664.700049243867 50.31364   2.596233   0.2073815 
2664.800049245358 48.90063   2.608821   0.2061293 
2664.900049246848 47.54604   2.564889   0.19761   
2665.000049248338 43.89576   2.50385    0.1967812 
2665.100049249828 40.14234   2.469754   0.1957394 
2665.200049251318 41.1766    2.472875   0.191377  
2665.300049252808 42.02846   2.472075   0.1903373 
2665.400049254298 43.32978   2.446232   0.1895064 
2665.500049255788 44.21382   2.45924    0.1901299 
2665.600049257278 46.04345   2.424315   0.1926242 
2665.700049258769 47.07484   2.400972   0.1932477 
2665.800049260259 48.87233   2.437619   0.1961586 
2665.900049261749 51.58121   2.46798    0.1980308 
2666.000049263239 56.08047   2.500894   0.1980283 
2666.100049264729 61.07787   2.47825    0.1953277 
2666.200049266219 63.38533   2.429991   0.196989  
2666.300049267709 66.26267   2.413124   0.1947052 
2666.400049269199 68.54898   2.396481   0.19907   
2666.500049270689 68.80424   2.396435   0.1994832 
2666.60004927218 69.68214   2.384305   0.2003207 
2666.70004927367 69.2776    2.387536   0.2115385 
2666.80004927516 68.23187   2.404959   0.2196523 
2666.90004927665 67.40736   2.397739   0.2337988 
2667.00004927814 66.97355   2.411549   0.240014  
2667.10004927963 66.20457   2.41941    0.2385596 
2667.20004928112 65.77449   2.42035    0.2381434 
2667.30004928261 63.43961   2.43679    0.2327383 
2667.400049284101 61.68863   2.430761   0.2304453 
2667.500049285591 61.0111    2.418222   0.227543  
2667.600049287081 60.98772   2.433336   0.2252551 
2667.700049288571 61.59496   2.506387   0.2223467 
2667.800049290061 60.42514   2.544786   0.2204756 
2667.900049291551 59.42706   2.500931   0.2200655 
2668.000049293041 59.89865   2.533733   0.2219311 
2668.100049294531 61.74356   2.538693   0.2238042 
2668.200049296021 63.50778   2.542754   0.2273352 
2668.300049297512 66.14184   2.509501   0.2256744 
