~Version
 VERS              .         2.0                           : CWLS LOG ASCII STANDARD - VERSION 2.0
 WRAP              .         NO                            : ONE LINE PER DEPTH STEP
 DLM               .         SPACE                         : DELIMITING CHARACTER(SPACE TAB OR COMMA)
~Well Information
#_______________________________________________________________________________
#
#PARAMETER_NAME    .UNIT     VALUE                         : DESCRIPTION
#_______________________________________________________________________________
STRT               .m        2636.80004882813              : First reference value
STOP               .m        2825.10005163401              : Last reference value
STEP               .m        0.1                           : Step increment
NULL               .         -9999                         : Missing value
COMP               .                                       : Company
WELL               .         407                           : Well name
FLD                .                                       : Field
LOC                .                                       : Location
CNTY               .                                       : County
STAT               .                                       : State
CTRY               .                                       : Country
SRVC               .                                       : Service Company
DATE               .                                       : Date
API                .                                       : API number
Cartographic_reference_system .         GCS_WGS_1984                  : GEOGCS["GCS_WGS_1984",DATUM["D_WGS_1984",SPHEROID["WGS_1984",6378137.0,298.257223563]],PRIMEM["Greenwich",0.0],UNIT["Degree",0.0174532925199433],AUTHORITY["EPSG",4326]]
EREF               .m        140.4                         : 
HZCS               .GCS_WGS_1984 World_Mercator                : PROJCS["World_Mercator",GEOGCS["GCS_WGS_1984",DATUM["D_WGS_1984",SPHEROID["WGS_1984",6378137.0,298.257223563]],PRIMEM["Greenwich",0.0],UNIT["Degree",0.0174532925199433]],PROJECTION["Mercator"],PARAMETER["False_Easting",0.0],PARAMETER["False_Northing",0.0],PARAMETER["Central_Meridian",0.0],PARAMETER["Standard_Parallel_1",0.0],UNIT["Meter",1.0],AUTHORITY["ESRI",54004]]
LATI               .dega     2.2605552291                  : GCS_WGS_1984
LONG               .dega     1.995158246                   : GCS_WGS_1984
PROJECT_UPGRADE_TIME .         2014-05-27T11_38_46           : 
Pad                .         Pad4                          : 
X                  .m        222100                        : 
Y                  .m        250025                        : 
group              .         Pad4                          : 
Интер-р            .         Зайцев                        : 
Куст               .         4                             : 
Статус             .         Не проверено                  : 
Тип                .         Эксплуатация                  : 
~Parameter Information Block
#_______________________________________________________________________________
#
#PARAMETER_NAME    .UNIT     VALUE                         : DESCRIPTION
#_______________________________________________________________________________
SET                .         LQC                           : 
PROJECT_UPGRADE_TIME .         2014-05-27T11_38_46           : 
TLFamily_GR_NORM   .         Gamma Ray                     : 
TLFamily_MD        .         Measured Depth                : 
TLFamily_RHOB_NORM .         Bulk Density                  : 
TLFamily_TNPH_NORM .         Neutron Porosity              : 
~Curve Information
#_______________________________________________________________________________
#
#LOGNAME           .UNIT     LOG_ID                        : DESCRIPTION
#_______________________________________________________________________________
MD                 .m                                      :  
GR_NORM            .gAPI                                   : Normalised By Techlog 
RHOB_NORM          .g/cm3                                  : Normalized By Techlog 
TNPH_NORM          .v/v                                    : Normalised By Techlog 
~Ascii
# ...
2747.400050476193 30.8533    2.543912   0.1150757 
2747.500050477684 30.32833   2.551763   0.1082369 
2747.600050479174 28.96178   2.585334   0.1055303 
2747.700050480664 28.50809   2.643262   0.097013  
2747.800050482154 28.13888   2.750637   0.09264764
2747.900050483644 27.24293   2.75903    0.09076482
2748.000050485134 26.02635   2.729748   0.08662049
2748.100050486624 25.84779   2.8025     0.08932915
2748.200050488114 26.97753   2.779492   0.10117   
2748.300050489604 27.38966   2.754851   0.1094942 
2748.400050491095 27.56801   2.707257   0.1265328 
2748.500050492585 28.46329   2.677484   0.1281906 
2748.600050494075 29.67687   2.669126   0.1321494 
2748.700050495565 31.91861   2.65856    0.1500148 
2748.800050497055 34.58439   2.58235    0.1581205 
2748.900050498545 38.08954   2.573632   0.1610765 
2749.000050500035 40.84809   2.550713   0.1753726 
2749.100050501525 45.57602   2.529271   0.1751703 
2749.200050503016 48.80997   2.50405    0.1847259 
2749.300050504506 49.21544   2.414063   0.1863886 
2749.400050505996 47.91638   2.431648   0.1859679 
2749.500050507486 46.97181   2.476012   0.1838944 
2749.600050508976 45.98779   2.481856   0.1822316 
2749.700050510466 45.60401   2.469315   0.1824395 
2749.800050511956 43.26844   2.425876   0.1843127 
2749.900050513446 40.55243   2.389671   0.1884671 
2750.000050514936 40.42103   2.357903   0.1895064 
2750.100050516427 39.26673   2.364203   0.1936634 
2750.200050517917 36.50879   2.385888   0.1926242 
2750.300050519407 35.26883   2.38657    0.1878421 
2750.400050520897 34.18663   2.383026   0.1849286 
2750.500050522387 33.49844   2.389002   0.1822316 
2750.600050523877 32.96393   2.425268   0.178283  
2750.700050525367 33.35808   2.40759    0.1782825 
2750.800050526857 34.82521   2.39946    0.1747485 
2750.900050528347 36.58477   2.393715   0.1737072 
2751.000050529838 38.57839   2.37451    0.1722548 
2751.100050531328 39.1403    2.356025   0.1695523 
2751.200050532818 39.88944   2.364643   0.1689292 
2751.300050534308 39.89534   2.380478   0.1697606 
2751.400050535798 39.61877   2.377247   0.1687087 
2751.500050537288 39.08609   2.392263   0.1645644 
2751.600050538778 39.43251   2.3685     0.1645644 
2751.700050540268 39.68338   2.37151    0.1651879 
2751.800050541759 40.73473   2.406354   0.1676821 
2751.900050543249 40.84563   2.415763   0.1685237 
2752.000050544739 40.50465   2.441239   0.1724627 
2752.100050546229 40.33575   2.421621   0.1753736 
2752.200050547719 40.21944   2.433429   0.1770354 
2752.300050549209 40.87658   2.41836    0.1766187 
2752.400050550699 40.99505   2.375626   0.1745361 
2752.500050552189 40.45239   2.352916   0.172047  
2752.600050553679 39.19453   2.317189   0.1689297 
2752.70005055517 37.94676   2.319412   0.1701763 
2752.80005055666 36.42615   2.325423   0.1724642 
2752.90005055815 35.66739   2.315049   0.175588  
2753.00005055964 35.82787   2.334375   0.1782825 
2753.10005056113 35.67163   2.344115   0.1789055 
2753.20005056262 36.80145   2.362844   0.1780746 
2753.30005056411 37.83356   2.32505    0.1786997 
2753.4000505656 38.24316   2.321502   0.1818235 
2753.500050567091 37.71232   2.331544   0.1847259 
2753.600050568581 36.58349   2.348067   0.1868054 
2753.700050570071 36.80743   2.348785   0.1882593 
2753.800050571561 37.57383   2.331889   0.1870112 
2753.900050573051 38.11445   2.344981   0.1847183 
2754.000050574541 37.56748   2.370476   0.1820238 
2754.100050576031 36.70731   2.346147   0.180984  
2754.200050577521 36.49833   2.36167    0.1814002 
2754.300050579011 36.35251   2.347196   0.1872221 
2754.400050580502 37.48883   2.371784   0.1913872 
2754.500050581992 38.66948   2.376513   0.1947027 
2754.600050583482 38.88011   2.401091   0.1951194 
2754.700050584972 39.10102   2.359919   0.1967812 
2754.800050586462 39.27545   2.347196   0.1974062 
2754.900050587952 38.72498   2.31529    0.2005301 
2755.000050589442 38.16178   2.301481   0.2030167 
2755.100050590932 37.5556    2.317604   0.203225  
2755.200050592422 37.6735    2.308958   0.2044716 
2755.300050593913 37.77518   2.357517   0.2065511 
2755.400050595403 38.1258    2.368029   0.2088441 
2755.500050596893 38.3574    2.41445    0.2111228 
2755.600050598383 37.54364   2.39008    0.2092496 
2755.700050599873 37.74069   2.390659   0.2030167 
2755.800050601363 38.14529   2.409366   0.1936609 
2755.900050602853 38.14811   2.408281   0.1886649 
2756.000050604343 38.65305   2.39066    0.1847259 
2756.100050605834 38.94552   2.398563   0.1822316 
2756.200050607324 38.6217    2.389461   0.1822316 
2756.300050608814 38.68596   2.397899   0.1816065 
2756.400050610304 38.96292   2.428005   0.1786931 
2756.500050611794 40.02682   2.401685   0.1770354 
2756.600050613284 41.34538   2.408358   0.1755769 
2756.700050614774 41.60815   2.438923   0.1693449 
2756.800050616264 42.2828    2.465706   0.1662236 
2756.900050617754 41.48454   2.487761   0.1597762 
2757.000050619245 39.81329   2.481041   0.156666  
2757.100050620735 38.37936   2.469491   0.1537551 
2757.200050622225 37.6287    2.510333   0.1518855 
2757.300050623715 37.57814   2.516257   0.1516792 
2757.400050625205 38.08004   2.471274   0.1545926 
2757.500050626695 38.74115   2.48665    0.1560425 
2757.600050628185 38.75116   2.491637   0.1560445 
2757.700050629675 37.84074   2.507355   0.159576  
2757.800050631166 36.97439   2.496639   0.1616575 
2757.900050632656 37.29912   2.489399   0.1674844 
2758.000050634146 40.47031   2.529796   0.1707999 
2758.100050635636 40.99319   2.500908   0.1730918 
2758.200050637126 41.64846   2.494084   0.1834787 
2758.300050638616 42.92597   2.493116   0.1895089 
2758.400050640106 44.92698   2.464379   0.1936634 
2758.500050641596 47.77666   2.477933   0.1936634 
2758.600050643086 48.48055   2.467972   0.1942885 
2758.700050644577 49.31468   2.49873    0.1974047 
2758.800050646067 48.506     2.50852    0.2011491 
2758.900050647557 46.89298   2.486027   0.206976  
2759.000050649047 45.95193   2.502787   0.2115385 
2759.100050650537 45.38077   2.500452   0.217152  
2759.200050652027 44.33477   2.45073    0.2204761 
2759.300050653517 45.13081   2.462653   0.2242184 
2759.400050655007 45.8048    2.473686   0.2254594 
2759.500050656497 47.52729   2.415984   0.223386  
2759.600050657988 47.94312   2.424633   0.2219316 
2759.700050659478 49.25196   2.427561   0.2225546 
2759.800050660968 50.09024   2.400966   0.2221399 
2759.900050662458 51.32062   2.399367   0.2240121 
2760.000050663948 52.40416   2.428735   0.2246331 
2760.100050665438 51.99172   2.431858   0.2231766 
2760.200050666928 51.39623   2.469757   0.2200604 
2760.300050668418 50.87175   2.462045   0.2171495 
2760.400050669909 50.09187   2.480412   0.2148565 
2760.500050671399 49.30722   2.477325   0.2117464 
2760.600050672889 48.88998   2.478982   0.2090438 
2760.700050674379 47.84684   2.458721   0.2082129 
2760.800050675869 47.70785   2.45084    0.208838  
2760.900050677359 47.36123   2.445981   0.2121722 
2761.000050678849 46.7747    2.436321   0.2161112 
2761.100050680339 46.50523   2.467253   0.2190222 
2761.200050681829 45.17546   2.438858   0.2208918 
2761.30005068332 44.21649   2.43306    0.2215148 
2761.40005068481 43.45375   2.453004   0.2202632 
2761.5000506863 42.62503   2.457306   0.2183976 
2761.60005068779 43.33754   2.4512     0.2175662 
2761.70005068928 43.76735   2.444528   0.2188133 
2761.80005069077 43.75946   2.429564   0.2244268 
2761.90005069226 42.77691   2.383852   0.2269194 
2762.00005069375 41.49765   2.423209   0.2269194 
2762.10005069524 40.81663   2.453852   0.2265027 
2762.200050696731 40.40908   2.440801   0.224841  
2762.300050698221 39.60163   2.434303   0.224841  
2762.400050699711 40.0502    2.46282    0.2252617 
2762.500050701201 39.19808   2.442468   0.2265038 
2762.600050702691 38.38272   2.429164   0.2252577 
2762.700050704181 38.35291   2.474342   0.2256723 
2762.800050705671 38.80421   2.486098   0.2200589 
2762.900050707161 39.46961   2.51288    0.2175662 
2763.000050708652 39.91333   2.494318   0.215072  
2763.100050710142 39.93247   2.543667   0.2036367 
