~Version
 VERS              .         2.0                           : CWLS LOG ASCII STANDARD - VERSION 2.0
 WRAP              .         NO                            : ONE LINE PER DEPTH STEP
 DLM               .         SPACE                         : DELIMITING CHARACTER(SPACE TAB OR COMMA)
~Well Information
#_______________________________________________________________________________
#
#PARAMETER_NAME    .UNIT     VALUE                         : DESCRIPTION
#_______________________________________________________________________________
STRT               .m        2506                          : First reference value
STOP               .m        2691.80000276864              : Last reference value
STEP               .m        0.2                           : Step increment
NULL               .         -9999                         : Missing value
COMP               .                                       : Company
WELL               .         500                           : Well name
FLD                .                                       : Field
LOC                .                                       : Location
CNTY               .                                       : County
STAT               .                                       : State
CTRY               .                                       : Country
SRVC               .                                       : Service Company
DATE               .                                       : Date
API                .                                       : API number
EREF               .m        139.4                         : 
PROJECT_UPGRADE_TIME .         2014-05-27T11_38_46           : 
Pad                .         Pad5                          : 
X                  .m        230550                        : 
Y                  .m        242075                        : 
group              .         Pad5                          : 
Интер-р            .         Старостина                    : 
Куст               .         5                             : 
Статус             .         Не проверено                  : 
Тип                .         Разобраться                   : 
~Parameter Information Block
#_______________________________________________________________________________
#
#PARAMETER_NAME    .UNIT     VALUE                         : DESCRIPTION
#_______________________________________________________________________________
SET                .         LQC                           : 
PROJECT_UPGRADE_TIME .         2014-05-27T11_38_46           : 
TLFamily_GR_NORM   .         Gamma Ray                     : 
TLFamily_MD        .         Measured Depth                : 
TLFamily_RHOB_NORM .         Bulk Density                  : 
TLFamily_TNPH_NORM .         Neutron Porosity              : 
~Curve Information
#_______________________________________________________________________________
#
#LOGNAME           .UNIT     LOG_ID                        : DESCRIPTION
#_______________________________________________________________________________
MD                 .m                                      :  
GR_NORM            .gAPI                                   : Normalised By Techlog 
RHOB_NORM          .g/cm3                                  : Normalized By Techlog 
TNPH_NORM          .v/v                                    : Normalised By Techlog 
~Ascii
# ...
2569.200000941753 168.9541   2.373515   0.3425408 
2569.400000944734 174.4336   2.369251   0.3947036 
2569.600000947714 174.3152   2.35534    0.3929934 
2569.800000950694 172.1123   2.292896   0.3784562 
2570.000000953674 170.0042   2.226899   0.3793113 
2570.200000956655 170.7464   2.205069   0.3835869 
2570.400000959635 169.0015   2.223548   0.3699049 
2570.600000962615 158.3109   2.289647   0.3425408 
2570.800000965595 144.8411   2.356051   0.3288588 
2571.000000968575 135.2401   2.368641   0.3271486 
2571.200000971556 129.6185   2.366306   0.3262934 
2571.400000974536 124.818    2.366712   0.3237281 
2571.600000977516 121.7308   2.37382    0.3203075 
2571.800000980496 122.3782   2.373413   0.3228729 
2572.000000983477 127.1945   2.379607   0.3134665 
2572.200000986457 133.282    2.348944   0.3040601 
2572.400000989437 138.4299   2.339095   0.2955089 
2572.600000992417 138.2562   2.376662   0.2946537 
2572.800000995398 136.5744   2.400828   0.2920883 
2573.000000998378 136.6613   2.379404   0.2749858 
2573.200001001358 139.7011   2.324474   0.2784063 
2573.400001004338 146.6965   2.275026   0.303205  
2573.600001007318 144.9674   2.296145   0.3151768 
2573.800001010299 129.1368   2.341125   0.3194524 
2574.000001013279 119.7253   2.336759   0.3126114 
2574.200001016259 119.1174   2.332292   0.3014947 
2574.400001019239 117.6251   2.37717    0.2929434 
2574.60000102222 114.838    2.378795   0.2920883 
2574.8000010252 112.0903   2.379404   0.2997845 
2575.00000102818 109.5006   2.385395   0.3091909 
2575.20000103116 110.0296   2.376155   0.2972191 
2575.400001034141 111.4824   2.367423   0.2920883 
2575.600001037121 107.1793   2.395853   0.2895229 
2575.800001040101 106.6898   2.383466   0.2843922 
2576.000001043081 112.8483   2.421135   0.2869576 
2576.200001046062 120.0412   2.429968   0.2946537 
2576.400001049042 119.6148   2.392401   0.3057704 
2576.600001052022 118.1778   2.409255   0.3160319 
2576.800001055002 119.6622   2.374023   0.3074806 
2577.000001057982 119.4727   2.397071   0.3023499 
2577.200001060963 118.7779   2.427938   0.2903781 
2577.400001063943 116.9303   2.406311   0.2869576 
2577.600001066923 116.5434   2.378693   0.2912332 
2577.800001069903 120.1833   2.327012   0.2937986 
2578.000001072884 122.3151   2.281728   0.310046  
2578.200001075864 122.3151   2.271168   0.316887  
2578.400001078844 122.7888   2.265786   0.3134665 
2578.600001081824 124.7864   2.224563   0.3151768 
2578.800001084805 127.8104   2.213699   0.3228729 
2579.000001087785 124.6443   2.235326   0.3262934 
2579.200001090765 114.7117   2.283352   0.3220178 
2579.400001093745 110.7244   2.305994   0.3185973 
2579.600001096725 110.7718   2.289343   0.316887  
2579.800001099706 114.4037   2.360417   0.3143216 
2580.000001102686 114.1432   2.428141   0.2929434 
2580.200001105666 109.1295   2.449361   0.2715653 
2580.400001108646 103.5473   2.44398    0.2758409 
2580.600001111627 99.57588   2.426415   0.2929434 
2580.800001114607 99.21269   2.348741   0.3271486 
2581.000001117587 103.5868   2.336353   0.3587883 
2581.200001120567 109.9585   2.35666    0.3587883 
2581.400001123548 118.3199   2.356863   0.3579331 
2581.600001126528 121.3913   2.327723   0.3416857 
2581.800001129508 120.0648   2.399203   0.3185973 
2582.000001132488 113.3773   2.448245   0.3014947 
2582.200001135468 103.9579   2.49952    0.2878127 
2582.400001138449 101.5735   2.47373    0.2920883 
2582.600001141429 107.6293   2.435045   0.3143216 
2582.800001144409 116.5829   2.411286   0.3365549 
2583.000001147389 123.6494   2.365494   0.3553677 
2583.20000115037 127.1866   2.353614   0.3724703 
2583.40000115335 125.2048   2.336556   0.3587883 
2583.60000115633 123.9731   2.307314   0.3510921 
2583.80000115931 128.4736   2.257156   0.3519472 
2584.000001162291 130.1317   2.308228   0.3374101 
2584.200001165271 128.6315   2.335236   0.3280037 
2584.400001168251 124.9206   2.341125   0.3545126 
2584.600001171231 126.6971   2.346303   0.3716152 
2584.800001174212 130.2501   2.328129   0.3630639 
2585.000001177192 126.6734   2.274011   0.3664844 
2585.200001180172 120.8623   2.2336     0.3690498 
2585.400001183152 122.8836   2.189737   0.3545126 
2585.600001186132 133.2662   2.174304   0.3485267 
2585.800001189113 144.6516   2.179076   0.3622088 
2586.000001192093 154.5526   2.2733     0.3741806 
2586.200001195073 154.5052   2.311071   0.3656293 
2586.400001198053 140.6564   2.357574   0.3356998 
2586.600001201034 125.2996   2.342852   0.3143216 
2586.800001204014 116.5671   2.288733   0.2972191 
2587.000001206994 113.701    2.214105   0.3014947 
2587.200001209974 115.438    2.173491   0.3083358 
2587.400001212955 118.0436   2.114703   0.3126114 
2587.600001215935 118.6121   2.135314   0.3228729 
2587.800001218915 115.4617   2.214004   0.3237281 
2588.000001221895 111.7113   2.316554   0.3134665 
2588.200001224875 108.7505   2.37585    0.3049152 
2588.400001227856 107.8346   2.512719   0.2955089 
2588.600001230836 110.6691   2.564197   0.2792614 
2588.800001233816 109.3348   2.576179   0.2604486 
2589.000001236796 105.5923   2.497083   0.2510422 
2589.200001239777 114.909    2.431796   0.2595935 
2589.400001242757 130.5659   2.412606   0.2689999 
2589.600001245737 135.1375   2.385191   0.2878127 
2589.800001248717 129.0658   2.385293   0.3066255 
2590.000001251698 120.7123   2.394736   0.3254383 
2590.200001254678 115.2486   2.384582   0.3203075 
2590.400001257658 113.4405   2.424993   0.3074806 
2590.600001260638 113.1325   2.422252   0.3074806 
2590.800001263618 112.8325   2.429156   0.3117563 
2591.000001266599 111.3008   2.434334   0.3109011 
2591.200001269579 109.7769   2.412809   0.3066255 
2591.400001272559 111.8772   2.415652   0.3057704 
2591.600001275539 115.0591   2.424689   0.3091909 
2591.80000127852 115.9749   2.421643   0.3014947 
2592.0000012815 116.1565   2.396462   0.2895229 
2592.20000128448 117.4356   2.37717    0.2937986 
2592.40000128746 118.8331   2.392096   0.2997845 
2592.600001290441 117.8857   2.405092   0.2963639 
2592.800001293421 117.9015   2.380318   0.2937986 
2593.000001296401 116.6935   2.407225   0.2972191 
2593.200001299381 110.7718   2.450885   0.2972191 
2593.400001302361 105.8923   2.481243   0.2929434 
2593.600001305342 103.271    2.501348   0.2955089 
2593.800001308322 101.0602   2.509673   0.3049152 
2594.000001311302 89.85646   2.518507   0.2852473 
2594.200001314282 77.07356   2.522466   0.2621589 
2594.400001317263 86.10607   2.43931    0.256173  
2594.600001320243 111.3403   2.378795   0.2664345 
2594.800001323223 120.3728   2.446315   0.2946537 
2595.000001326203 119.0542   2.409458   0.3151768 
2595.200001329184 114.1037   2.355442   0.3322793 
2595.400001332164 111.5376   2.401234   0.3331344 
2595.600001335144 112.3667   2.399812   0.3151768 
2595.800001338124 114.609    2.452001   0.2929434 
2596.000001341105 115.3196   2.454438   0.2869576 
2596.200001344085 115.3038   2.472918   0.3006396 
2596.400001347065 113.6616   2.506932   0.3109011 
2596.600001350045 110.1875   2.492108   0.310046  
2596.800001353025 109.1137   2.49424    0.303205  
2597.000001356006 112.3272   2.511602   0.2946537 
2597.200001358986 117.3961   2.507135   0.2937986 
2597.400001361966 119.9938   2.484086   0.2963639 
2597.600001364946 119.2516   2.448854   0.3109011 
2597.800001367927 117.0093   2.486117   0.3237281 
2598.000001370907 114.4116   2.496778   0.3288588 
2598.200001373887 115.3828   2.462358   0.3374101 
2598.400001376867 117.8304   2.4122     0.3280037 
2598.600001379848 121.2413   2.399812   0.3134665 
2598.800001382828 123.2231   2.4122     0.3091909 
2599.000001385808 123.5468   2.449057   0.3109011 
2599.200001388788 123.9889   2.471597   0.3057704 
2599.400001391768 126.6813   2.440528   0.3006396 
2599.600001394749 128.3394   2.433014   0.2929434 
2599.800001397729 127.3919   2.49028    0.2903781 
2600.000001400709 128.2683   2.483782   0.3023499 
2600.200001403689 127.6051   2.475862   0.3177421 
2600.40000140667 127.2261   2.459515   0.3280037 
2600.60000140965 127.1077   2.462256   0.3348447 
