~Version
 VERS              .         2.0                           : CWLS LOG ASCII STANDARD - VERSION 2.0
 WRAP              .         NO                            : ONE LINE PER DEPTH STEP
 DLM               .         SPACE                         : DELIMITING CHARACTER(SPACE TAB OR COMMA)
~Well Information
#_______________________________________________________________________________
#
#PARAMETER_NAME    .UNIT     VALUE                         : DESCRIPTION
#_______________________________________________________________________________
STRT               .m        2506                          : First reference value
STOP               .m        2691.80000276864              : Last reference value
STEP               .m        0.2                           : Step increment
NULL               .         -9999                         : Missing value
COMP               .                                       : Company
WELL               .         500                           : Well name
FLD                .                                       : Field
LOC                .                                       : Location
CNTY               .                                       : County
STAT               .                                       : State
CTRY               .                                       : Country
SRVC               .                                       : Service Company
DATE               .                                       : Date
API                .                                       : API number
EREF               .m        139.4                         : 
PROJECT_UPGRADE_TIME .         2014-05-27T11_38_46           : 
Pad                .         Pad5                          : 
X                  .m        230550                        : 
Y                  .m        242075                        : 
group              .         Pad5                          : 
Интер-р            .         Старостина                    : 
Куст               .         5                             : 
Статус             .         Не проверено                  : 
Тип                .         Разобраться                   : 
~Parameter Information Block
#_______________________________________________________________________________
#
#PARAMETER_NAME    .UNIT     VALUE                         : DESCRIPTION
#_______________________________________________________________________________
SET                .         LQC                           : 
PROJECT_UPGRADE_TIME .         2014-05-27T11_38_46           : 
TLFamily_GR_NORM   .         Gamma Ray                     : 
TLFamily_MD        .         Measured Depth                : 
TLFamily_RHOB_NORM .         Bulk Density                  : 
TLFamily_TNPH_NORM .         Neutron Porosity              : 
~Curve Information
#_______________________________________________________________________________
#
#LOGNAME           .UNIT     LOG_ID                        : DESCRIPTION
#_______________________________________________________________________________
MD                 .m                                      :  
GR_NORM            .gAPI                                   : Normalised By Techlog 
RHOB_NORM          .g/cm3                                  : Normalized By Techlog 
TNPH_NORM          .v/v                                    : Normalised By Techlog 
~Ascii
# ...
2632.400001883507 49.22595   2.330769   0.1928935 
2632.600001886487 48.49956   2.305182   0.182632  
2632.800001889467 46.43092   2.296653   0.1723705 
2633.000001892447 41.84361   2.414941   0.1646744 
2633.200001895428 39.58548   2.549272   0.1646744 
2633.400001898408 40.66717   2.597095   0.16895   
2633.600001901388 41.74886   2.669388   0.16895   
2633.800001904368 42.95688   2.748585   0.1646744 
2634.000001907349 43.60431   2.742898   0.155268  
2634.200001910329 44.21227   2.706549   0.1509923 
2634.400001913309 44.14121   2.673652   0.1544128 
2634.600001916289 44.98604   2.656492   0.1586885 
2634.80000191927 46.05983   2.63253    0.1612539 
2635.00000192225 47.02309   2.576991   0.16895   
2635.20000192523 50.29185   2.522974   0.1792115 
2635.40000192821 52.81053   2.459718   0.1843423 
2635.60000193119 55.34501   2.481447   0.1903282 
2635.800001934171 56.97938   2.494748   0.1937487 
2636.000001937151 56.4109    2.486523   0.1963141 
2636.200001940131 54.9976    2.471192   0.1980243 
2636.400001943111 55.23446   2.452915   0.1971692 
2636.600001946092 54.9818    2.435248   0.1937487 
2636.800001949072 56.81358   2.444183   0.1954589 
2637.000001952052 59.12697   2.470176   0.1954589 
2637.200001955032 59.26119   2.479111   0.1971692 
2637.400001958013 57.4847    2.434537   0.1963141 
2637.600001960993 56.92411   2.400016   0.2005897 
2637.800001963973 57.77683   2.368946   0.2031551 
2638.000001966953 58.55059   2.298989   0.1980243 
2638.200001969934 59.37963   2.309345   0.1997346 
2638.400001972914 62.00095   2.31097    0.2065756 
2638.600001975894 67.89104   2.380724   0.2194025 
2638.800001978874 77.26305   2.447026   0.2356499 
2639.000001981854 88.25366   2.552622   0.2527525 
2639.200001984835 90.38546   2.599125   0.2672896 
2639.400001987815 81.25031   2.557598   0.2715653 
2639.600001990795 74.45223   2.563588   0.263014  
2639.800001993775 72.35992   2.568766   0.2518973 
2640.000001996756 70.67816   2.580748   0.2442012 
2640.200001999736 65.05653   2.574655   0.2407807 
2640.400002002716 59.88494   2.52602    0.2347948 
2640.600002005696 59.09539   2.510485   0.2339397 
2640.800002008677 57.38205   2.466622   0.2382153 
2641.000002011657 55.1713    2.436873   0.2433461 
2641.200002014637 54.33437   2.348537   0.2416358 
2641.400002017617 56.932     2.264264   0.2356499 
2641.600002020597 63.95115   2.263248   0.2382153 
2641.800002023578 72.54151   2.287617   0.2544627 
2642.000002026558 82.83731   2.342344   0.2895229 
2642.200002029538 90.74866   2.39108    0.2989293 
2642.400002032518 96.69401   2.40956    0.2826819 
2642.600002035499 101.5892   2.447229   0.2818268 
2642.800002038479 103.9816   2.465912   0.2784063 
2643.000002041459 103.6342   2.508962   0.2792614 
2643.200002044439 103.3894   2.548459   0.2869576 
2643.40000204742 103.0183   2.55049    0.2792614 
2643.6000020504 102.0551   2.591713   0.2707101 
2643.80000205338 98.32838   2.562268   0.2715653 
2644.00000205636 93.18838   2.535768   0.2647243 
2644.20000205934 86.2403    2.520537   0.2578832 
2644.400002062321 79.05534   2.568665   0.2604486 
2644.600002065301 75.28916   2.64969    0.2578832 
2644.800002068281 78.03682   2.766962   0.2536076 
2645.000002071261 80.53971   2.987598   0.2553179 
2645.200002074242 80.895     3.169852   0.2604486 
2645.400002077222 77.80785   3.122537   0.2647243 
2645.600002080202 70.15706   2.931449   0.2826819 
2645.800002083182 56.2372    2.69203    0.310046  
2646.000002086163 35.73245   2.211161   0.3391203 
2646.200002089143 18.84386   1.676174   0.3989792 
2646.400002092123 12.2195    1.461529   0.4665343 
2646.600002095103 13.37224   1.191548   0.5007394 
2646.800002098083 17.99904   1.038434   0.4827817 
2647.000002101064 26.69994   0.8685659  0.4862022 
2647.200002104044 35.43242   0.8865376  0.5015945 
2647.400002107024 39.41177   1.01965    0.4947535 
2647.600002110004 44.85181   1.051938   0.4554176 
2647.800002112985 57.75314   1.159971   0.4271984 
2648.000002115965 72.58099   1.633631   0.4118061 
2648.200002118945 82.68729   2.013067   0.3955587 
2648.400002121925 84.42432   2.175319   0.3656293 
2648.600002124906 84.25062   2.154301   0.3365549 
2648.800002127886 80.30284   2.07216    0.3314242 
2649.000002130866 76.6472    1.806849   0.3288588 
2649.200002133846 77.28674   1.804717   0.3177421 
2649.400002136827 80.75288   1.998445   0.2861024 
2649.600002139807 86.36663   2.377475   0.2536076 
2649.800002142787 92.81729   2.428547   0.2459114 
2650.000002145767 95.86497   2.439512   0.2442012 
2650.200002148747 97.71253   2.47972    0.2399256 
2650.400002151728 96.82034   2.459617   0.2510422 
2650.600002154708 89.76961   2.417581   0.2578832 
2650.800002157688 81.85036   2.366306   0.2595935 
2651.000002160668 81.63719   2.444793   0.2501871 
2651.200002163649 83.35052   2.455657   0.2459114 
2651.400002166629 85.28493   2.458906   0.2536076 
2651.600002169609 85.05596   2.475152   0.2655794 
2651.800002172589 80.27126   2.466419   0.2647243 
2652.00000217557 78.99218   2.435248   0.2527525 
2652.20000217855 82.11092   2.421236   0.2433461 
2652.40000218153 81.56612   2.397782   0.2407807 
2652.60000218451 82.03986   2.332393   0.2459114 
2652.80000218749 85.85342   2.345695   0.2613037 
2653.000002190471 87.55885   2.454337   0.2595935 
2653.200002193451 86.27188   2.542875   0.2518973 
2653.400002196431 86.27188   2.517187   0.2484768 
2653.600002199411 85.41126   2.56105    0.2570281 
2653.800002202392 84.51907   2.62522    0.2544627 
2654.000002205372 82.71098   2.654259   0.2459114 
2654.200002208352 85.75077   2.695888   0.2544627 
2654.400002211332 92.53305   2.698122   0.2715653 
2654.600002214313 92.30408   2.621869   0.2801166 
2654.800002217293 85.08754   2.61131    0.2843922 
2655.000002220273 77.95786   2.595572   0.2758409 
2655.200002223253 74.72069   2.553536   0.269855  
2655.400002226233 70.4334    2.509978   0.2553179 
2655.600002229214 65.76713   2.456672   0.2373602 
2655.800002232194 62.02464   2.403163   0.2322294 
2656.000002235174 57.91895   2.468856   0.2407807 
2656.200002238154 54.53176   2.491397   0.2501871 
2656.400002241135 54.72915   2.472511   0.2613037 
2656.600002244115 56.0714    2.470582   0.2741307 
2656.800002247095 57.1294    2.444691   0.2732755 
2657.000002250075 59.91653   2.466521   0.2655794 
2657.200002253056 59.84547   2.416667   0.2544627 
2657.400002256036 54.96601   2.395954   0.2407807 
2657.600002259016 53.85275   2.433014   0.2416358 
2657.800002261996 55.64503   2.482462   0.2416358 
2658.000002264977 57.92685   2.475253   0.2330845 
2658.200002267957 58.21898   2.529066   0.2262435 
2658.400002270937 55.10024   2.578514   0.2313743 
2658.600002273917 52.77105   2.59019    0.2330845 
2658.800002276897 51.91833   2.615269   0.2279538 
2659.000002279878 51.15246   2.585621   0.2279538 
2659.200002282858 50.5603    2.54582    0.2339397 
2659.400002285838 50.05498   2.565619   0.2382153 
2659.600002288818 50.79716   2.471597   0.2390704 
2659.800002291799 53.67904   2.411997   0.2416358 
2660.000002294779 54.40543   2.353411   0.249332  
2660.200002297759 52.28152   2.363158   0.2501871 
2660.400002300739 49.32859   2.371078   0.2450563 
2660.60000230372 46.2967    2.34407    0.2382153 
2660.8000023067 46.4704    2.344374   0.2347948 
2661.00000230968 50.0313    2.300918   0.2365051 
2661.20000231266 52.76315   2.257562   0.2390704 
2661.40000231564 56.43459   2.333713   0.2416358 
2661.600002318621 61.7404    2.419307   0.2407807 
2661.800002321601 67.31466   2.333206   0.2587384 
2662.000002324581 73.74953   2.283352   0.2826819 
2662.200002327561 80.66604   2.403366   0.3023499 
2662.400002330542 89.58012   2.512719   0.3117563 
2662.600002333522 85.82973   2.435654   0.3160319 
2662.800002336502 69.84123   2.281321   0.3006396 
2663.000002339482 58.27425   2.337064   0.2570281 
2663.200002342463 52.98423   2.403265   0.2390704 
2663.400002345443 52.01308   2.379404   0.2373602 
2663.600002348423 51.4367    2.345593   0.2365051 
2663.800002351403 52.3289    2.386308   0.2245333 
