~Version
 VERS              .         2.0                           : CWLS LOG ASCII STANDARD - VERSION 2.0
 WRAP              .         NO                            : ONE LINE PER DEPTH STEP
 DLM               .         SPACE                         : DELIMITING CHARACTER(SPACE TAB OR COMMA)
~Well Information
#_______________________________________________________________________________
#
#PARAMETER_NAME    .UNIT     VALUE                         : DESCRIPTION
#_______________________________________________________________________________
STRT               .m        2506                          : First reference value
STOP               .m        2691.80000276864              : Last reference value
STEP               .m        0.2                           : Step increment
NULL               .         -9999                         : Missing value
COMP               .                                       : Company
WELL               .         500                           : Well name
FLD                .                                       : Field
LOC                .                                       : Location
CNTY               .                                       : County
STAT               .                                       : State
CTRY               .                                       : Country
SRVC               .                                       : Service Company
DATE               .                                       : Date
API                .                                       : API number
EREF               .m        139.4                         : 
PROJECT_UPGRADE_TIME .         2014-05-27T11_38_46           : 
Pad                .         Pad5                          : 
X                  .m        230550                        : 
Y                  .m        242075                        : 
group              .         Pad5                          : 
Интер-р            .         Старостина                    : 
Куст               .         5                             : 
Статус             .         Не проверено                  : 
Тип                .         Разобраться                   : 
~Parameter Information Block
#_______________________________________________________________________________
#
#PARAMETER_NAME    .UNIT     VALUE                         : DESCRIPTION
#_______________________________________________________________________________
SET                .         LQC                           : 
PROJECT_UPGRADE_TIME .         2014-05-27T11_38_46           : 
TLFamily_GR_NORM   .         Gamma Ray                     : 
TLFamily_MD        .         Measured Depth                : 
TLFamily_RHOB_NORM .         Bulk Density                  : 
TLFamily_TNPH_NORM .         Neutron Porosity              : 
~Curve Information
#_______________________________________________________________________________
#
#LOGNAME           .UNIT     LOG_ID                        : DESCRIPTION
#_______________________________________________________________________________
MD                 .m                                      :  
GR_NORM            .gAPI                                   : Normalised By Techlog 
RHOB_NORM          .g/cm3                                  : Normalized By Techlog 
TNPH_NORM          .v/v                                    : Normalised By Techlog 
~Ascii
# ...
2537.600000470877 83.70583   2.515969   0.2647243 
2537.800000473857 83.36632   2.478096   0.2672896 
2538.000000476837 87.09302   2.449971   0.2801166 
2538.200000479817 88.62475   2.470582   0.2955089 
2538.400000482798 87.94574   2.454641   0.303205  
2538.600000485778 90.97763   2.442051   0.2980742 
2538.800000488758 97.68095   2.464185   0.2903781 
2539.000000491738 100.5391   2.458906   0.2869576 
2539.200000494719 100.9655   2.434131   0.2903781 
2539.400000497699 102.513    2.421338   0.2843922 
2539.600000500679 103.0736   2.433218   0.2792614 
2539.800000503659 101.5892   2.415347   0.2903781 
2540.000000506639 98.79422   2.404585   0.2972191 
2540.20000050962 96.12553   2.411184   0.2989293 
2540.4000005126 92.48568   2.407732   0.3006396 
2540.60000051558 90.68549   2.397477   0.2980742 
2540.80000051856 91.71981   2.368845   0.2895229 
2541.000000521541 90.46442   2.377881   0.2818268 
2541.200000524521 92.05932   2.452712   0.2775512 
2541.400000527501 93.71738   2.503175   0.2724204 
2541.600000530481 91.65665   2.499824   0.2595935 
2541.800000533462 84.67697   2.503175   0.2390704 
2542.000000536442 74.59436   2.501652   0.2219679 
2542.200000539422 66.26455   2.569477   0.2117064 
2542.400000542402 63.11422   2.571812   0.1980243 
2542.600000545382 64.44067   2.540235   0.1946038 
2542.800000548363 72.77837   2.47373    0.2031551 
2543.000000551343 82.4978    2.502261   0.2194025 
2543.200000554323 86.03501   2.480228   0.2390704 
2543.400000557303 83.48475   2.512719   0.2424909 
2543.600000560284 80.63445   2.523177   0.2356499 
2543.800000563264 77.73679   2.516476   0.2262435 
2544.000000566244 76.24452   2.556988   0.2194025 
2544.200000569224 75.79448   2.573843   0.2219679 
2544.400000572205 75.06808   2.534448   0.2245333 
2544.600000575185 76.26821   2.511501   0.2245333 
2544.800000578165 81.38453   2.492412   0.2356499 
2545.000000581145 89.05901   2.458093   0.263014  
2545.200000584126 97.45988   2.448143   0.2689999 
2545.400000587106 100.926    2.453727   0.2724204 
2545.600000590086 101.076    2.48104    0.2937986 
2545.800000593066 105.5212   2.496271   0.3006396 
2546.000000596046 113.6694   2.427125   0.303205  
2546.200000599027 120.3886   2.402046   0.303205  
2546.400000602007 123.0415   2.395954   0.3066255 
2546.600000604987 126.1602   2.398087   0.310046  
2546.800000607967 128.3394   2.420018   0.3074806 
2547.000000610948 127.4314   2.355645   0.2972191 
2547.200000613928 129.6422   2.373921   0.2835371 
2547.400000616908 131.5687   2.401538   0.2792614 
2547.600000619888 128.2052   2.423572   0.2869576 
2547.800000622869 123.3573   2.45789    0.2955089 
2548.000000625849 119.2753   2.47769    0.2878127 
2548.200000628829 115.0117   2.444894   0.2861024 
2548.400000631809 110.8191   2.397782   0.2980742 
2548.600000634789 109.9743   2.411895   0.2989293 
2548.80000063777 109.7375   2.426008   0.2989293 
2549.00000064075 109.0742   2.477994   0.303205  
2549.20000064373 109.8954   2.49292    0.2946537 
2549.40000064671 110.377    2.529168   0.2861024 
2549.600000649691 107.4951   2.533026   0.2895229 
2549.800000652671 100.7207   2.52399    0.2809717 
2550.000000655651 99.52061   2.512313   0.2689999 
2550.200000658631 102.442    2.484391   0.269855  
2550.400000661612 103.2631   2.526934   0.2809717 
2550.600000664592 103.042    2.555567   0.2835371 
2550.800000667572 102.7341   2.542773   0.2707101 
2551.000000670552 104.0132   2.532519   0.256173  
2551.200000673532 107.2504   2.465912   0.2613037 
2551.400000676513 110.8349   2.424384   0.2724204 
2551.600000679493 115.3591   2.418292   0.2681448 
2551.800000682473 123.9416   2.378287   0.2741307 
2552.000000685453 138.8405   2.38712    0.2997845 
2552.200000688434 154.2447   2.400523   0.3271486 
2552.400000691414 165.6143   2.433624   0.3399754 
2552.600000694394 163.4904   2.456164   0.3485267 
2552.800000697374 159.2584   2.418292   0.3485267 
2553.000000700355 161.6981   2.424282   0.3220178 
2553.200000703335 168.8199   2.43078    0.2920883 
2553.400000706315 176.3601   2.423775   0.2912332 
2553.600000709295 184.232    2.454337   0.3023499 
2553.800000712276 189.222    2.476877   0.3040601 
2554.000000715256 184.1609   2.488452   0.3014947 
2554.200000718236 175.9496   2.510282   0.3091909 
2554.400000721216 170.8569   2.485102   0.3126114 
2554.600000724196 168.6857   2.420119   0.310046  
2554.800000727177 169.0567   2.443777   0.3160319 
2555.000000730157 176.7391   2.420729   0.3262934 
2555.200000733137 184.99     2.374327   0.3177421 
2555.400000736117 193.9356   2.340516   0.316887  
2555.600000739098 205.0605   2.321224   0.3314242 
2555.800000742078 211.4637   2.2865     0.3339896 
2556.000000745058 215.909    2.255836   0.3322793 
2556.200000748038 217.8907   2.25411    0.3331344 
2556.400000751019 215.6326   2.290967   0.3331344 
2556.600000753999 207.3502   2.410677   0.3391203 
2556.800000756979 198.2387   2.414941   0.3374101 
2557.000000759959 190.4142   2.447331   0.3185973 
2557.200000762939 182.3134   2.523177   0.2886678 
2557.40000076592 168.4409   2.537798   0.2784063 
2557.6000007689 159.44     2.530183   0.2826819 
2557.80000077188 157.4582   2.490991   0.2861024 
2558.00000077486 156.9844   2.451494   0.2861024 
2558.200000777841 162.1402   2.415043   0.2912332 
2558.400000780821 173.1703   2.426821   0.2989293 
2558.600000783801 187.7534   2.390674   0.3006396 
2558.800000786781 206.5527   2.396462   0.3126114 
2559.000000789762 225.5257   2.394025   0.3271486 
2559.200000792742 237.7796   2.377779   0.3382652 
2559.400000795722 248.9124   2.355949   0.3493819 
2559.600000798702 272.6938   2.386004   0.3596434 
2559.800000801682 303.7469   2.436264   0.3476716 
2560.000000804663 324.6149   2.468552   0.3322793 
2560.200000807643 317.8247   2.435857   0.3245832 
2560.400000810623 291.7536   2.439614   0.3314242 
2560.600000813603 266.0615   2.419104   0.3451062 
2560.800000816584 247.9017   2.367626   0.3545126 
2561.000000819564 247.2622   2.330363   0.3656293 
2561.200000822544 265.0272   2.315234   0.3801664 
2561.400000825524 284.0792   2.358589   0.3801664 
2561.600000828505 284.4976   2.39697    0.3596434 
2561.800000831485 275.4572   2.367626   0.3476716 
2562.000000834465 268.596    2.335541   0.3391203 
2562.200000837445 266.3773   2.342039   0.3288588 
2562.400000840425 271.9674   2.283251   0.3305691 
2562.600000843406 277.1863   2.178771   0.3408306 
2562.800000846386 276.3257   2.192072   0.3519472 
2563.000000849366 275.5046   2.259796   0.3630639 
2563.200000852346 276.9574   2.303557   0.3622088 
2563.400000855327 277.6285   2.396157   0.3596434 
2563.600000858307 271.6516   2.427329   0.3536575 
2563.800000861287 259.974    2.486523   0.3365549 
2564.000000864267 245.7225   2.433421   0.3382652 
2564.200000867248 231.4395   2.291069   0.3579331 
2564.400000870228 229.5683   2.231569   0.3784562 
2564.600000873208 237.9612   2.271066   0.3947036 
2564.800000876188 242.3038   2.282743   0.3938485 
2565.000000879169 243.9461   2.271777   0.3810216 
2565.200000882149 254.8814   2.228625   0.3741806 
2565.400000885129 274.036    2.234311   0.3716152 
2565.600000888109 282.6422   2.312289   0.3741806 
2565.800000891089 273.3017   2.3196     0.3818767 
2566.00000089407 268.8328   2.308634   0.4058203 
2566.20000089705 268.8486   2.314828   0.4126613 
2566.40000090003 262.9191   2.308228   0.4015446 
2566.60000090301 252.8601   2.284672   0.3947036 
2566.800000905991 249.0939   2.293709   0.3861523 
2567.000000908971 245.1778   2.262537   0.3844421 
2567.200000911951 237.5349   2.2865     0.3767459 
2567.400000914931 231.9606   2.288936   0.3793113 
2567.600000917912 228.2892   2.256953   0.3827318 
2567.800000920892 226.1495   2.219487   0.3776011 
2568.000000923872 222.7465   2.17867    0.3810216 
2568.200000926852 213.0744   2.218674   0.3776011 
2568.400000929832 194.7962   2.279189   0.3741806 
2568.600000932813 172.7913   2.314523   0.3716152 
2568.800000935793 160.5217   2.353005   0.3476716 
2569.000000938773 161.927    2.371687   0.3271486 
