~Version
 VERS              .         2.0                           : CWLS LOG ASCII STANDARD - VERSION 2.0
 WRAP              .         NO                            : ONE LINE PER DEPTH STEP
 DLM               .         SPACE                         : DELIMITING CHARACTER(SPACE TAB OR COMMA)
~Well Information
#_______________________________________________________________________________
#
#PARAMETER_NAME    .UNIT     VALUE                         : DESCRIPTION
#_______________________________________________________________________________
STRT               .m        2506                          : First reference value
STOP               .m        2691.80000276864              : Last reference value
STEP               .m        0.2                           : Step increment
NULL               .         -9999                         : Missing value
COMP               .                                       : Company
WELL               .         500                           : Well name
FLD                .                                       : Field
LOC                .                                       : Location
CNTY               .                                       : County
STAT               .                                       : State
CTRY               .                                       : Country
SRVC               .                                       : Service Company
DATE               .                                       : Date
API                .                                       : API number
EREF               .m        139.4                         : 
PROJECT_UPGRADE_TIME .         2014-05-27T11_38_46           : 
Pad                .         Pad5                          : 
X                  .m        230550                        : 
Y                  .m        242075                        : 
group              .         Pad5                          : 
Интер-р            .         Старостина                    : 
Куст               .         5                             : 
Статус             .         Не проверено                  : 
Тип                .         Разобраться                   : 
~Parameter Information Block
#_______________________________________________________________________________
#
#PARAMETER_NAME    .UNIT     VALUE                         : DESCRIPTION
#_______________________________________________________________________________
SET                .         LQC                           : 
PROJECT_UPGRADE_TIME .         2014-05-27T11_38_46           : 
TLFamily_GR_NORM   .         Gamma Ray                     : 
TLFamily_MD        .         Measured Depth                : 
TLFamily_RHOB_NORM .         Bulk Density                  : 
TLFamily_TNPH_NORM .         Neutron Porosity              : 
~Curve Information
#_______________________________________________________________________________
#
#LOGNAME           .UNIT     LOG_ID                        : DESCRIPTION
#_______________________________________________________________________________
MD                 .m                                      :  
GR_NORM            .gAPI                                   : Normalised By Techlog 
RHOB_NORM          .g/cm3                                  : Normalized By Techlog 
TNPH_NORM          .v/v                                    : Normalised By Techlog 
~Ascii
2506.0     78.98428   -9999      0.2578832 
2506.20000000298 84.13219   -9999      0.2467666 
2506.40000000596 88.50632   -9999      0.2382153 
2506.600000008941 89.74592   -9999      0.2373602 
2506.800000011921 85.49022   -9999      0.2365051 
2507.000000014901 79.07903   -9999      0.2356499 
2507.200000017881 74.77596   -9999      0.229664  
2507.400000020862 73.05472   -9999      0.2211128 
2507.600000023842 69.66753   -9999      0.2117064 
2507.800000026822 63.88009   -9999      0.1971692 
2508.000000029802 57.38205   -9999      0.175791  
2508.200000032783 52.16309   -9999      0.155268  
2508.400000035763 49.08383   -9999      0.1450064 
2508.600000038743 48.27059   -9999      0.1432962 
2508.800000041723 45.99667   -9999      0.1492821 
2509.000000044703 43.99909   -9999      0.1612539 
2509.200000047684 45.17553   -9999      0.1766461 
2509.400000050664 48.01003   -9999      0.1963141 
2509.600000053644 51.46828   -9999      0.222823  
2509.800000056624 55.98454   -9999      0.2433461 
2510.000000059605 61.43248   -9999      0.2536076 
2510.200000062585 67.20412   -9999      0.2578832 
2510.400000065565 71.79144   -9999      0.2621589 
2510.600000068545 78.55003   -9999      0.2570281 
2510.800000071526 79.78963   -9999      0.2433461 
2511.000000074506 87.67728   -9999      0.2442012 
2511.200000077486 95.60442   -9999      0.2467666 
2511.400000080466 98.65211   -9999      0.2501871 
2511.600000083447 95.90445   -9999      0.2450563 
2511.800000086427 89.91173   -9999      0.2356499 
2512.000000089407 81.97669   -9999      0.2253884 
2512.200000092387 77.72889   -9999      0.2134166 
2512.400000095367 72.22569   -9999      0.2048654 
2512.600000098348 65.42762   -9999      0.2074307 
2512.800000101328 62.99579   -9999      0.1766461 
2513.000000104308 64.58279   -9999      0.1817769 
2513.200000107288 76.48139   -9999      0.2023    
2513.400000110269 89.31956   -9999      0.2279538 
2513.600000113249 97.16774   -9999      0.2501871 
2513.800000116229 99.97856   -9999      0.2570281 
2514.000000119209 103.3894   2.451798   0.2476217 
2514.20000012219 105.687    2.451798   0.2467666 
2514.40000012517 106.7372   2.452001   0.249332  
2514.60000012815 104.8106   2.452408   0.2501871 
2514.80000013113 105.2844   2.452611   0.256173  
2515.00000013411 104.7712   2.452814   0.2647243 
2515.200000137091 100.8234   2.452814   0.2681448 
2515.400000140071 98.70737   2.453017   0.2758409 
2515.600000143051 96.40977   2.453524   0.2775512 
2515.800000146031 93.36998   2.453626   0.2732755 
2516.000000149012 93.51999   2.453829   0.2672896 
2516.200000151992 98.3205    2.453829   0.2647243 
2516.400000154972 103.2078   2.478705   0.2621589 
2516.600000157952 102.9394   2.472613   0.2518973 
2516.800000160933 101.9524   2.460429   0.2484768 
2517.000000163913 103.4447   2.472816   0.2578832 
2517.200000166893 101.2971   2.464693   0.2715653 
2517.400000169873 99.40218   2.471801   0.2861024 
2517.600000172853 98.50999   2.422049   0.2843922 
2517.800000175834 94.41219   2.477588   0.276696  
2518.000000178814 92.6357    2.495661   0.2732755 
2518.200000181794 96.44924   2.483274   0.2707101 
2518.400000184774 99.71011   2.508049   0.2741307 
2518.600000187755 100.4286   2.533128   0.2749858 
2518.800000190735 98.89687   2.467333   0.2664345 
2519.000000193715 99.15742   2.454946   0.2595935 
2519.200000196695 99.29165   2.428039   0.256173  
2519.400000199676 98.62052   2.412809   0.2518973 
2519.600000202656 97.17564   2.431187   0.2467666 
2519.800000205636 98.4863    2.504292   0.2373602 
2520.000000208616 100.8786   2.516273   0.2313743 
2520.200000211596 101.6998   2.493834   0.2433461 
2520.400000214577 101.1629   2.482665   0.2604486 
2520.600000217557 100.9734   2.478502   0.2741307 
2520.800000220537 101.005    2.446925   0.2818268 
2521.000000223517 101.1708   2.446112   0.2903781 
2521.200000226498 99.93118   2.471902   0.2895229 
2521.400000229478 97.51514   2.474745   0.2843922 
2521.600000232458 95.8255    2.475659   0.2801166 
2521.800000235438 95.14648   2.435654   0.2784063 
2522.000000238419 95.41493   2.46977    0.2707101 
2522.200000241399 95.636     2.434639   0.2613037 
2522.400000244379 94.60958   2.353106   0.2621589 
2522.600000247359 93.85161   2.369961   0.2587384 
2522.80000025034 94.45956   2.398391   0.2595935 
2523.00000025332 93.96215   2.438497   0.2638691 
2523.2000002563 91.98826   2.45058    0.2621589 
2523.40000025928 91.50663   2.472613   0.2595935 
2523.60000026226 90.18018   2.445401   0.2638691 
2523.800000265241 89.13007   2.431288   0.2672896 
2524.000000268221 88.37209   2.4188     0.2689999 
2524.200000271201 88.20629   2.412301   0.2732755 
2524.400000274181 89.60381   2.413215   0.2749858 
2524.600000277162 89.32746   2.395142   0.2809717 
2524.800000280142 88.39578   2.410474   0.2835371 
2525.000000283122 88.40368   2.442559   0.2809717 
2525.200000286102 90.40915   2.497793   0.2732755 
2525.400000289083 92.03563   2.495966   0.2664345 
2525.600000292063 90.70918   2.483376   0.2587384 
2525.800000295043 91.08027   2.454946   0.256173  
2526.000000298023 92.2646    2.503073   0.2570281 
2526.200000301003 90.25124   2.584301   0.2647243 
2526.400000303984 89.13007   2.624408   0.2809717 
2526.600000306964 90.06964   2.535565   0.2843922 
2526.800000309944 90.85919   2.474542   0.2775512 
2527.000000312924 91.79877   2.476065   0.2707101 
2527.200000315905 92.99889   2.461952   0.2784063 
2527.400000318885 92.93572   2.395751   0.2980742 
2527.600000321865 90.1407    2.338282   0.3109011 
2527.800000324845 89.7854    2.395447   0.3151768 
2528.000000327826 93.5121    2.420729   0.2997845 
2528.200000330806 94.95699   2.425907   0.2878127 
2528.400000333786 94.26218   2.424384   0.2818268 
2528.600000336766 93.78055   2.447331   0.2801166 
2528.800000339746 90.97763   2.44591    0.2749858 
2529.000000342727 85.62444   2.459921   0.2647243 
2529.200000345707 83.08997   2.435451   0.2621589 
2529.400000348687 82.78204   2.421744   0.2433461 
2529.600000351667 83.76109   2.414535   0.2373602 
2529.800000354648 89.13796   2.45058    0.2467666 
2530.000000357628 92.90414   2.455758   0.2527525 
2530.200000360608 93.47262   2.457484   0.2647243 
2530.400000363588 96.13342   2.41484    0.2801166 
2530.600000366569 99.22058   2.442355   0.2818268 
2530.800000369549 99.39429   2.417581   0.2835371 
2531.000000372529 98.41524   2.45586    0.2937986 
2531.200000375509 93.98583   2.486523   0.3014947 
2531.400000378489 93.40157   2.484493   0.2903781 
2531.60000038147 94.14375   2.485914   0.2861024 
2531.80000038445 93.77265   2.472511   0.2886678 
2532.00000038743 95.52547   2.455961   0.2878127 
2532.20000039041 95.58863   2.440223   0.2852473 
2532.400000393391 93.66212   2.46713    0.2664345 
2532.600000396371 92.95941   2.458804   0.2647243 
2532.800000399351 94.10426   2.485914   0.2655794 
2533.000000402331 95.09911   2.495661   0.276696  
2533.200000405312 95.8176    2.457586   0.2869576 
2533.400000408292 95.30439   2.451392   0.2972191 
2533.600000411272 96.07816   2.460632   0.3023499 
2533.800000414252 96.55978   2.436771   0.3006396 
2534.000000417233 95.74654   2.439512   0.2989293 
2534.200000420213 97.29407   2.437076   0.2963639 
2534.400000423193 100.7602   2.467333   0.2955089 
2534.600000426173 103.7447   2.498301   0.3006396 
2534.800000429153 102.8841   2.495458   0.3057704 
2535.000000432134 99.75748   2.488046   0.3126114 
2535.200000435114 95.52547   2.463779   0.3091909 
2535.400000438094 91.95667   2.443371   0.2895229 
2535.600000441074 91.36451   2.44794    0.2784063 
2535.800000444055 89.36694   2.407428   0.2861024 
2536.000000447035 90.16439   2.407428   0.2826819 
2536.200000450015 93.1489    2.449768   0.2724204 
2536.400000452995 91.30924   2.497489   0.2724204 
2536.600000455976 87.69308   2.500027   0.2664345 
2536.800000458956 83.52422   2.469364   0.2647243 
2537.000000461936 81.40032   2.443066   0.2681448 
2537.200000464916 82.60045   2.480431   0.2664345 
2537.400000467896 84.68488   2.487335   0.2664345 
