~Version
 VERS              .         2.0                           : CWLS LOG ASCII STANDARD - VERSION 2.0
 WRAP              .         NO                            : ONE LINE PER DEPTH STEP
 DLM               .         SPACE                         : DELIMITING CHARACTER(SPACE TAB OR COMMA)
~Well Information
#_______________________________________________________________________________
#
#PARAMETER_NAME    .UNIT     VALUE                         : DESCRIPTION
#_______________________________________________________________________________
STRT               .m        2506                          : First reference value
STOP               .m        2691.80000276864              : Last reference value
STEP               .m        0.2                           : Step increment
NULL               .         -9999                         : Missing value
COMP               .                                       : Company
WELL               .         500                           : Well name
FLD                .                                       : Field
LOC                .                                       : Location
CNTY               .                                       : County
STAT               .                                       : State
CTRY               .                                       : Country
SRVC               .                                       : Service Company
DATE               .                                       : Date
API                .                                       : API number
EREF               .m        139.4                         : 
PROJECT_UPGRADE_TIME .         2014-05-27T11_38_46           : 
Pad                .         Pad5                          : 
X                  .m        230550                        : 
Y                  .m        242075                        : 
group              .         Pad5                          : 
Интер-р            .         Старостина                    : 
Куст               .         5                             : 
Статус             .         Не проверено                  : 
Тип                .         Разобраться                   : 
~Parameter Information Block
#_______________________________________________________________________________
#
#PARAMETER_NAME    .UNIT     VALUE                         : DESCRIPTION
#_______________________________________________________________________________
SET                .         LQC                           : 
PROJECT_UPGRADE_TIME .         2014-05-27T11_38_46           : 
TLFamily_GR_NORM   .         Gamma Ray                     : 
TLFamily_MD        .         Measured Depth                : 
TLFamily_RHOB_NORM .         Bulk Density                  : 
TLFamily_TNPH_NORM .         Neutron Porosity              : 
~Curve Information
#_______________________________________________________________________________
#
#LOGNAME           .UNIT     LOG_ID                        : DESCRIPTION
#_______________________________________________________________________________
MD                 .m                                      :  
GR_NORM            .gAPI                                   : Normalised By Techlog 
RHOB_NORM          .g/cm3                                  : Normalized By Techlog 
TNPH_NORM          .v/v                                    : Normalised By Techlog 
~Ascii
# ...
2664.000002354383 55.12392   2.422861   0.2151269 
2664.200002357364 57.75314   2.394533   0.2134166 
2664.400002360344 59.86126   2.404179   0.2142717 
2664.600002363324 60.95874   2.353411   0.2134166 
2664.800002366304 62.48258   2.311071   0.2151269 
2665.000002369285 65.4592    2.298785   0.2270986 
2665.200002372265 70.18075   2.297059   0.2407807 
2665.400002375245 75.7708    2.271777   0.2536076 
2665.600002378225 82.34779   2.249338   0.256173  
2665.800002381206 88.01679   2.321224   0.256173  
2666.000002384186 89.45379   2.427329   0.2518973 
2666.200002387166 89.56432   2.478502   0.2459114 
2666.400002390146 90.43283   2.512821   0.2518973 
2666.600002393126 92.54884   2.514445   0.2638691 
2666.800002396107 96.1729    2.525208   0.2724204 
2667.000002399087 101.684    2.48236    0.276696  
2667.200002402067 106.2081   2.52206    0.2835371 
2667.400002405047 105.5528   2.506119   0.3040601 
2667.600002408028 96.55189   2.460226   0.3143216 
2667.800002411008 85.12702   2.522162   0.3057704 
2668.000002413988 77.04198   2.586027   0.2946537 
2668.200002416968 72.11515   2.572625   0.2792614 
2668.400002419949 68.62532   2.534346   0.2604486 
2668.600002422929 68.85429   2.485102   0.2621589 
2668.800002425909 71.77564   2.491194   0.2775512 
2669.000002428889 73.14947   2.405194   0.2886678 
2669.20000243187 70.4413    2.371484   0.2801166 
2669.40000243485 66.67512   2.395142   0.2672896 
2669.60000243783 68.44372   2.453727   0.2613037 
2669.80000244081 72.33623   2.492818   0.256173  
2670.00000244379 72.64416   2.51211    0.2553179 
2670.200002446771 71.75195   2.547647   0.2501871 
2670.400002449751 71.8625    2.625525   0.2459114 
2670.600002452731 73.40213   2.786457   0.2450563 
2670.800002455711 73.26791   2.997345   0.249332  
2671.000002458692 72.44676   3.21331    0.2604486 
2671.200002461672 72.12305   3.151983   0.2784063 
2671.400002464652 69.76228   2.846363   0.303205  
2671.600002467632 61.96937   2.282337   0.3322793 
2671.800002470613 49.36807   1.569562   0.3664844 
2672.000002473593 32.77951   1.285265   0.4075305 
2672.200002476573 24.48918   0.8551633  0.4297638 
2672.400002479553 30.07134   0.5720842  0.4152267 
2672.600002482533 44.57547   0.790181   0.3630639 
2672.800002485514 58.80325   1.381926   0.3143216 
2673.000002488494 62.60891   1.867161   0.2775512 
2673.200002491474 62.49837   2.406818   0.2501871 
2673.400002494454 64.05379   2.403975   0.2399256 
2673.600002497435 64.93021   2.410068   0.2356499 
2673.800002500415 67.88313   2.426821   0.2382153 
2674.000002503395 73.53635   2.411184   0.2330845 
2674.200002506375 79.34748   2.37717    0.2339397 
2674.400002509356 81.0924    2.41748    0.2442012 
2674.600002512336 81.83458   2.416363   0.2518973 
2674.800002515316 82.02407   2.453931   0.2621589 
2675.000002518296 83.3979    2.472106   0.2724204 
2675.200002521276 85.63234   2.513633   0.276696  
2675.400002524257 87.15618   2.518811   0.2784063 
2675.600002527237 92.49358   2.524294   0.2749858 
2675.800002530217 96.03867   2.53922    0.2835371 
2676.000002533197 91.48294   2.546835   0.2878127 
2676.200002536178 87.74046   2.53394    0.2818268 
2676.400002539158 80.895     2.483071   0.2809717 
2676.600002542138 66.61985   2.431085   0.2843922 
2676.800002545118 58.40058   2.414535   0.2741307 
2677.000002548099 58.70851   2.383466   0.2467666 
2677.200002551079 62.51416   2.339805   0.2356499 
2677.400002554059 67.58311   2.367423   0.2416358 
2677.600002557039 76.60773   2.407834   0.2621589 
2677.800002560019 86.19292   2.47505    0.2972191 
2678.000002563 89.90383   2.501449   0.2989293 
2678.20000256598 92.00405   2.481142   0.2792614 
2678.40000256896 91.93299   2.500941   0.2749858 
2678.60000257194 91.10396   2.515562   0.2809717 
2678.800002574921 90.96973   2.530183   0.2946537 
2679.000002577901 91.21449   2.575569   0.2946537 
2679.200002580881 91.76719   2.580138   0.2886678 
2679.400002583861 94.36481   2.560644   0.2801166 
2679.600002586842 95.17805   2.532011   0.2724204 
2679.800002589822 90.18807   2.486625   0.2792614 
2680.000002592802 84.94543   2.448955   0.2878127 
2680.200002595782 83.47685   2.456164   0.2843922 
2680.400002598763 85.22177   2.482462   0.2741307 
2680.600002601743 88.0247    2.514242   0.2912332 
2680.800002604723 88.79845   2.543992   0.3074806 
2681.000002607703 85.7034    2.520639   0.3040601 
2681.200002610683 79.47381   2.524091   0.2937986 
2681.400002613664 76.67879   2.50815    0.2835371 
2681.600002616644 78.16315   2.476065   0.2681448 
2681.800002619624 78.69215   2.445401   0.2655794 
2682.000002622604 78.47897   2.565923   0.2715653 
2682.200002625585 76.61562   2.724216   0.2792614 
2682.400002628565 77.23147   2.896419   0.2878127 
2682.600002631545 79.1343    3.071872   0.2912332 
2682.800002634525 76.284     2.801484   0.303205  
2683.000002637506 71.24664   2.463576   0.3057704 
2683.200002640486 68.78323   2.339196   0.2963639 
2683.400002643466 71.04136   2.147905   0.2937986 
2683.600002646446 68.88587   1.808372   0.3117563 
2683.800002649426 64.81966   1.668356   0.3322793 
2684.000002652407 65.78292   1.70105    0.3177421 
2684.200002655387 75.11546   2.177147   0.2758409 
2684.400002658367 81.18714   2.451798   0.2501871 
2684.600002661347 81.34505   2.487945   0.2373602 
2684.800002664328 79.38696   2.464389   0.2416358 
2685.000002667308 78.15525   2.473222   0.2442012 
2685.200002670288 76.72615   2.520944   0.2476217 
2685.400002673268 75.39181   2.546632   0.2578832 
2685.600002676249 75.60499   2.499317   0.2655794 
2685.800002679229 74.37328   2.502566   0.2664345 
2686.000002682209 76.56035   2.561151   0.249332  
2686.200002685189 78.84216   2.548662   0.2399256 
2686.400002688169 79.45802   2.529269   0.2373602 
2686.60000269115 78.26579   2.511704   0.2390704 
2686.80000269413 75.00493   2.550186   0.2390704 
2687.00000269711 72.7389    2.64837    0.2484768 
2687.20000270009 72.83365   2.652939   0.2527525 
2687.400002703071 74.11273   2.547647   0.2587384 
2687.600002706051 73.67847   2.505713   0.2510422 
2687.800002709031 70.72554   2.531605   0.2536076 
2688.000002712011 69.92809   2.578717   0.2578832 
2688.200002714992 69.76228   2.410778   0.2595935 
2688.400002717972 68.72006   2.257055   0.2672896 
2688.600002720952 67.04621   2.503886   0.2595935 
2688.800002723932 64.53542   2.436467   0.2407807 
2689.000002726912 64.64596   2.500535   0.2399256 
2689.200002729893 66.533     2.554552   0.2407807 
2689.400002732873 63.96695   2.760566   0.2339397 
2689.600002735853 61.29035   2.770516   0.2279538 
2689.800002738833 61.60617   2.567548   0.2245333 
2690.000002741814 61.51143   2.52531    0.229664  
2690.200002744794 60.44553   2.324474   0.2450563 
2690.400002747774 59.96389   1.992049   0.2476217 
2690.600002750754 60.97453   1.603576   0.2553179 
2690.800002753735 62.82999   2.019768   0.2732755 
2691.000002756715 64.13275   2.260304   0.2955089 
2691.200002759695 62.82999   2.370774   0.3066255 
2691.400002762675 59.26119   2.343156   0.2972191 
2691.600002765656 60.37447   2.313711   0.2912332 
2691.800002768636 63.49321   2.313711   0.2920883 
