~Version
 VERS              .         2.0                           : CWLS LOG ASCII STANDARD - VERSION 2.0
 WRAP              .         NO                            : ONE LINE PER DEPTH STEP
 DLM               .         SPACE                         : DELIMITING CHARACTER(SPACE TAB OR COMMA)
~Well Information
#_______________________________________________________________________________
#
#PARAMETER_NAME    .UNIT     VALUE                         : DESCRIPTION
#_______________________________________________________________________________
STRT               .m        2506                          : First reference value
STOP               .m        2691.80000276864              : Last reference value
STEP               .m        0.2                           : Step increment
NULL               .         -9999                         : Missing value
COMP               .                                       : Company
WELL               .         500                           : Well name
FLD                .                                       : Field
LOC                .                                       : Location
CNTY               .                                       : County
STAT               .                                       : State
CTRY               .                                       : Country
SRVC               .                                       : Service Company
DATE               .                                       : Date
API                .                                       : API number
EREF               .m        139.4                         : 
PROJECT_UPGRADE_TIME .         2014-05-27T11_38_46           : 
Pad                .         Pad5                          : 
X                  .m        230550                        : 
Y                  .m        242075                        : 
group              .         Pad5                          : 
Интер-р            .         Старостина                    : 
Куст               .         5                             : 
Статус             .         Не проверено                  : 
Тип                .         Разобраться                   : 
~Parameter Information Block
#_______________________________________________________________________________
#
#PARAMETER_NAME    .UNIT     VALUE                         : DESCRIPTION
#_______________________________________________________________________________
SET                .         LQC                           : 
PROJECT_UPGRADE_TIME .         2014-05-27T11_38_46           : 
TLFamily_GR_NORM   .         Gamma Ray                     : 
TLFamily_MD        .         Measured Depth                : 
TLFamily_RHOB_NORM .         Bulk Density                  : 
TLFamily_TNPH_NORM .         Neutron Porosity              : 
~Curve Information
#_______________________________________________________________________________
#
#LOGNAME           .UNIT     LOG_ID                        : DESCRIPTION
#_______________________________________________________________________________
MD                 .m                                      :  
GR_NORM            .gAPI                                   : Normalised By Techlog 
RHOB_NORM          .g/cm3                                  : Normalized By Techlog 
TNPH_NORM          .v/v                                    : Normalised By Techlog 
~Ascii
# ...
2600.80000141263 126.6971   2.447737   0.3339896 
2601.00000141561 124.5416   2.421236   0.3356998 
2601.200001418591 120.5307   2.422658   0.3262934 
2601.400001421571 116.1881   2.43667    0.3083358 
2601.600001424551 115.7302   2.476167   0.3014947 
2601.800001427531 115.9039   2.468755   0.303205  
2602.000001430511 114.9169   2.441746   0.2946537 
2602.200001433492 114.5537   2.443472   0.2792614 
2602.400001436472 114.4748   2.451595   0.263014  
2602.600001439452 113.6773   2.417683   0.269855  
2602.800001442432 113.5905   2.410068   0.2801166 
2603.000001445413 114.1905   2.41748    0.2784063 
2603.200001448393 113.1562   2.383872   0.2758409 
2603.400001451373 110.985    2.382349   0.2801166 
2603.600001454353 109.7611   2.367931   0.2997845 
2603.800001457334 108.4426   2.335338   0.3049152 
2604.000001460314 107.9057   2.343055   0.3091909 
2604.200001463294 109.2321   2.435756   0.3160319 
2604.400001466274 107.5741   2.466115   0.3322793 
2604.600001469254 110.3691   2.447128   0.3314242 
2604.800001472235 113.9063   2.454946   0.3160319 
2605.000001475215 114.0642   2.473831   0.3194524 
2605.200001478195 113.0299   2.442254   0.3297139 
2605.400001481175 112.2561   2.438802   0.3374101 
2605.600001484156 110.5349   2.399711   0.3399754 
2605.800001487136 115.2091   2.414738   0.3408306 
2606.000001490116 121.2965   2.452204   0.357078  
2606.200001493096 123.6099   2.454032   0.3673395 
2606.400001496077 124.2337   2.417276   0.3545126 
2606.600001499057 124.6285   2.377678   0.3331344 
2606.800001502037 123.6652   2.373616   0.3288588 
2607.000001505017 123.152    2.373616   0.3305691 
2607.200001507998 122.6467   2.371383   0.3228729 
2607.400001510978 125.1259   2.402554   0.3143216 
2607.600001513958 125.8523   2.393111   0.3109011 
2607.800001516938 124.0126   2.373413   0.3297139 
2608.000001519918 123.8784   2.31168    0.3459614 
2608.200001522899 127.8972   2.279697   0.3451062 
2608.400001525879 131.4423   2.337064   0.3536575 
2608.600001528859 128.7263   2.399914   0.3451062 
2608.800001531839 127.7946   2.438599   0.3322793 
2609.00000153482 131.5213   2.489264   0.3262934 
2609.2000015378 136.1718   2.473628   0.3083358 
2609.40000154078 141.4934   2.494037   0.2792614 
2609.60000154376 142.5514   2.428141   0.2467666 
2609.800001546741 121.4308   2.393314   0.2125615 
2610.000001549721 87.25883   2.388948   0.1843423 
2610.200001552701 64.48805   2.423775   0.1655295 
2610.400001555681 55.25815   2.546226   0.1475718 
2610.600001558661 46.09142   2.69203    0.1296141 
2610.800001561642 36.75098   2.78067    0.1142218 
2611.000001564622 31.12145   2.838037   0.1039603 
2611.200001567602 27.97112   2.827782   0.09882955
2611.400001570582 26.20252   2.797321   0.09284366
2611.600001573563 26.24989   2.721576   0.09455391
2611.800001576543 28.39748   2.659335   0.1013949 
2612.000001579523 30.56086   2.606943   0.1099462 
2612.200001582503 32.77951   2.510079   0.1296141 
2612.400001585484 35.16397   2.460124   0.1569782 
2612.600001588464 37.42999   2.455149   0.1740807 
2612.800001591444 37.78529   2.475557   0.182632  
2613.000001594424 37.67476   2.464084   0.1937487 
2613.200001597404 37.80898   2.480228   0.2125615 
2613.400001600385 37.74582   2.497692   0.2236781 
2613.600001603365 38.63012   2.46713    0.215982  
2613.800001606345 39.30913   2.464389   0.2057205 
2614.000001609325 39.16702   2.487437   0.2057205 
2614.200001612306 38.4959    2.561761   0.2065756 
2614.400001615286 40.84087   2.594759   0.2117064 
2614.600001618266 42.09626   2.594759   0.2074307 
2614.800001621246 43.628     2.62522    0.209141  
2615.000001624227 45.53872   2.531706   0.2245333 
2615.200001627207 46.20195   2.462155   0.2330845 
2615.400001630187 45.68874   2.374632   0.2339397 
2615.600001633167 46.67568   2.235022   0.2459114 
2615.800001636147 50.25237   2.14364    0.2724204 
2616.000001639128 55.90558   2.070941   0.2955089 
2616.200001642108 54.95811   2.11389    0.263014  
2616.400001645088 43.25691   2.277463   0.2211128 
2616.600001648068 35.88246   2.322037   0.1963141 
2616.800001651049 35.47979   2.390674   0.1946038 
2617.000001654029 38.82751   2.461241   0.2023    
2617.200001657009 43.46219   2.413621   0.2040102 
2617.400001659989 49.47071   2.345999   0.2031551 
2617.60000166297 54.4528    2.280712   0.2099961 
2617.80000166595 55.02917   2.295029   0.2117064 
2618.00000166893 46.18616   2.375647   0.1920384 
2618.20000167191 35.95353   2.389862   0.16895   
2618.400001674891 29.55023   2.440833   0.1475718 
2618.600001677871 26.68414   2.516679   0.1296141 
2618.800001680851 27.20525   2.57232    0.1193526 
2619.000001683831 27.18946   2.58288    0.1142218 
2619.200001686811 27.6553    2.599024   0.1125116 
2619.400001689792 27.84479   2.598313   0.1099462 
2619.600001692772 29.26599   2.564096   0.1065257 
2619.800001695752 30.46612   2.630398   0.1099462 
2620.000001698732 30.24504   2.604405   0.1142218 
2620.200001701713 30.4977    2.566025   0.1184975 
2620.400001704693 31.31094   2.555669   0.1236282 
2620.600001707673 32.75583   2.517999   0.1330346 
2620.800001710653 33.32431   2.516273   0.1484269 
2621.000001713634 34.56391   2.460835   0.16895   
2621.200001716614 36.15881   2.4056     0.1937487 
2621.400001719594 36.8773    2.380927   0.209141  
2621.600001722574 39.1907    2.342344   0.2082859 
2621.800001725554 43.81749   2.345898   0.215982  
2622.000001728535 47.26785   2.342242   0.2322294 
2622.200001731515 46.9915    2.329957   0.2330845 
2622.400001734495 46.62041   2.370977   0.2270986 
2622.600001737475 46.80201   2.406412   0.2270986 
2622.800001740456 46.8257    2.395345   0.2339397 
2623.000001743436 50.0234    2.350873   0.2365051 
2623.200001746416 54.6265    2.335135   0.2339397 
2623.400001749396 57.26361   2.221619   0.2262435 
2623.600001752377 57.6426    2.111555   0.2168371 
2623.800001755357 57.2952    2.082313   0.2142717 
2624.000001758337 55.96085   2.033069   0.2134166 
2624.200001761317 52.6921    2.063834   0.2082859 
2624.400001764297 49.18647   2.211059   0.1971692 
2624.600001767278 45.0492    2.28721    0.1886179 
2624.800001770258 42.52262   2.415347   0.1783564 
2625.000001773238 41.44093   2.588769   0.162109  
2625.200001776218 42.14364   2.694873   0.1518475 
2625.400001779199 44.57547   2.676394   0.1535577 
2625.600001782179 45.17553   2.602171   0.155268  
2625.800001785159 43.69906   2.579428   0.1561231 
2626.000001788139 44.35439   2.58816    0.1612539 
2626.20000179112 45.84665   2.679541   0.1706602 
2626.4000017941 46.652     2.844738   0.1834872 
2626.60000179708 46.81781   2.939876   0.1877628 
2626.80000180006 49.09172   2.971961   0.1817769 
2627.000001803041 55.02128   3.066795   0.1732256 
2627.200001806021 67.76471   2.867685   0.1783564 
2627.400001809001 81.04502   2.399508   0.2040102 
2627.600001811981 88.46684   2.170039   0.2501871 
2627.800001814961 92.53305   2.140391   0.2980742 
2628.000001817942 93.03836   2.08475    0.3331344 
2628.200001820922 90.80392   1.883914   0.3690498 
2628.400001823902 88.1826    2.039973   0.350237  
2628.600001826882 85.92447   2.419713   0.2946537 
2628.800001829863 78.30527   2.53262    0.2570281 
2629.000001832843 69.39909   2.53262    0.2305191 
2629.200001835823 64.44858   2.507033   0.2202576 
2629.400001838803 63.06685   2.439716   0.2168371 
2629.600001841784 60.41394   2.447128   0.2151269 
2629.800001844764 59.41911   2.484696   0.2202576 
2630.000001847744 61.16402   2.4916     0.2202576 
2630.200001850724 63.05106   2.50287    0.2185474 
2630.400001853704 64.09328   2.497793   0.2253884 
2630.600001856685 61.5509    2.494545   0.229664  
2630.800001859665 60.8403    2.477284   0.2270986 
2631.000001862645 58.19529   2.432405   0.2194025 
2631.200001865625 51.57093   2.411083   0.2125615 
2631.400001868606 49.41544   2.355848   0.2134166 
2631.600001871586 50.93139   2.314726   0.215982  
2631.800001874566 50.79716   2.288226   0.2176923 
2632.000001877546 51.10509   2.279494   0.2117064 
2632.200001880527 51.22352   2.291881   0.2023    
