~Version
 VERS              .         2.0                           : CWLS LOG ASCII STANDARD - VERSION 2.0
 WRAP              .         NO                            : ONE LINE PER DEPTH STEP
 DLM               .         SPACE                         : DELIMITING CHARACTER(SPACE TAB OR COMMA)
~Well Information
#_______________________________________________________________________________
#
#PARAMETER_NAME    .UNIT     VALUE                         : DESCRIPTION
#_______________________________________________________________________________
STRT               .m        2505                          : First reference value
STOP               .m        2678.6                        : Last reference value
STEP               .m        0.2                           : Step increment
NULL               .         -9999                         : Missing value
COMP               .                                       : Company
WELL               .         501                           : Well name
FLD                .                                       : Field
LOC                .                                       : Location
PROV               .                                       : Province
SRVC               .                                       : Service Company
DATE               .         2021-05-13 14_16_42           : Date
UWI                .                                       : Unique Well ID
API                .                                       : API NUMBER
CNTY               .                                       : COUNTY
CTRY               .                                       : COUNTRY
EREF               .m        139.4                         : 
ORIGINALWELLNAME   .         501                           : 
PROJECT_UPGRADE_TIME .         2014-05-27T11_38_46           : 
Pad                .         Pad5                          : 
STAT               .                                       : STATE
X                  .m        230550                        : 
Y                  .m        242075                        : 
group              .         Pad5                          : 
Интер-р            .         Ярышев                        : 
Куст               .         5                             : 
Статус             .         Проверено                     : 
Тип                .         Нагнетательные                : 
~Parameter Information Block
#_______________________________________________________________________________
#
#PARAMETER_NAME    .UNIT     VALUE                         : DESCRIPTION
#_______________________________________________________________________________
SET                .         Gam                           : 
TLFamily_DEPT      .         Measured Depth                : 
TLFamily_GR_NORM   .         Gamma Ray                     : 
TLFamily_RHOB_NORM .         Bulk Density                  : 
TLFamily_RHOB_TL1  .         Bulk Density                  : 
TLFamily_SYNTH_Bulk_Density .         Bulk Density                  : 
TLFamily_SYNTH_Bulk_Density_MISFIT .                                       : 
TLFamily_TNPH_NORM .         Neutron Porosity              : 
~Curve Information
#_______________________________________________________________________________
#
#LOGNAME           .UNIT     LOG_ID                        : DESCRIPTION
#_______________________________________________________________________________
DEPT               .m                                      :  
GR_NORM            .gAPI                                   : Gamma Ray 
RHOB_NORM          .g/cm3                                  : Bulk Density 
RHOB_TL1           .g/cm3                                  :  
SYNTH_Bulk_Density .G/C3                                   : Bulk Density 
SYNTH_Bulk_Density_MISFIT .                                       : Synthetic Bulk Density Misfit 
TNPH_NORM          .v/v                                    : Thermal Neutron Porosity 
~Ascii
# ...
2586.6     111.7419   2.26447    2.413641   2.40724    0.14277    0.3359    
2586.8     103.2203   2.26773    2.502555   2.48875    0.22102    0.26933   
2587       93.09187   2.34573    2.485491   2.49024    0.14451    0.27851   
2587.2     93.70055000000001 2.37926    2.503451   2.49706    0.1178     0.26588   
2587.4     100.2662   2.34532    2.472312   2.46768    0.12237    0.29228   
2587.6     115.5725   2.31619    2.461138   2.44837    0.13217    0.30376   
2587.8     124.792    2.30388    2.428836   2.4102     0.10633    0.32787   
2588       124.3456   2.29172    2.400004   2.36398    0.07226    0.34853   
2588.2     124.0778   2.28062    2.454149   2.43479    0.15417    0.30606   
2588.4     112.7807   2.28715    2.485214   2.47013    0.18298    0.2831    
2588.6     103.7154   2.32215    2.490618   2.48064    0.15849    0.27966   
2588.8     98.79725000000001 2.33553    2.476068   2.47101    0.13548    0.28884   
2589       108.6335   2.30257    2.505595   2.48552    0.18295    0.26474   
2589.2     117.9667   2.28609    2.492507   2.47956    0.19347    0.27047   
2589.4     125.5143   2.27451    2.494043   2.47307    0.19856    0.24867   
2589.6     130.5055   2.25272    2.470379   2.45154    0.19882    0.27507   
2589.8     123.9317   2.22172    2.467451   2.44952    0.22779    0.29228   
2590       116.66     2.2156     2.451042   2.43802    0.22242    0.3118    
2590.2     123.1039   2.21454    2.451217   2.43216    0.21762    0.3095    
2590.4     123.5584   2.25068    2.445854   2.42635    0.17567    0.31409   
2590.6     123.2906   2.24987    2.473135   2.45556    0.2057     0.28654   
2590.8     121.2129   2.24554    2.43565    2.42109    0.17555    0.32327   
2591       128.3954   2.23714    2.444587   2.41859    0.18145    0.3118    
2591.2     126.3502   2.23943    2.422489   2.39251    0.15309    0.33246   
2591.4     122.6981   2.30249    2.418439   2.3939     0.09141    0.3359    
2591.6     112.4804   2.27108    2.376717   2.36866    0.09758    0.35656   
2591.8     123.2743   2.23127    2.34909    2.33023    0.09896    0.37722   
2592       129.0609   2.18403    2.343305   2.31229    0.12826    0.38296   
2592.2     150.8841   2.15066    2.296694   2.29333    0.14267    0.4151    
2592.4     160.1036   2.13043    2.257946   2.28485    0.15442    0.43921   
2592.6     155.9321   2.1567     2.263385   2.29004    0.13334    0.43461   
2592.8     138.8647   2.23983    2.355363   2.30059    0.06076    0.37837   
2593       121.3509   2.32142    2.448303   2.43007    0.10866    0.31294   
2593.2     113.5679   2.32476    2.44952    2.43812    0.11336    0.31294   
2593.4     115.3777   2.30322    2.462558   2.44859    0.14536    0.30261   
2593.6     116.798    2.29547    2.460795   2.44724    0.15177    0.30376   
2593.8     114.136    2.30086    2.413633   2.40207    0.10121    0.33705   
2594       126.4395   2.32215    2.459574   2.43735    0.1152     0.29802   
2594.2     123.1202   2.33169    2.457262   2.43884    0.10714    0.30376   
2594.4     113.0972   2.35943    2.509663   2.48544    0.12601    0.25555   
2594.6     106.7182   2.38954    2.51519    2.48917    0.09963    0.25555   
2594.8     108.4306   2.40912    2.536487   2.49067    0.08155    0.22456   
2595       111.2874   2.47234    2.541104   2.49062    0.01828    0.2062    
2595.2     116.2461   2.53573    2.508188   2.48499    -0.05074   0.25211   
2595.4     121.9109   2.49249    2.493681   2.47554    -0.01696   0.26129   
2595.6     124.7108   2.53157    2.495125   2.47428    -0.05729   0.24981   
2595.8     127.4053   2.54691    2.479412   2.46647    -0.08044   0.26933   
2596       130.6922   2.48156    2.440069   2.40925    -0.07231   0.31409   
2596.2     116.9684   2.45709    2.451      2.4372     -0.01989   0.3118    
2596.4     108.0492   2.47446    2.516257   2.48854    0.01407    0.25326   
2596.6     110.4758   2.52407    2.524309   2.48882    -0.03525   0.23948   
2596.8     110.9141   2.52464    2.499876   2.48433    -0.04031   0.26933   
2597       112.7563   2.50489    2.510035   2.48591    -0.01898   0.25555   
2597.2     112.2369   2.53859    2.51739    2.48654    -0.05205   0.24637   
2597.4     113.0485   2.53386    2.514773   2.48584    -0.04802   0.24867   
2597.6     112.4074   2.55034    2.512166   2.48636    -0.06398   0.25326   
2597.8     119.0866   2.54161    2.481637   2.46732    -0.07429   0.28195   
2598       122.268    2.49217    2.359225   2.33764    -0.15453   0.37148   
2598.2     118.8918   2.4827     2.414341   2.39518    -0.08753   0.3382    
2598.4     118.3481   2.47708    2.431113   2.4236     -0.05347   0.32672   
2598.6     112.7158   2.48621    2.3725     2.36761    -0.1186    0.35886   
2598.8     112.5534   2.50848    2.441208   2.43456    -0.07392   0.31868   
2599       116.8304   2.50498    2.489876   2.47583    -0.02914   0.27507   
2599.2     111.7581   2.4734     2.505409   2.48414    0.01074    0.26244   
2599.4     111.6769   2.44844    2.524983   2.48806    0.03962    0.23604   
2599.6     108.0735   2.44616    2.513272   2.48802    0.04187    0.2567    
2599.8     92.88898   2.50938    2.5474     2.50193    -0.00745   0.22571   
2600       84.57034   2.605      2.567139   2.50306    -0.10194   0.2039    
2600.2     71.42282   2.67826    2.504678   2.48925    -0.18901   0.24178   
2600.4     78.51598   2.55229    2.466971   2.49235    -0.05994   0.27392   
2600.6     106.8562   2.48703    2.469536   2.45884    -0.02818   0.29688   
2600.8     121.0263   2.49511    2.357953   2.33926    -0.15585   0.37148   
2601       119.9063   2.5133     2.376364   2.35258    -0.16072   0.36115   
2601.2     118.9324   2.49641    2.45056    2.43501    -0.0614    0.3118    
2601.4     117.9829   2.48458    2.501063   2.48266    -0.00192   0.259     
2601.6     117.5527   2.47854    2.509875   2.48386    0.00532    0.24637   
2601.8     113.1053   2.48319    2.475154   2.45951    -0.02368   0.29228   
2602       111.5877   2.51387    2.444154   2.43672    -0.07715   0.31639   
2602.2     108.2764   2.5208     2.44061    2.4385     -0.0823    0.31754   
2602.4     108.0898   2.51623    2.477117   2.46386    -0.05238   0.29114   
2602.6     110.2161   2.49282    2.47572    2.46181    -0.03101   0.29228   
2602.8     106.2232   2.46941    2.469335   2.45884    -0.01056   0.29687   
2603       106.6939   2.48197    2.482643   2.46934    -0.01263   0.28654   
2603.2     105.8823   2.52203    2.511388   2.48846    -0.03357   0.26014   
2603.4     113.3001   2.47993    2.511154   2.48566    0.00573    0.25326   
2603.6     117.5852   2.45864    2.455113   2.44222    -0.01642   0.30835   
2603.8     114.0386   2.43889    2.452623   2.44041    0.00151    0.31065   
2604       116.9765   2.42462    2.486702   2.4735     0.04888    0.27851   
2604.2     117.3742   2.42902    2.520422   2.48641    0.05738    0.22686   
2604.4     113.5841   2.45129    2.531271   2.48809    0.03679    0.21882   
2604.6     117.22     2.42617    2.497866   2.48124    0.05507    0.26474   
2604.8     118.5266   2.44738    2.383484   2.36453    -0.08285   0.35656   
2605       112.8294   2.47626    2.473926   2.459      -0.01726   0.29343   
2605.2     118.9081   2.48752    2.488648   2.47522    -0.0123    0.27392   
2605.4     119.046    2.47667    2.480649   2.46557    -0.01109   0.2831    
2605.6     120.7666   2.4743     2.475878   2.45791    -0.01639   0.28654   
2605.8     124.2807   2.43963    2.490393   2.47216    0.03253    0.26014   
2606       121.2048   2.42731    2.504201   2.47895    0.05164    0.24522   
2606.2     123.4204   2.42062    2.479411   2.46485    0.04423    0.27851   
2606.4     124.6216   2.4074     2.446465   2.42452    0.01712    0.31294   
2606.6     122.1057   2.44273    2.46385    2.44566    0.00293    0.29802   
2606.8     121.781    2.50628    2.466364   2.44724    -0.05904   0.29573   
2607       119.5249   2.55229    2.471601   2.45519    -0.0971    0.29228   
2607.2     113.9737   2.56453    2.482219   2.46552    -0.09901   0.2854    
