~Version
 VERS              .         2.0                           : CWLS LOG ASCII STANDARD - VERSION 2.0
 WRAP              .         NO                            : ONE LINE PER DEPTH STEP
 DLM               .         SPACE                         : DELIMITING CHARACTER(SPACE TAB OR COMMA)
~Well Information
#_______________________________________________________________________________
#
#PARAMETER_NAME    .UNIT     VALUE                         : DESCRIPTION
#_______________________________________________________________________________
STRT               .m        2505                          : First reference value
STOP               .m        2678.6                        : Last reference value
STEP               .m        0.2                           : Step increment
NULL               .         -9999                         : Missing value
COMP               .                                       : Company
WELL               .         501                           : Well name
FLD                .                                       : Field
LOC                .                                       : Location
PROV               .                                       : Province
SRVC               .                                       : Service Company
DATE               .         2021-05-13 14_16_42           : Date
UWI                .                                       : Unique Well ID
API                .                                       : API NUMBER
CNTY               .                                       : COUNTY
CTRY               .                                       : COUNTRY
EREF               .m        139.4                         : 
ORIGINALWELLNAME   .         501                           : 
PROJECT_UPGRADE_TIME .         2014-05-27T11_38_46           : 
Pad                .         Pad5                          : 
STAT               .                                       : STATE
X                  .m        230550                        : 
Y                  .m        242075                        : 
group              .         Pad5                          : 
Интер-р            .         Ярышев                        : 
Куст               .         5                             : 
Статус             .         Проверено                     : 
Тип                .         Нагнетательные                : 
~Parameter Information Block
#_______________________________________________________________________________
#
#PARAMETER_NAME    .UNIT     VALUE                         : DESCRIPTION
#_______________________________________________________________________________
SET                .         Gam                           : 
TLFamily_DEPT      .         Measured Depth                : 
TLFamily_GR_NORM   .         Gamma Ray                     : 
TLFamily_RHOB_NORM .         Bulk Density                  : 
TLFamily_RHOB_TL1  .         Bulk Density                  : 
TLFamily_SYNTH_Bulk_Density .         Bulk Density                  : 
TLFamily_SYNTH_Bulk_Density_MISFIT .                                       : 
TLFamily_TNPH_NORM .         Neutron Porosity              : 
~Curve Information
#_______________________________________________________________________________
#
#LOGNAME           .UNIT     LOG_ID                        : DESCRIPTION
#_______________________________________________________________________________
DEPT               .m                                      :  
GR_NORM            .gAPI                                   : Gamma Ray 
RHOB_NORM          .g/cm3                                  : Bulk Density 
RHOB_TL1           .g/cm3                                  :  
SYNTH_Bulk_Density .G/C3                                   : Bulk Density 
SYNTH_Bulk_Density_MISFIT .                                       : Synthetic Bulk Density Misfit 
TNPH_NORM          .v/v                                    : Thermal Neutron Porosity 
~Ascii
# ...
2524.8     82.03010999999999 2.56714    2.56869    2.50264    -0.0645    0.20161   
2525       87.15114   2.54201    2.554721   2.50291    -0.0391    0.21768   
2525.2     95.06399999999999 2.53671    2.540739   2.50009    -0.03662   0.2326    
2525.4     94.92603   2.57138    2.522013   2.49935    -0.07203   0.25096   
2525.6     97.88017000000001 2.55197    2.504315   2.49304    -0.05893   0.26703   
2525.8     95.67268   2.55164    2.525888   2.49831    -0.05333   0.24752   
2526       93.64375   2.5288     2.527984   2.49999    -0.02881   0.24522   
2526.2     94.87733   2.48458    2.53179    2.50048    0.0159     0.24178   
2526.4     92.66985   2.47985    2.539744   2.50157    0.02172    0.23374   
2526.6     92.35333   2.49543    2.535014   2.5018     0.00637    0.23834   
2526.8     93.91155999999999 2.48556    2.506536   2.49685    0.01129    0.26359   
2527       95.7863    2.52358    2.534085   2.49949    -0.02409   0.23948   
2527.2     94.42285   2.52806    2.515256   2.49896    -0.0291    0.2567    
2527.4     95.19386   2.52594    2.508714   2.49635    -0.02959   0.26244   
2527.6     95.28312   2.52129    2.515602   2.49832    -0.02297   0.2567    
2527.8     93.37591999999999 2.4836     2.498635   2.49721    0.01361    0.26933   
2528       94.68256   2.52912    2.501162   2.49677    -0.03236   0.26818   
2528.2     91.8177    2.55327    2.506474   2.4985     -0.05478   0.26244   
2528.4     88.16561   2.54911    2.55158    2.50233    -0.04678   0.22112   
2528.6     91.29018000000001 2.53794    2.55582    2.50275    -0.03519   0.21653   
2528.8     92.79971   2.55034    2.525185   2.50039    -0.04994   0.24752   
2529       92.61304   2.53924    2.541994   2.50207    -0.03717   0.23145   
2529.2     90.05658   2.54732    2.526534   2.50138    -0.04593   0.24522   
2529.4     96.45990999999999 2.53867    2.543495   2.49853    -0.04014   0.22915   
2529.6     97.09294   2.56086    2.524781   2.496      -0.06486   0.24867   
2529.8     93.83852   2.58142    2.503551   2.49706    -0.08436   0.26588   
2530       93.91155999999999 2.50302    2.484704   2.48889    -0.01413   0.27966   
2530.2     94.61763000000001 2.5124     2.512604   2.49857    -0.01383   0.259     
2530.4     97.33641   2.55792    2.518687   2.49572    -0.0622    0.25441   
2530.6     96.24890000000001 2.5474     2.496229   2.49186    -0.05554   0.27277   
2530.8     94.20374   2.52586    2.458361   2.46948    -0.05638   0.29688   
2531       89.72384   2.58158    2.440309   2.46498    -0.11661   0.30261   
2531.2     92.22349   2.59145    2.368161   2.40167    -0.18978   0.34049   
2531.4     98.86217000000001 2.57612    2.43399    2.44251    -0.13361   0.31524   
2531.6     91.95567   2.54438    2.377794   2.41617    -0.12821   0.3359    
2531.8     90.86004   2.5651     2.397356   2.44065    -0.12445   0.32557   
2532       90.73018999999999 2.54177    2.497682   2.49846    -0.04331   0.26818   
2532.2     87.50823   2.56013    2.472175   2.48742    -0.0727    0.28195   
2532.4     84.01035   2.56339    2.426564   2.46452    -0.09887   0.30261   
2532.6     83.36108   2.55205    2.43397    2.46999    -0.08206   0.29802   
2532.8     84.61903   2.53655    2.376167   2.43683    -0.09972   0.32672   
2533       82.5414    2.55262    2.407962   2.45655    -0.09607   0.3095    
2533.2     80.2771    2.53329    2.448068   2.48021    -0.05307   0.28654   
2533.4     87.55692999999999 2.54846    2.424315   2.45947    -0.08899   0.30835   
2533.6     86.33145   2.56657    2.36306    2.41687    -0.1497    0.33475   
2533.8     90.27571   2.5731     2.395801   2.44078    -0.13232   0.32557   
2534       88.31981   2.5691     2.445797   2.46988    -0.09922   0.29802   
2534.2     91.88263000000001 2.58843    2.48236    2.49003    -0.0984    0.27966   
2534.4     93.93591000000001 2.60973    2.470911   2.47738    -0.13234   0.28884   
2534.6     93.9846    2.62433    2.49131    2.49195    -0.13238   0.27507   
2534.8     97.32017999999999 2.60655    2.517435   2.49572    -0.11082   0.25555   
2535       94.65009000000001 2.61789    2.509841   2.49749    -0.1204    0.26129   
2535.2     91.84205   2.68821    2.492397   2.49565    -0.19256   0.27277   
2535.4     85.12220000000001 2.63632    2.493666   2.49872    -0.1376    0.26588   
2535.6     86.72101000000001 2.57024    2.494332   2.49872    -0.07152   0.26703   
2535.8     88.37662   2.56967    2.529541   2.50178    -0.06789   0.24178   
2536       89.86991999999999 2.574      2.525074   2.50108    -0.07291   0.24637   
2536.2     83.61268   2.57408    2.491188   2.49843    -0.07565   0.26588   
2536.4     81.12926   2.60402    2.511233   2.49999    -0.10403   0.24981   
2536.6     76.23545   2.62857    2.469447   2.49394    -0.13463   0.26933   
2536.8     84.52975000000001 2.63575    2.44359    2.47346    -0.1623    0.29458   
2537       88.53082000000001 2.57171    2.46048    2.47736    -0.09435   0.28999   
2537.2     89.08269   2.54707    2.451492   2.4715     -0.07557   0.29573   
2537.4     90.05658   2.60638    2.416687   2.44934    -0.15705   0.31524   
2537.6     82.45213   2.63665    2.382103   2.4441     -0.19255   0.32098   
2537.8     82.77676   2.63241    2.450114   2.47909    -0.15332   0.28884   
2538       84.82192000000001 2.60907    2.489647   2.49872    -0.11036   0.26818   
2538.2     88.07634   2.57555    2.504342   2.49917    -0.07637   0.26129   
2538.4     84.78134   2.5558     2.465008   2.486      -0.0698    0.2831    
2538.6     82.90661   2.50179    2.462985   2.48753    -0.01426   0.28195   
2538.8     90.04846999999999 2.52023    2.506421   2.49918    -0.02106   0.26129   
2539       92.4913    2.57212    2.504008   2.498      -0.07412   0.26474   
2539.2     89.99166   2.55042    2.434429   2.46082    -0.0896    0.30606   
2539.4     92.01246999999999 2.52129    2.434368   2.45934    -0.06196   0.30835   
2539.6     93.64375   2.53018    2.482733   2.48814    -0.04205   0.28081   
2539.8     96.50049   2.50049    2.496394   2.49186    -0.00863   0.27277   
2540       97.26336999999999 2.47259    2.546078   2.49778    0.02519    0.22571   
2540.2     93.14868   2.49861    2.507483   2.49764    -0.00097   0.26244   
2540.4     90.14586   2.5217     2.522507   2.50108    -0.02062   0.24867   
2540.6     96.61411   2.54373    2.519837   2.4969     -0.04683   0.25326   
2540.8     96.21643   2.55123    2.48367    2.48308    -0.06816   0.28195   
2541       96.99554999999999 2.57041    2.46212    2.46638    -0.10402   0.29688   
2541.2     93.53012   2.56755    2.463033   2.47339    -0.09416   0.29343   
2541.4     95.10458   2.56225    2.485898   2.48815    -0.07409   0.27966   
2541.6     97.79089   2.52382    2.488093   2.48476    -0.03906   0.27966   
2541.8     100.8505   2.51705    2.474369   2.46833    -0.04872   0.29114   
2542       100.9155   2.5403     2.499714   2.4886     -0.0517    0.27162   
2542.2     98.6187    2.56771    2.528125   2.49478    -0.07293   0.24522   
2542.4     98.09929   2.56127    2.524759   2.49523    -0.06603   0.24867   
2542.6     93.26231   2.57138    2.496993   2.4965     -0.07489   0.27047   
2542.8     89.95919000000001 2.64163    2.485057   2.49344    -0.14819   0.27621   
2543       85.55235   2.64163    2.506062   2.50065    -0.14097   0.25785   
2543.2     90.21889   2.6258     2.512592   2.50059    -0.12521   0.2567    
2543.4     90.93307   2.61405    2.504175   2.49833    -0.11572   0.26359   
2543.6     90.90873999999999 2.60263    2.517435   2.50078    -0.10185   0.25326   
2543.8     89.84557   2.558      2.529068   2.5016     -0.0564    0.24293   
2544       90.94119999999999 2.54903    2.486338   2.49332    -0.05571   0.27621   
2544.2     90.50294   2.55091    2.452199   2.47105    -0.07985   0.29687   
2544.4     83.69383000000001 2.56404    2.48588    2.49816    -0.06588   0.26933   
2544.6     75.22099   2.60695    2.509299   2.49447    -0.11249   0.24408   
2544.8     76.73863   2.64261    2.546366   2.49884    -0.14376   0.21882   
2545       74.91258000000001 2.64619    2.51565    2.49417    -0.15202   0.23948   
