~Version
 VERS              .         2.0                           : CWLS LOG ASCII STANDARD - VERSION 2.0
 WRAP              .         NO                            : ONE LINE PER DEPTH STEP
 DLM               .         SPACE                         : DELIMITING CHARACTER(SPACE TAB OR COMMA)
~Well Information
#_______________________________________________________________________________
#
#PARAMETER_NAME    .UNIT     VALUE                         : DESCRIPTION
#_______________________________________________________________________________
STRT               .m        2505                          : First reference value
STOP               .m        2678.6                        : Last reference value
STEP               .m        0.2                           : Step increment
NULL               .         -9999                         : Missing value
COMP               .                                       : Company
WELL               .         501                           : Well name
FLD                .                                       : Field
LOC                .                                       : Location
PROV               .                                       : Province
SRVC               .                                       : Service Company
DATE               .         2021-05-13 14_16_42           : Date
UWI                .                                       : Unique Well ID
API                .                                       : API NUMBER
CNTY               .                                       : COUNTY
CTRY               .                                       : COUNTRY
EREF               .m        139.4                         : 
ORIGINALWELLNAME   .         501                           : 
PROJECT_UPGRADE_TIME .         2014-05-27T11_38_46           : 
Pad                .         Pad5                          : 
STAT               .                                       : STATE
X                  .m        230550                        : 
Y                  .m        242075                        : 
group              .         Pad5                          : 
Интер-р            .         Ярышев                        : 
Куст               .         5                             : 
Статус             .         Проверено                     : 
Тип                .         Нагнетательные                : 
~Parameter Information Block
#_______________________________________________________________________________
#
#PARAMETER_NAME    .UNIT     VALUE                         : DESCRIPTION
#_______________________________________________________________________________
SET                .         Gam                           : 
TLFamily_DEPT      .         Measured Depth                : 
TLFamily_GR_NORM   .         Gamma Ray                     : 
TLFamily_RHOB_NORM .         Bulk Density                  : 
TLFamily_RHOB_TL1  .         Bulk Density                  : 
TLFamily_SYNTH_Bulk_Density .         Bulk Density                  : 
TLFamily_SYNTH_Bulk_Density_MISFIT .                                       : 
TLFamily_TNPH_NORM .         Neutron Porosity              : 
~Curve Information
#_______________________________________________________________________________
#
#LOGNAME           .UNIT     LOG_ID                        : DESCRIPTION
#_______________________________________________________________________________
DEPT               .m                                      :  
GR_NORM            .gAPI                                   : Gamma Ray 
RHOB_NORM          .g/cm3                                  : Bulk Density 
RHOB_TL1           .g/cm3                                  :  
SYNTH_Bulk_Density .G/C3                                   : Bulk Density 
SYNTH_Bulk_Density_MISFIT .                                       : Synthetic Bulk Density Misfit 
TNPH_NORM          .v/v                                    : Thermal Neutron Porosity 
~Ascii
# ...
2649       42.1493    1.66133    1.684621   1.74148    0.08015    0.48397   
2649.2     27.49225   1.6207     1.541491   1.70286    0.08215    0.59301   
2649.4     17.68031   1.61638    1.531823   1.70213    0.08575    0.57924   
2649.6     18.3458    1.63343    1.588298   1.70835    0.07491    0.47479   
2649.8     25.24419   1.64412    1.58076    1.70286    0.05874    0.50807   
2650       33.20575   1.66378    1.706331   1.71241    0.04863    0.44954   
2650.2     37.95346   1.67781    1.808176   1.76153    0.08372    0.41969   
2650.4     43.56956   1.70449    1.797355   1.77391    0.06942    0.43806   
2650.6     57.25271   1.86129    2.038367   1.90995    0.04866    0.38985   
2650.8     66.6751    1.98823    2.205415   2.17838    0.19015    0.35771   
2651       75.78098   2.28992    2.459739   2.48895    0.19903    0.27392   
2651.2     85.40625   2.48401    2.483407   2.49638    0.01237    0.27277   
2651.4     85.11408   2.42894    2.503831   2.50046    0.07152    0.259     
2651.6     92.4913    2.36082    2.433189   2.45754    0.09672    0.3095    
2651.8     88.68501999999999 2.27769    2.422525   2.4564     0.17871    0.31065   
2652       78.88930999999999 2.10857    2.408678   2.45945    0.35088    0.30376   
2652.2     76.28415   2.01279    2.207402   2.24589    0.2331     0.37493   
2652.4     69.3533    1.98872    2.217863   2.218      0.22927    0.35886   
2652.6     76.84414   2.30844    2.468963   2.49374    0.18529    0.27047   
2652.8     83.6776    2.49641    2.554683   2.50285    0.00644    0.21653   
2653       85.82016   2.574      2.575813   2.50406    -0.06993   0.19357   
2653.2     84.91931   2.55702    2.565105   2.50319    -0.05383   0.2062    
2653.4     87.63809000000001 2.57661    2.555901   2.50287    -0.07374   0.21653   
2653.6     87.55692999999999 2.60589    2.517618   2.50104    -0.10486   0.25096   
2653.8     84.58656000000001 2.5629     2.54285    2.50236    -0.06053   0.22801   
2654       76.84414   2.54128    2.525611   2.49808    -0.0432    0.23489   
2654.2     73.01349999999999 2.53386    2.485533   2.49133    -0.04253   0.25555   
2654.4     62.84447   2.51419    2.488902   2.47662    -0.03758   0.23719   
2654.6     63.04736   2.4898     2.520718   2.47897    -0.01083   0.21882   
2654.8     60.39351   2.48719    2.51532    2.47815    -0.00905   0.21768   
2655       58.63239   2.52611    2.519704   2.47463    -0.05147   0.21194   
2655.2     64.26472   2.60035    2.539226   2.47987    -0.12048   0.20849   
2655.4     71.12253   2.60695    2.492504   2.48652    -0.12043   0.24867   
2655.6     70.91964   2.57228    2.490019   2.48652    -0.08576   0.24981   
2655.8     69.36141000000001 2.56469    2.505302   2.48431    -0.08038   0.23834   
2656       79.92812000000001 2.5363     2.523905   2.50013    -0.03617   0.23948   
2656.2     86.65608   2.51477    2.516733   2.5013     -0.01346   0.25096   
2656.4     99.00826000000001 2.57848    2.533423   2.495      -0.08348   0.23948   
2656.6     99.6981    2.60002    2.528952   2.49403    -0.10598   0.24408   
2656.8     90.12962   2.63273    2.500246   2.49846    -0.13428   0.26588   
2657       89.42355000000001 2.65892    2.526157   2.50138    -0.15754   0.24522   
2657.2     80.36638000000001 2.65142    2.510027   2.49945    -0.15197   0.24981   
2657.4     71.92599   2.59986    2.465913   2.48631    -0.11355   0.26474   
2657.6     62.99055   2.62107    2.46325    2.47573    -0.14534   0.25096   
2657.8     63.34764   2.59757    2.484224   2.47666    -0.12091   0.24063   
2658       68.97186000000001 2.55956    2.442776   2.47819    -0.08136   0.27162   
2658.2     72.03962   2.55719    2.484982   2.48873    -0.06846   0.25441   
2658.4     66.85365   2.58713    2.471924   2.47834    -0.10879   0.25326   
2658.6     63.14475   2.52921    2.517295   2.47851    -0.0507    0.22112   
2658.8     61.059     2.4978     2.5172     2.47844    -0.01935   0.21768   
2659       62.94186   2.48572    2.478606   2.47634    -0.00938   0.24293   
2659.2     67.87623000000001 2.50228    2.413941   2.4621     -0.04018   0.2831    
2659.4     71.34166   2.4433     2.468496   2.48535    0.04205    0.26244   
2659.6     72.59959000000001 2.43025    2.404006   2.45518    0.02493    0.29573   
2659.8     80.39072   2.3959     2.388153   2.4426     0.0467     0.31524   
2660       92.6942    2.42299    2.372129   2.40432    -0.01867   0.33934   
2660.2     97.24714   2.48931    2.418627   2.44008    -0.04924   0.32213   
2660.4     97.06047   2.54112    2.498217   2.49254    -0.04858   0.27162   
2660.6     91.22525   2.54609    2.508983   2.49977    -0.04632   0.26014   
2660.8     78.10208   2.54356    2.557079   2.50022    -0.04334   0.21079   
2661       78.92177   2.53777    2.563833   2.50074    -0.03703   0.20505   
2661.2     82.22488   2.50008    2.542371   2.50206    0.00198    0.22686   
2661.4     70.46516   2.58949    2.500488   2.48517    -0.10432   0.24293   
2661.6     62.94186   2.59586    2.53456    2.47921    -0.11665   0.20964   
2661.8     54.65567   2.62303    2.546352   2.47112    -0.15191   0.18783   
2662       49.5671    2.71285    2.55473    2.48088    -0.23197   0.17291   
2662.2     51.43372   2.68022    2.586555   2.51998    -0.16023   0.15225   
2662.4     56.24636   2.65403    2.577756   2.49544    -0.15859   0.16717   
2662.6     67.80319   2.58697    2.584091   2.49466    -0.09231   0.17635   
2662.8     77.185     2.5598     2.567386   2.49963    -0.06017   0.20046   
2663       79.37625   2.56004    2.538123   2.50035    -0.0597    0.22801   
2663.2     87.87344   2.60907    2.485579   2.49511    -0.11396   0.27392   
2663.4     97.02800999999999 2.54968    2.525969   2.49683    -0.05285   0.24752   
2663.6     92.08552   2.53255    2.540828   2.5019     -0.03065   0.2326    
2663.8     89.39921   2.53271    2.484284   2.49344    -0.03927   0.27621   
2664       86.9726    2.39068    2.403846   2.44882    0.05814    0.31754   
2664.2     68.16028   2.24187    2.371835   2.41922    0.17734    0.30147   
2664.4     50.58157   2.32533    2.458164   2.46236    0.13703    0.22915   
2664.6     49.76188   2.38937    2.516781   2.46523    0.07585    0.19701   
2664.8     54.88292   2.43441    2.495696   2.46834    0.03394    0.21882   
2665       58.0724    2.46386    2.508367   2.47307    0.00922    0.21768   
2665.2     60.52336   2.46125    2.487645   2.47567    0.01442    0.23374   
2665.4     62.47926   2.44346    2.50789    2.47827    0.0348     0.22571   
2665.6     66.58582   2.45782    2.51509    2.48102    0.0232     0.22801   
2665.8     71.78802   2.45309    2.503674   2.48952    0.03643    0.24293   
2666       71.25239000000001 2.43408    2.525462   2.48998    0.0559     0.22801   
2666.2     78.0128    2.44452    2.48766    2.49653    0.052      0.26129   
2666.4     80.24464   2.4889     2.465008   2.48968    0.00077    0.27736   
2666.6     79.05162   2.53704    2.528858   2.49969    -0.03735   0.23489   
2666.8     80.2771    2.51917    2.563475   2.5013     -0.01787   0.2062    
2667       89.33428000000001 2.52488    2.57548    2.50375    -0.02113   0.19242   
2667.2     99.25984   2.56714    2.554207   2.49615    -0.071     0.21308   
2667.4     99.8036    2.56469    2.553712   2.49601    -0.06868   0.21308   
2667.6     98.6187    2.55393    2.53355    2.49566    -0.05827   0.23948   
2667.8     94.65821   2.52358    2.550995   2.50128    -0.0223    0.22112   
2668       88.11691999999999 2.49078    2.555955   2.50287    0.01209    0.21653   
2668.2     78.45106   2.50204    2.503229   2.49825    -0.00379   0.25211   
2668.4     78.50787   2.46402    2.505096   2.49839    0.03437    0.25096   
2668.6     75.61054   2.46125    2.528396   2.49532    0.03407    0.23145   
2668.8     69.99444   2.50498    2.489526   2.48409    -0.02088   0.24867   
2669       68.91504999999999 2.53271    2.407756   2.45563    -0.07708   0.28769   
2669.2     68.70404000000001 2.53084    2.398968   2.45006    -0.08077   0.29114   
2669.4     66.16381   2.50604    2.362521   2.40432    -0.10172   0.30147   
