~Version
 VERS              .         2.0                           : CWLS LOG ASCII STANDARD - VERSION 2.0
 WRAP              .         NO                            : ONE LINE PER DEPTH STEP
 DLM               .         SPACE                         : DELIMITING CHARACTER(SPACE TAB OR COMMA)
~Well Information
#_______________________________________________________________________________
#
#PARAMETER_NAME    .UNIT     VALUE                         : DESCRIPTION
#_______________________________________________________________________________
STRT               .m        2505                          : First reference value
STOP               .m        2678.6                        : Last reference value
STEP               .m        0.2                           : Step increment
NULL               .         -9999                         : Missing value
COMP               .                                       : Company
WELL               .         501                           : Well name
FLD                .                                       : Field
LOC                .                                       : Location
PROV               .                                       : Province
SRVC               .                                       : Service Company
DATE               .         2021-05-13 14_16_42           : Date
UWI                .                                       : Unique Well ID
API                .                                       : API NUMBER
CNTY               .                                       : COUNTY
CTRY               .                                       : COUNTRY
EREF               .m        139.4                         : 
ORIGINALWELLNAME   .         501                           : 
PROJECT_UPGRADE_TIME .         2014-05-27T11_38_46           : 
Pad                .         Pad5                          : 
STAT               .                                       : STATE
X                  .m        230550                        : 
Y                  .m        242075                        : 
group              .         Pad5                          : 
Интер-р            .         Ярышев                        : 
Куст               .         5                             : 
Статус             .         Проверено                     : 
Тип                .         Нагнетательные                : 
~Parameter Information Block
#_______________________________________________________________________________
#
#PARAMETER_NAME    .UNIT     VALUE                         : DESCRIPTION
#_______________________________________________________________________________
SET                .         Gam                           : 
TLFamily_DEPT      .         Measured Depth                : 
TLFamily_GR_NORM   .         Gamma Ray                     : 
TLFamily_RHOB_NORM .         Bulk Density                  : 
TLFamily_RHOB_TL1  .         Bulk Density                  : 
TLFamily_SYNTH_Bulk_Density .         Bulk Density                  : 
TLFamily_SYNTH_Bulk_Density_MISFIT .                                       : 
TLFamily_TNPH_NORM .         Neutron Porosity              : 
~Curve Information
#_______________________________________________________________________________
#
#LOGNAME           .UNIT     LOG_ID                        : DESCRIPTION
#_______________________________________________________________________________
DEPT               .m                                      :  
GR_NORM            .gAPI                                   : Gamma Ray 
RHOB_NORM          .g/cm3                                  : Bulk Density 
RHOB_TL1           .g/cm3                                  :  
SYNTH_Bulk_Density .G/C3                                   : Bulk Density 
SYNTH_Bulk_Density_MISFIT .                                       : Synthetic Bulk Density Misfit 
TNPH_NORM          .v/v                                    : Thermal Neutron Porosity 
~Ascii
# ...
2628.2     34.5773    2.33308    2.425737   2.45063    0.11754    0.20734   
2628.4     37.8723    2.34189    2.446658   2.45479    0.1129     0.2062    
2628.6     39.78762   2.35951    2.382249   2.45194    0.09242    0.23719   
2628.8     39.80385   2.36759    2.441207   2.45687    0.08928    0.21308   
2629       41.2728    2.38945    2.513968   2.46736    0.0779     0.18094   
2629.2     40.07978   2.37942    2.465485   2.45823    0.07881    0.20275   
2629.4     46.97817   2.47846    2.47799    2.46032    -0.01814   0.21194   
2629.6     52.54558   2.59692    2.547559   2.47186    -0.12506   0.18324   
2629.8     51.37691   2.61201    2.590516   2.53036    -0.08165   0.14881   
2630       41.21599   2.64407    2.610032   2.56305    -0.08103   0.11437   
2630.2     26.34793   2.69449    2.58007    2.58479    -0.1097    0.10748   
2630.4     19.26288   2.74646    2.581368   2.58513    -0.16133   0.09027   
2630.6     22.29006   2.74091    2.554659   2.57028    -0.17064   0.11437   
2630.8     32.4104    2.72435    2.577803   2.5682     -0.15615   0.12241   
2631       48.90972   2.64799    2.573854   2.50299    -0.145     0.15799   
2631.2     66.95914999999999 2.5988     2.472261   2.47834    -0.12046   0.25326   
2631.4     79.17336   2.53394    2.412108   2.46067    -0.07327   0.30261   
2631.6     88.29546000000001 2.53557    2.493101   2.49818    -0.03739   0.26933   
2631.8     89.85369   2.47503    2.506233   2.49918    0.02414    0.26129   
2632       95.5266    2.47202    2.483028   2.48438    0.01236    0.28195   
2632.2     102.9444   2.47365    2.523464   2.49196    0.01831    0.24867   
2632.4     100.2662   2.46647    2.533933   2.49477    0.0283     0.23834   
2632.6     103.9426   2.45701    2.479138   2.46819    0.01118    0.28884   
2632.8     113.7302   2.45774    2.457083   2.44468    -0.01306   0.30721   
2633       112.2775   2.4256     2.398099   2.38687    -0.03872   0.34508   
2633.2     111.401    2.42209    2.447383   2.439      0.01691    0.31409   
2633.4     98.03436000000001 2.48156    2.517525   2.49496    0.0134     0.25555   
2633.6     73.17582   2.47348    2.530676   2.49297    0.01949    0.22686   
2633.8     64.82471   2.46941    2.506763   2.47835    0.00895    0.2303    
2634       62.34129   2.46737    2.513237   2.47837    0.011      0.22227   
2634.2     60.15815   2.4978     2.506896   2.47596    -0.02183   0.22227   
2634.4     58.5837    2.47724    2.451054   2.46816    -0.00908   0.24867   
2634.6     58.47819   2.44297    2.460128   2.46865    0.02568    0.24408   
2634.8     56.91185   2.41409    2.477007   2.46859    0.05449    0.2326    
2635       60.9535    2.407      2.534925   2.47901    0.07202    0.2062    
2635.2     61.15639   2.44183    2.533707   2.47856    0.03673    0.20734   
2635.4     61.01842   2.4517     2.520815   2.47856    0.02686    0.21538   
2635.6     56.59533   2.47316    2.539403   2.47103    -0.00212   0.19587   
2635.8     54.76929   2.50653    2.523339   2.46894    -0.03758   0.20275   
2636       60.24743   2.53076    2.534906   2.47871    -0.05204   0.20505   
2636.2     60.40974   2.52562    2.545426   2.47871    -0.0469    0.19816   
2636.4     58.40515   2.5465     2.570478   2.48668    -0.05982   0.17635   
2636.6     56.71708   2.52839    2.557919   2.47506    -0.05333   0.18324   
2636.8     52.56993   2.48923    2.514369   2.46718    -0.02205   0.2039    
2637       53.33281   2.45717    2.526487   2.46792    0.01075    0.19816   
2637.2     59.53324   2.43506    2.538293   2.47591    0.04085    0.20161   
2637.4     58.29153   2.47128    2.492767   2.47315    0.00187    0.22686   
2637.6     61.96797   2.48801    2.533959   2.47864    -0.00937   0.20849   
2637.8     59.64686   2.48458    2.541971   2.47591    -0.00867   0.19931   
2638       53.69802   2.45407    2.529466   2.46858    0.01451    0.19701   
2638.2     56.10028   2.42666    2.56122    2.47942    0.05276    0.1798    
2638.4     55.27248   2.41279    2.559338   2.47899    0.0662     0.1798    
2638.6     54.27423   2.42347    2.560173   2.47823    0.05476    0.1775    
2638.8     49.4129    2.44281    2.534848   2.46795    0.02514    0.18554   
2639       45.69588   2.41442    2.548712   2.48287    0.06845    0.16947   
2639.2     47.90337   2.39884    2.550038   2.47929    0.08045    0.17291   
2639.4     46.1666    2.38693    2.526041   2.46408    0.07716    0.18439   
2639.6     48.75552   2.40088    2.515256   2.46358    0.0627     0.19587   
2639.8     53.57628   2.42062    2.5452     2.47009    0.04947    0.18668   
2640       54.16061   2.43702    2.519536   2.46796    0.03094    0.2039    
2640.2     52.10733   2.44428    2.496264   2.46624    0.02197    0.21308   
2640.4     50.60592   2.47006    2.534862   2.46767    -0.00239   0.18783   
2640.6     47.06744   2.48678    2.551077   2.48372    -0.00307   0.17061   
2640.8     51.61227   2.51093    2.576997   2.50447    -0.00647   0.16028   
2641       48.65813   2.59096    2.547005   2.47571    -0.11525   0.17635   
2641.2     46.48311   2.63844    2.547573   2.47792    -0.16053   0.17176   
2641.4     41.72728   2.63689    2.559317   2.50922    -0.12768   0.15454   
2641.6     40.01486   2.61585    2.553949   2.50869    -0.10716   0.15454   
2641.8     48.4877    2.60377    2.553435   2.48014    -0.12363   0.17176   
2642       50.26505   2.56535    2.548135   2.47568    -0.08966   0.17865   
2642.2     52.06675   2.45815    2.530085   2.46814    0.00999    0.19357   
2642.4     51.66096   2.43963    2.515282   2.46644    0.02681    0.20161   
2642.6     52.2453    2.44248    2.541512   2.46887    0.02638    0.18668   
2642.8     46.05297   2.45758    2.517686   2.46312    0.00555    0.18898   
2643       46.07732   2.46957    2.511644   2.46239    -0.00718   0.19242   
2643.2     51.7827    2.46386    2.513714   2.4667     0.00284    0.20275   
2643.4     54.52583   2.42511    2.508891   2.46849    0.04338    0.21079   
2643.6     59.93903   2.45431    2.537595   2.47725    0.02294    0.20275   
2643.8     66.5209    2.4947     2.530771   2.48184    -0.01286   0.21768   
2644       79.48987   2.52684    2.496265   2.49845    -0.02839   0.25785   
2644.2     95.75384   2.51101    2.447188   2.45864    -0.05238   0.30491   
2644.4     98.41580999999999 2.43212    2.262393   2.33184    -0.10028   0.38985   
2644.6     101.9867   2.42658    2.369943   2.38255    -0.04403   0.35082   
2644.8     92.28841   2.461      2.447372   2.46659    0.00559    0.30147   
2645       81.98141   2.47993    2.464963   2.49023    0.0103     0.27966   
2645.2     74.18217   2.46859    2.468121   2.48995    0.02136    0.26703   
2645.4     73.00539000000001 2.48776    2.456021   2.48732    -0.00045   0.27162   
2645.6     72.96481   2.48858    2.466812   2.48891    0.00034    0.26588   
2645.8     75.8459    2.5009     2.4444     2.48128    -0.01961   0.28195   
2646       85.52799   2.52545    2.419031   2.45923    -0.06623   0.30835   
2646.2     85.84451   2.52578    2.407968   2.45122    -0.07456   0.31409   
2646.4     86.33145   2.52627    2.42806    2.46199    -0.06428   0.30491   
2646.6     91.75278   2.55792    2.482196   2.49037    -0.06756   0.27966   
2646.8     98.98390999999999 2.53459    2.466085   2.46355    -0.07104   0.29573   
2647       102.2708   2.52488    2.424758   2.43555    -0.08934   0.32327   
2647.2     97.22279   2.55915    2.425062   2.44222    -0.11692   0.31868   
2647.4     94.18749   2.56119    2.419201   2.44595    -0.11523   0.31868   
2647.6     96.01354000000001 2.52994    2.486716   2.48659    -0.04335   0.27966   
2647.8     97.07671000000001 2.43343    2.512198   2.49463    0.0612     0.26014   
2648       94.42285   2.31905    2.503954   2.49683    0.17778    0.26588   
2648.2     87.32156999999999 2.18411    2.484735   2.49527    0.31116    0.27392   
2648.4     81.90025   2.02144    2.456484   2.48353    0.4621     0.28425   
2648.6     65.34412   1.87165    2.378701   2.42146    0.54981    0.29343   
2648.8     57.74777   1.78313    2.247846   2.25633    0.4732     0.32557   
