~Version
 VERS              .         2.0                           : CWLS LOG ASCII STANDARD - VERSION 2.0
 WRAP              .         NO                            : ONE LINE PER DEPTH STEP
 DLM               .         SPACE                         : DELIMITING CHARACTER(SPACE TAB OR COMMA)
~Well Information
#_______________________________________________________________________________
#
#PARAMETER_NAME    .UNIT     VALUE                         : DESCRIPTION
#_______________________________________________________________________________
STRT               .m        2505                          : First reference value
STOP               .m        2678.6                        : Last reference value
STEP               .m        0.2                           : Step increment
NULL               .         -9999                         : Missing value
COMP               .                                       : Company
WELL               .         501                           : Well name
FLD                .                                       : Field
LOC                .                                       : Location
PROV               .                                       : Province
SRVC               .                                       : Service Company
DATE               .         2021-05-13 14_16_42           : Date
UWI                .                                       : Unique Well ID
API                .                                       : API NUMBER
CNTY               .                                       : COUNTY
CTRY               .                                       : COUNTRY
EREF               .m        139.4                         : 
ORIGINALWELLNAME   .         501                           : 
PROJECT_UPGRADE_TIME .         2014-05-27T11_38_46           : 
Pad                .         Pad5                          : 
STAT               .                                       : STATE
X                  .m        230550                        : 
Y                  .m        242075                        : 
group              .         Pad5                          : 
Интер-р            .         Ярышев                        : 
Куст               .         5                             : 
Статус             .         Проверено                     : 
Тип                .         Нагнетательные                : 
~Parameter Information Block
#_______________________________________________________________________________
#
#PARAMETER_NAME    .UNIT     VALUE                         : DESCRIPTION
#_______________________________________________________________________________
SET                .         Gam                           : 
TLFamily_DEPT      .         Measured Depth                : 
TLFamily_GR_NORM   .         Gamma Ray                     : 
TLFamily_RHOB_NORM .         Bulk Density                  : 
TLFamily_RHOB_TL1  .         Bulk Density                  : 
TLFamily_SYNTH_Bulk_Density .         Bulk Density                  : 
TLFamily_SYNTH_Bulk_Density_MISFIT .                                       : 
TLFamily_TNPH_NORM .         Neutron Porosity              : 
~Curve Information
#_______________________________________________________________________________
#
#LOGNAME           .UNIT     LOG_ID                        : DESCRIPTION
#_______________________________________________________________________________
DEPT               .m                                      :  
GR_NORM            .gAPI                                   : Gamma Ray 
RHOB_NORM          .g/cm3                                  : Bulk Density 
RHOB_TL1           .g/cm3                                  :  
SYNTH_Bulk_Density .G/C3                                   : Bulk Density 
SYNTH_Bulk_Density_MISFIT .                                       : Synthetic Bulk Density Misfit 
TNPH_NORM          .v/v                                    : Thermal Neutron Porosity 
~Ascii
# ...
2545.2     76.14618   2.58517    2.469214   2.49338    -0.0918    0.26933   
2545.4     80.02551   2.55817    2.493674   2.49815    -0.06002   0.26014   
2545.6     88.07634   2.54928    2.491095   2.49747    -0.05181   0.27048   
2545.8     92.23972000000001 2.56445    2.491185   2.49466    -0.06979   0.27392   
2546       93.16492   2.5682     2.518736   2.49992    -0.06828   0.25326   
2546.2     91.49306   2.53271    2.472973   2.48174    -0.05098   0.2854    
2546.4     90.60033   2.51942    2.456358   2.47318    -0.04623   0.29458   
2546.6     92.56435   2.51754    2.486579   2.49076    -0.02678   0.27736   
2546.8     93.21361   2.53124    2.500041   2.49748    -0.03376   0.26818   
2547       97.56365   2.52651    2.495543   2.48953    -0.03699   0.27392   
2547.2     100.396    2.50383    2.499589   2.4893     -0.01454   0.27162   
2547.4     98.93521   2.50359    2.515097   2.49301    -0.01058   0.25785   
2547.6     92.19101999999999 2.55564    2.527536   2.50093    -0.05471   0.24522   
2547.8     85.04916   2.56396    2.529748   2.50214    -0.06182   0.23948   
2548       87.26476   2.57204    2.53416    2.50203    -0.07001   0.23719   
2548.2     87.50823   2.59831    2.539459   2.50197    -0.09633   0.2326    
2548.4     84.17265999999999 2.61193    2.520073   2.50116    -0.11077   0.24637   
2548.6     80.91824   2.63094    2.493552   2.49808    -0.13286   0.26129   
2548.8     79.34379   2.61226    2.501353   2.49879    -0.11347   0.25441   
2549       81.11302999999999 2.55988    2.523953   2.5007     -0.05919   0.24063   
2549.2     84.03469   2.56657    2.528792   2.50185    -0.06472   0.23948   
2549.4     87.14302000000001 2.59512    2.550189   2.50249    -0.09264   0.22227   
2549.6     88.83110000000001 2.58232    2.554936   2.50276    -0.07956   0.21768   
2549.8     89.69137000000001 2.61528    2.535427   2.50188    -0.1134    0.23719   
2550       79.98493000000001 2.63118    2.519247   2.49986    -0.13133   0.24293   
2550.2     70.50574   2.62515    2.498678   2.48604    -0.13911   0.24408   
2550.4     61.19697   2.62613    2.551975   2.47992    -0.1462    0.19472   
2550.6     59.53324   2.6453     2.600486   2.51958    -0.12571   0.1511    
2550.8     63.33953   2.70918    2.608421   2.52654    -0.18264   0.14651   
2551       77.81802999999999 2.62531    2.577827   2.50132    -0.12399   0.19013   
2551.2     79.36814   2.62719    2.555604   2.50098    -0.1262    0.21308   
2551.4     78.39425   2.65558    2.508351   2.49843    -0.15714   0.24867   
2551.6     84.04281   2.65125    2.576953   2.50372    -0.14753   0.19242   
2551.8     80.13102000000001 2.70069    2.575511   2.502      -0.19869   0.19357   
2552       89.30992999999999 2.67059    2.54143    2.50215    -0.16844   0.23145   
2552.2     95.84311   2.62205    2.503361   2.49472    -0.12733   0.26703   
2552.4     104.6406   2.57538    2.523558   2.49098    -0.0844    0.24752   
2552.6     107.262    2.56894    2.523489   2.48987    -0.07906   0.24522   
2552.8     106.3611   2.55964    2.522364   2.48957    -0.07007   0.24752   
2553       109.5263   2.54813    2.518683   2.48829    -0.05985   0.24867   
2553.2     115.0125   2.53312    2.486154   2.47299    -0.06013   0.28081   
2553.4     121.5782   2.50416    2.469833   2.45128    -0.05288   0.29228   
2553.6     124.8001   2.52725    2.468439   2.44877    -0.07848   0.28999   
2553.8     116.1812   2.54887    2.466296   2.45127    -0.0976    0.29917   
2554       118.3724   2.5713     2.4535     2.43982    -0.13149   0.3095    
2554.2     128.0464   2.55572    2.472501   2.45699    -0.09873   0.27851   
2554.4     124.0291   2.50718    2.454187   2.43479    -0.07239   0.30606   
2554.6     119.9875   2.50171    2.487377   2.47466    -0.02706   0.27392   
2554.8     119.2733   2.50653    2.45847    2.44167    -0.06486   0.30491   
2555       117.9667   2.52186    2.434287   2.4264     -0.09546   0.32442   
2555.2     114.0224   2.53818    2.483374   2.46706    -0.07112   0.28425   
2555.4     113.4786   2.5279     2.513433   2.48584    -0.04206   0.24981   
2555.6     109.6237   2.49241    2.483807   2.4681     -0.02432   0.2854    
2555.8     110.3865   2.52064    2.498009   2.48349    -0.03715   0.27162   
2556       115.2803   2.55499    2.491293   2.47701    -0.07798   0.27507   
2556.2     109.6074   2.5598     2.479847   2.46518    -0.09462   0.28884   
2556.4     113.8195   2.54821    2.47867    2.4626     -0.08562   0.28884   
2556.6     117.3498   2.52129    2.456546   2.44317    -0.07812   0.30721   
2556.8     114.1766   2.55246    2.484449   2.46913    -0.08332   0.2831    
2557       106.353    2.55523    2.526988   2.49066    -0.06457   0.24178   
2557.2     93.75736000000001 2.56853    2.531669   2.50078    -0.06775   0.24178   
2557.4     97.14975   2.6116     2.556726   2.49842    -0.11319   0.21194   
2557.6     100.6963   2.61764    2.542188   2.49481    -0.12283   0.22801   
2557.8     105.9472   2.58966    2.534207   2.49124    -0.09842   0.2326    
2558       106.8237   2.58289    2.517146   2.48939    -0.0935    0.25326   
2558.2     109.0637   2.58452    2.521784   2.48859    -0.09593   0.24522   
2558.4     110.6138   2.5926     2.514929   2.48746    -0.10514   0.25211   
2558.6     111.3117   2.61324    2.505787   2.48432    -0.12891   0.26244   
2558.8     108.9744   2.61479    2.491569   2.47764    -0.13715   0.27851   
2559       111.1819   2.59578    2.462895   2.45036    -0.14542   0.30261   
2559.2     114.623    2.5536     2.466807   2.45169    -0.10191   0.29917   
2559.4     123.6639   2.57791    2.467741   2.44952    -0.12839   0.29228   
2559.6     134.1982   2.54495    2.462596   2.44568    -0.09927   0.27621   
2559.8     149.6424   2.49404    2.429552   2.45237    -0.04168   0.25211   
2560       172.5938   2.48262    2.359265   2.44216    -0.04047   0.27277   
2560.2     174.1195   2.46582    2.351882   2.44593    -0.01988   0.26129   
2560.4     163.4149   2.45252    2.385989   2.44956    -0.00295   0.259     
2560.6     176.8464   2.45684    2.349178   2.42708    -0.02977   0.28654   
2560.8     181.1072   2.41222    2.340865   2.3902     -0.02202   0.32098   
2561       180.6608   2.38089    2.338556   2.42623    0.04534    0.28654   
2561.2     190.4484   2.3627     2.300053   2.4424     0.0797     0.259     
2561.4     188.7928   2.37893    2.309834   2.4392     0.06027    0.26933   
2561.6     186.2445   2.42095    2.315339   2.44162    0.02067    0.26474   
2561.8     168.3411   2.45007    2.365675   2.37027    -0.0798    0.33246   
2562       163.2038   2.44102    2.381797   2.39607    -0.04494   0.31639   
2562.2     157.8231   2.4353     2.400194   2.41905    -0.01625   0.29573   
2562.4     161.4995   2.45146    2.391543   2.42464    -0.02682   0.29114   
2562.6     171.1654   2.45807    2.364697   2.4035     -0.05457   0.3095    
2562.8     179.4435   2.44412    2.339603   2.33401    -0.11011   0.34967   
2563       183.339    2.43849    2.335054   2.40422    -0.03426   0.30721   
2563.2     190.7974   2.39296    2.320539   2.38156    -0.0114    0.32672   
2563.4     201.4453   2.35136    2.302444   2.35299    0.00164    0.3382    
2563.6     197.8662   2.36286    2.307127   2.37471    0.01185    0.32901   
2563.8     205.6655   2.37355    2.298994   2.30693    -0.06662   0.36115   
2564       204.302    2.36368    2.300283   2.29425    -0.06943   0.37722   
2564.2     197.6552   2.36775    2.309629   2.3325     -0.03526   0.34853   
2564.4     188.6143   2.38326    2.324274   2.3899     0.00664    0.31868   
2564.6     174.9392   2.39639    2.355277   2.3974     0.00101    0.31409   
2564.8     170.159    2.4074     2.367879   2.41343    0.00603    0.30147   
2565       157.3037   2.42943    2.40255    2.42464    -0.00479   0.29114   
2565.2     161.0613   2.48344    2.384799   2.39333    -0.0901    0.32098   
2565.4     159.7547   2.44501    2.396688   2.42796    -0.01705   0.28769   
2565.6     157.1657   2.43996    2.400929   2.41566    -0.02429   0.29917   
