~Version
 VERS              .         2.0                           : CWLS LOG ASCII STANDARD - VERSION 2.0
 WRAP              .         NO                            : ONE LINE PER DEPTH STEP
 DLM               .         SPACE                         : DELIMITING CHARACTER(SPACE TAB OR COMMA)
~Well Information
#_______________________________________________________________________________
#
#PARAMETER_NAME    .UNIT     VALUE                         : DESCRIPTION
#_______________________________________________________________________________
STRT               .m        2505                          : First reference value
STOP               .m        2678.6                        : Last reference value
STEP               .m        0.2                           : Step increment
NULL               .         -9999                         : Missing value
COMP               .                                       : Company
WELL               .         501                           : Well name
FLD                .                                       : Field
LOC                .                                       : Location
PROV               .                                       : Province
SRVC               .                                       : Service Company
DATE               .         2021-05-13 14_16_42           : Date
UWI                .                                       : Unique Well ID
API                .                                       : API NUMBER
CNTY               .                                       : COUNTY
CTRY               .                                       : COUNTRY
EREF               .m        139.4                         : 
ORIGINALWELLNAME   .         501                           : 
PROJECT_UPGRADE_TIME .         2014-05-27T11_38_46           : 
Pad                .         Pad5                          : 
STAT               .                                       : STATE
X                  .m        230550                        : 
Y                  .m        242075                        : 
group              .         Pad5                          : 
Интер-р            .         Ярышев                        : 
Куст               .         5                             : 
Статус             .         Проверено                     : 
Тип                .         Нагнетательные                : 
~Parameter Information Block
#_______________________________________________________________________________
#
#PARAMETER_NAME    .UNIT     VALUE                         : DESCRIPTION
#_______________________________________________________________________________
SET                .         Gam                           : 
TLFamily_DEPT      .         Measured Depth                : 
TLFamily_GR_NORM   .         Gamma Ray                     : 
TLFamily_RHOB_NORM .         Bulk Density                  : 
TLFamily_RHOB_TL1  .         Bulk Density                  : 
TLFamily_SYNTH_Bulk_Density .         Bulk Density                  : 
TLFamily_SYNTH_Bulk_Density_MISFIT .                                       : 
TLFamily_TNPH_NORM .         Neutron Porosity              : 
~Curve Information
#_______________________________________________________________________________
#
#LOGNAME           .UNIT     LOG_ID                        : DESCRIPTION
#_______________________________________________________________________________
DEPT               .m                                      :  
GR_NORM            .gAPI                                   : Gamma Ray 
RHOB_NORM          .g/cm3                                  : Bulk Density 
RHOB_TL1           .g/cm3                                  :  
SYNTH_Bulk_Density .G/C3                                   : Bulk Density 
SYNTH_Bulk_Density_MISFIT .                                       : Synthetic Bulk Density Misfit 
TNPH_NORM          .v/v                                    : Thermal Neutron Porosity 
~Ascii
# ...
2565.8     173.3567   2.46443    2.358426   2.39349    -0.07093   0.31868   
2566       181.2452   2.42331    2.340557   2.39294    -0.03038   0.31524   
2566.2     196.6002   2.37608    2.307694   2.38854    0.01247    0.31983   
2566.4     216.4188   2.32917    2.25065    2.42175    0.09259    0.2831    
2566.6     227.5049   2.32517    2.233228   2.41149    0.08632    0.2854    
2566.8     231.433    2.33055    2.219988   2.42088    0.09032    0.27621   
2567       250.156    2.3383     2.213233   2.3999     0.06159    0.29228   
2567.2     268.944    2.35266    2.210015   2.39206    0.0394     0.29917   
2567.4     284.3639   2.31293    2.250381   2.32525    0.01232    0.34623   
2567.6     267.1585   2.33267    2.247406   2.32961    -0.00306   0.34279   
2567.8     251.1136   2.39101    2.21251    2.3999     0.00889    0.29228   
2568       253.2725   2.38994    2.224916   2.38493    -0.00501   0.30835   
2568.2     268.2704   2.33561    2.224731   2.37414    0.03853    0.31524   
2568.4     267.4588   2.32313    2.267277   2.29063    -0.0325    0.37148   
2568.6     282.9193   2.30771    2.282733   2.2863     -0.02141   0.39214   
2568.8     291.4165   2.24285    2.246949   2.33338    0.09052    0.34049   
2569       296.3996   2.20459    2.266925   2.2944     0.08981    0.36345   
2569.2     283.3657   2.21838    2.260941   2.30704    0.08866    0.36001   
2569.4     282.6028   2.24799    2.262506   2.2944     0.04641    0.3623    
2569.6     276.8325   2.26243    2.289821   2.28324    0.02081    0.40821   
2569.8     269.1144   2.24016    2.279491   2.28639    0.04623    0.39214   
2570       283.0491   2.21723    2.284859   2.28549    0.06825    0.39559   
2570.2     288.8925   2.18477    2.292387   2.28315    0.09838    0.40477   
2570.4     297.4627   2.19741    2.260926   2.31274    0.11533    0.35541   
2570.6     298.1526   2.19782    2.269285   2.29356    0.09575    0.36574   
2570.8     288.6409   2.19496    2.245408   2.3357     0.14074    0.33934   
2571       276.3618   2.23241    2.21514    2.38461    0.1522     0.30606   
2571.2     277.9281   2.25207    2.237541   2.35558    0.10351    0.33131   
2571.4     259.3999   2.25183    2.232292   2.37385    0.12203    0.32098   
2571.6     239.427    2.25158    2.239196   2.37929    0.12771    0.31294   
2571.8     232.7153   2.2307     2.268591   2.3181     0.08741    0.35197   
2572       255.415    2.20989    2.266854   2.29245    0.08256    0.36919   
2572.2     260.885    2.19521    2.275695   2.28737    0.09216    0.38641   
2572.4     260.8363   2.19398    2.261856   2.29488    0.10089    0.3623    
2572.6     266.8501   2.18085    2.266552   2.29167    0.11082    0.37034   
2572.8     284.8671   2.15686    2.299306   2.27948    0.12262    0.42084   
2573       292.0495   2.16225    2.303904   2.27948    0.11723    0.42314   
2573.2     262.6218   2.20997    2.269392   2.28949    0.07952    0.37493   
2573.4     269.3173   2.24391    2.212064   2.39085    0.14694    0.30147   
2573.6     269.6663   2.2028     2.215158   2.38559    0.18279    0.30491   
2573.8     258.5639   2.21201    2.203467   2.40415    0.19213    0.28769   
2574       239.5649   2.20761    2.240731   2.37762    0.17001    0.31524   
2574.2     244.5318   2.22637    2.271498   2.2919     0.06553    0.37263   
2574.4     250.1317   2.22352    2.283472   2.28361    0.06009    0.40592   
2574.6     246.2605   2.19529    2.288546   2.28043    0.08514    0.43806   
2574.8     235.4908   2.17147    2.275401   2.29242    0.12096    0.37263   
2575       231.9686   2.17922    2.257837   2.3584     0.17918    0.33016   
2575.2     215.2177   2.19023    2.284576   2.33341    0.14318    0.34738   
2575.4     202.3461   2.20508    2.300517   2.35864    0.15356    0.3359    
2575.6     184.7187   2.25949    2.332505   2.39528    0.13579    0.31409   
2575.8     163.0578   2.2661     2.384365   2.40689    0.14078    0.30835   
2576       149.5531   2.29001    2.412628   2.40051    0.11051    0.3118    
2576.2     153.5867   2.29751    2.396533   2.38618    0.08867    0.32672   
2576.4     153.1809   2.25395    2.413953   2.42882    0.17488    0.28769   
2576.6     163.0009   2.29555    2.370081   2.34313    0.04758    0.34394   
2576.8     165.4925   2.30461    2.341586   2.29818    -0.00643   0.37837   
2577       161.6213   2.2732     2.373041   2.34534    0.07214    0.34279   
2577.2     157.7825   2.22547    2.400566   2.42084    0.19537    0.29458   
2577.4     163.983    2.21307    2.384539   2.42084    0.20777    0.29458   
2577.6     154.7716   2.22915    2.372598   2.32417    0.09502    0.35656   
2577.8     144.1156   2.24652    2.3999     2.3524     0.10588    0.34049   
2578       132.1692   2.2732     2.408502   2.36041    0.08721    0.34164   
2578.2     124.7433   2.27704    2.437267   2.41891    0.14187    0.32098   
2578.4     124.5323   2.29262    2.418343   2.39068    0.09806    0.3359    
2578.6     123.8911   2.34401    2.47242    2.45556    0.11155    0.28654   
2578.8     123.7288   2.37534    2.474497   2.4573     0.08196    0.28425   
2579       129.1664   2.37183    2.461747   2.43888    0.06705    0.29114   
2579.2     131.4063   2.33741    2.445593   2.41785    0.08044    0.30721   
2579.4     127.9896   2.32713    2.43275    2.40841    0.08128    0.32327   
2579.6     129.5722   2.34826    2.448797   2.42197    0.07372    0.30606   
2579.8     139.7169   2.34458    2.420965   2.39169    0.0471     0.32327   
2580       145.2843   2.30273    2.432186   2.42717    0.12444    0.28999   
2580.2     147.3132   2.25901    2.431466   2.44016    0.18115    0.27851   
2580.4     137.1442   2.2692     2.465406   2.45501    0.1858     0.25211   
2580.6     118.0316   2.31097    2.504846   2.48328    0.17231    0.25326   
2580.8     118.7701   2.28944    2.478803   2.46176    0.17232    0.2854    
2581       120.2147   2.28136    2.467642   2.44922    0.16786    0.29573   
2581.2     109.6886   2.29156    2.508062   2.4861     0.19455    0.26129   
2581.4     112.31     2.30396    2.477971   2.46181    0.15785    0.28999   
2581.6     108.2034   2.30902    2.483998   2.46853    0.15951    0.2854    
2581.8     103.0337   2.31252    2.47095    2.46323    0.15071    0.29458   
2582       112.7563   2.3308     2.485226   2.47013    0.13933    0.2831    
2582.2     115.2641   2.31277    2.484874   2.47088    0.15811    0.28195   
2582.4     108.6335   2.30428    2.474319   2.46124    0.15696    0.29343   
2582.6     106.3449   2.30583    2.376216   2.37809    0.07226    0.35197   
2582.8     109.8752   2.32125    2.375162   2.37496    0.0537     0.35541   
2583       117.7556   2.33292    2.402771   2.38343    0.05051    0.34508   
2583.2     123.6396   2.31407    2.439151   2.42243    0.10836    0.31983   
2583.4     124.5729   2.30779    2.480301   2.46496    0.15717    0.27507   
2583.6     125.9201   2.30273    2.441806   2.42016    0.11742    0.31639   
2583.8     130.9843   2.3144     2.463035   2.43992    0.12552    0.2854    
2584       119.0217   2.30616    2.474236   2.45722    0.15106    0.28999   
2584.2     114.0873   2.30877    2.431659   2.42813    0.11936    0.32557   
2584.4     120.799    2.33439    2.239586   2.32026    -0.01412   0.42199   
2584.6     118.8837   2.33773    2.231587   2.32619    -0.01154   0.42314   
2584.8     122.6251   2.29759    2.149866   2.30342    0.00582    0.45413   
2585       127.2835   2.25762    2.130949   2.30127    0.04365    0.46446   
2585.2     128.72     2.25191    2.247874   2.30758    0.05568    0.42543   
2585.4     121.6187   2.26488    2.347238   2.334      0.06912    0.37722   
2585.6     112.099    2.2639     2.387278   2.37812    0.11422    0.35082   
2585.8     100.6801   2.26007    2.426531   2.43922    0.17915    0.32098   
2586       99.51955   2.25166    2.457794   2.45898    0.20731    0.30147   
2586.2     104.7055   2.24546    2.365788   2.37709    0.13163    0.35541   
2586.4     110.9546   2.24897    2.257697   2.33905    0.09008    0.40592   
