~Version
 VERS              .         2.0                           : CWLS LOG ASCII STANDARD - VERSION 2.0
 WRAP              .         NO                            : ONE LINE PER DEPTH STEP
 DLM               .         SPACE                         : DELIMITING CHARACTER(SPACE TAB OR COMMA)
~Well Information
#_______________________________________________________________________________
#
#PARAMETER_NAME    .UNIT     VALUE                         : DESCRIPTION
#_______________________________________________________________________________
STRT               .m        2505                          : First reference value
STOP               .m        2678.6                        : Last reference value
STEP               .m        0.2                           : Step increment
NULL               .         -9999                         : Missing value
COMP               .                                       : Company
WELL               .         501                           : Well name
FLD                .                                       : Field
LOC                .                                       : Location
PROV               .                                       : Province
SRVC               .                                       : Service Company
DATE               .         2021-05-13 14_16_42           : Date
UWI                .                                       : Unique Well ID
API                .                                       : API NUMBER
CNTY               .                                       : COUNTY
CTRY               .                                       : COUNTRY
EREF               .m        139.4                         : 
ORIGINALWELLNAME   .         501                           : 
PROJECT_UPGRADE_TIME .         2014-05-27T11_38_46           : 
Pad                .         Pad5                          : 
STAT               .                                       : STATE
X                  .m        230550                        : 
Y                  .m        242075                        : 
group              .         Pad5                          : 
Интер-р            .         Ярышев                        : 
Куст               .         5                             : 
Статус             .         Проверено                     : 
Тип                .         Нагнетательные                : 
~Parameter Information Block
#_______________________________________________________________________________
#
#PARAMETER_NAME    .UNIT     VALUE                         : DESCRIPTION
#_______________________________________________________________________________
SET                .         Gam                           : 
TLFamily_DEPT      .         Measured Depth                : 
TLFamily_GR_NORM   .         Gamma Ray                     : 
TLFamily_RHOB_NORM .         Bulk Density                  : 
TLFamily_RHOB_TL1  .         Bulk Density                  : 
TLFamily_SYNTH_Bulk_Density .         Bulk Density                  : 
TLFamily_SYNTH_Bulk_Density_MISFIT .                                       : 
TLFamily_TNPH_NORM .         Neutron Porosity              : 
~Curve Information
#_______________________________________________________________________________
#
#LOGNAME           .UNIT     LOG_ID                        : DESCRIPTION
#_______________________________________________________________________________
DEPT               .m                                      :  
GR_NORM            .gAPI                                   : Gamma Ray 
RHOB_NORM          .g/cm3                                  : Bulk Density 
RHOB_TL1           .g/cm3                                  :  
SYNTH_Bulk_Density .G/C3                                   : Bulk Density 
SYNTH_Bulk_Density_MISFIT .                                       : Synthetic Bulk Density Misfit 
TNPH_NORM          .v/v                                    : Thermal Neutron Porosity 
~Ascii
# ...
2607.4     114.5337   2.5226     2.497015   2.48214    -0.04046   0.26933   
2607.6     113.1134   2.45105    2.492978   2.4774     0.02635    0.27507   
2607.8     110.6868   2.46606    2.472921   2.45908    -0.00698   0.29458   
2608       104.4783   2.49257    2.407018   2.41314    -0.07943   0.33475   
2608.2     100.8099   2.46582    2.369816   2.38482    -0.08099   0.34967   
2608.4     99.66562999999999 2.47454    2.393981   2.40822    -0.06632   0.33705   
2608.6     99.65752000000001 2.47438    2.465003   2.46287    -0.01152   0.29688   
2608.8     101.5728   2.46419    2.37398    2.38457    -0.07961   0.34853   
2609       105.7443   2.46467    2.291943   2.34662    -0.11805   0.38755   
2609.2     108.9987   2.48352    2.420807   2.41794    -0.06558   0.33016   
2609.4     105.9066   2.42747    2.492101   2.47933    0.05186    0.27851   
2609.6     103.2447   2.42935    2.503822   2.48902    0.05967    0.26818   
2609.8     113.0242   2.46182    2.480247   2.46474    0.00292    0.28769   
2610       115.8647   2.44102    2.433941   2.42789    -0.01313   0.32442   
2610.2     116.1406   2.41931    2.475056   2.46004    0.04072    0.29114   
2610.4     119.8576   2.44069    2.450253   2.43441    -0.00628   0.3118    
2610.6     109.8996   2.48907    2.405781   2.39824    -0.09082   0.33934   
2610.8     107.822    2.46198    2.43668    2.43744    -0.02454   0.31983   
2611       106.5397   2.45472    2.500789   2.48551    0.03079    0.27048   
2611.2     112.6021   2.48996    2.508397   2.48537    -0.0046    0.25785   
2611.4     116.7006   2.47234    2.479368   2.46471    -0.00764   0.28654   
2611.6     114.1604   2.44379    2.448044   2.43722    -0.00656   0.31409   
2611.8     117.8693   2.44779    2.406604   2.38562    -0.06217   0.34279   
2612       122.6332   2.48278    2.452771   2.4344     -0.04838   0.30835   
2612.2     123.4204   2.48254    2.44196    2.42426    -0.05828   0.31754   
2612.4     130.4243   2.45472    2.415054   2.37523    -0.07949   0.33705   
2612.6     124.6784   2.45415    2.387363   2.3516     -0.10255   0.35656   
2612.8     122.2599   2.47536    2.367854   2.33867    -0.13669   0.36689   
2613       123.8749   2.48221    2.364944   2.33523    -0.14698   0.36919   
2613.2     119.6142   2.49005    2.342319   2.34072    -0.14933   0.37837   
2613.4     112.6021   2.49135    2.404549   2.39276    -0.09859   0.34164   
2613.6     117.8936   2.55776    2.490723   2.47797    -0.07979   0.27277   
2613.8     120.7341   2.56265    2.486451   2.47138    -0.09127   0.27392   
2614       119.2084   2.54985    2.500843   2.48159    -0.06826   0.2567    
2614.2     112.9998   2.57873    2.527054   2.48783    -0.0909    0.22915   
2614.4     110.5083   2.60141    2.551699   2.49594    -0.10546   0.1798    
2614.6     117.8125   2.55482    2.535193   2.50414    -0.05068   0.16143   
2614.8     131.9176   2.5403     2.479055   2.5015     -0.0388    0.12814   
2615       109.3477   2.52325    2.561109   2.5363     0.01305    0.09486   
2615.2     54.45278   2.58762    2.654837   2.569      -0.01861   0.07534   
2615.4     48.05757   2.61634    2.661779   2.57521    -0.04112   0.06042   
2615.6     39.73892   2.5824     2.658168   2.57718    -0.00522   0.05813   
2615.8     38.44852   2.59643    2.632125   2.5779     -0.01853   0.08797   
2616       38.16447   2.61038    2.599456   2.56455    -0.04583   0.11781   
2616.2     43.63448   2.55384    2.561572   2.50922    -0.04463   0.15684   
2616.4     47.24599   2.54095    2.555026   2.48678    -0.05418   0.16832   
2616.6     45.29821   2.53312    2.543896   2.47739    -0.05573   0.17176   
2616.8     44.47041   2.53377    2.582773   2.54806    0.01428    0.14307   
2617       40.94817   2.54683    2.575235   2.54782    0.00099    0.14192   
2617.2     41.85714   2.50848    2.577687   2.54782    0.03934    0.14192   
2617.4     43.97534   2.40724    2.541461   2.48189    0.07465    0.17061   
2617.6     44.42983   2.35152    2.489957   2.45899    0.10747    0.20046   
2617.8     39.66588   2.33276    2.465909   2.45733    0.12457    0.20161   
2618       38.87054   2.33324    2.483726   2.45853    0.12528    0.19128   
2618.2     39.60096   2.33577    2.502831   2.4625     0.12672    0.18324   
2618.4     42.64436   2.32998    2.523308   2.46996    0.13998    0.17865   
2618.6     49.88361   2.35095    2.51917    2.46523    0.11428    0.19587   
2618.8     47.40019   2.38007    2.50829    2.46273    0.08265    0.19701   
2619       43.36666   2.33569    2.503187   2.46102    0.12533    0.19128   
2619.2     40.5505    2.27867    2.502448   2.46237    0.18371    0.18554   
2619.4     40.33949   2.26039    2.544106   2.50019    0.2398     0.16143   
2619.6     38.83807   2.35797    2.540761   2.49822    0.14026    0.16028   
2619.8     37.32854   2.3844     2.497414   2.46249    0.07809    0.18094   
2620       39.60096   2.38872    2.460645   2.45733    0.0686     0.2039    
2620.2     40.61543   2.39215    2.496098   2.46141    0.06927    0.18898   
2620.4     41.62989   2.41303    2.495975   2.46102    0.04799    0.19128   
2620.6     43.13942   2.40577    2.532955   2.47358    0.06781    0.17406   
2620.8     40.80209   2.38807    2.473783   2.45875    0.07069    0.20046   
2621       35.06425   2.39549    2.460171   2.4528     0.05731    0.19357   
2621.2     33.1327    2.41556    2.496465   2.47142    0.05586    0.17176   
2621.4     30.38146   2.51999    2.506368   2.49835    -0.02164   0.16028   
2621.6     29.29395   2.50285    2.523264   2.53187    0.02902    0.14881   
2621.8     27.96297   2.42976    2.519565   2.53329    0.10354    0.14766   
2622       31.25796   2.38546    2.49219    2.47722    0.09176    0.16947   
2622.2     33.52226   2.37355    2.481925   2.4618     0.08825    0.1798    
2622.4     29.14787   2.36408    2.451356   2.45621    0.09213    0.18324   
2622.6     30.64928   2.36335    2.464768   2.45964    0.0963     0.18094   
2622.8     37.01203   2.34826    2.489118   2.45751    0.10925    0.18439   
2623       38.0265    2.32052    2.434273   2.45434    0.13382    0.21194   
2623.2     37.67752   2.34385    2.448232   2.45352    0.10967    0.20505   
2623.4     38.0265    2.35862    2.47015    2.45569    0.09707    0.19587   
2623.6     36.24104   2.37983    2.458686   2.45216    0.07233    0.19701   
2623.8     37.26362   2.39068    2.41906    2.45307    0.06239    0.21653   
2624       35.5025    2.38513    2.452246   2.45087    0.06574    0.19816   
2624.2     39.03285   2.38342    2.395328   2.4526     0.06918    0.2303    
2624.4     38.20504   2.30624    2.458629   2.45569    0.14945    0.20161   
2624.6     37.01203   2.30445    2.509272   2.46872    0.16427    0.17406   
2624.8     39.95805   2.32003    2.542796   2.50019    0.18016    0.16143   
2625       37.17435   2.32655    2.546172   2.51696    0.1904     0.1534    
2625.2     34.70716   2.32248    2.525067   2.49678    0.1743     0.16028   
2625.4     40.54238   2.36865    2.474962   2.45875    0.0901     0.19931   
2625.6     40.5505    2.40683    2.475      2.45875    0.05192    0.19931   
2625.8     41.93018   2.39052    2.510251   2.46237    0.07186    0.18439   
2626       38.43229   2.32582    2.519362   2.47335    0.14753    0.17176   
2626.2     36.51697   2.28813    2.477343   2.45544    0.16731    0.18898   
2626.4     37.8236    2.26896    2.456682   2.45479    0.18584    0.20161   
2626.6     33.05966   2.31358    2.467359   2.45435    0.14076    0.18554   
2626.8     31.08753   2.32272    2.467094   2.45964    0.13692    0.18094   
2627       36.33842   2.31505    2.501978   2.46546    0.15041    0.17635   
2627.2     36.90652   2.30967    2.467069   2.45356    0.14389    0.19472   
2627.4     37.07695   2.30004    2.491725   2.45906    0.15902    0.18324   
2627.6     38.87865   2.29425    2.542783   2.49822    0.20397    0.15914   
2627.8     35.22657   2.29996    2.518851   2.48236    0.18241    0.16488   
2628       38.63518   2.3188     2.458309   2.45569    0.13689    0.20275   
