~Version
 VERS              .         2.0                           : CWLS LOG ASCII STANDARD - VERSION 2.0
 WRAP              .         NO                            : ONE LINE PER DEPTH STEP
 DLM               .         SPACE                         : DELIMITING CHARACTER(SPACE TAB OR COMMA)
~Well Information
#_______________________________________________________________________________
#
#PARAMETER_NAME    .UNIT     VALUE                         : DESCRIPTION
#_______________________________________________________________________________
STRT               .m        2505                          : First reference value
STOP               .m        2678.6                        : Last reference value
STEP               .m        0.2                           : Step increment
NULL               .         -9999                         : Missing value
COMP               .                                       : Company
WELL               .         501                           : Well name
FLD                .                                       : Field
LOC                .                                       : Location
PROV               .                                       : Province
SRVC               .                                       : Service Company
DATE               .         2021-05-13 14_16_42           : Date
UWI                .                                       : Unique Well ID
API                .                                       : API NUMBER
CNTY               .                                       : COUNTY
CTRY               .                                       : COUNTRY
EREF               .m        139.4                         : 
ORIGINALWELLNAME   .         501                           : 
PROJECT_UPGRADE_TIME .         2014-05-27T11_38_46           : 
Pad                .         Pad5                          : 
STAT               .                                       : STATE
X                  .m        230550                        : 
Y                  .m        242075                        : 
group              .         Pad5                          : 
Интер-р            .         Ярышев                        : 
Куст               .         5                             : 
Статус             .         Проверено                     : 
Тип                .         Нагнетательные                : 
~Parameter Information Block
#_______________________________________________________________________________
#
#PARAMETER_NAME    .UNIT     VALUE                         : DESCRIPTION
#_______________________________________________________________________________
SET                .         Gam                           : 
TLFamily_DEPT      .         Measured Depth                : 
TLFamily_GR_NORM   .         Gamma Ray                     : 
TLFamily_RHOB_NORM .         Bulk Density                  : 
TLFamily_RHOB_TL1  .         Bulk Density                  : 
TLFamily_SYNTH_Bulk_Density .         Bulk Density                  : 
TLFamily_SYNTH_Bulk_Density_MISFIT .                                       : 
TLFamily_TNPH_NORM .         Neutron Porosity              : 
~Curve Information
#_______________________________________________________________________________
#
#LOGNAME           .UNIT     LOG_ID                        : DESCRIPTION
#_______________________________________________________________________________
DEPT               .m                                      :  
GR_NORM            .gAPI                                   : Gamma Ray 
RHOB_NORM          .g/cm3                                  : Bulk Density 
RHOB_TL1           .g/cm3                                  :  
SYNTH_Bulk_Density .G/C3                                   : Bulk Density 
SYNTH_Bulk_Density_MISFIT .                                       : Synthetic Bulk Density Misfit 
TNPH_NORM          .v/v                                    : Thermal Neutron Porosity 
~Ascii
2505.0     58.63238906860352 2.41271    2.478907   2.47149    0.05879    0.23489   
2505.2     58.26718139648438 2.44183    2.548649   2.47652    0.03469    0.19242   
2505.4     58.96514129638672 2.47463    2.562742   2.48009    0.00546    0.18324   
2505.6     59.03818130493164 2.4548     2.56289    2.48009    0.02528    0.18324   
2505.8     58.42950057983398 2.39818    2.540681   2.47508    0.0769     0.19816   
2506       59.08686828613281 2.38815    2.573156   2.48888    0.10073    0.17521   
2506.2     67.14581298828125 2.39068    2.582207   2.49222    0.10154    0.1775    
2506.4     72.20192718505859 2.39321    2.557366   2.49195    0.09875    0.20505   
2506.6     71.38224029541016 2.39329    2.525717   2.48998    0.09669    0.22801   
2506.8     66.43163299560547 2.38146    2.532267   2.48196    0.1005     0.21653   
2507       64.20791625976563 2.40153    2.548731   2.48032    0.07879    0.20161   
2507.2     61.40798187255859 2.48597    2.571625   2.48743    0.00146    0.1798    
2507.4     65.73367309570313 2.50547    2.591277   2.50109    -0.00438   0.16717   
2507.6     65.72556304931641 2.50498    2.61546    2.53802    0.03304    0.13962   
2507.8     66.45597076416016 2.54862    2.635987   2.5477     -0.00092   0.10863   
2508       65.77424621582031 2.65933    2.643932   2.55892    -0.10041   0.09371   
2508.2     55.72695922851563 2.71277    2.652417   2.56807    -0.1447    0.07994   
2508.4     48.37408065795898 2.68127    2.65195    2.57357    -0.1077    0.07649   
2508.6     49.20188903808594 2.65639    2.650895   2.57381    -0.08258   0.07879   
2508.8     51.87197113037109 2.65158    2.649979   2.5717     -0.07987   0.08223   
2509       51.32009887695313 2.65272    2.633076   2.57257    -0.08015   0.10519   
2509.2     53.08934020996094 2.60035    2.617069   2.55362    -0.04673   0.12585   
2509.4     53.42208099365234 2.52872    2.564454   2.48398    -0.04474   0.17291   
2509.6     56.26258850097656 2.48254    2.4921     2.46817    -0.01437   0.22341   
2509.8     62.86882019042969 2.42193    2.419011   2.46715    0.04523    0.27162   
2510       63.04735946655273 2.42331    2.343997   2.38477    -0.03854   0.30261   
2510.2     64.88963317871094 2.44387    2.478555   2.47643    0.03256    0.24637   
2510.4     66.09076690673828 2.45007    2.544599   2.48148    0.03141    0.20734   
2510.6     64.65426635742188 2.45121    2.5265     2.47975    0.02854    0.21768   
2510.8     61.55406188964844 2.44191    2.511013   2.47772    0.03581    0.22227   
2511       62.19520950317383 2.46272    2.488916   2.47661    0.01389    0.23604   
2511.2     64.41892242431641 2.46035    2.489684   2.47728    0.01693    0.23948   
2511.4     72.18569946289063 2.48686    2.56006    2.49195    0.00509    0.20275   
2511.6     74.42563629150391 2.47895    2.528026   2.49396    0.01501    0.2303    
2511.8     73.33001708984375 2.44509    2.478291   2.49075    0.04565    0.26014   
2512       64.28907012939453 2.42764    2.491328   2.47728    0.04964    0.23834   
2512.2     62.95809173583984 2.44428    2.478661   2.47634    0.03206    0.24293   
2512.4     65.95279693603516 2.52937    2.552042   2.48194    -0.04743   0.20161   
2512.6     73.89811706542969 2.56159    2.567091   2.49425    -0.06734   0.19816   
2512.8     84.48105621337891 2.60402    2.53481    2.50196    -0.10206   0.23489   
2513       90.65715026855469 2.57163    2.512946   2.50059    -0.07104   0.2567    
2513.2     90.75453948974609 2.54267    2.532078   2.50179    -0.04088   0.24063   
2513.4     92.19912719726563 2.49772    2.524946   2.50062    0.00291    0.24752   
2513.6     86.59116363525391 2.4783     2.515151   2.50116    0.02286    0.25211   
2513.8     87.41896057128906 2.4823     2.460341   2.47914    -0.00316   0.28884   
2514       93.39215087890625 2.49364    2.489125   2.49246    -0.00117   0.27621   
2514.2     99.09752655029297 2.4814     2.482739   2.47585    -0.00554   0.28425   
2514.4     100.745    2.4982     2.496907   2.48658    -0.01163   0.27392   
2514.6     94.42285   2.49739    2.490124   2.49175    -0.00564   0.27621   
2514.8     88.30358   2.5062     2.443648   2.4681     -0.0381    0.29917   
2515       89.39921   2.50832    2.517752   2.5009     -0.00742   0.25211   
2515.2     89.7076    2.50351    2.54391    2.50215    -0.00136   0.22915   
2515.4     86.22593999999999 2.50065    2.545054   2.50259    0.00193    0.22686   
2515.6     84.78134   2.49372    2.555162   2.503      0.00928    0.21653   
2515.8     77.20934   2.47634    2.532384   2.49885    0.02251    0.2303    
2516       66.72378999999999 2.49045    2.475833   2.47848    -0.01197   0.25096   
2516.2     66.05019   2.47985    2.444109   2.47372    -0.00613   0.26588   
2516.4     70.36776999999999 2.50122    2.482466   2.48442    -0.0168    0.25326   
2516.6     72.22628   2.50971    2.524024   2.49068    -0.01903   0.2303    
2516.8     67.80319   2.52235    2.57429    2.48702    -0.03533   0.18554   
2517       66.58582   2.54087    2.607594   2.51826    -0.02261   0.14995   
2517.2     58.33211   2.65142    2.624868   2.55276    -0.09865   0.12241   
2517.4     48.47959   2.75772    2.623031   2.56253    -0.19519   0.11322   
2517.6     49.5184    2.73953    2.623292   2.56288    -0.17664   0.11437   
2517.8     59.05441   2.63069    2.558361   2.47772    -0.15298   0.18668   
2518       70.28661   2.57416    2.505701   2.48545    -0.08871   0.23948   
2518.2     80.90201999999999 2.55531    2.478494   2.49615    -0.05916   0.27048   
2518.4     99.21115   2.56828    2.487463   2.48168    -0.0866    0.28081   
2518.6     101.5566   2.56159    2.491501   2.4821     -0.07949   0.27851   
2518.8     105.6388   2.53426    2.504629   2.48689    -0.04738   0.26703   
2519       106.9292   2.49094    2.50869    2.48679    -0.00415   0.26244   
2519.2     97.29583   2.47659    2.493885   2.48797    0.01139    0.27507   
2519.4     99.75491   2.51648    2.445083   2.44982    -0.06666   0.3095    
2519.6     99.61694   2.51925    2.49365    2.48546    -0.0338    0.27621   
2519.8     93.65997   2.51183    2.512104   2.4988     -0.01303   0.259     
2520       93.9846    2.49812    2.528063   2.49978    0.00166    0.24522   
2520.2     96.11905   2.51607    2.530647   2.49797    -0.0181    0.24293   
2520.4     106.7426   2.55727    2.528392   2.49075    -0.06652   0.23948   
2520.6     101.9137   2.56168    2.523902   2.49259    -0.06909   0.24867   
2520.8     101.1265   2.47202    2.516235   2.49221    0.02019    0.2567    
2521       101.3781   2.45032    2.501151   2.48867    0.03835    0.27047   
2521.2     94.43097   2.47014    2.544026   2.5009     0.03076    0.22915   
2521.4     94.04953   2.48417    2.562127   2.5019     0.01773    0.20734   
2521.6     88.62821   2.535      2.569727   2.50292    -0.03207   0.20046   
2521.8     79.64407   2.54201    2.580469   2.50221    -0.0398    0.18783   
2522       77.28239000000001 2.5319     2.556344   2.50022    -0.03167   0.21079   
2522.2     79.36814   2.53426    2.540955   2.50035    -0.03392   0.22571   
2522.4     84.74075999999999 2.55278    2.50984    2.50094    -0.05184   0.25441   
2522.6     89.71572   2.52374    2.484725   2.49344    -0.0303    0.27621   
2522.8     89.53717   2.51101    2.456409   2.47478    -0.03623   0.29343   
2523       89.60209999999999 2.48466    2.509046   2.5002     0.01553    0.259     
2523.2     95.15327000000001 2.50237    2.534112   2.49999    -0.00238   0.23948   
2523.4     103.1148   2.54454    2.548785   2.49444    -0.0501    0.21538   
2523.6     99.02449   2.56021    2.536494   2.495      -0.0652    0.23604   
2523.8     96.21643   2.55311    2.542564   2.49853    -0.05458   0.2303    
2524       94.47154999999999 2.54185    2.537515   2.50063    -0.04122   0.23604   
2524.2     84.82192000000001 2.5332     2.556329   2.50314    -0.03007   0.21538   
2524.4     76.65747   2.54879    2.50861    2.49691    -0.05188   0.24637   
2524.6     84.74075999999999 2.56216    2.545496   2.50236    -0.0598    0.22571   
