~Version
 VERS              .         2.0                           : CWLS LOG ASCII STANDARD - VERSION 2.0
 WRAP              .         NO                            : ONE LINE PER DEPTH STEP
 DLM               .         SPACE                         : DELIMITING CHARACTER(SPACE TAB OR COMMA)
~Well Information
#_______________________________________________________________________________
#
#PARAMETER_NAME    .UNIT     VALUE                         : DESCRIPTION
#_______________________________________________________________________________
STRT               .m        2531                          : First reference value
STOP               .m        2737.80000308156              : Last reference value
STEP               .m        0.2                           : Step increment
NULL               .         -9999                         : Missing value
COMP               .                                       : Company
WELL               .         502                           : Well name
FLD                .                                       : Field
LOC                .                                       : Location
CNTY               .                                       : County
STAT               .                                       : State
CTRY               .                                       : Country
SRVC               .                                       : Service Company
DATE               .                                       : Date
API                .                                       : API number
EREF               .m        139.4                         : 
PROJECT_UPGRADE_TIME .         2014-05-27T11_38_46           : 
Pad                .         Pad5                          : 
X                  .m        230550                        : 
Y                  .m        242075                        : 
group              .         Pad5                          : 
Интер-р            .         Пузин                         : 
Куст               .         5                             : 
Статус             .         Не проверено                  : 
Тип                .         Эксплуатация                  : 
~Parameter Information Block
#_______________________________________________________________________________
#
#PARAMETER_NAME    .UNIT     VALUE                         : DESCRIPTION
#_______________________________________________________________________________
SET                .         LQC                           : 
PROJECT_UPGRADE_TIME .         2014-05-27T11_38_46           : 
TLFamily_GR_NORM   .         Gamma Ray                     : 
TLFamily_MD        .         Measured Depth                : 
TLFamily_RHOB_NORM .         Bulk Density                  : 
TLFamily_TNPH_NORM .         Neutron Porosity              : 
~Curve Information
#_______________________________________________________________________________
#
#LOGNAME           .UNIT     LOG_ID                        : DESCRIPTION
#_______________________________________________________________________________
MD                 .m                                      :  
GR_NORM            .gAPI                                   : Normalised By Techlog 
RHOB_NORM          .g/cm3                                  : Normalized By Techlog 
TNPH_NORM          .v/v                                    : Normalised By Techlog 
~Ascii
# ...
2657.400001883507 114.8449   2.476291   0.3018337 
2657.600001886487 112.9238   2.415966   0.2961476 
2657.800001889467 112.3314   2.348512   0.3154804 
2658.000001892447 115.4464   2.278499   0.3075198 
2658.200001895428 120.6261   2.32493    0.3006965 
2658.400001898408 120.303    2.428945   0.282501  
2658.600001901388 126.4074   2.418708   0.2324635 
2658.800001904368 125.2044   2.335716   0.2233658 
2659.000001907349 124.5581   2.455634   0.2267774 
2659.200001910329 130.061    2.413955   0.2313263 
2659.400001913309 131.632    2.342662   0.2415613 
2659.600001916289 125.7341   2.258025   0.250659  
2659.80000191927 119.4591   2.333522   0.2563451 
2660.00000192225 116.9276   2.386352   0.3006965 
2660.20000192523 117.1341   2.453075   0.3029709 
2660.40000192821 120.9403   2.475925   0.3200292 
2660.60000193119 124.7376   2.415601   0.3382246 
2660.800001934171 116.1735   2.485431   0.3223036 
2661.000001937151 113.3817   2.417428   0.3461851 
2661.200001940131 111.1823   2.389642   0.3063826 
2661.400001943111 111.0656   2.430773   0.2802266 
2661.600001946092 111.0387   2.487624   0.2301891 
2661.800001949072 104.7098   2.56495    0.2142681 
2662.000001952052 102.0167   2.5304     0.234738  
2662.200001955032 107.4658   2.439182   0.2950104 
2662.400001958013 103.3363   2.379589   0.2915988 
2662.600001960993 108.561    2.456      0.2517962 
2662.800001963973 107.1875   2.491281   0.3006965 
2663.000001966953 112.0172   2.443386   0.2836382 
2663.200001969934 117.2957   2.442289   0.276815  
2663.400001972914 120.5184   2.397503   0.3370875 
2663.600001975894 124.6479   2.363502   0.3530085 
2663.800001978874 118.5614   2.412127   0.3939483 
2664.000001981854 114.1268   2.3869     0.3621062 
2664.200001984835 116.003    2.425838   0.3006965 
2664.400001987815 114.0819   2.489818   0.3302641 
2664.600001990795 113.1932   2.441924   0.2699917 
2664.800001993775 111.1554   2.423644   0.2699917 
2665.000001996756 119.127    2.530949   0.2620311 
2665.200001999736 123.1936   2.595112   0.3052454 
2665.400002002716 123.0589   2.574821   0.3166175 
2665.600002005696 122.8345   2.497313   0.3018337 
2665.800002008677 120.8236   2.438268   0.3029709 
2666.000002011657 116.9994   2.409385   0.2586195 
2666.200002014637 111.2721   2.415601   0.2859127 
2666.400002017617 114.6474   2.455086   0.2961476 
2666.600002020597 121.9637   2.382696   0.3041081 
2666.800002023578 117.7714   2.311586   0.3006965 
2667.000002026558 117.1431   2.389094   0.2620311 
2667.200002029538 117.3405   2.340835   0.2620311 
2667.400002032518 118.5345   2.289101   0.2267774 
2667.600002035499 120.4735   2.361674   0.2279147 
2667.800002038479 118.1036   2.393847   0.2552078 
2668.000002041459 116.4967   2.452344   0.2790894 
2668.200002044439 110.9938   2.43644    0.3120687 
2668.40000204742 103.6416   2.41688    0.2779522 
2668.6000020504 104.4944   2.489087   0.2608939 
2668.80000205338 96.20858   2.598403   0.2529334 
2669.00000205636 97.1781    2.662566   0.2188169 
2669.20000205934 109.8806   2.648308   0.1756027 
2669.400002062321 121.0122   2.625823   0.198347  
2669.600002065301 134.6842   2.519615   0.1699166 
2669.800002068281 112.9418   2.514131   0.1994842 
2670.000002071261 84.17036   2.518152   0.198347  
2670.200002074242 73.7929    2.534422   0.1812888 
2670.400002077222 65.30061   2.561659   0.1756027 
2670.600002080202 61.76366   2.555627   0.1767399 
2670.800002083182 62.7242    2.582316   0.1733283 
2671.000002086163 58.87305   2.549229   0.1858377 
2671.200002089143 50.08452   2.55581    0.2017587 
2671.400002092123 43.86343   2.607177   0.2006215 
2671.600002095103 41.37679   2.649222   0.2142681 
2671.800002098083 39.18639   2.553433   0.1835632 
2672.000002101064 39.52752   2.479033   0.1699166 
2672.200002104044 41.53838   2.636243   0.1517212 
2672.400002107024 42.75028   2.60736    0.140349  
2672.600002110004 39.27616   2.603338   0.1312513 
2672.800002112985 36.53816   2.640996   0.140349  
2673.000002115965 32.55235   2.570434   0.114193  
2673.200002118945 30.64922   2.608457   0.1210163 
2673.400002121925 33.30643   2.554165   0.1221535 
2673.600002124906 32.86655   2.577929   0.1232907 
2673.800002127886 33.9797    2.593832   0.1369374 
2674.000002130866 38.72856   2.545207   0.1699166 
2674.200002133846 41.15236   2.511937   0.1812888 
2674.400002136827 41.7628    2.493474   0.1892493 
2674.600002139807 39.34798   2.449236   0.1858377 
2674.800002142787 39.77887   2.476108   0.1699166 
2675.000002145767 40.71249   2.43516    0.2063075 
2675.200002148747 48.89955   2.46258    0.2006215 
2675.400002151728 48.2532    2.457096   0.1949354 
2675.600002154708 47.49913   2.488539   0.1858377 
2675.800002157688 44.92272   2.375932   0.2051703 
2676.000002160668 44.19558   2.358749   0.2142681 
2676.200002163649 45.43441   2.404815   0.2210914 
2676.400002166629 43.82752   2.445763   0.2415613 
2676.600002169609 38.99787   2.380137   0.2529334 
2676.800002172589 36.25089   2.39403    0.2415613 
2677.00000217557 29.65277   2.444666   0.2017587 
2677.20000217855 25.39765   2.414686   0.2040331 
2677.40000218153 24.96675   2.306833   0.2119936 
2677.60000218451 24.76925   2.387449   0.2028959 
2677.80000218749 26.25047   2.491646   0.1847004 
2678.000002190471 29.45527   2.308844   0.1903865 
2678.200002193451 29.30266   2.25967    0.2028959 
2678.400002196431 31.95089   2.189474   0.2233658 
2678.600002199411 32.66906   2.3412     0.2108564 
2678.800002202392 31.66363   2.416697   0.2233658 
2679.000002205372 32.91143   2.225303   0.2552078 
2679.200002208352 36.22396   2.232981   0.2256402 
2679.400002211332 39.92251   2.289284   0.2074448 
2679.600002214313 42.16677   2.349792   0.2040331 
2679.800002217293 40.97282   2.45143    0.2540706 
2680.000002220273 41.26906   2.444849   0.240424  
2680.200002223253 36.37658   2.360394   0.2449729 
2680.400002226233 31.15193   2.406095   0.2210914 
2680.600002229214 32.24714   2.367706   0.2222286 
2680.800002232194 33.36927   2.272466   0.2063075 
2681.000002235174 33.06404   2.324382   0.1937982 
2681.200002238154 34.49139   2.408654   0.2256402 
2681.400002241135 36.53816   2.45015    0.2449729 
2681.600002244115 32.77678   2.470258   0.2301891 
2681.800002247095 34.57219   2.370265   0.250659  
2682.000002250075 33.71937   2.420902   0.2574823 
2682.200002253056 33.52187   2.491098   0.2483846 
2682.400002256036 35.67636   2.390008   0.2563451 
2682.600002259016 39.00685   2.411213   0.2574823 
2682.800002261996 48.85467   2.484883   0.224503  
2683.000002264977 56.47618   2.541003   0.26658   
2683.200002267957 63.5052    2.563304   0.2688545 
2683.400002270937 69.35824   2.638071   0.2563451 
2683.600002273917 59.59121   2.629845   0.224503  
2683.800002276897 45.46134   2.70845    0.2131308 
2684.000002279878 47.73254   2.656351   0.1937982 
2684.200002282858 49.90498   2.57866    0.1869749 
2684.400002285838 45.2459    2.556175   0.1164674 
2684.600002288818 42.30142   2.487624   0.1062325 
2684.800002291799 44.70727   2.529121   0.09486034
2685.000002294779 41.30497   2.472817   0.1096441 
2685.200002297759 42.76823   2.424558   0.1380746 
2685.400002300739 43.10038   2.432784   0.1733283 
2685.60000230372 41.5653    2.453806   0.1539956 
2685.8000023067 42.64255   2.538444   0.1255652 
2686.00000230968 44.20456   2.580488   0.1289768 
2686.20000231266 40.16489   2.633318   0.1460351 
2686.40000231564 35.85591   2.630393   0.1448978 
2686.600002318621 32.02271   2.650501   0.140349  
2686.800002321601 32.00475   2.668416   0.1392118 
2687.000002324581 31.44818   2.623812   0.1585445 
2687.200002327561 35.72125   2.590725   0.1528584 
2687.400002330542 39.33002   2.553616   0.1687794 
2687.600002333522 38.09119   2.693277   0.1653678 
2687.800002336502 40.32647   2.64648    0.1369374 
2688.000002339482 43.13629   2.529303   0.1312513 
2688.200002342463 43.8365    2.592005   0.1471723 
2688.400002345443 47.75946   2.778646   0.15627   
2688.600002348423 53.43296   2.584327   0.1414862 
2688.800002351403 71.91669   2.511755   0.1744655 
