~Version
 VERS              .         2.0                           : CWLS LOG ASCII STANDARD - VERSION 2.0
 WRAP              .         NO                            : ONE LINE PER DEPTH STEP
 DLM               .         SPACE                         : DELIMITING CHARACTER(SPACE TAB OR COMMA)
~Well Information
#_______________________________________________________________________________
#
#PARAMETER_NAME    .UNIT     VALUE                         : DESCRIPTION
#_______________________________________________________________________________
STRT               .m        2531                          : First reference value
STOP               .m        2737.80000308156              : Last reference value
STEP               .m        0.2                           : Step increment
NULL               .         -9999                         : Missing value
COMP               .                                       : Company
WELL               .         502                           : Well name
FLD                .                                       : Field
LOC                .                                       : Location
CNTY               .                                       : County
STAT               .                                       : State
CTRY               .                                       : Country
SRVC               .                                       : Service Company
DATE               .                                       : Date
API                .                                       : API number
EREF               .m        139.4                         : 
PROJECT_UPGRADE_TIME .         2014-05-27T11_38_46           : 
Pad                .         Pad5                          : 
X                  .m        230550                        : 
Y                  .m        242075                        : 
group              .         Pad5                          : 
Интер-р            .         Пузин                         : 
Куст               .         5                             : 
Статус             .         Не проверено                  : 
Тип                .         Эксплуатация                  : 
~Parameter Information Block
#_______________________________________________________________________________
#
#PARAMETER_NAME    .UNIT     VALUE                         : DESCRIPTION
#_______________________________________________________________________________
SET                .         LQC                           : 
PROJECT_UPGRADE_TIME .         2014-05-27T11_38_46           : 
TLFamily_GR_NORM   .         Gamma Ray                     : 
TLFamily_MD        .         Measured Depth                : 
TLFamily_RHOB_NORM .         Bulk Density                  : 
TLFamily_TNPH_NORM .         Neutron Porosity              : 
~Curve Information
#_______________________________________________________________________________
#
#LOGNAME           .UNIT     LOG_ID                        : DESCRIPTION
#_______________________________________________________________________________
MD                 .m                                      :  
GR_NORM            .gAPI                                   : Normalised By Techlog 
RHOB_NORM          .g/cm3                                  : Normalized By Techlog 
TNPH_NORM          .v/v                                    : Normalised By Techlog 
~Ascii
# ...
2720.60000282526 69.53778   2.607543   0.2870499 
2720.80000282824 60.848     2.439913   0.3166175 
2721.000002831221 64.70813   2.24468    0.2608939 
2721.200002834201 50.76678   2.251992   0.2176797 
2721.400002837181 43.02856   2.359663   0.224503  
2721.600002840161 41.87053   2.470624   0.224503  
2721.800002843142 49.51897   2.57409    0.2097192 
2722.000002846122 51.5029    2.484699   0.2199541 
2722.200002849102 46.74506   2.452344   0.2006215 
2722.400002852082 50.9912    2.373373   0.1801516 
2722.600002855062 52.24799   2.293489   0.1994842 
2722.800002858043 51.5029    2.410847   0.2290519 
2723.000002861023 55.22837   2.393116   0.2483846 
2723.200002864003 59.43861   2.439182   0.2324635 
2723.400002866983 65.0313    2.456366   0.2631684 
2723.600002869964 67.61669   2.466419   0.2756777 
2723.800002872944 78.96367   2.38489    0.2802266 
2724.000002875924 85.66953   2.511206   0.2438357 
2724.200002878904 88.05743   2.652878   0.1949354 
2724.400002881885 91.09167   2.604435   0.2017587 
2724.600002884865 92.50106   2.500055   0.1972098 
2724.800002887845 92.17789   2.466419   0.2131308 
2725.000002890825 96.5946    2.524185   0.2210914 
2725.200002893806 113.0405   2.563488   0.2597567 
2725.400002896786 113.1483   2.560745   0.2654428 
2725.600002899766 98.33614   2.508281   0.2267774 
2725.800002902746 91.10064   2.572628   0.2119936 
2726.000002905726 82.68915   2.595295   0.2336008 
2726.200002908707 83.47015   2.557638   0.2131308 
2726.400002911687 83.35345   2.575187   0.26658   
2726.600002914667 78.98163   2.517787   0.2472473 
2726.800002917647 70.98308   2.538992   0.2643056 
2727.000002920628 69.68141   2.493292   0.2426985 
2727.200002923608 74.40334   2.438634   0.2472473 
2727.400002926588 74.12505   2.48214    0.2222286 
2727.600002929568 72.56304   2.592919   0.2574823 
2727.800002932549 68.28996   2.545024   0.234738  
2728.000002935529 70.24696   2.549046   0.2108564 
2728.200002938509 60.50687   2.458194   0.1949354 
2728.400002941489 59.50145   2.520895   0.1790143 
2728.600002944469 60.76721   2.567509   0.2279147 
2728.80000294745 55.20144   2.579026   0.2313263 
2729.00000295043 54.30373   2.573725   0.2279147 
2729.20000295341 63.41544   2.435891   0.2051703 
2729.40000295639 72.32066   2.40774    0.1994842 
2729.600002959371 72.14113   2.398417   0.2324635 
2729.800002962351 69.35824   2.374287   0.2415613 
2730.000002965331 75.1215    2.397503   0.2677172 
2730.200002968311 84.39479   2.511572   0.2938732 
2730.400002971292 85.6426    2.498593   0.2495218 
2730.600002974272 84.34092   2.40774    0.282501  
2730.800002977252 84.67308   2.462032   0.345048  
2731.000002980232 81.20793   2.55581    0.324578  
2731.200002983212 80.12172   2.502431   0.2881871 
2731.400002986193 79.04447   2.424558   0.3154804 
2731.600002989173 77.98518   2.472635   0.2677172 
2731.800002992153 71.30626   2.656534   0.2574823 
2732.000002995133 70.0764    2.596392   0.3018337 
2732.200002998114 65.91106   2.551057   0.3393619 
2732.400003001094 58.44215   2.343028   0.3166175 
2732.600003004074 43.5223    1.470696   0.3564201 
2732.800003007054 23.9703    0.7994458  0.4144182 
2733.000003010035 15.90891   1.40507    0.3370875 
2733.200003013015 21.13355   1.749469   0.2984221 
2733.400003015995 35.09286   2.343576   0.3143431 
2733.600003018975 61.52127   2.459656   0.2279147 
2733.800003021955 71.53068   2.465688   0.2154053 
2734.000003024936 69.10688   2.528389   0.2472473 
2734.200003027916 67.38329   2.457828   0.224503  
2734.400003030896 64.49268   2.392202   0.2279147 
2734.600003033876 67.60772   2.467516   0.2392868 
2734.800003036857 72.61691   2.481775   0.240424  
2735.000003039837 81.79144   2.442655   0.2677172 
2735.200003042817 88.10231   2.59365    0.2688545 
2735.400003045797 89.85283   2.627651   0.2586195 
2735.600003048778 83.47913   2.539906   0.2631684 
2735.800003051758 80.1666    2.571531   0.2631684 
2736.000003054738 85.25658   2.560014   0.2517962 
2736.200003057718 85.85805   2.621619   0.2847755 
2736.400003060699 92.92298   2.461301   0.2859127 
2736.600003063679 93.87455   2.471172   0.3279897 
2736.800003066659 91.17246   2.648856   0.2984221 
2737.000003069639 91.21735   2.762742   0.2904616 
2737.200003072619 98.7401    2.635877   0.3279897 
2737.4000030756 100.2393   2.641727   0.3302641 
2737.60000307858 98.38102   2.618694   0.2813638 
2737.80000308156 97.63593   2.569703   0.2574823 
