~Version
 VERS              .         2.0                           : CWLS LOG ASCII STANDARD - VERSION 2.0
 WRAP              .         NO                            : ONE LINE PER DEPTH STEP
 DLM               .         SPACE                         : DELIMITING CHARACTER(SPACE TAB OR COMMA)
~Well Information
#_______________________________________________________________________________
#
#PARAMETER_NAME    .UNIT     VALUE                         : DESCRIPTION
#_______________________________________________________________________________
STRT               .m        2531                          : First reference value
STOP               .m        2737.80000308156              : Last reference value
STEP               .m        0.2                           : Step increment
NULL               .         -9999                         : Missing value
COMP               .                                       : Company
WELL               .         502                           : Well name
FLD                .                                       : Field
LOC                .                                       : Location
CNTY               .                                       : County
STAT               .                                       : State
CTRY               .                                       : Country
SRVC               .                                       : Service Company
DATE               .                                       : Date
API                .                                       : API number
EREF               .m        139.4                         : 
PROJECT_UPGRADE_TIME .         2014-05-27T11_38_46           : 
Pad                .         Pad5                          : 
X                  .m        230550                        : 
Y                  .m        242075                        : 
group              .         Pad5                          : 
Интер-р            .         Пузин                         : 
Куст               .         5                             : 
Статус             .         Не проверено                  : 
Тип                .         Эксплуатация                  : 
~Parameter Information Block
#_______________________________________________________________________________
#
#PARAMETER_NAME    .UNIT     VALUE                         : DESCRIPTION
#_______________________________________________________________________________
SET                .         LQC                           : 
PROJECT_UPGRADE_TIME .         2014-05-27T11_38_46           : 
TLFamily_GR_NORM   .         Gamma Ray                     : 
TLFamily_MD        .         Measured Depth                : 
TLFamily_RHOB_NORM .         Bulk Density                  : 
TLFamily_TNPH_NORM .         Neutron Porosity              : 
~Curve Information
#_______________________________________________________________________________
#
#LOGNAME           .UNIT     LOG_ID                        : DESCRIPTION
#_______________________________________________________________________________
MD                 .m                                      :  
GR_NORM            .gAPI                                   : Normalised By Techlog 
RHOB_NORM          .g/cm3                                  : Normalized By Techlog 
TNPH_NORM          .v/v                                    : Normalised By Techlog 
~Ascii
# ...
2594.200000941753 77.88643   2.56495    0.2552078 
2594.400000944734 80.0858    2.533325   0.2688545 
2594.600000947714 83.39834   2.502066   0.2688545 
2594.800000950694 84.99625   2.426934   0.3018337 
2595.000000953674 88.11128   2.352899   0.3211664 
2595.200000956655 93.49751   2.370265   0.3029709 
2595.400000959635 96.5946    2.476839   0.2631684 
2595.600000962615 91.63927   2.517056   0.2802266 
2595.800000965595 93.03969   2.41359    0.2597567 
2596.000000968575 96.1188    2.363868   0.2472473 
2596.200000971556 99.61986   2.417611   0.2210914 
2596.400000974536 105.051    2.37447    0.2699917 
2596.600000977516 98.49773   2.449967   0.2995593 
2596.800000980496 95.02361   2.466054   0.2574823 
2597.000000983477 96.56767   2.407557   0.2972849 
2597.200000986457 91.72903   2.419074   0.3075198 
2597.400000989437 90.73257   2.456914   0.2972849 
2597.600000992417 89.70022   2.516873   0.2984221 
2597.800000995398 90.75951   2.5304     0.3279897 
2598.000000998378 89.35909   2.522905   0.2813638 
2598.200001001358 88.21004   2.567326   0.2654428 
2598.400001004338 94.6735    2.431687   0.2677172 
2598.600001007318 94.70942   2.406278   0.2529334 
2598.800001010299 88.52423   2.518335   0.2074448 
2599.000001013279 72.83235   2.55453    0.1960726 
2599.200001016259 65.47118   2.535884   0.1733283 
2599.400001019239 55.78494   2.464957   0.1744655 
2599.60000102222 57.51752   2.403353   0.1812888 
2599.8000010252 64.92358   2.430773   0.2154053 
2600.00000102818 69.59164   2.563304   0.1892493 
2600.20000103116 63.01147   2.640996   0.1937982 
2600.400001034141 73.9096    2.546487   0.1949354 
2600.600001037121 82.06075   2.514496   0.2336008 
2600.800001040101 84.92444   2.576101   0.2188169 
2601.000001043081 87.17767   2.572628   0.2119936 
2601.200001046062 92.07914   2.654889   0.2438357 
2601.400001049042 95.92131   2.608274   0.2097192 
2601.600001052022 99.59293   2.454172   0.2426985 
2601.800001055002 101.3704   2.436623   0.2392868 
2602.000001057982 107.5556   2.464957   0.2517962 
2602.200001060963 118.337    2.394578   0.2574823 
2602.400001063943 127.0986   2.355824   0.3211664 
2602.600001066923 126.6228   2.385255   0.4201042 
2602.800001069903 124.998    2.398417   0.3325386 
2603.000001072884 124.5042   2.50298    0.3234408 
2603.200001075864 130.851    2.502249   0.3791645 
2603.400001078844 127.1884   2.310855   0.3780272 
2603.600001081824 125.761    2.369352   0.3495968 
2603.800001084805 118.1485   2.457828   0.2881871 
2604.000001087785 110.6886   2.377212   0.2904616 
2604.200001090765 114.6385   2.356372   0.3075198 
2604.400001093745 116.7121   2.40189    0.2722661 
2604.600001096725 120.5274   2.395492   0.3200292 
2604.800001099706 121.9278   2.448322   0.3370875 
2605.000001102686 118.6691   2.443569   0.334813  
2605.200001105666 122.4575   2.362771   0.3143431 
2605.400001108646 127.5654   2.407009   0.3530085 
2605.600001111627 119.7913   2.504077   0.3643806 
2605.800001114607 118.9295   2.507002   0.3427735 
2606.000001117587 108.0942   2.458925   0.3325386 
2606.200001120567 101.4242   2.467882   0.3097942 
2606.400001123548 100.4996   2.460753   0.3018337 
2606.600001126528 99.57497   2.452527   0.2881871 
2606.800001129508 98.07581   2.493109   0.292736  
2607.000001132488 96.85493   2.55453    0.2699917 
2607.200001135468 104.5662   2.577746   0.2461101 
2607.400001138449 108.3815   2.442289   0.2574823 
2607.600001141429 118.4357   2.449053   0.2483846 
2607.800001144409 124.1451   2.516325   0.2426985 
2608.000001147389 128.5708   2.508281   0.2529334 
2608.20000115037 139.0829   2.488356   0.2802266 
2608.40000115335 149.1642   2.373007   0.2881871 
2608.60000115633 169.955    2.355093   0.3097942 
2608.80000115931 184.2106   2.295316   0.324578  
2609.000001162291 173.9677   2.388728   0.3518713 
2609.200001165271 171.131    2.488904   0.292736  
2609.400001168251 170.8437   2.508464   0.2938732 
2609.600001171231 169.7036   2.582682   0.2961476 
2609.800001174212 174.8206   2.571531   0.3234408 
2610.000001177192 182.7652   2.484883   0.2984221 
2610.200001180172 204.2742   2.397503   0.3143431 
2610.400001183152 201.3028   2.354179   0.2836382 
2610.600001186132 191.0152   2.298059   0.3109315 
2610.800001189113 181.1225   2.357104   0.2961476 
2611.000001192093 171.9569   2.385073   0.2904616 
2611.200001195073 158.7876   2.369717   0.2938732 
2611.400001198053 167.9082   2.381599   0.3109315 
2611.600001201034 184.9826   2.395675   0.2745405 
2611.800001204014 182.1817   2.438816   0.2915988 
2612.000001206994 179.9824   2.375384   0.3234408 
2612.200001209974 190.4586   2.348146   0.345048  
2612.400001212955 202.021    2.371545   0.3393619 
2612.600001215935 217.6949   2.423644   0.3404991 
2612.800001218915 221.0703   2.365695   0.4007716 
2613.000001221895 222.3989   2.365513   0.4599068 
2613.200001224875 215.0467   2.387632   0.3700667 
2613.400001227856 211.7611   2.355276   0.3177547 
2613.600001230836 195.001    2.498593   0.2881871 
2613.800001233816 189.3185   2.511023   0.3006965 
2614.000001236796 183.8784   2.493474   0.2836382 
2614.200001239777 164.4341   2.519432   0.2711289 
2614.400001242757 156.6959   2.530583   0.2654428 
2614.600001245737 157.4949   2.560014   0.2563451 
2614.800001248717 147.8894   2.524368   0.3382246 
2615.000001251698 140.8335   2.474097   0.2881871 
2615.200001254678 153.4642   2.389094   0.2847755 
2615.400001257658 172.7199   2.461484   0.2950104 
2615.600001260638 193.0978   2.351985   0.3063826 
2615.800001263618 213.1884   2.353265   0.3018337 
2616.000001266599 231.3759   2.456182   0.3018337 
2616.200001269579 239.8054   2.449602   0.3154804 
2616.400001272559 243.2795   2.403353   0.3052454 
2616.600001275539 265.39     2.43187    0.3006965 
2616.80000127852 291.3246   2.45015    0.2893244 
2617.0000012815 327.7535   2.365695   0.3097942 
2617.20000128448 332.5383   2.243584   0.3950855 
2617.40000128746 308.5875   2.260401   0.3586946 
2617.600001290441 287.0157   2.275208   0.3006965 
2617.800001293421 264.9591   2.269359   0.2881871 
2618.000001296401 240.3799   2.301898   0.2472473 
2618.200001299381 257.14     2.283069   0.2870499 
2618.400001302361 308.6683   2.261681   0.3814389 
2618.600001305342 324.6744   2.203001   0.3757528 
2618.800001308322 321.1195   2.124214   0.3541457 
2619.000001311302 309.1082   2.26424    0.3598318 
2619.200001314282 310.3021   2.251992   0.3962227 
2619.400001317263 310.2303   2.123482   0.4485346 
2619.600001320243 311.9629   2.296596   0.3984971 
2619.800001323223 319.9794   2.377943   0.3382246 
2620.000001326203 313.3005   2.248702   0.4007716 
2620.200001329184 317.6992   2.247788   0.4178298 
2620.400001332164 313.1658   2.291661   0.4883372 
2620.600001335144 302.6537   2.230605   0.5315515 
2620.800001338124 286.504    2.175216   0.4348881 
2621.000001341105 274.2773   2.207754   0.4087321 
2621.200001344085 254.0699   2.320178   0.3586946 
2621.400001347065 242.6601   2.353265   0.3097942 
2621.600001350045 255.605    2.218722   0.3166175 
2621.800001353025 256.9067   2.208303   0.3643806 
2622.000001356006 262.7058   2.130795   0.3518713 
2622.200001358986 276.3599   2.239379   0.3814389 
2622.400001361966 296.7199   2.327307   0.3586946 
2622.600001364946 287.3209   2.20684    0.3814389 
2622.800001367927 283.9994   2.192765   0.3780272 
2623.000001370907 298.7397   2.285811   0.4223787 
2623.200001373887 301.7111   2.271552   0.4371625 
2623.400001376867 287.5184   2.299155   0.4223787 
2623.600001379848 276.9883   2.320543   0.3973599 
2623.800001382828 274.1067   2.322554   0.3586946 
2624.000001385808 280.247    2.279595   0.3495968 
2624.200001388788 266.0992   2.319629   0.3257153 
2624.400001391768 258.7559   2.302994   0.3006965 
2624.600001394749 248.6657   2.35948    0.3473224 
2624.800001397729 249.6263   2.291112   0.3291269 
2625.000001400709 242.2202   2.210496   0.3962227 
2625.200001403689 244.3927   2.184721   0.3143431 
2625.40000140667 244.8954   2.115256   0.2995593 
2625.60000140965 231.726    2.136096   0.3541457 
