~Version
 VERS              .         2.0                           : CWLS LOG ASCII STANDARD - VERSION 2.0
 WRAP              .         NO                            : ONE LINE PER DEPTH STEP
 DLM               .         SPACE                         : DELIMITING CHARACTER(SPACE TAB OR COMMA)
~Well Information
#_______________________________________________________________________________
#
#PARAMETER_NAME    .UNIT     VALUE                         : DESCRIPTION
#_______________________________________________________________________________
STRT               .m        2531                          : First reference value
STOP               .m        2737.80000308156              : Last reference value
STEP               .m        0.2                           : Step increment
NULL               .         -9999                         : Missing value
COMP               .                                       : Company
WELL               .         502                           : Well name
FLD                .                                       : Field
LOC                .                                       : Location
CNTY               .                                       : County
STAT               .                                       : State
CTRY               .                                       : Country
SRVC               .                                       : Service Company
DATE               .                                       : Date
API                .                                       : API number
EREF               .m        139.4                         : 
PROJECT_UPGRADE_TIME .         2014-05-27T11_38_46           : 
Pad                .         Pad5                          : 
X                  .m        230550                        : 
Y                  .m        242075                        : 
group              .         Pad5                          : 
Интер-р            .         Пузин                         : 
Куст               .         5                             : 
Статус             .         Не проверено                  : 
Тип                .         Эксплуатация                  : 
~Parameter Information Block
#_______________________________________________________________________________
#
#PARAMETER_NAME    .UNIT     VALUE                         : DESCRIPTION
#_______________________________________________________________________________
SET                .         LQC                           : 
PROJECT_UPGRADE_TIME .         2014-05-27T11_38_46           : 
TLFamily_GR_NORM   .         Gamma Ray                     : 
TLFamily_MD        .         Measured Depth                : 
TLFamily_RHOB_NORM .         Bulk Density                  : 
TLFamily_TNPH_NORM .         Neutron Porosity              : 
~Curve Information
#_______________________________________________________________________________
#
#LOGNAME           .UNIT     LOG_ID                        : DESCRIPTION
#_______________________________________________________________________________
MD                 .m                                      :  
GR_NORM            .gAPI                                   : Normalised By Techlog 
RHOB_NORM          .g/cm3                                  : Normalized By Techlog 
TNPH_NORM          .v/v                                    : Normalised By Techlog 
~Ascii
# ...
2625.80000141263 209.4091   2.115622   0.3484596 
2626.00000141561 170.7988   2.138107   0.3893994 
2626.200001418591 157.0819   2.245412   0.3666551 
2626.400001421571 160.188    2.258756   0.3336758 
2626.600001424551 170.5565   2.283252   0.3689295 
2626.800001427531 180.7005   2.367706   0.3314014 
2627.000001430511 172.3878   2.472452   0.324578  
2627.200001433492 171.2746   2.419805   0.3905366 
2627.400001436472 179.0039   2.290381   0.345048  
2627.600001439452 178.3306   2.203733   0.3791645 
2627.800001442432 169.3535   2.183259   0.3575574 
2628.000001445413 163.1863   2.263144   0.3109315 
2628.200001448393 146.0402   2.372277   0.2950104 
2628.400001451373 146.1569   2.213421   0.3461851 
2628.600001454353 135.3216   2.106299   0.360969  
2628.800001457334 127.9783   2.223475   0.3097942 
2629.000001460314 125.2314   2.224024   0.2677172 
2629.200001463294 133.7147   2.232067   0.2756777 
2629.400001466274 132.9426   2.384707   0.2904616 
2629.600001469254 143.1226   2.365878   0.3279897 
2629.800001472235 140.6539   2.285628   0.3484596 
2630.000001475215 141.7042   2.255831   0.3427735 
2630.200001478195 135.6717   2.288918   0.3586946 
2630.400001481175 141.5516   2.329135   0.308657  
2630.600001484156 145.1335   2.289101   0.2870499 
2630.800001487136 155.879    2.197517   0.308657  
2631.000001490116 166.2565   2.210679   0.2779522 
2631.200001493096 131.9103   2.298973   0.2881871 
2631.400001496077 119.0552   2.255283   0.276815  
2631.600001499057 124.4055   2.249068   0.3097942 
2631.800001502037 119.8541   2.246508   0.2586195 
2632.000001505017 111.8286   2.355093   0.2472473 
2632.200001507998 107.9326   2.429128   0.2870499 
2632.400001510978 106.5681   2.301714   0.3052454 
2632.600001513958 105.841    2.299886   0.2813638 
2632.800001516938 106.1192   2.308661   0.3166175 
2633.000001519918 108.3725   2.272101   0.2847755 
2633.200001522899 103.9647   2.343942   0.2631684 
2633.400001525879 101.8641   2.368255   0.2643056 
2633.600001528859 103.3633   2.538992   0.2779522 
2633.800001531839 112.1518   2.595112   0.3336758 
2634.00000153482 113.7856   2.442838   0.3416363 
2634.2000015378 113.247    2.412858   0.26658   
2634.40000154078 112.6545   2.297693   0.2142681 
2634.60000154376 117.4662   2.177958   0.2324635 
2634.800001546741 114.8      2.181614   0.240424  
2635.000001549721 112.08     2.277402   0.2870499 
2635.200001552701 108.6597   2.381051   0.2699917 
2635.400001555681 109.2163   2.249068   0.3052454 
2635.600001558661 114.6205   2.260219   0.3109315 
2635.800001561642 115.3476   2.309941   0.3223036 
2636.000001564622 116.9815   2.285811   0.3120687 
2636.200001567602 126.7844   2.253455   0.3257153 
2636.400001570582 128.517    2.273381   0.3393619 
2636.600001573563 129.0376   2.264606   0.3564201 
2636.800001576543 122.4485   2.246874   0.2677172 
2637.000001579523 113.0675   2.312317   0.2426985 
2637.200001582503 102.3938   2.32036    0.2563451 
2637.400001585484 107.403    2.283252   0.2893244 
2637.600001588464 118.7679   2.273563   0.2915988 
2637.800001591444 125.9406   2.335716   0.2677172 
2638.000001594424 122.1881   2.352717   0.2654428 
2638.200001597404 106.1462   2.294402   0.2336008 
2638.400001600385 92.88708   2.386169   0.2495218 
2638.600001603365 91.45972   2.415783   0.2267774 
2638.800001606345 92.57288   2.319812   0.2495218 
2639.000001609325 95.71484   2.357286   0.3109315 
2639.200001612306 109.7908   2.304457   0.292736  
2639.400001615286 131.0126   2.273563   0.2870499 
2639.600001618266 129.5314   2.322189   0.3120687 
2639.800001621246 128.894    2.273381   0.324578  
2640.000001624227 125.4019   2.222013   0.3063826 
2640.200001627207 118.2562   2.32749    0.2722661 
2640.400001630187 107.2144   2.356372   0.2836382 
2640.600001633167 101.3075   2.413224   0.2756777 
2640.800001636147 101.7384   2.414138   0.2734033 
2641.000001639128 105.2215   2.369534   0.282501  
2641.200001642108 115.0963   2.237734   0.2961476 
2641.400001645088 120.671    2.239196   0.3757528 
2641.600001648068 139.1458   2.22055    0.3655179 
2641.800001651049 140.1063   2.263875   0.37689   
2642.000001654029 131.3537   2.291478   0.3689295 
2642.200001657009 131.6948   2.268445   0.3211664 
2642.400001659989 133.8583   2.328404   0.3132059 
2642.60000166297 137.0721   2.314511   0.3632434 
2642.80000166595 135.5909   2.299338   0.2893244 
2643.00000166893 128.7234   2.2381     0.3393619 
2643.20000167191 132.7003   2.149623   0.4269275 
2643.400001674891 139.7024   2.145236   0.3530085 
2643.600001677871 140.2948   2.168818   0.2984221 
2643.800001680851 138.7239   2.255649   0.3643806 
2644.000001683831 145.0347   2.252175   0.3484596 
2644.200001686811 155.6546   2.295682   0.3791645 
2644.400001689792 163.7698   2.255466   0.4303392 
2644.600001692772 179.1116   2.077782   0.4280647 
2644.800001695752 180.0811   2.107396   0.3780272 
2645.000001698732 157.2166   2.196055   0.3063826 
2645.200001701713 131.8834   2.280875   0.2620311 
2645.400001704693 113.5612   2.302629   0.2995593 
2645.600001707673 111.8286   2.294951   0.3314014 
2645.800001710653 115.5721   2.306468   0.3541457 
2646.000001713634 125.0249   2.237551   0.3814389 
2646.200001716614 123.4629   2.137558   0.3882622 
2646.400001719594 114.9437   2.325662   0.3279897 
2646.600001722574 109.8806   2.431687   0.2915988 
2646.800001725554 113.9652   2.51084    0.3063826 
2647.000001728535 122.233    2.424009   0.2972849 
2647.200001731515 120.6441   2.369534   0.3018337 
2647.400001734495 117.2059   2.38818    0.2950104 
2647.600001737475 118.5973   2.445763   0.2745405 
2647.800001740456 123.4988   2.536616   0.2529334 
2648.000001743436 132.7541   2.473183   0.282501  
2648.200001746416 134.4418   2.421999   0.2938732 
2648.400001749396 127.6641   2.347781   0.3598318 
2648.600001752377 120.1593   2.41231    0.2847755 
2648.800001755357 112.852    2.413224   0.2517962 
2649.000001758337 110.7604   2.44558    0.2711289 
2649.200001761317 106.2988   2.494936   0.2859127 
2649.400001764297 111.308    2.43059    0.240424  
2649.600001767278 115.1053   2.431139   0.2802266 
2649.800001770258 117.7625   2.477753   0.3359502 
2650.000001773238 117.2238   2.452527   0.3552829 
2650.200001776218 118.0677   2.50883    0.3325386 
2650.400001779199 121.4072   2.494388   0.3097942 
2650.600001782179 113.3906   2.459107   0.2734033 
2650.800001785159 108.8931   2.426934   0.3359502 
2651.000001788139 108.6867   2.483603   0.3530085 
2651.20000179112 112.1518   2.554165   0.3575574 
2651.4000017941 106.2629   2.547401   0.3359502 
2651.60000179708 104.0186   2.521991   0.3132059 
2651.80000180006 112.3852   2.534239   0.2893244 
2652.000001803041 107.771    2.511206   0.3166175 
2652.200001806021 107.1157   2.394212   0.2859127 
2652.400001809001 106.99     2.387997   0.2904616 
2652.600001811981 105.6345   2.434247   0.3314014 
2652.800001814961 106.7925   2.462398   0.3279897 
2653.000001817942 101.7384   2.505905   0.2677172 
2653.200001820922 87.74323   2.464774   0.2449729 
2653.400001823902 62.10479   2.546121   0.2233658 
2653.600001826882 55.12064   2.580305   0.224503  
2653.800001829863 85.63361   2.600048   0.2426985 
2654.000001832843 116.8737   2.427848   0.3586946 
2654.200001835823 124.2259   2.440645   0.3393619 
2654.400001838803 119.9798   2.509927   0.318892  
2654.600001841784 118.346    2.534056   0.3234408 
2654.800001844764 111.9812   2.417611   0.2836382 
2655.000001847744 108.3904   2.379589   0.3132059 
2655.200001850724 100.4817   2.379405   0.3097942 
2655.400001853704 96.09187   2.448322   0.3336758 
2655.600001856685 102.4835   2.505356   0.3325386 
2655.800001859665 102.0167   2.554713   0.3075198 
2656.000001862645 106.4155   2.566229   0.2586195 
2656.200001865625 108.8124   2.450516   0.2495218 
2656.400001868606 113.4086   2.47556    0.2586195 
2656.600001871586 115.2668   2.540272   0.2222286 
2656.800001874566 115.4284   2.45472    0.240424  
2657.000001877546 108.9919   2.388911   0.2813638 
2657.200001880527 111.3349   2.476474   0.2995593 
