~Version
 VERS              .         2.0                           : CWLS LOG ASCII STANDARD - VERSION 2.0
 WRAP              .         NO                            : ONE LINE PER DEPTH STEP
 DLM               .         SPACE                         : DELIMITING CHARACTER(SPACE TAB OR COMMA)
~Well Information
#_______________________________________________________________________________
#
#PARAMETER_NAME    .UNIT     VALUE                         : DESCRIPTION
#_______________________________________________________________________________
STRT               .m        2531                          : First reference value
STOP               .m        2737.80000308156              : Last reference value
STEP               .m        0.2                           : Step increment
NULL               .         -9999                         : Missing value
COMP               .                                       : Company
WELL               .         502                           : Well name
FLD                .                                       : Field
LOC                .                                       : Location
CNTY               .                                       : County
STAT               .                                       : State
CTRY               .                                       : Country
SRVC               .                                       : Service Company
DATE               .                                       : Date
API                .                                       : API number
EREF               .m        139.4                         : 
PROJECT_UPGRADE_TIME .         2014-05-27T11_38_46           : 
Pad                .         Pad5                          : 
X                  .m        230550                        : 
Y                  .m        242075                        : 
group              .         Pad5                          : 
Интер-р            .         Пузин                         : 
Куст               .         5                             : 
Статус             .         Не проверено                  : 
Тип                .         Эксплуатация                  : 
~Parameter Information Block
#_______________________________________________________________________________
#
#PARAMETER_NAME    .UNIT     VALUE                         : DESCRIPTION
#_______________________________________________________________________________
SET                .         LQC                           : 
PROJECT_UPGRADE_TIME .         2014-05-27T11_38_46           : 
TLFamily_GR_NORM   .         Gamma Ray                     : 
TLFamily_MD        .         Measured Depth                : 
TLFamily_RHOB_NORM .         Bulk Density                  : 
TLFamily_TNPH_NORM .         Neutron Porosity              : 
~Curve Information
#_______________________________________________________________________________
#
#LOGNAME           .UNIT     LOG_ID                        : DESCRIPTION
#_______________________________________________________________________________
MD                 .m                                      :  
GR_NORM            .gAPI                                   : Normalised By Techlog 
RHOB_NORM          .g/cm3                                  : Normalized By Techlog 
TNPH_NORM          .v/v                                    : Normalised By Techlog 
~Ascii
# ...
2562.600000470877 63.41544   2.577015   0.2324635 
2562.800000473857 67.99372   2.579209   0.2165425 
2563.000000476837 72.44634   2.388728   0.2290519 
2563.200000479817 68.35281   2.356007   0.2381496 
2563.400000482798 67.35636   2.42602    0.1915237 
2563.600000485778 67.01523   2.500238   0.1687794 
2563.800000488758 63.32566   2.524916   0.1744655 
2564.000000491738 56.57493   2.509195   0.1574072 
2564.200000494719 50.11145   2.514314   0.1585445 
2564.400000497699 50.39872   2.699127   0.1471723 
2564.600000500679 46.87074   2.704611   0.1176047 
2564.800000503659 43.29788   2.671707   0.1255652 
2565.000000506639 46.23337   2.641727   0.1437607 
2565.20000050962 45.87429   2.593284   0.1574072 
2565.4000005126 46.90665   2.54996    0.192661  
2565.60000051558 53.80102   2.484699   0.2222286 
2565.80000051856 53.74716   2.463129   0.2176797 
2566.000000521541 57.37388   2.415052   0.2324635 
2566.200000524521 56.83526   2.489087   0.2597567 
2566.400000527501 60.4171    2.449419   0.2688545 
2566.600000530481 60.44403   2.493657   0.2722661 
2566.800000533462 60.90186   2.458376   0.2734033 
2567.000000536442 60.12085   2.398051   0.2711289 
2567.200000539422 60.79414   2.377029   0.2620311 
2567.400000542402 68.68496   2.3125     0.2483846 
2567.600000545382 74.55595   2.306468   0.2620311 
2567.800000548363 79.87933   2.355641   0.2745405 
2568.000000551343 91.77392   2.409568   0.2438357 
2568.200000554323 100.5445   2.431687   0.2722661 
2568.400000557303 101.5589   2.395492   0.26658   
2568.600000560284 100.9305   2.377395   0.2677172 
2568.800000563264 98.76704   2.446494   0.2608939 
2569.000000566244 94.69145   2.390374   0.2574823 
2569.200000569224 82.76994   2.427117   0.2517962 
2569.400000572205 71.26137   2.492377   0.2540706 
2569.600000575185 63.0384    2.5878     0.2540706 
2569.800000578165 51.21563   2.544476   0.2188169 
2570.000000581145 48.32502   2.605715   0.2324635 
2570.200000584126 48.72001   2.432418   0.2358752 
2570.400000587106 49.5459    2.439548   0.2290519 
2570.600000590086 45.65884   2.540272   0.2336008 
2570.800000593066 44.3841    2.597306   0.2063075 
2571.000000596046 46.67324   2.535519   0.1915237 
2571.200000599027 51.04507   2.520346   0.182426  
2571.400000602007 51.77221   2.465871   0.1960726 
2571.600000604987 51.853     2.432418   0.2267774 
2571.800000607967 57.51752   2.311037   0.2313263 
2572.000000610948 62.44591   2.272101   0.2119936 
2572.200000613928 64.92358   2.374836   0.1949354 
2572.400000616908 64.28621   2.467882   0.2222286 
2572.600000619888 66.95239   2.464774   0.2097192 
2572.800000622869 69.44801   2.417611   0.192661  
2573.000000625849 61.25197   2.500421   0.1869749 
2573.200000628829 47.67867   2.578477   0.1551328 
2573.400000631809 42.51688   2.581768   0.1232907 
2573.600000634789 44.44694   2.645931   0.1119186 
2573.80000063777 46.31416   2.56495    0.1289768 
2574.00000064075 48.41479   2.61979    0.130114  
2574.20000064373 46.71813   2.655254   0.1471723 
2574.40000064671 49.16886   2.644104   0.1937982 
2574.600000649691 49.04318   2.596757   0.2324635 
2574.800000652671 53.99851   2.57281    0.2881871 
2575.000000655651 62.83192   2.387632   0.2631684 
2575.200000658631 71.74613   2.336447   0.2472473 
2575.400000661612 80.30125   2.45015    0.2324635 
2575.600000664592 88.02151   2.446494   0.2597567 
2575.800000667572 97.36662   2.391288   0.2586195 
2576.000000670552 96.55868   2.475194   0.2461101 
2576.200000673532 94.74532   2.545938   0.2370124 
2576.400000676513 97.1781    2.471355   0.2631684 
2576.600000679493 93.38979   2.441741   0.2392868 
2576.800000682473 94.48499   2.484334   0.2870499 
2577.000000685453 94.39521   2.456731   0.2881871 
2577.200000688434 104.243    2.51669    0.292736  
2577.400000691414 111.0207   2.618145   0.2972849 
2577.600000694394 105.9576   2.479581   0.318892  
2577.800000697374 106.7656   2.402804   0.3154804 
2578.000000700355 103.7044   2.429311   0.308657  
2578.200000703335 100.3021   2.502614   0.282501  
2578.400000706315 98.88374   2.432235   0.308657  
2578.600000709295 95.1044    2.41688    0.2995593 
2578.800000712276 94.14385   2.450516   0.2870499 
2579.000000715256 91.56744   2.462215   0.2483846 
2579.200000718236 91.53154   2.477022   0.198347  
2579.400000721216 95.88541   2.534971   0.2358752 
2579.600000724196 89.84385   2.397503   0.2461101 
2579.800000727177 89.395     2.372642   0.2176797 
2580.000000730157 93.02173   2.456914   0.2461101 
2580.200000733137 96.34323   2.538078   0.240424  
2580.400000736117 99.76349   2.565315   0.2472473 
2580.600000739098 102.3309   2.683954   0.2529334 
2580.800000742078 95.80461   2.651415   0.2461101 
2581.000000745058 97.16912   2.499141   0.2552078 
2581.200000748038 101.0472   2.536616   0.2950104 
2581.400000751019 103.9737   2.619425   0.2734033 
2581.600000753999 104.0725   2.488173   0.292736  
2581.800000756979 97.7257    2.508098   0.2847755 
2582.000000759959 95.78666   2.484883   0.2563451 
2582.200000762939 92.34845   2.435526   0.234738  
2582.40000076592 93.55137   2.445397   0.2392868 
2582.6000007689 90.30168   2.519066   0.2472473 
2582.80000077188 94.00921   2.564402   0.2790894 
2583.00000077486 96.88186   2.467333   0.2915988 
2583.200000777841 96.06495   2.467151   0.2779522 
2583.400000780821 100.5984   2.499507   0.2438357 
2583.600000783801 101.0382   2.496765   0.2552078 
2583.800000786781 101.909    2.417063   0.2586195 
2584.000000789762 101.2806   2.426569   0.2631684 
2584.200000792742 99.64678   2.590908   0.2745405 
2584.400000795722 100.2213   2.613575   0.2449729 
2584.600000798702 93.21922   2.537164   0.2426985 
2584.800000801682 95.42758   2.613027   0.2552078 
2585.000000804663 98.34512   2.616683   0.250659  
2585.200000807643 95.34679   2.530583   0.2336008 
2585.400000810623 96.42403   2.428762   0.240424  
2585.600000813603 96.32528   2.408288   0.2734033 
2585.800000816584 98.86578   2.426203   0.2802266 
2586.000000819564 100.4906   2.558369   0.2734033 
2586.200000822544 101.532    2.669878   0.2552078 
2586.400000825524 101.7025   2.662201   0.2517962 
2586.600000828505 94.01818   2.577563   0.2654428 
2586.800000831485 89.15262   2.474828   0.2677172 
2587.000000834465 84.13445   2.463495   0.2836382 
2587.200000837445 84.1524    2.423827   0.2620311 
2587.400000840425 87.01608   2.402987   0.2540706 
2587.600000843406 90.83133   2.496399   0.2688545 
2587.800000846386 89.61044   2.609554   0.2813638 
2588.000000849366 89.70022   2.530766   0.3029709 
2588.200000852346 91.14552   2.483237   0.2677172 
2588.400000855327 93.21024   2.599865   0.2563451 
2588.600000858307 92.33948   2.600779   0.2745405 
2588.800000861287 93.02173   2.471904   0.3006965 
2589.000000864267 91.80983   2.444118   0.2643056 
2589.200000867248 85.38226   2.504808   0.2654428 
2589.400000870228 81.10021   2.448139   0.2790894 
2589.600000873208 82.17746   2.322554   0.2597567 
2589.800000876188 73.83778   2.40774    0.2142681 
2590.000000879169 80.84885   2.610102   0.2324635 
2590.200000882149 78.13779   2.602424   0.2586195 
2590.400000885129 72.87724   2.443386   0.2540706 
2590.600000888109 69.81606   2.514314   0.2790894 
2590.800000891089 85.22068   2.518152   0.3336758 
2591.00000089407 90.08624   2.496399   0.3393619 
2591.20000089705 90.05033   2.559283   0.3325386 
2591.40000090003 92.85116   2.549229   0.3143431 
2591.60000090301 94.5568    2.466237   0.2836382 
2591.800000905991 92.8781    2.453258   0.2961476 
2592.000000908971 85.14886   2.452892   0.2631684 
2592.200000911951 88.67684   2.417977   0.2381496 
2592.400000914931 90.33759   2.503894   0.2461101 
2592.600000917912 92.15993   2.491829   0.3018337 
2592.800000920892 92.77935   2.598585   0.324578  
2593.000000923872 92.88708   2.600962   0.2950104 
2593.200000926852 91.04678   2.477205   0.2802266 
2593.400000929832 94.74532   2.474463   0.2699917 
2593.600000932813 93.33593   2.533874   0.2756777 
2593.800000935793 86.01963   2.409568   0.2529334 
2594.000000938773 82.54552   2.43644    0.2563451 
