~Version
 VERS              .         2.0                           : CWLS LOG ASCII STANDARD - VERSION 2.0
 WRAP              .         NO                            : ONE LINE PER DEPTH STEP
 DLM               .         SPACE                         : DELIMITING CHARACTER(SPACE TAB OR COMMA)
~Well Information
#_______________________________________________________________________________
#
#PARAMETER_NAME    .UNIT     VALUE                         : DESCRIPTION
#_______________________________________________________________________________
STRT               .m        2531                          : First reference value
STOP               .m        2737.80000308156              : Last reference value
STEP               .m        0.2                           : Step increment
NULL               .         -9999                         : Missing value
COMP               .                                       : Company
WELL               .         502                           : Well name
FLD                .                                       : Field
LOC                .                                       : Location
CNTY               .                                       : County
STAT               .                                       : State
CTRY               .                                       : Country
SRVC               .                                       : Service Company
DATE               .                                       : Date
API                .                                       : API number
EREF               .m        139.4                         : 
PROJECT_UPGRADE_TIME .         2014-05-27T11_38_46           : 
Pad                .         Pad5                          : 
X                  .m        230550                        : 
Y                  .m        242075                        : 
group              .         Pad5                          : 
Интер-р            .         Пузин                         : 
Куст               .         5                             : 
Статус             .         Не проверено                  : 
Тип                .         Эксплуатация                  : 
~Parameter Information Block
#_______________________________________________________________________________
#
#PARAMETER_NAME    .UNIT     VALUE                         : DESCRIPTION
#_______________________________________________________________________________
SET                .         LQC                           : 
PROJECT_UPGRADE_TIME .         2014-05-27T11_38_46           : 
TLFamily_GR_NORM   .         Gamma Ray                     : 
TLFamily_MD        .         Measured Depth                : 
TLFamily_RHOB_NORM .         Bulk Density                  : 
TLFamily_TNPH_NORM .         Neutron Porosity              : 
~Curve Information
#_______________________________________________________________________________
#
#LOGNAME           .UNIT     LOG_ID                        : DESCRIPTION
#_______________________________________________________________________________
MD                 .m                                      :  
GR_NORM            .gAPI                                   : Normalised By Techlog 
RHOB_NORM          .g/cm3                                  : Normalized By Techlog 
TNPH_NORM          .v/v                                    : Normalised By Techlog 
~Ascii
# ...
2689.000002354383 100.0148   2.434977   0.224503  
2689.200002357364 111.5683   2.381234   0.3063826 
2689.400002360344 114.4858   2.453989   0.3586946 
2689.600002363324 117.6906   2.593832   0.3223036 
2689.800002366304 104.6111   2.580488   0.3336758 
2690.000002369285 101.3883   2.522905   0.2586195 
2690.200002372265 100.0867   2.567692   0.2279147 
2690.400002375245 89.69125   2.536433   0.2643056 
2690.600002378225 85.6426    2.405546   0.3223036 
2690.800002381206 77.47349   2.386169   0.3439107 
2691.000002384186 82.88664   2.061512   0.3393619 
2691.200002387166 87.12381   2.010145   0.3336758 
2691.400002390146 83.50607   2.329866   0.3120687 
2691.600002393126 82.97642   2.35747    0.2552078 
2691.800002396107 93.37183   2.470807   0.1915237 
2692.000002399087 94.87998   2.463678   0.2154053 
2692.200002402067 86.96223   2.526561   0.2415613 
2692.400002405047 88.90127   2.489635   0.2426985 
2692.600002408028 83.06618   2.461301   0.234738  
2692.800002411008 82.53654   2.483237   0.2461101 
2693.000002413988 84.98727   2.582316   0.2552078 
2693.200002416968 84.314     2.513582   0.2745405 
2693.400002419949 86.04656   2.625458   0.2370124 
2693.600002422929 93.68603   2.577198   0.2426985 
2693.800002425909 95.91234   2.523088   0.2597567 
2694.000002428889 85.94781   2.514862   0.2699917 
2694.20000243187 82.60835   2.472635   0.2711289 
2694.40000243485 85.78623   2.509743   0.2517962 
2694.60000243783 83.22778   2.517787   0.2688545 
2694.80000244081 89.06285   2.520164   0.2802266 
2695.00000244379 91.69312   2.508098   0.2563451 
2695.200002446771 96.7113    2.504991   0.2802266 
2695.400002449751 93.82966   2.483969   0.2893244 
2695.600002452731 93.82966   2.461849   0.2813638 
2695.800002455711 92.33948   2.414869   0.2472473 
2696.000002458692 91.41483   2.463312   0.2438357 
2696.200002461672 95.64303   2.484334   0.2756777 
2696.400002464652 102.5194   2.523819   0.2734033 
2696.600002467632 93.03969   2.483786   0.2631684 
2696.800002470613 87.31232   2.341748   0.3018337 
2697.000002473593 87.92277   2.395675   0.308657  
2697.200002476573 85.66953   2.490184   0.2370124 
2697.400002479553 83.48811   2.459107   0.2552078 
2697.600002482533 81.23487   2.57866    0.2540706 
2697.800002485514 84.21525   2.587983   0.2199541 
2698.000002488494 82.69813   2.579026   0.2131308 
2698.200002491474 75.4716    2.476108   0.2131308 
2698.400002494454 68.73882   2.432601   0.2131308 
2698.600002497435 57.98432   2.660921   0.2051703 
2698.800002500415 62.87681   2.726913   0.2074448 
2699.000002503395 74.99583   2.496399   0.1756027 
2699.200002506375 86.14531   2.527293   0.2051703 
2699.400002509356 85.14886   2.593467   0.2188169 
2699.600002512336 74.8522    2.558552   0.2142681 
2699.800002515316 65.49811   2.487808   0.2210914 
2700.000002518296 58.9718    2.553616   0.2358752 
2700.200002521276 55.4528    2.515593   0.2529334 
2700.400002524257 53.35217   2.530949   0.2552078 
2700.600002527237 47.0054    2.571897   0.2483846 
2700.800002530217 48.15446   2.492012   0.2438357 
2701.000002533197 47.34652   2.420353   0.2313263 
2701.200002536178 48.44172   2.464592   0.2301891 
2701.400002539158 51.78118   2.470807   0.2745405 
2701.600002542138 53.37012   2.451978   0.3097942 
2701.800002545118 62.02399   2.390739   0.2790894 
2702.000002548099 79.19707   2.300984   0.3097942 
2702.200002551079 91.17246   2.449236   0.3143431 
2702.400002554059 97.24992   2.477936   0.2938732 
2702.600002557039 106.2449   2.402804   0.308657  
2702.800002560019 103.5967   2.419622   0.26658   
2703.000002563 96.45096   2.417245   0.3109315 
2703.20000256598 95.5353    2.464592   0.334813  
2703.40000256896 93.8925    2.577381   0.3052454 
2703.60000257194 83.92799   2.626189   0.3279897 
2703.800002574921 86.52235   2.512851   0.3041081 
2704.000002577901 81.46827   2.395309   0.2199541 
2704.200002580881 73.52358   2.421999   0.1767399 
2704.400002583861 70.5881    2.511755   0.198347  
2704.600002586842 71.89874   2.476474   0.2301891 
2704.800002589822 79.69082   2.410116   0.2483846 
2705.000002592802 83.64071   2.375932   0.282501  
2705.200002595782 75.41775   2.405546   0.324578  
2705.400002598763 61.74571   2.105202   0.3723412 
2705.600002601743 45.84735   1.567581   0.4371625 
2705.800002604723 16.91434   1.004001   0.3154804 
2706.000002607703 7.964226   0.6630754  0.4041832 
2706.200002610683 8.036041   0.6455263  0.345048  
2706.400002613664 15.23563   0.6636236  0.4201042 
2706.600002616644 14.14941   0.6378486  0.4576324 
2706.800002619624 19.20349   0.5727709  0.6452731 
2707.000002622604 32.19327   0.5586952  0.6611941 
2707.200002625585 46.85279   0.9285043  0.4576324 
2707.400002628565 61.45844   1.991499   0.4246531 
2707.600002631545 74.97787   2.314145   0.2984221 
2707.800002634525 85.63361   2.483054   0.3075198 
2708.000002637506 90.2568    2.556906   0.3223036 
2708.200002640486 86.78268   2.171742   0.2756777 
2708.400002643466 87.57266   2.246691   0.2961476 
2708.600002646446 85.73237   2.545756   0.3075198 
2708.800002649426 83.98184   2.572628   0.2961476 
2709.000002652407 90.63383   2.573541   0.2142681 
2709.200002655387 90.76849   2.595295   0.1596817 
2709.400002658367 90.46327   2.484334   0.2017587 
2709.600002661347 84.75387   2.384341   0.2017587 
2709.800002664328 81.77349   2.434247   0.2336008 
2710.000002667308 81.67474   2.459473   0.2631684 
2710.200002670288 81.56702   2.513948   0.2915988 
2710.400002673268 78.01211   2.501518   0.2677172 
2710.600002676249 67.03319   2.532411   0.2188169 
2710.800002679229 65.12107   2.471172   0.2188169 
2711.000002682209 58.24466   2.443569   0.2688545 
2711.200002685189 63.08328   2.571713   0.2711289 
2711.400002688169 64.87869   2.560928   0.2711289 
2711.60000269115 64.30416   2.575004   0.250659  
2711.80000269413 71.46784   2.512668   0.2199541 
2712.00000269711 68.46053   2.534422   0.2222286 
2712.20000270009 75.29207   2.538992   0.2313263 
2712.400002703071 79.1881    2.532594   0.2188169 
2712.600002706051 78.91879   2.470989   0.2188169 
2712.800002709031 76.881     2.486711   0.208582  
2713.000002712011 74.09811   2.506636   0.2438357 
2713.200002714992 65.88412   2.369717   0.2222286 
2713.400002717972 55.17451   2.406826   0.2290519 
2713.600002720952 50.66803   2.562391   0.2415613 
2713.800002723932 54.62691   2.528938   0.2688545 
2714.000002726912 58.76532   2.544293   0.2938732 
2714.200002729893 62.58955   2.591456   0.2950104 
2714.400002732873 75.42672   2.509927   0.2870499 
2714.600002735853 96.828     2.459107   0.2699917 
2714.800002738833 106.3975   2.382148   0.2699917 
2715.000002741814 108.7316   2.340286   0.3382246 
2715.200002744794 101.6397   2.414321   0.2734033 
2715.400002747774 87.08791   2.455269   0.2438357 
2715.600002750754 85.31942   2.434429   0.2199541 
2715.800002753735 83.35345   2.447225   0.240424  
2716.000002756715 79.48434   2.48927    0.2472473 
2716.200002759695 74.22379   2.380685   0.240424  
2716.400002762675 78.82005   2.429128   0.2461101 
2716.600002765656 82.31211   2.527658   0.2176797 
2716.800002768636 71.79102   2.592005   0.2006215 
2717.000002771616 67.61669   2.643372   0.1744655 
2717.200002774596 66.77285   2.567875   0.1699166 
2717.400002777576 66.85364   2.396955   0.1687794 
2717.600002780557 72.06033   2.426751   0.2051703 
2717.800002783537 72.08726   2.478485   0.2267774 
2718.000002786517 60.91084   2.700955   0.2336008 
2718.200002789497 52.29287   2.756161   0.208582  
2718.400002792478 48.63922   2.609371   0.192661  
2718.600002795458 45.09328   2.468613   0.1812888 
2718.800002798438 43.69286   2.566229   0.1312513 
2719.000002801418 45.68577   2.609188   0.1312513 
2719.200002804399 55.01292   2.560928   0.2006215 
2719.400002807379 62.41898   2.638254   0.2643056 
2719.600002810359 66.47661   2.529486   0.2620311 
2719.800002813339 70.17515   2.412127   0.2711289 
2720.000002816319 74.90605   2.484151   0.2756777 
2720.2000028193 85.24761   2.589445   0.2745405 
2720.40000282228 86.03758   2.642824   0.2847755 
