~Version
 VERS              .         2.0                           : CWLS LOG ASCII STANDARD - VERSION 2.0
 WRAP              .         NO                            : ONE LINE PER DEPTH STEP
 DLM               .         SPACE                         : DELIMITING CHARACTER(SPACE TAB OR COMMA)
~Well Information
#_______________________________________________________________________________
#
#PARAMETER_NAME    .UNIT     VALUE                         : DESCRIPTION
#_______________________________________________________________________________
STRT               .m        2531                          : First reference value
STOP               .m        2737.80000308156              : Last reference value
STEP               .m        0.2                           : Step increment
NULL               .         -9999                         : Missing value
COMP               .                                       : Company
WELL               .         502                           : Well name
FLD                .                                       : Field
LOC                .                                       : Location
CNTY               .                                       : County
STAT               .                                       : State
CTRY               .                                       : Country
SRVC               .                                       : Service Company
DATE               .                                       : Date
API                .                                       : API number
EREF               .m        139.4                         : 
PROJECT_UPGRADE_TIME .         2014-05-27T11_38_46           : 
Pad                .         Pad5                          : 
X                  .m        230550                        : 
Y                  .m        242075                        : 
group              .         Pad5                          : 
Интер-р            .         Пузин                         : 
Куст               .         5                             : 
Статус             .         Не проверено                  : 
Тип                .         Эксплуатация                  : 
~Parameter Information Block
#_______________________________________________________________________________
#
#PARAMETER_NAME    .UNIT     VALUE                         : DESCRIPTION
#_______________________________________________________________________________
SET                .         LQC                           : 
PROJECT_UPGRADE_TIME .         2014-05-27T11_38_46           : 
TLFamily_GR_NORM   .         Gamma Ray                     : 
TLFamily_MD        .         Measured Depth                : 
TLFamily_RHOB_NORM .         Bulk Density                  : 
TLFamily_TNPH_NORM .         Neutron Porosity              : 
~Curve Information
#_______________________________________________________________________________
#
#LOGNAME           .UNIT     LOG_ID                        : DESCRIPTION
#_______________________________________________________________________________
MD                 .m                                      :  
GR_NORM            .gAPI                                   : Normalised By Techlog 
RHOB_NORM          .g/cm3                                  : Normalized By Techlog 
TNPH_NORM          .v/v                                    : Normalised By Techlog 
~Ascii
2531.0     84.14343   -9999      0.3109315 
2531.20000000298 88.21901   -9999      0.2734033 
2531.40000000596 92.59084   -9999      0.2972849 
2531.600000008941 90.31065   -9999      0.292736  
2531.800000011921 89.37704   -9999      0.3302641 
2532.000000014901 87.50983   -9999      0.324578  
2532.200000017881 87.13278   -9999      0.3143431 
2532.400000020862 98.67726   -9999      0.2677172 
2532.600000023842 105.7961   -9999      0.2608939 
2532.800000026822 107.7531   -9999      0.2426985 
2533.000000029802 102.1693   -9999      0.2290519 
2533.200000032783 97.12424   -9999      0.2415613 
2533.400000035763 87.39312   -9999      0.240424  
2533.600000038743 84.08957   -9999      0.2540706 
2533.800000041723 80.34614   -9999      0.282501  
2534.000000044703 71.22546   -9999      0.276815  
2534.200000047684 63.34362   -9999      0.2688545 
2534.400000050664 54.56407   -9999      0.2290519 
2534.600000053644 51.80811   -9999      0.1960726 
2534.800000056624 48.32502   -9999      0.1812888 
2535.000000059605 44.33023   -9999      0.1812888 
2535.200000062585 47.57993   -9999      0.1448978 
2535.400000065565 52.43651   -9999      0.1369374 
2535.600000068545 54.591     -9999      0.1392118 
2535.800000071526 51.76323   -9999      0.1289768 
2536.000000074506 48.19934   -9999      0.1289768 
2536.200000077486 46.86176   -9999      0.1414862 
2536.400000080466 48.63024   -9999      0.1790143 
2536.600000083447 49.82418   -9999      0.2483846 
2536.800000086427 54.9411    -9999      0.2381496 
2537.000000089407 52.46344   -9999      0.240424  
2537.200000092387 61.33276   -9999      0.2597567 
2537.400000095367 62.94863   -9999      0.2597567 
2537.600000098348 66.34195   -9999      0.2574823 
2537.800000101328 71.26137   -9999      0.2836382 
2538.000000104308 77.24905   -9999      0.2699917 
2538.200000107288 77.82359   -9999      0.2597567 
2538.400000110269 75.33695   -9999      0.2438357 
2538.600000113249 71.84488   -9999      0.2142681 
2538.800000116229 73.98141   -9999      0.2142681 
2539.000000119209 86.5403    -9999      0.2381496 
2539.20000012219 92.57288   -9999      0.2722661 
2539.40000012517 98.46181   -9999      0.2597567 
2539.60000012815 95.93029   -9999      0.2472473 
2539.80000013113 94.73634   -9999      0.2904616 
2540.00000013411 88.28185   2.07632    0.292736  
2540.200000137091 81.84531   2.218174   0.2688545 
2540.400000140071 77.56326   2.520895   0.2859127 
2540.600000143051 79.77161   2.553433   0.2722661 
2540.800000146031 72.23089   2.347415   0.2711289 
2541.000000149012 65.06721   2.427665   0.26658   
2541.200000151992 68.54133   2.523637   0.2654428 
2541.400000154972 69.48392   2.548132   0.2586195 
2541.600000157952 72.46429   2.55581    0.2574823 
2541.800000160933 70.33674   2.563122   0.2745405 
2542.000000163913 73.77494   2.577563   0.2699917 
2542.200000166893 75.22025   2.438634   0.2495218 
2542.400000169873 73.16451   2.476656   0.2495218 
2542.600000172853 78.9547    2.374836   0.2370124 
2542.800000175834 81.44134   2.37319    0.2586195 
2543.000000178814 79.28685   2.556358   0.2472473 
2543.200000181794 78.33528   2.53753    0.2199541 
2543.400000184774 87.7522    2.432418   0.2370124 
2543.600000187755 102.4925   2.429311   0.2734033 
2543.800000190735 99.17101   2.542831   0.3325386 
2544.000000193715 94.83509   2.563122   0.2859127 
2544.200000196695 90.12214   2.513582   0.2972849 
2544.400000199676 84.68205   2.39988    0.2972849 
2544.600000202656 87.53675   2.317619   0.3109315 
2544.800000205636 96.09187   2.477936   0.292736  
2545.000000208616 96.43301   2.512303   0.234738  
2545.200000211596 93.03969   2.554165   0.2176797 
2545.400000214577 95.11338   2.566595   0.2449729 
2545.600000217557 96.0829    2.48214    0.2210914 
2545.800000220537 85.3284    2.502249   0.2154053 
2546.000000223517 90.39146   2.496033   0.2461101 
2546.200000226498 95.78666   2.471172   0.2756777 
2546.400000229478 91.76495   2.547401   0.2847755 
2546.600000232458 94.41317   2.516325   0.2574823 
2546.800000235438 97.03447   2.502249   0.240424  
2547.000000238419 97.12424   2.466054   0.2392868 
2547.200000241399 95.5353    2.405546   0.2267774 
2547.400000244379 93.70398   2.382879   0.2438357 
2547.600000247359 86.54928   2.425654   0.2370124 
2547.80000025034 88.36264   2.585972   0.2563451 
2548.00000025332 88.56911   2.563122   0.2984221 
2548.2000002563 88.47935   2.548315   0.2847755 
2548.40000025928 90.18498   2.619973   0.2461101 
2548.60000026226 96.39709   2.505539   0.2154053 
2548.800000265241 98.59647   2.344856   0.2142681 
2549.000000268221 92.94991   2.327855   0.2426985 
2549.200000271201 91.8188    2.36862    0.2495218 
2549.400000274181 88.39855   2.481592   0.2449729 
2549.600000277162 85.63361   2.530217   0.2358752 
2549.800000280142 89.59249   2.421633   0.2358752 
2550.000000283122 94.6735    2.416697   0.2563451 
2550.200000286102 96.7472    2.457462   0.2495218 
2550.400000289083 95.88541   2.479033   0.240424  
2550.600000292063 92.9948    2.551788   0.2483846 
2550.800000295043 95.32883   2.544293   0.2608939 
2551.000000298023 94.62862   2.518884   0.2870499 
2551.200000301003 94.03613   2.502249   0.3075198 
2551.400000303984 91.4687    2.544659   0.3257153 
2551.600000306964 86.86347   2.536981   0.2984221 
2551.800000309944 82.94051   2.428762   0.240424  
2552.000000312924 81.98894   2.478667   0.2176797 
2552.200000315905 73.10166   2.479947   0.1949354 
2552.400000318885 66.4407    2.473914   0.1892493 
2552.600000321865 62.62545   2.475011   0.182426  
2552.800000324845 52.49037   2.564584   0.2028959 
2553.000000327826 51.11688   2.532228   0.2267774 
2553.200000330806 57.70603   2.460387   0.2540706 
2553.400000333786 63.91815   2.479947   0.2358752 
2553.600000336766 63.8194    2.495302   0.2461101 
2553.800000339746 65.66867   2.471355   0.3041081 
2554.000000342727 72.61691   2.463495   0.2972849 
2554.200000345707 80.20251   2.461484   0.3200292 
2554.400000348687 89.9426    2.504259   0.3052454 
2554.600000351667 94.48499   2.536433   0.292736  
2554.800000354648 95.96619   2.505173   0.2984221 
2555.000000357628 94.59271   2.508098   0.2461101 
2555.200000360608 86.81859   2.571713   0.2802266 
2555.400000363588 85.20273   2.413955   0.2961476 
2555.600000366569 81.29771   2.538626   0.2677172 
2555.800000369549 72.94905   2.556724   0.2756777 
2556.000000372529 69.13381   2.555993   0.2472473 
2556.200000375509 69.36722   2.560197   0.2654428 
2556.400000378489 71.99748   2.543562   0.2938732 
2556.60000038147 72.1501    2.429311   0.282501  
2556.80000038445 72.06033   2.378857   0.240424  
2557.00000038743 73.01189   2.43059    0.2097192 
2557.20000039041 64.93256   2.525465   0.224503  
2557.400000393391 66.10855   2.644834   0.2745405 
2557.600000396371 67.27556   2.658545   0.2586195 
2557.800000399351 71.51273   2.549778   0.2597567 
2558.000000402331 77.40167   2.461849   0.2620311 
2558.200000405312 80.11274   2.414321   0.2813638 
2558.400000408292 74.67265   2.441559   0.2540706 
2558.600000411272 76.02818   2.498227   0.2608939 
2558.800000414252 77.06054   2.531862   0.2699917 
2559.000000417233 86.10941   2.454172   0.2915988 
2559.200000420213 88.65888   2.468979   0.2995593 
2559.400000423193 82.58142   2.468979   0.2847755 
2559.600000426173 75.79478   2.545938   0.2461101 
2559.800000429153 63.79247   2.5708     0.2222286 
2560.000000432134 63.31668   2.489452   0.2358752 
2560.200000435114 61.71877   2.425106   0.2336008 
2560.400000438094 70.66888   2.35948    0.2381496 
2560.600000441074 76.08204   2.416332   0.2483846 
2560.800000444055 80.81295   2.568789   0.2415613 
2561.000000447035 81.12714   2.527475   0.2199541 
2561.200000450015 78.23653   2.361308   0.2631684 
2561.400000452995 68.80166   2.326576   0.2699917 
2561.600000455976 68.48746   2.372277   0.2608939 
2561.800000458956 67.54488   2.408106   0.2734033 
2562.000000461936 67.47306   2.585972   0.2961476 
2562.200000464916 64.74403   2.562756   0.2847755 
2562.400000467896 63.18203   2.477388   0.2699917 
