~Version
 VERS              .         2.0                           : CWLS LOG ASCII STANDARD - VERSION 2.0
 WRAP              .         NO                            : ONE LINE PER DEPTH STEP
 DLM               .         SPACE                         : DELIMITING CHARACTER(SPACE TAB OR COMMA)
~Well Information
#_______________________________________________________________________________
#
#PARAMETER_NAME    .UNIT     VALUE                         : DESCRIPTION
#_______________________________________________________________________________
STRT               .m        2700                          : First reference value
STOP               .m        2907.80000309646              : Last reference value
STEP               .m        0.2                           : Step increment
NULL               .         -9999                         : Missing value
COMP               .                                       : Company
WELL               .         503                           : Well name
FLD                .                                       : Field
LOC                .                                       : Location
CNTY               .                                       : County
STAT               .                                       : State
CTRY               .                                       : Country
SRVC               .                                       : Service Company
DATE               .                                       : Date
API                .                                       : API number
EREF               .m        139.4                         : 
PROJECT_UPGRADE_TIME .         2014-05-27T11_38_46           : 
Pad                .         Pad5                          : 
X                  .m        230550                        : 
Y                  .m        242075                        : 
group              .         Pad5                          : 
Интер-р            .         Ярышев                        : 
Куст               .         5                             : 
Статус             .         Не проверено                  : 
Тип                .         Разобраться                   : 
~Parameter Information Block
#_______________________________________________________________________________
#
#PARAMETER_NAME    .UNIT     VALUE                         : DESCRIPTION
#_______________________________________________________________________________
SET                .         LQC                           : 
PROJECT_UPGRADE_TIME .         2014-05-27T11_38_46           : 
TLFamily_GR_NORM   .         Gamma Ray                     : 
TLFamily_MD        .         Measured Depth                : 
TLFamily_RHOB_NORM .         Bulk Density                  : 
TLFamily_TNPH_NORM .         Neutron Porosity              : 
~Curve Information
#_______________________________________________________________________________
#
#LOGNAME           .UNIT     LOG_ID                        : DESCRIPTION
#_______________________________________________________________________________
MD                 .m                                      :  
GR_NORM            .gAPI                                   : Normalised By Techlog 
RHOB_NORM          .g/cm3                                  : Normalized By Techlog 
TNPH_NORM          .v/v                                    : Normalised By Techlog 
~Ascii
# ...
2858.000002354383 48.38591   2.583269   0.1805679 
2858.200002357364 47.30239   2.593094   0.1723945 
2858.400002360344 46.73354   2.508211   0.1630535 
2858.600002363324 49.65905   2.531593   0.186406  
2858.800002366304 49.22565   2.505067   0.2039204 
2859.000002369285 50.21888   2.480309   0.2015851 
2859.200002372265 50.30014   2.550259   0.1887413 
2859.400002375245 52.34078   2.582287   0.1782326 
2859.600002378225 49.46041   2.550259   0.195747  
2859.800002381206 49.30691   2.527663   0.1794003 
2860.000002384186 51.31143   2.483649   0.1945794 
2860.200002387166 53.26178   2.404072   0.2039204 
2860.400002390146 54.10151   2.357504   0.1922441 
2860.600002393126 51.70872   2.348269   0.195747  
2860.800002396107 52.80128   2.396015   0.2027528 
2861.000002399087 58.60716   2.529431   0.2179319 
2861.200002402067 66.49883   2.529628   0.2109261 
2861.400002405047 74.36341   2.550456   0.2155966 
2861.600002408028 76.3589    2.396605   0.2482902 
2861.800002411008 79.66365   2.44278    0.2342786 
2862.000002413988 89.59596   2.386781   0.22377   
2862.200002416968 95.42893   2.378135   0.2459549 
2862.400002419949 91.56436   2.47186    0.2587987 
2862.600002422929 90.31831   2.53847    0.2284405 
2862.800002425909 87.46503   2.529628   0.22377   
2863.000002428889 79.72686   2.47913    0.2272729 
2863.20000243187 71.81713   2.421166   0.2226024 
2863.40000243485 64.59364   2.458892   0.2552959 
2863.60000243783 64.04285   2.481488   0.2494578 
2863.80000244081 66.81486   2.559101   0.2658045 
2864.00000244379 67.38371   2.551438   0.2821513 
2864.200002446771 69.13541   2.484632   0.298498  
2864.400002449751 75.25732   2.425292   0.2751455 
2864.600002452731 65.27987   2.462429   0.2436196 
2864.800002455711 66.31824   2.516463   0.2494578 
2865.000002458692 74.15574   2.522554   0.2447873 
2865.200002461672 81.5237    2.475004   0.2739779 
2865.400002464652 87.05871   2.601543   0.2996656 
2865.600002467632 94.78785   2.564603   0.2903247 
2865.800002470613 97.49666   2.466162   0.2949952 
2866.000002473593 99.88944   2.522751   0.3008333 
2866.200002476573 100.2055   2.561852   0.2436196 
2866.400002479553 95.3567    2.478934   0.2681398 
2866.600002482533 97.11743   2.409377   0.2739779 
2866.800002485514 96.16934   2.434724   0.2506254 
2867.000002488494 92.98198   2.574427   0.2506254 
2867.200002491474 86.04742   2.555565   0.2681398 
2867.400002494454 79.42889   2.473432   0.2494578 
2867.600002497435 71.54625   2.412717   0.2786484 
2867.800002500415 47.02248   1.573317   0.3475383 
2868.000002503395 30.12852   0.7798953  0.447954  
2868.200002506375 16.133     0.6765422  0.5238497 
2868.400002509356 16.21427   0.7394187  0.522682  
2868.600002512336 19.12173   0.856133   0.5366935 
2868.800002515316 31.4107    0.908006   0.3767289 
2869.000002518296 42.71547   0.9111498  0.3335268 
2869.200002521276 51.71775   1.092116   0.3627174 
2869.400002524257 67.22118   1.675688   0.3346944 
2869.600002527237 77.21669   2.224874   0.3218505 
2869.800002530217 73.12639   2.456927   0.2541282 
2870.000002533197 72.62074   2.472646   0.2167643 
2870.200002536178 61.03606   2.459285   0.2004175 
2870.400002539158 56.20535   2.443566   0.2074233 
2870.600002542138 57.88481   2.488365   0.2167643 
2870.800002545118 59.42884   2.513123   0.2366139 
2871.000002548099 60.99994   2.436492   0.2342786 
2871.200002551079 70.76972   2.456534   0.2377815 
2871.400002554059 77.86681   2.275568   0.3662203 
2871.600002557039 79.42889   2.208958   0.4397807 
2871.800002560019 82.23702   2.328227   0.3031685 
2872.000002563 86.73365   2.276354   0.2763132 
2872.20000256598 83.10384   2.524519   0.2716427 
2872.40000256896 85.54177   2.566175   0.2693074 
2872.60000257194 94.86008   2.499761   0.2763132 
2872.800002574921 93.21674   2.438654   0.2786484 
2873.000002577901 93.80364   2.448871   0.2926599 
2873.200002580881 85.31604   2.531986   0.2576312 
2873.400002583861 76.06996   2.570498   0.2261053 
2873.600002586842 68.19636   2.612153   0.1899089 
2873.800002589822 73.4966    2.607241   0.1712269 
2874.000002592802 70.00223   2.44612    0.177065  
2874.200002595782 70.8239    2.360648   0.1899089 
2874.400002598763 70.80584   2.363988   0.1910765 
2874.600002601743 76.34988   2.489151   0.2167643 
2874.800002604723 86.228     2.481488   0.2412844 
2875.000002607703 77.90292   2.480113   0.205088  
2875.200002610683 65.85774   2.500154   0.186406  
2875.400002613664 60.19633   2.476576   0.1723945 
2875.600002616644 66.31824   2.423721   0.1817355 
2875.800002619624 71.8984    2.60842    0.2085909 
2876.000002622604 76.93678   2.592505   0.2482902 
2876.200002625585 78.53498   2.434331   0.2529606 
2876.400002628565 69.03608   2.315848   0.2272729 
2876.600002631545 66.76068   2.426668   0.2202671 
2876.800002634525 71.23022   2.509782   0.2109261 
2877.000002637506 69.9661    2.494457   0.2120938 
2877.200002640486 72.35889   2.578947   0.2447873 
2877.400002643466 76.11511   2.644377   0.2576312 
2877.600002646446 75.81715   2.666777   0.3008333 
2877.800002649426 76.26862   2.636125   0.3288563 
2878.000002652407 82.32732   2.538863   0.3522088 
2878.200002655387 88.85555   2.511551   0.3592145 
2878.400002658367 89.72237   2.471664   0.3720584 
2878.600002661347 86.20091   2.50939    0.3533764 
2878.800002664328 84.81942   2.458695   0.2879894 
2879.000002667308 86.00227   2.475201   0.2541282 
2879.200002670288 82.58917   2.583073   0.2564635 
2879.400002673268 77.82166   2.520393   0.2658045 
2879.600002676249 76.98193   2.468716   0.2529606 
2879.800002679229 84.62981   2.374009   0.2366139 
2880.000002682209 84.24154   2.418219   0.2074233 
2880.200002685189 77.69525   2.434724   0.1735621 
2880.400002688169 69.35211   2.50487    0.1467067 
2880.60000269115 60.3408    2.509586   0.1291924 
2880.80000269413 50.43558   2.531003   0.1105104 
2881.00000269711 55.39271   2.513516   0.1128456 
2881.20000270009 65.93901   2.496225   0.1700593 
2881.400002703071 73.5598    2.441601   0.2354463 
2881.600002706051 77.9571    2.425096   0.2809836 
2881.800002709031 84.16028   2.32803    0.2693074 
2882.000002712011 84.33184   2.372044   0.2412844 
2882.200002714992 86.65238   2.59722    0.2669721 
2882.400002717972 89.03614   2.7774     0.2914923 
2882.600002720952 94.18288   2.313097   0.298498  
2882.800002723932 95.53728   2.06395    0.3055038 
2883.000002726912 77.91195   2.403482   0.2821513 
2883.200002729893 60.72003   2.513123   0.2623016 
2883.400002732873 55.75388   2.558119   0.2261053 
2883.600002735853 55.35659   2.550652   0.2249376 
2883.800002738833 56.35885   2.403679   0.1910765 
2884.000002741814 62.10153   2.408591   0.149042  
2884.200002744794 61.61394   2.386584   0.1572154 
2884.400002747774 60.54847   2.413306   0.1525449 
2884.600002750754 64.44013   2.37617    0.1887413 
2884.800002753735 68.62074   2.299147   0.2004175 
2885.000002756715 79.0948    2.340606   0.2226024 
2885.200002759695 88.09708   2.502905   0.2763132 
2885.400002762675 99.37477   2.58602    0.2844865 
2885.600002765656 100.7653   2.535916   0.2587987 
2885.800002768636 94.34541   2.414486   0.2354463 
2886.000002771616 94.6524    2.373026   0.2272729 
2886.200002774596 98.2461    2.426078   0.2669721 
2886.400002777576 88.79234   2.482274   0.3125095 
2886.600002780557 80.10609   2.711969   0.2996656 
2886.800002783537 76.5124    2.559494   0.270475  
2887.000002786517 85.07224   2.275568   0.289157  
2887.200002789497 99.26642   2.367132   0.2319434 
2887.400002792478 100.6931   2.49092    0.2342786 
2887.600002795458 89.298     2.514498   0.2774808 
2887.800002798438 76.78328   2.41252    0.3195153 
2888.000002801418 64.29567   2.462429   0.2821513 
2888.200002804399 65.98415   2.514105   0.261134  
2888.400002807379 65.10831   2.482471   0.2541282 
2888.600002810359 61.08121   2.521179   0.2354463 
2888.800002813339 61.11732   2.605866   0.2342786 
2889.000002816319 61.80356   2.517838   0.261134  
2889.2000028193 63.52817   2.434724   0.2739779 
2889.40000282228 66.99545   2.475201   0.2576312 
