~Version
 VERS              .         2.0                           : CWLS LOG ASCII STANDARD - VERSION 2.0
 WRAP              .         NO                            : ONE LINE PER DEPTH STEP
 DLM               .         SPACE                         : DELIMITING CHARACTER(SPACE TAB OR COMMA)
~Well Information
#_______________________________________________________________________________
#
#PARAMETER_NAME    .UNIT     VALUE                         : DESCRIPTION
#_______________________________________________________________________________
STRT               .m        2700                          : First reference value
STOP               .m        2907.80000309646              : Last reference value
STEP               .m        0.2                           : Step increment
NULL               .         -9999                         : Missing value
COMP               .                                       : Company
WELL               .         503                           : Well name
FLD                .                                       : Field
LOC                .                                       : Location
CNTY               .                                       : County
STAT               .                                       : State
CTRY               .                                       : Country
SRVC               .                                       : Service Company
DATE               .                                       : Date
API                .                                       : API number
EREF               .m        139.4                         : 
PROJECT_UPGRADE_TIME .         2014-05-27T11_38_46           : 
Pad                .         Pad5                          : 
X                  .m        230550                        : 
Y                  .m        242075                        : 
group              .         Pad5                          : 
Интер-р            .         Ярышев                        : 
Куст               .         5                             : 
Статус             .         Не проверено                  : 
Тип                .         Разобраться                   : 
~Parameter Information Block
#_______________________________________________________________________________
#
#PARAMETER_NAME    .UNIT     VALUE                         : DESCRIPTION
#_______________________________________________________________________________
SET                .         LQC                           : 
PROJECT_UPGRADE_TIME .         2014-05-27T11_38_46           : 
TLFamily_GR_NORM   .         Gamma Ray                     : 
TLFamily_MD        .         Measured Depth                : 
TLFamily_RHOB_NORM .         Bulk Density                  : 
TLFamily_TNPH_NORM .         Neutron Porosity              : 
~Curve Information
#_______________________________________________________________________________
#
#LOGNAME           .UNIT     LOG_ID                        : DESCRIPTION
#_______________________________________________________________________________
MD                 .m                                      :  
GR_NORM            .gAPI                                   : Normalised By Techlog 
RHOB_NORM          .g/cm3                                  : Normalized By Techlog 
TNPH_NORM          .v/v                                    : Normalised By Techlog 
~Ascii
2700.0     50.88705   -9999      0.2903247 
2700.20000000298 52.6839    -9999      0.3346944 
2700.40000000596 46.51683   -9999      0.3253534 
2700.600000008941 37.57776   -9999      0.3055038 
2700.800000011921 26.48066   -9999      0.2623016 
2701.000000014901 18.17364   -9999      0.1665564 
2701.200000017881 18.31811   -9999      0.1537125 
2701.400000020862 25.35199   -9999      0.2062556 
2701.600000023842 39.0676    -9999      0.2751455 
2701.800000026822 45.6771    -9999      0.2576312 
2702.000000029802 50.72452   -9999      0.2821513 
2702.200000032783 53.74033   -9999      0.2506254 
2702.400000035763 54.01121   -9999      0.251793  
2702.600000038743 54.562     -9999      0.2389491 
2702.800000041723 49.31594   -9999      0.2436196 
2703.000000044703 45.90284   -9999      0.2646369 
2703.200000047684 50.56199   -9999      0.270475  
2703.400000050664 51.04055   -9999      0.2412844 
2703.600000053644 52.80128   -9999      0.2447873 
2703.800000056624 49.29788   -9999      0.22377   
2704.000000059605 50.12858   -9999      0.2693074 
2704.200000062585 50.96831   -9999      0.2576312 
2704.400000065565 51.90737   -9999      0.3125095 
2704.600000068545 53.29789   -9999      0.326521  
2704.800000071526 51.84416   -9999      0.3206829 
2705.000000074506 52.49428   -9999      0.3066714 
2705.200000077486 50.95929   -9999      0.2739779 
2705.400000080466 50.52588   -9999      0.2272729 
2705.600000083447 51.02249   -9999      0.1794003 
2705.800000086427 54.02927   -9999      0.1782326 
2706.000000089407 52.86448   -9999      0.2155966 
2706.200000092387 52.81933   -9999      0.2401168 
2706.400000095367 49.8577    -9999      0.251793  
2706.600000098348 50.59811   -9999      0.270475  
2706.800000101328 51.9796    -9999      0.2319434 
2707.000000104308 46.25498   -9999      0.22377   
2707.200000107288 48.53941   -9999      0.2190995 
2707.400000110269 49.31594   -9999      0.2366139 
2707.600000113249 54.11956   -9999      0.2284405 
2707.800000116229 52.19631   -9999      0.22377   
2708.000000119209 49.52362   -9999      0.2202671 
2708.20000012219 51.60037   -9999      0.22377   
2708.40000012517 51.09472   -9999      0.2623016 
2708.60000012815 48.18727   -9999      0.2506254 
2708.80000013113 50.46267   -9999      0.2716427 
2709.00000013411 51.50105   -9999      0.2728103 
2709.200000137091 51.32949   -9999      0.2739779 
2709.400000140071 54.65229   -9999      0.2949952 
2709.600000143051 54.48977   -9999      0.2728103 
2709.800000146031 52.80128   -9999      0.2541282 
2710.000000149012 49.41526   -9999      0.2658045 
2710.200000151992 48.95476   -9999      0.2389491 
2710.400000154972 48.14212   -9999      0.2447873 
2710.600000157952 47.14889   -9999      0.2996656 
2710.800000160933 47.30239   -9999      0.2786484 
2711.000000163913 45.27981   -9999      0.2856541 
2711.200000166893 40.12404   -9999      0.270475  
2711.400000169873 36.21432   -9999      0.261134  
2711.600000172853 36.00665   -9999      0.251793  
2711.800000175834 34.86895   -9999      0.2190995 
2712.000000178814 38.65225   -9999      0.2377815 
2712.200000181794 42.96829   -9999      0.345203  
2712.400000184774 44.59358   -9999      0.3113419 
2712.600000187755 37.44231   -9999      0.2541282 
2712.800000190735 31.80799   -9999      0.2389491 
2713.000000193715 24.25944   -9999      0.2587987 
2713.200000196695 21.56869   -9999      0.3101743 
2713.400000199676 22.79668   -9999      0.3113419 
2713.600000202656 29.54162   -9999      0.233111  
2713.800000205636 40.35881   -9999      0.2447873 
2714.000000208616 48.44912   -9999      0.2296081 
2714.200000211596 48.61165   -9999      0.2120938 
2714.400000214577 50.96831   -9999      0.2401168 
2714.600000217557 53.92995   -9999      0.2179319 
2714.800000220537 53.52362   -9999      0.2307758 
2715.000000223517 52.91866   -9999      0.2634693 
2715.200000226498 51.9796    -9999      0.3522088 
2715.400000229478 52.7471    -9999      0.3615498 
2715.600000232458 53.02701   -9999      0.3533764 
2715.800000235438 52.49428   -9999      0.3498735 
2716.000000238419 48.94574   -9999      0.2739779 
2716.200000241399 37.41523   -9999      0.279816  
2716.400000244379 32.42199   -9999      0.3066714 
2716.600000247359 38.11049   -9999      0.3592145 
2716.80000025034 44.75611   -9999      0.3370296 
2717.00000025332 48.35883   -9999      0.2856541 
2717.2000002563 51.04958   -9999      0.2833189 
2717.40000025928 54.90512   -9999      0.3043361 
2717.60000026226 51.99767   -9999      0.2716427 
2717.800000265241 52.46719   -9999      0.2506254 
2718.000000268221 51.55522   -9999      0.2296081 
2718.200000271201 52.45816   -9999      0.2307758 
2718.400000274181 44.52134   -9999      0.205088  
2718.600000277162 40.40395   -9999      0.2120938 
2718.800000280142 37.78543   -9999      0.22377   
2719.000000283122 38.16467   -9999      0.2471225 
2719.200000286102 37.61387   -9999      0.2634693 
2719.400000289083 38.01117   -9999      0.2412844 
2719.600000292063 40.27754   -9999      0.2681398 
2719.800000295043 39.32945   -9999      0.1945794 
2720.000000298023 40.7561    -9999      0.2097585 
2720.200000301003 39.13081   -9999      0.2226024 
2720.400000303984 37.32494   -9999      0.2214348 
2720.600000306964 37.97505   -9999      0.2226024 
2720.800000309944 37.46038   -9999      0.2494578 
2721.000000312924 35.9615    -9999      0.2774808 
2721.200000315905 36.38588   -9999      0.2307758 
2721.400000318885 40.16016   -9999      0.2377815 
2721.600000321865 38.87799   -9999      0.2506254 
2721.800000324845 35.38362   -9999      0.2004175 
2722.000000327826 33.64998   -9999      0.2132614 
2722.200000330806 32.62063   -9999      0.2155966 
2722.400000333786 35.36556   -9999      0.2214348 
2722.600000336766 38.85993   -9999      0.2015851 
2722.800000339746 39.09469   -9999      0.177065  
2723.000000342727 36.23238   -9999      0.1934118 
2723.200000345707 39.84413   -9999      0.2167643 
2723.400000348687 43.17597   -9999      0.2085909 
2723.600000351667 41.31592   -9999      0.233111  
2723.800000354648 41.28883   -9999      0.2202671 
2724.000000357628 44.81931   -9999      0.2249376 
2724.200000360608 46.04731   -9999      0.2354463 
2724.400000363588 38.07437   -9999      0.2459549 
2724.600000366569 32.42199   -9999      0.242452  
2724.800000369549 31.42875   -9999      0.2541282 
2725.000000372529 31.04952   -9999      0.3113419 
2725.200000375509 31.26623   -9999      0.419931  
2725.400000378489 27.72672   -9999      0.4059195 
2725.60000038147 27.34748   -9999      0.3346944 
2725.80000038445 40.0518    -9999      0.2599664 
2726.00000038743 61.95706   -9999      0.2085909 
2726.20000039041 86.29121   -9999      0.1980823 
2726.400000393391 92.74722   -9999      0.2062556 
2726.600000396371 93.63209   -9999      0.1992499 
2726.800000399351 90.57113   -9999      0.2272729 
2727.000000402331 91.89845   -9999      0.2109261 
2727.200000405312 97.3522    -9999      0.2074233 
2727.400000408292 95.79913   -9999      0.1969146 
2727.600000411272 95.5734    -9999      0.205088  
2727.800000414252 89.8849    -9999      0.2120938 
2728.000000417233 71.32954   -9999      0.1887413 
2728.200000420213 61.38821   -9999      0.2109261 
2728.400000423193 59.13087   -9999      0.233111  
2728.600000426173 63.96157   -9999      0.279816  
2728.800000429153 69.4695    -9999      0.2319434 
2729.000000432134 70.42661   -9999      0.2249376 
2729.200000435114 64.24149   -9999      0.2202671 
2729.400000438094 63.72681   -9999      0.195747  
2729.600000441074 62.22794   -9999      0.2062556 
2729.800000444055 62.36338   -9999      0.205088  
2730.000000447035 65.07219   -9999      0.2015851 
2730.200000450015 66.16474   -9999      0.2284405 
2730.400000452995 68.00674   -9999      0.2261053 
2730.600000455976 66.28212   -9999      0.2564635 
2730.800000458956 67.17604   -9999      0.2506254 
2731.000000461936 65.23472   -9999      0.2354463 
2731.200000464916 75.21217   -9999      0.2226024 
2731.400000467896 81.76749   -9999      0.2471225 
