~Version
 VERS              .         2.0                           : CWLS LOG ASCII STANDARD - VERSION 2.0
 WRAP              .         NO                            : ONE LINE PER DEPTH STEP
 DLM               .         SPACE                         : DELIMITING CHARACTER(SPACE TAB OR COMMA)
~Well Information
#_______________________________________________________________________________
#
#PARAMETER_NAME    .UNIT     VALUE                         : DESCRIPTION
#_______________________________________________________________________________
STRT               .m        2700                          : First reference value
STOP               .m        2907.80000309646              : Last reference value
STEP               .m        0.2                           : Step increment
NULL               .         -9999                         : Missing value
COMP               .                                       : Company
WELL               .         503                           : Well name
FLD                .                                       : Field
LOC                .                                       : Location
CNTY               .                                       : County
STAT               .                                       : State
CTRY               .                                       : Country
SRVC               .                                       : Service Company
DATE               .                                       : Date
API                .                                       : API number
EREF               .m        139.4                         : 
PROJECT_UPGRADE_TIME .         2014-05-27T11_38_46           : 
Pad                .         Pad5                          : 
X                  .m        230550                        : 
Y                  .m        242075                        : 
group              .         Pad5                          : 
Интер-р            .         Ярышев                        : 
Куст               .         5                             : 
Статус             .         Не проверено                  : 
Тип                .         Разобраться                   : 
~Parameter Information Block
#_______________________________________________________________________________
#
#PARAMETER_NAME    .UNIT     VALUE                         : DESCRIPTION
#_______________________________________________________________________________
SET                .         LQC                           : 
PROJECT_UPGRADE_TIME .         2014-05-27T11_38_46           : 
TLFamily_GR_NORM   .         Gamma Ray                     : 
TLFamily_MD        .         Measured Depth                : 
TLFamily_RHOB_NORM .         Bulk Density                  : 
TLFamily_TNPH_NORM .         Neutron Porosity              : 
~Curve Information
#_______________________________________________________________________________
#
#LOGNAME           .UNIT     LOG_ID                        : DESCRIPTION
#_______________________________________________________________________________
MD                 .m                                      :  
GR_NORM            .gAPI                                   : Normalised By Techlog 
RHOB_NORM          .g/cm3                                  : Normalized By Techlog 
TNPH_NORM          .v/v                                    : Normalised By Techlog 
~Ascii
# ...
2794.80000141263 195.5105   2.182825   0.3346944 
2795.00000141561 167.6639   2.182432   0.3615498 
2795.200001418591 155.7632   2.277533   0.3125095 
2795.400001421571 155.1402   2.316045   0.3183476 
2795.600001424551 155.077    2.434724   0.3417001 
2795.800001427531 166.8422   2.232144   0.3381973 
2796.000001430511 176.0973   2.266726   0.3627174 
2796.200001433492 172.2237   2.33923    0.3136771 
2796.400001436472 171.2395   2.205029   0.2529606 
2796.600001439452 176.6752   2.227624   0.2844865 
2796.800001442432 165.2531   2.188917   0.3230181 
2797.000001445413 153.7406   2.181253   0.3300239 
2797.200001448393 149.0273   2.37342    0.3615498 
2797.400001451373 135.1943   2.404268   0.3708908 
2797.600001454353 120.7473   2.348465   0.31718   
2797.800001457334 116.5035   2.29954    0.3066714 
2798.000001460314 108.4041   2.330388   0.2786484 
2798.200001463294 113.605    2.301898   0.2833189 
2798.400001466274 130.3094   2.362612   0.3335268 
2798.600001469254 135.6819   2.376563   0.3323591 
2798.800001472235 125.6322   2.245898   0.3241858 
2799.000001475215 111.5193   2.238431   0.2844865 
2799.200001478195 88.46729   2.483256   0.2728103 
2799.400001481175 78.97742   2.687212   0.22377   
2799.600001484156 89.75849   2.65538    0.2412844 
2799.800001487136 96.41314   2.64536    0.2494578 
2800.000001490116 121.6141   2.575607   0.2623016 
2800.200001493096 151.0318   2.495439   0.3160124 
2800.400001496077 145.2801   2.453194   0.335862  
2800.600001499057 136.341    2.345518   0.3311915 
2800.800001502037 134.3726   2.272031   0.2763132 
2801.000001505017 120.9911   2.301111   0.2926599 
2801.200001507998 118.0475   2.362416   0.2728103 
2801.400001510978 120.3319   2.371847   0.2576312 
2801.600001513958 116.7112   2.383833   0.3020009 
2801.800001516938 112.4674   2.285196   0.3008333 
2802.000001519918 113.0543   2.257491   0.2868218 
2802.200001522899 110.6886   2.309954   0.2377815 
2802.400001525879 112.4764   2.253168   0.2307758 
2802.600001528859 118.9504   2.281659   0.2412844 
2802.800001531839 116.0791   2.340606   0.2471225 
2803.00000153482 110.0023   2.421756   0.335862  
2803.2000015378 114.21     2.318206   0.3440354 
2803.40000154078 120.0701   2.355342   0.3650526 
2803.60000154376 122.4538   2.413896   0.3206829 
2803.800001546741 116.359    2.330192   0.2996656 
2804.000001549721 119.0859   2.256509   0.3522088 
2804.200001552701 125.5148   2.268101   0.3195153 
2804.400001555681 133.7315   2.351412   0.3522088 
2804.600001558661 130.6886   2.349841   0.3568793 
2804.800001561642 135.3117   2.284606   0.3708908 
2805.000001564622 135.122    2.329209   0.3510411 
2805.200001567602 130.6615   2.239218   0.3218505 
2805.400001570582 122.6796   2.183808   0.3008333 
2805.600001573563 110.7337   2.283428   0.3405325 
2805.800001576543 115.1942   2.378528   0.345203  
2806.000001579523 117.4245   2.295806   0.3230181 
2806.200001582503 125.8128   2.209351   0.3568793 
2806.400001585484 122.4448   2.242165   0.2996656 
2806.600001588464 113.7856   2.35043    0.31718   
2806.800001591444 104.1784   2.32862    0.2949952 
2807.000001594424 101.4967   2.351412   0.2903247 
2807.200001597404 97.27092   2.490723   0.3020009 
2807.400001600385 99.11292   2.476969   0.2856541 
2807.600001603365 112.5215   2.369489   0.3440354 
2807.800001606345 124.8918   2.28382    0.3218505 
2808.000001609325 127.4561   2.3353     0.2973304 
2808.200001612306 122.3184   2.311132   0.2856541 
2808.400001615286 111.14     2.451426   0.3487059 
2808.600001618266 107.5012   2.539256   0.3055038 
2808.800001621246 106.5531   2.507228   0.279816  
2809.000001624227 114.1197   2.468324   0.3206829 
2809.200001627207 122.8511   2.394837   0.3778965 
2809.400001630187 130.192    2.29502    0.3930756 
2809.600001633167 137.56     2.253561   0.3650526 
2809.800001636147 137.6774   2.2066     0.3417001 
2810.000001639128 137.9844   2.344143   0.3113419 
2810.200001642108 136.5487   2.329406   0.2949952 
2810.400001645088 134.4178   2.232733   0.3008333 
2810.600001648068 127.0408   2.301308   0.3183476 
2810.800001651049 136.4133   2.290108   0.3697231 
2811.000001654029 144.8105   2.2626     0.3627174 
2811.200001657009 139.6638   2.436885   0.3335268 
2811.400001659989 124.0882   2.507621   0.289157  
2811.60000166297 137.4697   2.486597   0.2774808 
2811.80000166595 147.8444   2.297771   0.3148448 
2812.00000166893 159.384    2.220158   0.3148448 
2812.20000167191 181.4427   2.125647   0.3720584 
2812.400001674891 191.6008   2.091262   0.3475383 
2812.600001677871 168.937    2.212102   0.279816  
2812.800001680851 142.2191   2.13665    0.2821513 
2813.000001683831 126.2733   2.255133   0.2973304 
2813.200001686811 116.9911   2.373026   0.3417001 
2813.400001689792 116.1875   2.367918   0.3428678 
2813.600001692772 125.0904   2.289519   0.3708908 
2813.800001695752 134.4448   2.313097   0.3767289 
2814.000001698732 126.5803   2.33196    0.354544  
2814.200001701713 112.973    2.315652   0.3440354 
2814.400001704693 111.6276   2.316045   0.2996656 
2814.600001707673 109.2348   2.31408    0.3136771 
2814.800001710653 111.6547   2.38796    0.3183476 
2815.000001713634 113.7405   2.561263   0.3020009 
2815.200001716614 115.8443   2.548687   0.2879894 
2815.400001719594 123.131    2.462036   0.2389491 
2815.600001722574 129.2168   2.332353   0.242452  
2815.800001725554 134.7157   2.232537   0.2401168 
2816.000001728535 136.7925   2.42824    0.2926599 
2816.200001731515 129.3974   2.448871   0.2844865 
2816.400001734495 118.6344   2.450443   0.2669721 
2816.600001737475 117.7676   2.584645   0.2728103 
2816.800001740456 118.0114   2.524323   0.3090067 
2817.000001743436 118.1017   2.403679   0.2833189 
2817.200001746416 117.7405   2.467341   0.3066714 
2817.400001749396 118.2552   2.542007   0.3125095 
2817.600001752377 114.5441   2.552028   0.3160124 
2817.800001755357 115.5193   2.584645   0.3206829 
2818.000001758337 121.4516   2.588771   0.3253534 
2818.200001761317 122.9866   2.539059   0.3487059 
2818.400001764297 119.3568   2.446316   0.3685555 
2818.600001767278 113.7224   2.426078   0.31718   
2818.800001770258 116.061    2.51607    0.3055038 
2819.000001773238 115.6276   2.630819   0.2774808 
2819.200001776218 115.2935   2.587985   0.3008333 
2819.400001779199 116.7563   2.539452   0.3697231 
2819.600001782179 116.9008   2.559494   0.3510411 
2819.800001785159 116.3229   2.421756   0.3346944 
2820.000001788139 107.745    2.371061   0.2914923 
2820.20000179112 103.763    2.575607   0.3218505 
2820.4000017941 100.1513   2.587592   0.2903247 
2820.60000179708 111.2845   2.512337   0.3183476 
2820.80000180006 126.9414   2.292073   0.3370296 
2821.000001803041 123.429    2.260831   0.3183476 
2821.200001806021 120.657    2.360648   0.3008333 
2821.400001809001 122.4358   2.400928   0.307839  
2821.600001811981 118.2552   2.40977    0.2868218 
2821.800001814961 118.1739   2.386584   0.2961628 
2822.000001817942 121.8128   2.449264   0.3055038 
2822.200001820922 115.4471   2.585234   0.3090067 
2822.400001823902 115.2845   2.455355   0.2996656 
2822.600001826882 114.7969   2.337069   0.3055038 
2822.800001829863 110.192    2.414093   0.373226  
2823.000001832843 105.6682   2.457713   0.3230181 
2823.200001835823 107.1852   2.508211   0.279816  
2823.400001838803 106.815    2.555565   0.289157  
2823.600001841784 112.4042   2.469699   0.3125095 
2823.800001844764 114.219    2.425292   0.3055038 
2824.000001847744 113.0091   2.361433   0.2926599 
2824.200001850724 118.3997   2.391103   0.2751455 
2824.400001853704 120.034    2.408591   0.2774808 
2824.600001856685 124.2326   2.355146   0.2973304 
2824.800001859665 123.9166   2.399749   0.3276887 
2825.000001862645 128.2417   2.520393   0.3055038 
2825.200001865625 122.8421   2.589754   0.354544  
2825.400001868606 119.429    2.44219    0.3335268 
2825.600001871586 124.4854   2.395819   0.3066714 
2825.800001874566 124.2778   2.430008   0.3580469 
2826.000001877546 123.5915   2.470878   0.3778965 
2826.200001880527 126.8873   2.517642   0.3720584 
