~Version
 VERS              .         2.0                           : CWLS LOG ASCII STANDARD - VERSION 2.0
 WRAP              .         NO                            : ONE LINE PER DEPTH STEP
 DLM               .         SPACE                         : DELIMITING CHARACTER(SPACE TAB OR COMMA)
~Well Information
#_______________________________________________________________________________
#
#PARAMETER_NAME    .UNIT     VALUE                         : DESCRIPTION
#_______________________________________________________________________________
STRT               .m        2700                          : First reference value
STOP               .m        2907.80000309646              : Last reference value
STEP               .m        0.2                           : Step increment
NULL               .         -9999                         : Missing value
COMP               .                                       : Company
WELL               .         503                           : Well name
FLD                .                                       : Field
LOC                .                                       : Location
CNTY               .                                       : County
STAT               .                                       : State
CTRY               .                                       : Country
SRVC               .                                       : Service Company
DATE               .                                       : Date
API                .                                       : API number
EREF               .m        139.4                         : 
PROJECT_UPGRADE_TIME .         2014-05-27T11_38_46           : 
Pad                .         Pad5                          : 
X                  .m        230550                        : 
Y                  .m        242075                        : 
group              .         Pad5                          : 
Интер-р            .         Ярышев                        : 
Куст               .         5                             : 
Статус             .         Не проверено                  : 
Тип                .         Разобраться                   : 
~Parameter Information Block
#_______________________________________________________________________________
#
#PARAMETER_NAME    .UNIT     VALUE                         : DESCRIPTION
#_______________________________________________________________________________
SET                .         LQC                           : 
PROJECT_UPGRADE_TIME .         2014-05-27T11_38_46           : 
TLFamily_GR_NORM   .         Gamma Ray                     : 
TLFamily_MD        .         Measured Depth                : 
TLFamily_RHOB_NORM .         Bulk Density                  : 
TLFamily_TNPH_NORM .         Neutron Porosity              : 
~Curve Information
#_______________________________________________________________________________
#
#LOGNAME           .UNIT     LOG_ID                        : DESCRIPTION
#_______________________________________________________________________________
MD                 .m                                      :  
GR_NORM            .gAPI                                   : Normalised By Techlog 
RHOB_NORM          .g/cm3                                  : Normalized By Techlog 
TNPH_NORM          .v/v                                    : Normalised By Techlog 
~Ascii
# ...
2763.200000941753 85.79459   2.577571   0.2307758 
2763.400000944734 87.17609   2.412717   0.2412844 
2763.600000947714 85.12643   2.37676    0.2634693 
2763.800000950694 88.16932   2.418808   0.3020009 
2764.000000953674 91.97971   2.454176   0.3218505 
2764.200000956655 95.18513   2.449264   0.2914923 
2764.400000959635 93.01809   2.543972   0.2389491 
2764.600000962615 92.16933   2.713345   0.2447873 
2764.800000965595 96.00681   2.531986   0.307839  
2765.000000968575 101.1265   2.426668   0.3101743 
2765.200000971556 105.7856   2.40918    0.2447873 
2765.400000974536 101.1084   2.492491   0.2576312 
2765.600000977516 99.13097   2.561852   0.2261053 
2765.800000980496 96.72013   2.477362   0.2576312 
2766.000000983477 96.13322   2.459874   0.2833189 
2766.200000986457 91.45601   2.322136   0.2634693 
2766.400000989437 85.36119   2.432366   0.2447873 
2766.600000992417 80.61174   2.569908   0.2226024 
2766.800000995398 83.34763   2.600167   0.2529606 
2767.000000998378 88.54855   2.533951   0.279816  
2767.200001001358 94.38152   2.463608   0.2786484 
2767.400001004338 95.9707    2.437671   0.2774808 
2767.600001007318 97.68628   2.390711   0.2669721 
2767.800001010299 92.991     2.476969   0.2728103 
2768.000001013279 87.85329   2.532968   0.2190995 
2768.200001016259 78.20992   2.457124   0.1852384 
2768.400001019239 58.87804   2.508997   0.1513773 
2768.60000102222 49.11729   2.507031   0.1432039 
2768.8000010252 48.3498    2.459678   0.1560477 
2769.00000102818 51.85319   2.64929    0.1712269 
2769.20000103116 60.55751   2.565389   0.1852384 
2769.400001034141 69.82164   2.469109   0.1910765 
2769.600001037121 70.92323   2.602329   0.1910765 
2769.800001040101 69.25279   2.603901   0.2132614 
2770.000001043081 77.9571    2.504281   0.233111  
2770.200001046062 82.70655   2.49426    0.2342786 
2770.400001049042 76.73813   2.55694    0.2354463 
2770.600001052022 73.85777   2.647718   0.2552959 
2770.800001055002 72.62977   2.531593   0.2436196 
2771.000001057982 73.87582   2.403286   0.2763132 
2771.200001060963 75.01352   2.433152   0.270475  
2771.400001063943 82.42664   2.514302   0.2821513 
2771.600001066923 93.65015   2.550063   0.3160124 
2771.800001069903 95.24834   2.454176   0.3195153 
2772.000001072884 95.20319   2.355932   0.2669721 
2772.200001075864 103.429    2.402893   0.2587987 
2772.400001078844 108.5215   2.367132   0.2587987 
2772.600001081824 115.1581   2.39464    0.2844865 
2772.800001084805 120.8105   2.347679   0.3090067 
2773.000001087785 128.666    2.381475   0.2973304 
2773.200001090765 125.4697   2.490134   0.2809836 
2773.400001093745 122.5712   2.511158   0.279816  
2773.600001096725 127.122    2.562245   0.2587987 
2773.800001099706 128.1965   2.424703   0.2412844 
2774.000001102686 128.0701   2.389335   0.2658045 
2774.200001105666 125.0362   2.523536   0.2587987 
2774.400001108646 126.5983   2.580715   0.2681398 
2774.600001111627 121.4787   2.445531   0.279816  
2774.800001114607 116.8285   2.494849   0.2973304 
2775.000001117587 121.1897   2.451229   0.2669721 
2775.200001120567 119.1671   2.407216   0.2436196 
2775.400001123548 118.3364   2.560673   0.2307758 
2775.600001126528 122.9956   2.584841   0.2389491 
2775.800001129508 122.7337   2.379314   0.2366139 
2776.000001132488 114.3996   2.444155   0.2447873 
2776.200001135468 105.9572   2.411538   0.2587987 
2776.400001138449 100.7563   2.502905   0.2623016 
2776.600001141429 101.1445   2.703717   0.242452  
2776.800001144409 98.78786   2.637304   0.2447873 
2777.000001147389 101.7675   2.483846   0.2529606 
2777.20000115037 97.40636   2.283231   0.2366139 
2777.40000115335 99.49215   2.27655    0.2552959 
2777.60000115633 103.1581   2.402499   0.2739779 
2777.80000115931 99.41089   2.555958   0.2319434 
2778.000001162291 102.9594   2.474415   0.261134  
2778.200001165271 115.8172   2.494063   0.2482902 
2778.400001168251 123.5103   2.491509   0.2658045 
2778.600001171231 131.9708   2.275961   0.2681398 
2778.800001174212 143.6638   2.445924   0.2833189 
2779.000001177192 148.9099   2.525502   0.2914923 
2779.200001180172 150.0205   2.446316   0.2903247 
2779.400001183152 158.5352   2.404858   0.3101743 
2779.600001186132 164.937    2.408001   0.3615498 
2779.800001189113 160.4404   2.431384   0.3288563 
2780.000001192093 160.0883   2.448282   0.3463707 
2780.200001195073 176.8739   2.370079   0.3533764 
2780.400001198053 189.2531   2.412127   0.3253534 
2780.600001201034 196.3592   2.440029   0.2926599 
2780.800001204014 198.7339   2.328816   0.2949952 
2781.000001206994 183.6098   2.259849   0.3206829 
2781.200001209974 170.165    2.510765   0.345203  
2781.400001212955 160.3682   2.439243   0.3650526 
2781.600001215935 164.8919   2.370472   0.4059195 
2781.800001218915 173.2802   2.302684   0.3837346 
2782.000001221895 183.9529   2.381868   0.3557116 
2782.200001224875 185.2441   2.355932   0.4117576 
2782.400001227856 198.3999   2.318402   0.3778965 
2782.600001230836 215.0049   2.223695   0.3650526 
2782.800001233816 223.0591   2.324101   0.3101743 
2783.000001236796 226.8514   2.369293   0.2821513 
2783.200001239777 228.251    2.241379   0.261134  
2783.400001242757 217.0365   2.221534   0.3125095 
2783.600001245737 205.9213   2.300129   0.3043361 
2783.800001248717 195.9981   2.34316    0.2728103 
2784.000001251698 185.5872   2.386584   0.261134  
2784.200001254678 161.7677   2.341392   0.2844865 
2784.400001257658 156.8648   2.28834    0.2693074 
2784.600001260638 153.6684   2.360648   0.2564635 
2784.800001263618 156.7293   2.310739   0.289157  
2785.000001266599 168.7203   2.360451   0.2821513 
2785.200001269579 182.5985   2.382654   0.3008333 
2785.400001272559 207.3299   2.238825   0.3557116 
2785.600001275539 231.8537   2.193828   0.3136771 
2785.80000127852 242.7702   2.416451   0.3055038 
2786.0000012815 253.479    2.474611   0.3405325 
2786.20000128448 278.5446   2.384423   0.3755613 
2786.40000128746 319.2761   2.358879   0.3125095 
2786.600001290441 355.2672   2.422541   0.2938275 
2786.800001293421 352.766    2.392478   0.2926599 
2787.000001296401 320.6034   2.304845   0.2938275 
2787.200001299381 301.1631   2.220158   0.3125095 
2787.400001302361 282.084    2.395819   0.3498735 
2787.600001305342 252.6935   2.372633   0.391908  
2787.800001308322 257.3526   2.274585   0.3813994 
2788.000001311302 294.6349   2.2402     0.3860699 
2788.200001314282 298.9871   2.274389   0.3335268 
2788.400001317263 283.4656   2.342374   0.3101743 
2788.600001320243 275.4655   2.263582   0.2693074 
2788.800001323223 272.9554   2.300915   0.2623016 
2789.000001326203 285.0186   2.309561   0.3218505 
2789.200001329184 295.0412   2.359468   0.3603821 
2789.400001332164 299.0773   2.310543   0.3685555 
2789.600001335144 311.1677   2.122896   0.3895728 
2789.800001338124 313.5424   2.1115     0.3510411 
2790.000001341105 314.1564   2.30681    0.3522088 
2790.200001344085 305.7862   2.334122   0.3381973 
2790.400001347065 285.5423   2.273407   0.3055038 
2790.600001350045 262.9599   2.301111   0.3370296 
2790.800001353025 245.2533   2.330192   0.3568793 
2791.000001356006 248.6664   2.188131   0.3673879 
2791.200001358986 259.2217   2.251007   0.4234339 
2791.400001361966 261.1089   2.283035   0.3954109 
2791.600001364946 266.7612   2.272817   0.354544  
2791.800001367927 287.8719   2.117984   0.3148448 
2792.000001370907 309.0457   2.085367   0.2774808 
2792.200001373887 283.9622   2.227035   0.307839  
2792.400001376867 273.6506   2.363399   0.3568793 
2792.600001379848 280.5581   2.396212   0.3673879 
2792.800001382828 270.4001   2.288929   0.3767289 
2793.000001385808 254.8515   2.279105   0.4082547 
2793.200001388788 256.9553   2.325083   0.3778965 
2793.400001391768 261.6416   2.294824   0.4327749 
2793.600001394749 262.8244   2.230965   0.5250173 
2793.800001397729 261.4159   2.257491   0.4911562 
2794.000001400709 253.6687   2.235288   0.4432835 
2794.200001403689 240.3052   2.221926   0.4082547 
2794.40000140667 233.3706   2.206797   0.3965785 
2794.60000140965 220.6031   2.154924   0.3510411 
