~Version
 VERS              .         2.0                           : CWLS LOG ASCII STANDARD - VERSION 2.0
 WRAP              .         NO                            : ONE LINE PER DEPTH STEP
 DLM               .         SPACE                         : DELIMITING CHARACTER(SPACE TAB OR COMMA)
~Well Information
#_______________________________________________________________________________
#
#PARAMETER_NAME    .UNIT     VALUE                         : DESCRIPTION
#_______________________________________________________________________________
STRT               .m        2700                          : First reference value
STOP               .m        2907.80000309646              : Last reference value
STEP               .m        0.2                           : Step increment
NULL               .         -9999                         : Missing value
COMP               .                                       : Company
WELL               .         503                           : Well name
FLD                .                                       : Field
LOC                .                                       : Location
CNTY               .                                       : County
STAT               .                                       : State
CTRY               .                                       : Country
SRVC               .                                       : Service Company
DATE               .                                       : Date
API                .                                       : API number
EREF               .m        139.4                         : 
PROJECT_UPGRADE_TIME .         2014-05-27T11_38_46           : 
Pad                .         Pad5                          : 
X                  .m        230550                        : 
Y                  .m        242075                        : 
group              .         Pad5                          : 
Интер-р            .         Ярышев                        : 
Куст               .         5                             : 
Статус             .         Не проверено                  : 
Тип                .         Разобраться                   : 
~Parameter Information Block
#_______________________________________________________________________________
#
#PARAMETER_NAME    .UNIT     VALUE                         : DESCRIPTION
#_______________________________________________________________________________
SET                .         LQC                           : 
PROJECT_UPGRADE_TIME .         2014-05-27T11_38_46           : 
TLFamily_GR_NORM   .         Gamma Ray                     : 
TLFamily_MD        .         Measured Depth                : 
TLFamily_RHOB_NORM .         Bulk Density                  : 
TLFamily_TNPH_NORM .         Neutron Porosity              : 
~Curve Information
#_______________________________________________________________________________
#
#LOGNAME           .UNIT     LOG_ID                        : DESCRIPTION
#_______________________________________________________________________________
MD                 .m                                      :  
GR_NORM            .gAPI                                   : Normalised By Techlog 
RHOB_NORM          .g/cm3                                  : Normalized By Techlog 
TNPH_NORM          .v/v                                    : Normalised By Techlog 
~Ascii
# ...
2731.600000470877 80.10609   -9999      0.2436196 
2731.800000473857 70.57108   -9999      0.1980823 
2732.000000476837 62.79679   -9999      0.2074233 
2732.200000479817 68.37694   -9999      0.2482902 
2732.400000482798 74.64333   -9999      0.3043361 
2732.600000485778 79.97968   -9999      0.3008333 
2732.800000488758 87.3025    -9999      0.2728103 
2733.000000491738 94.68853   -9999      0.307839  
2733.200000494719 101.6502   -9999      0.3125095 
2733.400000497699 101.5418   -9999      0.2786484 
2733.600000500679 100.675    -9999      0.2401168 
2733.800000503659 99.5373    -9999      0.2552959 
2734.000000506639 97.43346   -9999      0.233111  
2734.20000050962 92.45827   -9999      0.2377815 
2734.4000005126 92.72916   -9999      0.2494578 
2734.60000051558 91.99777   -9999      0.2389491 
2734.80000051856 103.0317   -9999      0.2249376 
2735.000000521541 98.58018   -9999      0.2599664 
2735.200000524521 103.754    -9999      0.2599664 
2735.400000527501 104.5035   -9999      0.2482902 
2735.600000530481 103.2122   -9999      0.2319434 
2735.800000533462 104.7924   -9999      0.2015851 
2736.000000536442 102.6524   -9999      0.2249376 
2736.200000539422 96.68401   -9999      0.2541282 
2736.400000542402 96.32285   -9999      0.2494578 
2736.600000545382 97.83074   -9999      0.2155966 
2736.800000548363 90.22801   -9999      0.1700593 
2737.000000551343 80.83747   -9999      0.1829031 
2737.200000554323 87.24832   -9999      0.1922441 
2737.400000557303 93.13548   -9999      0.205088  
2737.600000560284 93.3883    -9999      0.2272729 
2737.800000563264 90.31831   -9999      0.2401168 
2738.000000566244 93.07227   -9999      0.2576312 
2738.200000569224 93.51471   -9999      0.2494578 
2738.400000572205 97.12646   -9999      0.2459549 
2738.600000575185 94.70659   -9999      0.167724  
2738.800000578165 91.66369   -9999      0.1712269 
2739.000000581145 87.33862   -9999      0.1735621 
2739.200000584126 80.08803   -9999      0.2155966 
2739.400000587106 91.03162   -9999      0.2167643 
2739.600000590086 95.21223   -9999      0.2272729 
2739.800000593066 97.54181   -9999      0.2389491 
2740.000000596046 97.65919   2.50487    0.2307758 
2740.200000599027 92.44021   2.543578   0.2202671 
2740.400000602007 85.0271    2.47186    0.1945794 
2740.600000604987 86.04742   2.487383   0.2109261 
2740.800000607967 91.21222   2.431776   0.2027528 
2741.000000610948 94.83299   2.333336   0.2261053 
2741.200000613928 98.6163    2.352984   0.2681398 
2741.400000616908 98.33639   2.440226   0.2961628 
2741.600000619888 96.11517   2.45791    0.2949952 
2741.800000622869 94.79688   2.532182   0.3230181 
2742.000000625849 93.39732   2.550063   0.2459549 
2742.200000628829 92.97295   2.629444   0.2307758 
2742.400000631809 91.40183   2.653219   0.233111  
2742.600000634789 91.66369   2.59722    0.2623016 
2742.80000063777 93.78559   2.370472   0.2471225 
2743.00000064075 93.96618   2.433938   0.2693074 
2743.20000064373 89.59596   2.57934    0.2716427 
2743.40000064671 92.54856   2.605866   0.2763132 
2743.600000649691 96.69304   2.525502   0.2471225 
2743.800000652671 98.65241   2.593487   0.2599664 
2744.000000655651 99.97071   2.552028   0.2552959 
2744.200000658631 99.61856   2.521965   0.2436196 
2744.400000661612 99.23933   2.486204   0.2599664 
2744.600000664592 98.48087   2.541811   0.2482902 
2744.800000667572 96.17838   2.567943   0.2319434 
2745.000000670552 94.27317   2.61962    0.2482902 
2745.200000673532 98.4628    2.506442   0.2541282 
2745.400000676513 95.9707    2.416254   0.2401168 
2745.600000679493 92.6208    2.443566   0.242452  
2745.800000682473 93.21674   2.50153    0.2296081 
2746.000000685453 94.62532   2.491313   0.2307758 
2746.200000688434 90.32734   2.374009   0.2634693 
2746.400000691414 88.29573   2.441405   0.2552959 
2746.600000694394 91.28445   2.528449   0.2658045 
2746.800000697374 89.0542    2.551831   0.2342786 
2747.000000700355 94.20094   2.464001   0.2366139 
2747.200000703335 92.43118   2.488365   0.261134  
2747.400000706315 96.11517   2.575803   0.2669721 
2747.600000709295 93.03615   2.481488   0.2541282 
2747.800000712276 88.04291   2.484436   0.2961628 
2748.000000715256 82.8149    2.53061    0.2938275 
2748.200000718236 83.65464   2.606848   0.2949952 
2748.400000721216 85.81265   2.694678   0.2786484 
2748.600000724196 91.00455   2.62689    0.2774808 
2748.800000727177 90.9594    2.55635    0.2809836 
2749.000000730157 92.04292   2.462036   0.2763132 
2749.200000733137 90.95036   2.421559   0.2681398 
2749.400000736117 92.65691   2.483256   0.2739779 
2749.600000739098 90.55308   2.463804   0.2961628 
2749.800000742078 86.77879   2.429615   0.2728103 
2750.000000745058 86.45374   2.478934   0.2751455 
2750.200000748038 77.15349   2.499958   0.2716427 
2750.400000751019 71.32954   2.482274   0.2774808 
2750.600000753999 73.68621   2.44219    0.3020009 
2750.800000756979 79.08577   2.434724   0.2506254 
2751.000000759959 79.71783   2.491706   0.251793  
2751.200000762939 84.71107   2.510372   0.2693074 
2751.40000076592 88.53952   2.55635    0.2739779 
2751.6000007689 87.53726   2.513909   0.2763132 
2751.80000077188 87.5192    2.456141   0.2529606 
2752.00000077486 84.70204   2.48306    0.270475  
2752.200000777841 87.47405   2.592112   0.2284405 
2752.400000780821 84.74718   2.525305   0.2366139 
2752.600000783801 82.842     2.480899   0.2646369 
2752.800000786781 82.38148   2.555958   0.289157  
2753.000000789762 86.80589   2.456927   0.2926599 
2753.200000792742 90.32734   2.437868   0.2576312 
2753.400000795722 90.81492   2.45398    0.2541282 
2753.600000798702 87.17609   2.414486   0.2120938 
2753.800000801682 85.21671   2.469306   0.2307758 
2754.000000804663 84.73816   2.628658   0.2366139 
2754.200000807643 86.842     2.563424   0.2436196 
2754.400000810623 80.34988   2.698805   0.2763132 
2754.600000813603 82.89616   2.6375     0.2599664 
2754.800000816584 82.46276   2.547115   0.2482902 
2755.000000819564 83.63658   2.450639   0.2459549 
2755.200000822544 83.20316   2.430991   0.2401168 
2755.400000825524 78.80586   2.411145   0.2366139 
2755.600000828505 76.40405   2.469502   0.2296081 
2755.800000831485 76.91872   2.53179    0.2272729 
2756.000000834465 72.77425   2.540435   0.2261053 
2756.200000837445 80.24153   2.561656   0.2447873 
2756.400000840425 76.87357   2.595255   0.242452  
2756.600000843406 69.82164   2.585431   0.2681398 
2756.800000846386 67.88935   2.584645   0.2623016 
2757.000000849366 68.43112   2.550259   0.2587987 
2757.200000852346 73.316     2.569122   0.2914923 
2757.400000855327 78.33633   2.524716   0.2903247 
2757.600000858307 83.62755   2.529628   0.298498  
2757.800000861287 84.5666    2.400928   0.2833189 
2758.000000864267 84.44019   2.415271   0.3218505 
2758.200000867248 86.11965   2.488562   0.3323591 
2758.400000870228 90.74269   2.461643   0.3055038 
2758.600000873208 86.54403   2.451229   0.3148448 
2758.800000876188 89.91199   2.460267   0.3218505 
2759.000000879169 91.27542   2.542007   0.2879894 
2759.200000882149 92.43118   2.48974    0.261134  
2759.400000885129 93.04518   2.400928   0.2926599 
2759.600000888109 94.81494   2.444548   0.270475  
2759.800000891089 91.84427   2.537488   0.2552959 
2760.00000089407 91.23931   2.537094   0.2658045 
2760.20000089705 86.02033   2.513319   0.2576312 
2760.40000090003 75.6817    2.585038   0.2587987 
2760.60000090301 74.82391   2.556743   0.270475  
2760.800000905991 80.36794   2.573445   0.2576312 
2761.000000908971 89.95714   2.595452   0.3125095 
2761.200000911951 90.30025   2.486597   0.298498  
2761.400000914931 95.01358   2.393658   0.261134  
2761.600000917912 97.0181    2.407412   0.2447873 
2761.800000920892 96.90974   2.39798    0.2436196 
2762.000000923872 91.45601   2.399945   0.2261053 
2762.200000926852 84.54855   2.410752   0.2167643 
2762.400000929832 82.67947   2.531003   0.2132614 
2762.600000932813 85.42439   2.401321   0.2074233 
2762.800000935793 86.54403   2.366346   0.2412844 
2763.000000938773 87.3657    2.553796   0.2389491 
