~Version
 VERS              .         2.0                           : CWLS LOG ASCII STANDARD - VERSION 2.0
 WRAP              .         NO                            : ONE LINE PER DEPTH STEP
 DLM               .         SPACE                         : DELIMITING CHARACTER(SPACE TAB OR COMMA)
~Well Information
#_______________________________________________________________________________
#
#PARAMETER_NAME    .UNIT     VALUE                         : DESCRIPTION
#_______________________________________________________________________________
STRT               .m        2700                          : First reference value
STOP               .m        2907.80000309646              : Last reference value
STEP               .m        0.2                           : Step increment
NULL               .         -9999                         : Missing value
COMP               .                                       : Company
WELL               .         503                           : Well name
FLD                .                                       : Field
LOC                .                                       : Location
CNTY               .                                       : County
STAT               .                                       : State
CTRY               .                                       : Country
SRVC               .                                       : Service Company
DATE               .                                       : Date
API                .                                       : API number
EREF               .m        139.4                         : 
PROJECT_UPGRADE_TIME .         2014-05-27T11_38_46           : 
Pad                .         Pad5                          : 
X                  .m        230550                        : 
Y                  .m        242075                        : 
group              .         Pad5                          : 
Интер-р            .         Ярышев                        : 
Куст               .         5                             : 
Статус             .         Не проверено                  : 
Тип                .         Разобраться                   : 
~Parameter Information Block
#_______________________________________________________________________________
#
#PARAMETER_NAME    .UNIT     VALUE                         : DESCRIPTION
#_______________________________________________________________________________
SET                .         LQC                           : 
PROJECT_UPGRADE_TIME .         2014-05-27T11_38_46           : 
TLFamily_GR_NORM   .         Gamma Ray                     : 
TLFamily_MD        .         Measured Depth                : 
TLFamily_RHOB_NORM .         Bulk Density                  : 
TLFamily_TNPH_NORM .         Neutron Porosity              : 
~Curve Information
#_______________________________________________________________________________
#
#LOGNAME           .UNIT     LOG_ID                        : DESCRIPTION
#_______________________________________________________________________________
MD                 .m                                      :  
GR_NORM            .gAPI                                   : Normalised By Techlog 
RHOB_NORM          .g/cm3                                  : Normalized By Techlog 
TNPH_NORM          .v/v                                    : Normalised By Techlog 
~Ascii
# ...
2889.60000282526 70.61623   2.555171   0.2366139 
2889.80000282824 74.20089   2.653809   0.2716427 
2890.000002831221 72.16927   2.627283   0.2226024 
2890.200002834201 72.47628   2.471467   0.2261053 
2890.400002837181 75.54626   2.416254   0.2658045 
2890.600002840161 74.57108   2.394837   0.2786484 
2890.800002843142 76.52143   2.453587   0.2938275 
2891.000002846122 72.28666   2.459285   0.2763132 
2891.200002849102 68.24149   2.366739   0.2833189 
2891.400002852082 59.50107   1.516925   0.2821513 
2891.600002855062 46.39042   0.7912917  0.3440354 
2891.800002858043 33.45133   0.6584653  0.4456188 
2892.000002861023 34.23689   0.8508278  0.4561274 
2892.200002864003 38.76963   1.470357   0.3895728 
2892.400002866983 57.41529   2.26653    0.3183476 
2892.600002869964 74.78779   2.450247   0.2296081 
2892.800002872944 79.41083   2.510372   0.177065  
2893.000002875924 64.75616   2.527073   0.1735621 
2893.200002878904 48.46718   2.494849   0.1899089 
2893.400002881885 42.53488   2.518821   0.1899089 
2893.600002884865 43.12179   2.512926   0.177065  
2893.800002887845 37.99311   2.417237   0.1595506 
2894.000002890825 41.97506   2.256901   0.167724  
2894.200002893806 43.3385    2.281266   0.2027528 
2894.400002896786 51.40172   2.430205   0.2214348 
2894.600002899766 58.55299   2.496618   0.2564635 
2894.800002902746 68.24149   2.396015   0.2669721 
2895.000002905726 86.42665   2.403089   0.3020009 
2895.200002908707 102.4628   2.446906   0.2973304 
2895.400002911687 103.0226   2.392086   0.298498  
2895.600002914667 101.4696   2.350037   0.2833189 
2895.800002917647 99.78108   2.499958   0.2868218 
2896.000002920628 94.84202   2.572463   0.3113419 
2896.200002923608 89.14449   2.550063   0.2576312 
2896.400002926588 82.02935   2.552421   0.2809836 
2896.600002929568 73.23474   2.581697   0.2693074 
2896.800002932549 77.04514   2.491116   0.2062556 
2897.000002935529 80.05192   2.48306    0.2039204 
2897.200002938509 78.61624   2.538863   0.2261053 
2897.400002941489 82.14674   2.605276   0.2226024 
2897.600002944469 81.11739   2.545544   0.2401168 
2897.80000294745 76.91872   2.595648   0.298498  
2898.00000295043 74.21894   2.543775   0.2576312 
2898.20000295341 82.9684    2.551438   0.2669721 
2898.40000295639 90.18287   2.55301    0.2004175 
2898.600002959371 90.51695   2.492491   0.2155966 
2898.800002962351 93.42442   2.453194   0.289157  
2899.000002965331 89.77654   2.358486   0.2844865 
2899.200002968311 87.23026   2.504281   0.2961628 
2899.400002971292 87.65465   2.585431   0.2623016 
2899.600002974272 87.43794   2.464983   0.2716427 
2899.800002977252 88.00679   2.412324   0.3055038 
2900.000002980232 83.45599   2.468127   0.3708908 
2900.200002983212 82.67947   2.499761   0.3405325 
2900.400002986193 82.87811   2.581697   0.3090067 
2900.600002989173 82.65237   2.492491   0.3241858 
2900.800002992153 83.91648   2.404268   0.3125095 
2901.000002995133 87.26638   2.422738   0.3090067 
2901.200002998114 86.28218   2.565192   0.2821513 
2901.400003001094 81.38826   2.53061    0.3136771 
2901.600003004074 78.04739   2.584055   0.2599664 
2901.800003007054 84.23252   2.603704   0.2856541 
2902.000003010035 81.29797   2.403482   0.3183476 
2902.200003013015 83.04967   2.200509   0.279816  
2902.400003015995 84.55757   1.939965   0.2751455 
2902.600003018975 81.614     1.999894   0.2728103 
2902.800003021955 79.17606   2.257884   0.3615498 
2903.000003024936 71.87131   2.600953   0.4024166 
2903.200003027916 79.0316    2.640448   0.3685555 
2903.400003030896 86.842     2.544954   0.2786484 
2903.600003033876 85.27991   2.556743   0.2342786 
2903.800003036857 84.44019   2.463018   0.1969146 
2904.000003039837 80.49435   2.462821   0.2272729 
2904.200003042817 83.42889   2.517052   0.2436196 
2904.400003045797 85.75848   2.494849   0.2436196 
2904.600003048778 83.41988   2.508407   0.2879894 
2904.800003051758 79.37472   2.649683   0.3101743 
2905.000003054738 80.54854   2.733387   0.270475  
2905.200003057718 76.6027    2.550456   0.2482902 
2905.400003060699 73.48756   2.523144   0.2459549 
2905.600003063679 72.77425   2.482274   0.261134  
2905.800003066659 73.75844   2.540042   0.279816  
2906.000003069639 74.49886   2.606848   0.2786484 
2906.200003072619 76.48531   2.465769   0.2366139 
2906.4000030756 75.82616   2.299147   0.2401168 
2906.60000307858 74.03835   2.141956   0.2833189 
2906.80000308156 70.83293   2.210726   0.289157  
2907.00000308454 73.4063    2.435117   0.3837346 
2907.200003087521 74.54401   2.52       0.3230181 
2907.400003090501 76.15123   2.649683   0.3043361 
2907.600003093481 77.60496   2.656953   0.3218505 
2907.800003096461 74.42662   2.642216   0.2961628 
