~Version
 VERS              .         2.0                           : CWLS LOG ASCII STANDARD - VERSION 2.0
 WRAP              .         NO                            : ONE LINE PER DEPTH STEP
 DLM               .         SPACE                         : DELIMITING CHARACTER(SPACE TAB OR COMMA)
~Well Information
#_______________________________________________________________________________
#
#PARAMETER_NAME    .UNIT     VALUE                         : DESCRIPTION
#_______________________________________________________________________________
STRT               .m        2700                          : First reference value
STOP               .m        2907.80000309646              : Last reference value
STEP               .m        0.2                           : Step increment
NULL               .         -9999                         : Missing value
COMP               .                                       : Company
WELL               .         503                           : Well name
FLD                .                                       : Field
LOC                .                                       : Location
CNTY               .                                       : County
STAT               .                                       : State
CTRY               .                                       : Country
SRVC               .                                       : Service Company
DATE               .                                       : Date
API                .                                       : API number
EREF               .m        139.4                         : 
PROJECT_UPGRADE_TIME .         2014-05-27T11_38_46           : 
Pad                .         Pad5                          : 
X                  .m        230550                        : 
Y                  .m        242075                        : 
group              .         Pad5                          : 
Интер-р            .         Ярышев                        : 
Куст               .         5                             : 
Статус             .         Не проверено                  : 
Тип                .         Разобраться                   : 
~Parameter Information Block
#_______________________________________________________________________________
#
#PARAMETER_NAME    .UNIT     VALUE                         : DESCRIPTION
#_______________________________________________________________________________
SET                .         LQC                           : 
PROJECT_UPGRADE_TIME .         2014-05-27T11_38_46           : 
TLFamily_GR_NORM   .         Gamma Ray                     : 
TLFamily_MD        .         Measured Depth                : 
TLFamily_RHOB_NORM .         Bulk Density                  : 
TLFamily_TNPH_NORM .         Neutron Porosity              : 
~Curve Information
#_______________________________________________________________________________
#
#LOGNAME           .UNIT     LOG_ID                        : DESCRIPTION
#_______________________________________________________________________________
MD                 .m                                      :  
GR_NORM            .gAPI                                   : Normalised By Techlog 
RHOB_NORM          .g/cm3                                  : Normalized By Techlog 
TNPH_NORM          .v/v                                    : Normalised By Techlog 
~Ascii
# ...
2826.400001883507 124.9459   2.477165   0.3522088 
2826.600001886487 125.5419   2.46459    0.3300239 
2826.800001889467 120.2507   2.459874   0.3510411 
2827.000001892447 120.5667   2.500547   0.3405325 
2827.200001895428 116.6479   2.552421   0.3113419 
2827.400001898408 109.9843   2.508014   0.3580469 
2827.600001901388 108.8285   2.484632   0.3428678 
2827.800001904368 115.0407   2.555958   0.3300239 
2828.000001907349 114.9775   2.543972   0.2319434 
2828.200001910329 113.1536   2.567943   0.2506254 
2828.400001913309 105.4425   2.584645   0.289157  
2828.600001916289 105.1174   2.467931   0.2658045 
2828.80000191927 105.0904   2.441405   0.279816  
2829.00000192225 101.0723   2.472842   0.2751455 
2829.20000192523 103.8985   2.596827   0.2716427 
2829.40000192821 103.9436   2.536505   0.3043361 
2829.60000193119 102.7698   2.363202   0.2821513 
2829.800001934171 103.4741   2.463411   0.2914923 
2830.000001937151 106.6615   2.646342   0.3288563 
2830.200001940131 103.9165   2.663437   0.4047519 
2830.400001943111 102.3635   2.430598   0.4281044 
2830.600001946092 102.7066   2.60115    0.429272  
2830.800001949072 107.1761   2.69684    0.3650526 
2831.000001952052 115.8082   2.549277   0.3323591 
2831.200001955032 112.359    2.507228   0.3510411 
2831.400001958013 112.4493   2.504281   0.3977462 
2831.600001960993 113.2349   2.510765   0.4257692 
2831.800001963973 114.1197   2.48974    0.4409483 
2832.000001966953 119.5103   2.38069    0.3440354 
2832.200001969934 121.7134   2.382261   0.2961628 
2832.400001972914 123.438    2.380296   0.2938275 
2832.600001975894 121.5509   2.460267   0.2996656 
2832.800001978874 122.6976   2.38344    0.2774808 
2833.000001981854 123.8714   2.433152   0.3253534 
2833.200001984835 128.8376   2.452801   0.3498735 
2833.400001987815 129.7676   2.452997   0.2926599 
2833.600001990795 124.034    2.352198   0.279816  
2833.800001993775 128.5577   2.369097   0.2506254 
2834.000001996756 128.3861   2.393854   0.2447873 
2834.200001999736 131.9437   2.32076    0.2062556 
2834.400002002716 145.9573   2.345125   0.1758974 
2834.600002005696 165.7587   2.344535   0.1665564 
2834.800002008677 151.086    2.442387   0.1455391 
2835.000002011657 89.07225   2.675619   0.1245219 
2835.200002014637 55.89835   2.783098   0.1011694 
2835.400002017617 54.37238   2.651451   0.1058399 
2835.600002020597 60.92771   2.588575   0.1198514 
2835.800002023578 53.43333   2.758341   0.1280248 
2836.000002026558 49.80353   2.613921   0.1315276 
2836.200002029538 50.79675   2.606062   0.1537125 
2836.400002032518 45.04504   2.685247   0.1653887 
2836.600002035499 44.34076   2.515481   0.1607183 
2836.800002038479 48.09697   2.33255    0.1665564 
2837.000002041459 50.76064   2.362809   0.2015851 
2837.200002044439 51.13084   2.537684   0.2109261 
2837.40000204742 47.34753   2.640448   0.1934118 
2837.6000020504 46.17372   2.507621   0.1630535 
2837.80000205338 42.65226   2.437671   0.1747297 
2838.00000205636 43.32947   2.503298   0.1805679 
2838.20000205934 40.42201   2.444352   0.1945794 
2838.400002062321 44.63873   2.463804   0.195747  
2838.600002065301 51.88028   2.560477   0.2097585 
2838.800002068281 51.87125   2.413306   0.2039204 
2839.000002071261 46.5078    2.380296   0.1910765 
2839.200002074242 42.08342   2.385798   0.1910765 
2839.400002077222 41.10824   2.340409   0.1735621 
2839.600002080202 44.3859    2.327834   0.1572154 
2839.800002083182 49.43332   2.411931   0.149042  
2840.000002086163 47.6726    2.529431   0.1560477 
2840.200002089143 40.36783   2.594469   0.1432039 
2840.400002092123 29.74929   2.513516   0.0976665 
2840.600002095103 25.77637   2.518232   0.06847588
2840.800002098083 28.26848   2.599774   0.06147013
2841.000002101064 32.95472   2.589361   0.09182838
2841.200002104044 36.2685    2.65597    0.1186838 
2841.400002107024 36.65676   2.671689   0.167724  
2841.600002110004 38.1737    2.583859   0.2202671 
2841.800002112985 37.85767   2.499958   0.2214348 
2842.000002115965 37.90281   2.512926   0.1922441 
2842.200002118945 40.68386   2.531986   0.1875736 
2842.400002121925 43.00441   2.517249   0.1817355 
2842.600002124906 40.46716   2.413306   0.167724  
2842.800002127886 38.43555   2.434724   0.1875736 
2843.000002130866 34.08339   2.51941    0.1922441 
2843.200002133846 30.11047   2.458106   0.2015851 
2843.400002136827 31.29332   2.3801     0.1910765 
2843.600002139807 30.14659   2.433348   0.2039204 
2843.800002142787 30.04726   2.430008   0.1934118 
2844.000002145767 33.22561   2.393854   0.1817355 
2844.200002148747 34.01116   2.434331   0.2155966 
2844.400002151728 33.57774   2.43492    0.2190995 
2844.600002154708 31.26623   2.451229   0.2120938 
2844.800002157688 30.74253   2.477755   0.2167643 
2845.000002160668 31.75381   2.508211   0.2039204 
2845.200002163649 33.50551   2.518625   0.1840708 
2845.400002166629 34.2098    2.484436   0.1723945 
2845.600002169609 32.19625   2.421559   0.1887413 
2845.800002172589 31.91634   2.411342   0.186406  
2846.00000217557 28.68383   2.425292   0.1688916 
2846.20000217855 28.9818    2.414486   0.1723945 
2846.40000218153 28.05177   2.36163    0.2004175 
2846.60000218451 30.19173   2.310739   0.1852384 
2846.80000218749 29.55065   2.240003   0.1969146 
2847.000002190471 30.52582   2.356718   0.1945794 
2847.200002193451 32.40393   2.406626   0.2226024 
2847.400002196431 36.40394   2.39798    0.2482902 
2847.600002199411 38.09243   2.394051   0.2482902 
2847.800002202392 36.95473   2.216818   0.2354463 
2848.000002205372 38.10146   2.156496   0.2354463 
2848.200002208352 38.6974    2.211119   0.2412844 
2848.400002211332 45.04504   2.201295   0.214429  
2848.600002214313 55.09474   2.369293   0.2015851 
2848.800002217293 65.87581   2.447299   0.1817355 
2849.000002220273 69.9029    2.385602   0.158383  
2849.200002223253 55.9164    2.308382   0.1361981 
2849.400002226233 52.53039   2.306613   0.1093428 
2849.600002229214 45.7674    2.553403   0.1198514 
2849.800002232194 39.72675   2.730243   0.1408686 
2850.000002235174 30.48067   2.644574   0.1432039 
2850.200002238154 33.09016   2.625121   0.1747297 
2850.400002241135 43.19402   2.544954   0.1980823 
2850.600002244115 56.91867   2.552028   0.2261053 
2850.800002247095 75.30247   2.610974   0.3066714 
2851.000002250075 94.38152   2.575999   0.298498  
2851.200002253056 106.7879   2.53513    0.2693074 
2851.400002256036 109.6412   2.445138   0.2506254 
2851.600002259016 108.2235   2.238825   0.2903247 
2851.800002261996 94.32735   2.340409   0.2693074 
2852.000002264977 67.56429   2.436885   0.1840708 
2852.200002267957 62.93223   2.541417   0.1805679 
2852.400002270937 66.97739   2.406822   0.186406  
2852.600002273917 70.1467    2.337265   0.1969146 
2852.800002276897 66.14668   2.504084   0.2085909 
2853.000002279878 65.43336   2.480899   0.2249376 
2853.200002282858 63.29341   2.462625   0.2249376 
2853.400002285838 64.53043   2.563227   0.2214348 
2853.600002288818 65.18958   2.501923   0.2389491 
2853.800002291799 67.79003   2.461446   0.2564635 
2854.000002294779 67.56429   2.411145   0.2307758 
2854.200002297759 67.60944   2.390711   0.2681398 
2854.400002300739 68.41306   2.363595   0.2377815 
2854.60000230372 61.94803   2.516659   0.2296081 
2854.8000023067 54.90512   2.607634   0.2307758 
2855.00000230968 51.11279   2.401321   0.2027528 
2855.20000231266 51.24823   2.326262   0.1829031 
2855.40000231564 52.96381   2.448675   0.186406  
2855.600002318621 56.30467   2.483453   0.1934118 
2855.800002321601 54.4085    2.451033   0.2307758 
2856.000002324581 53.59586   2.508997   0.2155966 
2856.200002327561 54.21889   2.528646   0.2132614 
2856.400002330542 55.64553   2.419201   0.2366139 
2856.600002333522 51.77193   2.345714   0.2284405 
2856.800002336502 49.58682   2.492884   0.2226024 
2857.000002339482 48.53038   2.540238   0.2436196 
2857.200002342463 49.55973   2.458892   0.214429  
2857.400002345443 45.01796   2.431187   0.2167643 
2857.600002348423 46.11954   2.403089   0.205088  
2857.800002351403 49.8577    2.476772   0.2085909 
