~Version
 VERS              .         2.0                           : CWLS LOG ASCII STANDARD - VERSION 2.0
 WRAP              .         NO                            : ONE LINE PER DEPTH STEP
 DLM               .         SPACE                         : DELIMITING CHARACTER(SPACE TAB OR COMMA)
~Well Information
#_______________________________________________________________________________
#
#PARAMETER_NAME    .UNIT     VALUE                         : DESCRIPTION
#_______________________________________________________________________________
STRT               .m        2348.39990234375              : First reference value
STOP               .m        2578.599905774                : Last reference value
STEP               .m        0.2                           : Step increment
NULL               .         -9999                         : Missing value
COMP               .                                       : Company
WELL               .         504                           : Well name
FLD                .                                       : Field
LOC                .                                       : Location
CNTY               .                                       : County
STAT               .                                       : State
CTRY               .                                       : Country
SRVC               .                                       : Service Company
DATE               .                                       : Date
API                .                                       : API number
EREF               .m        139.4                         : 
PROJECT_UPGRADE_TIME .         2014-05-27T11_38_46           : 
Pad                .         Pad5                          : 
X                  .m        230550                        : 
Y                  .m        242075                        : 
group              .         Pad5                          : 
Интер-р            .         Зайцев                        : 
Куст               .         5                             : 
Статус             .         Не проверено                  : 
Тип                .         Эксплуатация                  : 
~Parameter Information Block
#_______________________________________________________________________________
#
#PARAMETER_NAME    .UNIT     VALUE                         : DESCRIPTION
#_______________________________________________________________________________
SET                .         LQC                           : 
PROJECT_UPGRADE_TIME .         2014-05-27T11_38_46           : 
TLFamily_GR_NORM   .         Gamma Ray                     : 
TLFamily_MD        .         Measured Depth                : 
TLFamily_RHOB_NORM .         Bulk Density                  : 
TLFamily_TNPH_NORM .         Neutron Porosity              : 
~Curve Information
#_______________________________________________________________________________
#
#LOGNAME           .UNIT     LOG_ID                        : DESCRIPTION
#_______________________________________________________________________________
MD                 .m                                      :  
GR_NORM            .gAPI                                   : Normalised By Techlog 
RHOB_NORM          .g/cm3                                  : Normalized By Techlog 
TNPH_NORM          .v/v                                    : Normalised By Techlog 
~Ascii
# ...
2411.599903285503 94.89167   2.554074   0.2502935 
2411.799903288484 94.25697   2.501709   0.2899449 
2411.999903291464 87.88322   2.476821   0.2639324 
2412.199903294444 82.4594    2.519189   0.2651734 
2412.399903297424 81.8447    2.568836   0.2329074 
2412.599903300405 86.35001   2.61227    0.2886843 
2412.799903303385 88.66684   2.530488   0.2639627 
2412.999903306365 90.23354   2.491379   0.2726194 
2413.199903309345 100.8281   2.455918   0.2626914 
2413.399903312325 103.3321   2.438374   0.2738605 
2413.599903315306 100.0095   2.472674   0.2589866 
2413.799903318286 100.1951   2.48446    0.2639264 
2413.999903321266 96.86868   2.468423   0.2552454 
2414.199903324246 93.05392   2.442293   0.2142924 
2414.399903327227 91.96916   2.440613   0.2527634 
2414.599903330207 92.51991   2.490386   0.2540029 
2414.799903333187 96.67377   2.496412   0.2416096 
2414.999903336167 105.0315   2.500525   0.2428354 
2415.199903339148 100.4032   2.442106   0.2726194 
2415.399903342128 103.766    2.434267   0.2602094 
2415.599903345108 102.7909   2.388409   0.2403776 
2415.799903348088 103.196    2.420417   0.2688616 
2415.999903351068 100.8281   2.51639    0.2825474 
2416.199903354049 102.4642   2.489513   0.2502814 
2416.399903357029 96.56133   2.472342   0.2837884 
2416.599903360009 100.9763   2.528266   0.3160151 
2416.799903362989 101.9297   2.612594   0.2776304 
2416.99990336597 94.03925   2.562304   0.2664144 
2417.19990336895 93.53303   2.593472   0.3024035 
2417.39990337193 90.26066   2.570515   0.2366304 
2417.59990337491 96.48141   2.657012   0.2998442 
2417.799903377891 92.69698   2.638849   0.2701738 
2417.999903380871 94.54547   2.631174   0.2862704 
2418.199903383851 94.28332   2.604858   0.2825474 
2418.399903386831 96.12742   2.576302   0.2887524 
2418.599903389812 93.49104   2.561575   0.2627232 
2418.799903392792 91.1133    2.631089   0.2292253 
2418.999903395772 95.63927   2.632107   0.2577274 
2419.199903398752 100.9546   2.656931   0.2515224 
2419.399903401732 99.80657   2.669436   0.3036444 
2419.599903404713 102.3436   2.579584   0.2838126 
2419.799903407693 106.527    2.583576   0.3383258 
2419.999903410673 105.1852   2.490633   0.2999214 
2420.199903413653 107.1287   2.484474   0.2813064 
2420.399903416634 104.6067   2.484101   0.2800654 
2420.599903419614 103.6857   2.448496   0.3160106 
2420.799903422594 105.1834   2.444165   0.317294  
2420.999903425574 113.9808   2.448452   0.3607305 
2421.199903428555 106.2338   2.456477   0.2949575 
2421.399903431535 104.453    2.398059   0.2602094 
2421.599903434515 97.04044   2.433478   0.2193064 
2421.799903437495 89.04102   2.473413   0.2428066 
2421.999903440475 97.24834   2.497912   0.2267024 
2422.199903443456 103.7208   2.495486   0.2267024 
2422.399903446436 109.8406   2.506124   0.2465584 
2422.599903449416 99.90007   2.628038   0.2539954 
2422.799903452396 89.72167   2.613275   0.2254963 
2422.999903455377 79.01528   2.568836   0.2304254 
2423.199903458357 70.2287    2.674475   0.1807854 
2423.399903461337 66.47723   2.676714   0.1497604 
2423.599903464317 61.91775   2.653413   0.1348865 
2423.799903467298 63.3658    2.630456   0.1633765 
2423.999903470278 73.20276   2.554278   0.1807854 
2424.199903473258 80.69666   2.487647   0.2267024 
2424.399903476238 72.31686   2.473462   0.2329074 
2424.599903479218 73.44545   2.495459   0.2043992 
2424.799903482199 84.55208   2.489147   0.2031249 
2424.999903485179 98.93877   2.474022   0.2130514 
2425.199903488159 97.05851   2.450132   0.2279434 
2425.399903491139 98.13422   2.456291   0.2353894 
2425.59990349412 99.65105   2.453868   0.2056417 
2425.7999034971 107.9683   2.542224   0.2328741 
2425.99990350008 108.4937   2.526468   0.2105694 
2426.19990350306 113.2124   2.509484   0.2428354 
2426.399903506041 121.5109   2.476635   0.2676554 
2426.599903509021 134.3948   2.436183   0.263937  
2426.799903512001 132.677    2.362687   0.2825247 
2426.999903514981 130.5235   2.370996   0.2726194 
2427.199903517962 128.4082   2.359424   0.3110904 
2427.399903520942 136.3631   2.456851   0.2961985 
2427.599903523922 128.0748   2.490219   0.3222277 
2427.799903526902 131.4323   2.482617   0.2788775 
2427.999903529882 118.4735   2.526655   0.2999214 
2428.199903532863 121.6103   2.549612   0.3061265 
2428.399903535843 128.7426   2.579101   0.3135724 
2428.599903538823 124.4721   2.506959   0.2801063 
2428.799903541803 124.9634   2.532596   0.3383212 
2428.999903544784 123.825    2.536734   0.3495615 
2429.199903547764 123.8883   2.540466   0.2837884 
2429.399903550744 121.8182   2.521055   0.2527634 
2429.599903553724 126.7569   2.542866   0.2515239 
2429.799903556705 116.696    2.678416   0.2701147 
2429.999903559685 111.4135   2.676901   0.2688964 
2430.199903562665 97.99863   2.662343   0.2701374 
2430.399903565645 109.7412   2.584141   0.2502814 
2430.599903568625 108.6848   2.532504   0.2601973 
2430.799903571606 112.3582   2.598058   0.2255038 
2430.999903574586 109.7683   2.590486   0.2440764 
2431.199903577566 110.5638   2.565289   0.2341484 
2431.399903580546 115.0023   2.553344   0.2800654 
2431.599903583527 126.1617   2.503199   0.2441203 
2431.799903586507 136.5854   2.412168   0.240358  
2431.999903589487 147.6717   2.428108   0.2341484 
2432.199903592467 162.0539   2.400299   0.2440764 
2432.399903595448 185.1774   2.320976   0.2788244 
2432.599903598428 187.886    2.404303   0.2713875 
2432.799903601408 177.4703   2.479343   0.3048445 
2432.999903604388 168.897    2.509297   0.2552454 
2433.199903607368 170.6687   2.494926   0.2813064 
2433.399903610349 181.1457   2.444719   0.2800654 
2433.599903613329 179.638    2.442109   0.3048552 
2433.799903616309 180.0604   2.401654   0.2503481 
2433.999903619289 178.3434   2.359611   0.2775834 
2434.19990362227 180.0338   2.342253   0.3222595 
2434.39990362525 179.2655   2.386301   0.2788244 
2434.59990362823 171.1939   2.339511   0.2961772 
2434.79990363121 177.3957   2.397801   0.29248   
2434.999903634191 191.0623   2.453864   0.3545254 
2435.199903637171 199.2251   2.446213   0.3160545 
2435.399903640151 210.4705   2.476635   0.3098495 
2435.599903643131 218.9755   2.508512   0.2900177 
2435.799903646111 222.9585   2.455982   0.324699  
2435.999903649092 227.438    2.417096   0.3024035 
2436.199903652072 225.4583   2.362411   0.2626914 
2436.399903655052 237.5625   2.284954   0.2974395 
2436.599903658032 229.7166   2.376483   0.2776076 
2436.799903661013 213.9068   2.399151   0.2527937 
2436.999903663993 199.9393   2.439867   0.2676554 
2437.199903666973 189.7967   2.438747   0.2589684 
2437.399903669953 178.696    2.440053   0.2415944 
2437.599903672934 165.8211   2.483115   0.2750606 
2437.799903675914 158.0498   2.47888    0.2924542 
2437.999903678894 162.2347   2.46133    0.2726194 
2438.199903681874 173.245    2.41411    0.2862704 
2438.399903684855 174.4292   2.372116   0.3011625 
2438.599903687835 186.0762   2.380877   0.3271917 
2438.799903690815 207.5335   2.371753   0.3061522 
2438.999903693795 218.9407   2.324522   0.3371514 
2439.199903696775 237.1557   2.36465    0.3954785 
2439.399903699756 251.4565   2.322096   0.3731405 
2439.599903702736 274.9129   2.304387   0.3309979 
2439.799903705716 304.5375   2.325243   0.3495387 
2439.999903708696 335.3268   2.336467   0.3681765 
2440.199903711677 345.5958   2.275062   0.4078885 
2440.399903714657 322.174    2.287754   0.3309464 
2440.599903717637 288.0546   2.26352    0.3408624 
2440.799903720617 280.0949   2.288656   0.3359165 
2440.999903723598 262.0872   2.369316   0.2949575 
2441.199903726578 281.9835   2.338893   0.3582485 
2441.399903729558 317.2564   2.285141   0.4165755 
2441.599903732538 315.8569   2.299308   0.3285719 
2441.799903735518 294.2948   2.299698   0.370607  
2441.999903738499 297.2877   2.290553   0.4426365 
2442.199903741479 296.3385   2.297459   0.3855505 
2442.399903744459 297.2335   2.316123   0.3495615 
2442.599903747439 293.1976   2.345204   0.3136163 
2442.79990375042 302.0318   2.25632    0.3619124 
2442.9999037534 324.8678   2.176889   0.3545254 
