~Version
 VERS              .         2.0                           : CWLS LOG ASCII STANDARD - VERSION 2.0
 WRAP              .         NO                            : ONE LINE PER DEPTH STEP
 DLM               .         SPACE                         : DELIMITING CHARACTER(SPACE TAB OR COMMA)
~Well Information
#_______________________________________________________________________________
#
#PARAMETER_NAME    .UNIT     VALUE                         : DESCRIPTION
#_______________________________________________________________________________
STRT               .m        2348.39990234375              : First reference value
STOP               .m        2578.599905774                : Last reference value
STEP               .m        0.2                           : Step increment
NULL               .         -9999                         : Missing value
COMP               .                                       : Company
WELL               .         504                           : Well name
FLD                .                                       : Field
LOC                .                                       : Location
CNTY               .                                       : County
STAT               .                                       : State
CTRY               .                                       : Country
SRVC               .                                       : Service Company
DATE               .                                       : Date
API                .                                       : API number
EREF               .m        139.4                         : 
PROJECT_UPGRADE_TIME .         2014-05-27T11_38_46           : 
Pad                .         Pad5                          : 
X                  .m        230550                        : 
Y                  .m        242075                        : 
group              .         Pad5                          : 
Интер-р            .         Зайцев                        : 
Куст               .         5                             : 
Статус             .         Не проверено                  : 
Тип                .         Эксплуатация                  : 
~Parameter Information Block
#_______________________________________________________________________________
#
#PARAMETER_NAME    .UNIT     VALUE                         : DESCRIPTION
#_______________________________________________________________________________
SET                .         LQC                           : 
PROJECT_UPGRADE_TIME .         2014-05-27T11_38_46           : 
TLFamily_GR_NORM   .         Gamma Ray                     : 
TLFamily_MD        .         Measured Depth                : 
TLFamily_RHOB_NORM .         Bulk Density                  : 
TLFamily_TNPH_NORM .         Neutron Porosity              : 
~Curve Information
#_______________________________________________________________________________
#
#LOGNAME           .UNIT     LOG_ID                        : DESCRIPTION
#_______________________________________________________________________________
MD                 .m                                      :  
GR_NORM            .gAPI                                   : Normalised By Techlog 
RHOB_NORM          .g/cm3                                  : Normalized By Techlog 
TNPH_NORM          .v/v                                    : Normalised By Techlog 
~Ascii
# ...
2537.99990516901 89.38381   2.245386   0.2825474 
2538.19990517199 79.70229   2.226535   0.3048854 
2538.399905174971 61.78562   2.36129    0.2217384 
2538.599905177951 54.69812   2.429331   0.1845538 
2538.799905180931 51.40303   2.391759   0.1907058 
2538.999905183911 51.63405   2.449012   0.1882314 
2539.199905186892 52.73689   2.452931   0.2353894 
2539.399905189872 57.30194   2.382008   0.2180154 
2539.599905192852 66.19518   2.470554   0.2415657 
2539.799905195832 68.67085   2.521926   0.2130863 
2539.999905198812 68.23997   2.514523   0.2664144 
2540.199905201793 76.31241   2.511724   0.2788244 
2540.399905204773 81.51928   2.451812   0.2763424 
2540.599905207753 85.26617   2.459082   0.2850189 
2540.799905210733 93.24304   2.546146   0.2156183 
2540.999905213714 99.99641   2.606724   0.2130514 
2541.199905216694 99.5625    2.627815   0.2403534 
2541.399905219674 108.2858   2.606164   0.2564864 
2541.599905222654 106.1731   2.543902   0.2911921 
2541.799905225635 107.8499   2.490698   0.2751212 
2541.999905228615 102.7083   2.576675   0.2204974 
2542.199905231595 90.98383   2.597765   0.2043644 
2542.399905234575 73.29316   2.55969    0.2279434 
2542.599905237556 63.48802   2.572739   0.1957168 
2542.799905240536 63.23227   2.512171   0.1969169 
2542.999905243516 68.35748   2.464877   0.1919544 
2543.199905246496 74.05249   2.477382   0.2031234 
2543.399905249476 84.99052   2.624268   0.2267024 
2543.599905252457 91.42796   2.609355   0.266366  
2543.799905255437 83.50866   2.603371   0.2478222 
2543.999905258417 82.38708   2.604671   0.2180154 
2544.199905261397 79.15991   2.599258   0.2515224 
2544.399905264378 71.43098   2.563797   0.2366304 
2544.599905267358 73.15546   2.583929   0.2316725 
2544.799905270338 75.66753   2.515726   0.2192716 
2544.999905273318 78.98816   2.500898   0.2155334 
2545.199905276299 75.1282    2.493993   0.2391124 
2545.399905279279 74.60391   2.491939   0.3024035 
2545.599905282259 74.11636   2.576385   0.2862901 
2545.799905285239 81.01366   2.530257   0.285031  
2545.999905288219 82.16109   2.471036   0.2602094 
2546.1999052912 84.89108   2.415976   0.2465584 
2546.39990529418 84.97244   2.309777   0.2813064 
2546.59990529716 85.19815   2.140886   0.2986593 
2546.79990530014 79.63678   1.900393   0.3036384 
2546.999905303121 62.13818   1.595127   0.2974395 
2547.199905306101 56.00926   1.213446   0.3272234 
2547.399905309081 44.34806   0.8888761  0.3247415 
2547.599905312061 29.92927   0.7501843  0.4536481 
2547.799905315042 29.23452   0.7140373  0.3905917 
2547.999905318022 36.66432   0.9872363  0.3048854 
2548.199905321002 54.56291   1.796887   0.2056054 
2548.399905323982 78.23787   2.395633   0.1807854 
2548.599905326962 73.75062   2.497787   0.1559957 
2548.799905329943 75.27099   2.442174   0.149768  
2548.999905332923 75.77003   2.445279   0.2031234 
2549.199905335903 84.18599   2.496606   0.1956774 
2549.399905338883 76.07738   2.515456   0.2167744 
2549.599905341864 90.55033   2.454313   0.25148   
2549.799905344844 93.67387   2.550427   0.2143379 
2549.999905347824 92.22227   2.568089   0.2217384 
2550.199905350804 90.98383   2.455918   0.2391124 
2550.399905353785 90.73073   2.538227   0.2899934 
2550.599905356765 99.74133   2.632738   0.2689222 
2550.799905359745 101.5039   2.543561   0.2465857 
2550.999905362725 97.47433   2.548305   0.2242204 
2551.199905365705 105.6733   2.584887   0.2540044 
2551.399905368686 102.0665   2.628748   0.2974395 
2551.599905371666 100.5858   2.686163   0.2900026 
2551.799905374646 99.87975   2.640562   0.3048672 
2551.999905377626 82.45036   2.595712   0.3172955 
2552.199905380607 76.96326   2.667009   0.2577274 
2552.399905383587 93.43359   2.600005   0.2664144 
2552.599905386567 88.10667   2.588448   0.2986411 
2552.799905389547 88.06406   2.52934    0.3172727 
2552.999905392528 94.10252   2.564917   0.2825474 
2553.199905395508 93.84941   2.534121   0.2850294 
2553.399905398488 86.02104   2.554278   0.3086084 
2553.599905401468 89.18107   2.635367   0.3309192 
2553.799905404449 89.80791   2.675919   0.329707  
2553.999905407429 87.91034   2.691272   0.2850294 
2554.199905410409 96.19974   2.643866   0.2415944 
2554.399905413389 101.6326   2.507431   0.2267024 
2554.599905416369 98.30102   2.487298   0.2341393 
2554.79990541935 98.41431   2.56072    0.2787699 
2554.99990542233 93.09912   2.585073   0.3123315 
2555.19990542531 83.19161   2.627068   0.3272234 
2555.39990542829 87.90129   2.650958   0.3110904 
2555.599905431271 91.73849   2.594475   0.3148089 
2555.799905434251 87.0302    2.56141    0.3234898 
2555.999905437231 88.29905   2.590486   0.3731405 
2556.199905440211 81.13961   -9999      0.3371514 
2556.399905443192 80.81418   -9999      0.3011625 
2556.599905446172 81.13921   -9999      0.2540619 
2556.799905449152 83.4058    -9999      0.2515255 
2556.999905452132 82.74867   -9999      0.3272234 
2557.199905455112 80.66955   -9999      0.4029245 
2557.399905458093 81.28425   -9999      0.4761435 
2557.599905461073 81.40161   -9999      0.3769846 
2557.799905464053 84.85974   -9999      0.3124102 
2557.999905467033 80.53395   -9999      0.2788244 
2558.199905470014 81.54639   -9999      0.2738605 
2558.399905472994 85.4877    -9999      0.2391124 
2558.599905475974 76.77504   -9999      0.3023263 
2558.799905478954 74.3086    -9999      0.3234747 
2558.999905481935 81.30232   -9999      0.2887524 
2559.199905484915 -9999      -9999      -9999     
2559.399905487895 -9999      -9999      -9999     
2559.599905490875 -9999      -9999      -9999     
2559.799905493855 -9999      -9999      -9999     
2559.999905496836 -9999      -9999      -9999     
2560.199905499816 -9999      -9999      -9999     
2560.399905502796 -9999      -9999      -9999     
2560.599905505776 -9999      -9999      -9999     
2560.799905508757 -9999      -9999      -9999     
2560.999905511737 -9999      -9999      -9999     
2561.199905514717 -9999      -9999      -9999     
2561.399905517697 -9999      -9999      -9999     
2561.599905520678 -9999      -9999      -9999     
2561.799905523658 -9999      -9999      -9999     
2561.999905526638 -9999      -9999      -9999     
2562.199905529618 -9999      -9999      -9999     
2562.399905532598 -9999      -9999      -9999     
2562.599905535579 -9999      -9999      -9999     
2562.799905538559 -9999      -9999      -9999     
2562.999905541539 -9999      -9999      -9999     
2563.199905544519 -9999      -9999      -9999     
2563.3999055475 -9999      -9999      -9999     
2563.59990555048 -9999      -9999      -9999     
2563.79990555346 -9999      -9999      -9999     
2563.99990555644 -9999      -9999      -9999     
2564.199905559421 -9999      -9999      -9999     
2564.399905562401 -9999      -9999      -9999     
2564.599905565381 -9999      -9999      -9999     
2564.799905568361 -9999      -9999      -9999     
2564.999905571342 -9999      -9999      -9999     
2565.199905574322 -9999      -9999      -9999     
2565.399905577302 -9999      -9999      -9999     
2565.599905580282 -9999      -9999      -9999     
2565.799905583262 -9999      -9999      -9999     
2565.999905586243 -9999      -9999      -9999     
2566.199905589223 -9999      -9999      -9999     
2566.399905592203 -9999      -9999      -9999     
2566.599905595183 -9999      -9999      -9999     
2566.799905598164 -9999      -9999      -9999     
2566.999905601144 -9999      -9999      -9999     
2567.199905604124 -9999      -9999      -9999     
2567.399905607104 -9999      -9999      -9999     
2567.599905610085 -9999      -9999      -9999     
2567.799905613065 -9999      -9999      -9999     
2567.999905616045 -9999      -9999      -9999     
2568.199905619025 -9999      -9999      -9999     
2568.399905622005 -9999      -9999      -9999     
2568.599905624986 -9999      -9999      -9999     
2568.799905627966 -9999      -9999      -9999     
2568.999905630946 -9999      -9999      -9999     
2569.199905633926 -9999      -9999      -9999     
2569.399905636907 -9999      -9999      -9999     
