~Version
 VERS              .         2.0                           : CWLS LOG ASCII STANDARD - VERSION 2.0
 WRAP              .         NO                            : ONE LINE PER DEPTH STEP
 DLM               .         SPACE                         : DELIMITING CHARACTER(SPACE TAB OR COMMA)
~Well Information
#_______________________________________________________________________________
#
#PARAMETER_NAME    .UNIT     VALUE                         : DESCRIPTION
#_______________________________________________________________________________
STRT               .m        2348.39990234375              : First reference value
STOP               .m        2578.599905774                : Last reference value
STEP               .m        0.2                           : Step increment
NULL               .         -9999                         : Missing value
COMP               .                                       : Company
WELL               .         504                           : Well name
FLD                .                                       : Field
LOC                .                                       : Location
CNTY               .                                       : County
STAT               .                                       : State
CTRY               .                                       : Country
SRVC               .                                       : Service Company
DATE               .                                       : Date
API                .                                       : API number
EREF               .m        139.4                         : 
PROJECT_UPGRADE_TIME .         2014-05-27T11_38_46           : 
Pad                .         Pad5                          : 
X                  .m        230550                        : 
Y                  .m        242075                        : 
group              .         Pad5                          : 
Интер-р            .         Зайцев                        : 
Куст               .         5                             : 
Статус             .         Не проверено                  : 
Тип                .         Эксплуатация                  : 
~Parameter Information Block
#_______________________________________________________________________________
#
#PARAMETER_NAME    .UNIT     VALUE                         : DESCRIPTION
#_______________________________________________________________________________
SET                .         LQC                           : 
PROJECT_UPGRADE_TIME .         2014-05-27T11_38_46           : 
TLFamily_GR_NORM   .         Gamma Ray                     : 
TLFamily_MD        .         Measured Depth                : 
TLFamily_RHOB_NORM .         Bulk Density                  : 
TLFamily_TNPH_NORM .         Neutron Porosity              : 
~Curve Information
#_______________________________________________________________________________
#
#LOGNAME           .UNIT     LOG_ID                        : DESCRIPTION
#_______________________________________________________________________________
MD                 .m                                      :  
GR_NORM            .gAPI                                   : Normalised By Techlog 
RHOB_NORM          .g/cm3                                  : Normalized By Techlog 
TNPH_NORM          .v/v                                    : Normalised By Techlog 
~Ascii
2348.39990234375 -9999      -9999      -9999     
2348.59990234673 -9999      -9999      -9999     
2348.79990234971 62.2443    -9999      -9999     
2348.999902352691 55.06009   -9999      -9999     
2349.199902355671 60.91782   -9999      -9999     
2349.399902358651 60.6195    -9999      -9999     
2349.599902361631 54.55224   -9999      -9999     
2349.799902364612 58.01183   -9999      -9999     
2349.999902367592 59.7065    -9999      -9999     
2350.199902370572 56.19005   -9999      -9999     
2350.399902373552 59.46243   -9999      0.2875114 
2350.599902376533 56.10376   -9999      0.2875114 
2350.799902379513 56.40663   -9999      0.2342136 
2350.999902382493 61.55964   -9999      0.2527634 
2351.199902385473 53.11656   -9999      0.2291844 
2351.399902388453 48.98542   -9999      0.2651734 
2351.599902391434 55.85624   -9999      0.2850052 
2351.799902394414 50.72732   -9999      0.2701556 
2351.999902397394 50.37753   -9999      0.2291844 
2352.199902400374 53.25216   -9999      0.2279434 
2352.399902403355 53.52335   -9999      0.2515224 
2352.599902406335 56.33126   -9999      0.242846  
2352.799902409315 53.60804   -9999      0.236638  
2352.999902412295 61.22517   -9999      0.2738605 
2353.199902415276 61.61387   -9999      0.2726194 
2353.399902418256 61.45116   -9999      0.3172955 
2353.599902421236 62.15539   -9999      0.3396062 
2353.799902424216 59.20388   -9999      0.338394  
2353.999902427197 56.59684   -9999      0.2912344 
2354.199902430177 55.80135   -9999      0.3086084 
2354.399902433157 52.88153   -9999      0.2688964 
2354.599902436137 57.48615   -9999      0.2329513 
2354.799902439117 61.30187   -9999      0.2502602 
2354.999902442098 56.90419   -9999      0.2850294 
2355.199902445078 54.77082   -9999      0.2378714 
2355.399902448058 44.68253   -9999      0.2130514 
2355.599902451038 44.18595   -9999      0.2118119 
2355.799902454019 39.45433   -9999      0.1609915 
2355.999902456999 38.9152    1.164359   0.1696164 
2356.199902459979 39.42142   1.117512   0.1807854 
2356.399902462959 44.89948   1.054614   0.2353894 
2356.59990246594 46.36212   1.055732   0.224234  
2356.79990246892 51.24841   1.105693   0.2452917 
2356.9999024719 56.28949   1.152974   0.2639324 
2357.19990247488 51.59789   1.139162   0.2577274 
2357.39990247786 55.84655   1.147934   0.2664144 
2357.599902480841 62.14856   1.204791   0.2403852 
2357.799902483821 67.58247   1.151173   0.2304376 
2357.999902486801 64.85912   1.110979   0.3383925 
2358.199902489781 66.0162    1.22763    0.2614504 
2358.399902492762 65.13935   1.292395   0.2118104 
2358.599902495742 58.05185   1.523734   0.248995  
2358.799902498722 54.62133   1.792266   0.2378851 
2358.999902501702 47.47579   1.943214   0.2242204 
2359.199902504683 42.26892   2.008538   0.2477994 
2359.399902507663 36.88127   2.054452   0.2329074 
2359.599902510643 42.03664   1.98958    0.2539787 
2359.799902513623 58.64663   2.309013   0.2440886 
2359.999902516603 85.61426   2.512657   0.2217384 
2360.199902519584 94.14772   2.639386   0.2242204 
2360.399902522564 99.99641   2.652265   0.2329074 
2360.599902525544 98.47959   2.565209   0.22671   
2360.799902528524 100.4099   2.529871   0.1981943 
2360.999902531505 96.45284   2.531694   0.2093284 
2361.199902534485 99.31843   2.506498   0.2080874 
2361.399902537465 98.55006   2.509484   0.1795444 
2361.599902540445 97.28604   2.492334   0.1559941 
2361.799902543426 93.86264   2.43061    0.2228976 
2361.999902546406 89.11262   2.464317   0.2403534 
2362.199902549386 86.52727   2.519936   0.2465584 
2362.399902552366 88.55215   2.487273   0.1994004 
2362.599902555346 93.63529   2.421283   0.2142742 
2362.799902558327 94.59853   2.402561   0.2192504 
2362.999902561307 92.21323   2.433521   0.2763424 
2363.199902564287 93.75903   2.447519   0.2651734 
2363.399902567267 90.16122   2.528708   0.2316664 
2363.599902570248 81.89999   2.510439   0.2465403 
2363.799902573228 77.30334   2.441816   0.281264  
2363.999902576208 85.41538   2.468796   0.2366304 
2364.199902579188 94.41892   2.476635   0.2242204 
2364.399902582169 92.31266   2.473275   0.2304254 
2364.599902585149 87.51845   2.433383   0.2366229 
2364.799902588129 86.55556   2.435012   0.2366304 
2364.999902591109 88.08209   2.457971   0.2540044 
2365.19990259409 75.36324   2.529454   0.2490404 
2365.39990259707 75.24573   2.505564   0.2602094 
2365.59990260005 77.54804   2.585163   0.2478146 
2365.79990260303 82.02003   2.566619   0.2465599 
2365.99990260601 90.29681   2.524788   0.2453174 
2366.199902608991 86.35551   2.515083   0.2341484 
2366.399902611971 87.97362   2.49026    0.2639324 
2366.599902614951 86.88115   2.509647   0.2329452 
2366.799902617931 84.18024   2.455424   0.2403443 
2366.999902620912 82.96563   2.43968    0.2204974 
2367.199902623892 76.08643   2.410004   0.2204974 
2367.399902626872 72.20839   2.46189    0.2552454 
2367.599902629852 68.1816    2.396645   0.2800352 
2367.799902632833 75.40864   2.388177   0.2912208 
2367.999902635813 74.99261   2.479061   0.3036444 
2368.199902638793 83.81535   2.453118   0.2391124 
2368.399902641773 82.35996   2.440053   0.2465584 
2368.599902644753 76.13921   2.461491   0.2242476 
2368.799902647734 69.20664   2.533472   0.1870358 
2368.999902650714 68.5202    2.559504   0.1820264 
2369.199902653694 64.28962   2.549425   0.1423144 
2369.399902656674 60.44775   2.53524    0.1187354 
2369.599902659655 55.93342   2.515108   0.1001431 
2369.799902662635 69.94941   2.537826   0.1249101 
2369.999902665615 84.89108   2.452745   0.1770624 
2370.199902668595 101.8495   2.476262   0.2415944 
2370.399902671576 105.1942   2.419523   0.2465584 
2370.599902674556 104.8331   2.483649   0.2651507 
2370.799902677536 101.2663   2.508893   0.2502996 
2370.999902680516 96.70596   2.443786   0.2701374 
2371.199902683496 97.46529   2.517883   0.2651734 
2371.399902686477 89.13973   2.591793   0.2564864 
2371.599902689457 92.35394   2.567931   0.2602049 
2371.799902692437 98.26261   2.543296   0.2304618 
2371.999902695417 90.14314   2.481488   0.2440764 
2372.199902698398 92.159     2.444346   0.2540044 
2372.399902701378 85.63234   2.48466    0.2564864 
2372.599902704358 85.58719   2.420907   0.2577259 
2372.799902707338 90.78765   2.443572   0.2366562 
2372.999902710319 91.77029   2.501272   0.2056054 
2373.199902713299 87.39507   2.515456   0.1907134 
2373.399902716279 82.0255    2.484287   0.2142924 
2373.599902719259 89.71793   2.481864   0.2130529 
2373.799902722239 93.32975   2.585879   0.2341227 
2373.99990272522 97.87208   2.613816   0.2403534 
2374.1999027282 102.1388   2.611203   0.2502814 
2374.39990273118 96.76923   2.527775   0.2428354 
2374.59990273416 100.1279   2.493661   0.2515118 
2374.799902737141 99.35554   2.472182   0.2155773 
2374.999902740121 100.1591   2.563423   0.1931954 
2375.199902743101 90.49569   2.584514   0.2068464 
2375.399902746081 87.93746   2.526655   0.2018824 
2375.599902749062 95.95491   2.526096   0.195685  
2375.799902752042 98.32118   2.467374   0.1993959 
2375.999902755022 96.52517   2.431094   0.1981594 
2376.199902758002 94.56355   2.417283   0.2217384 
2376.399902760983 94.23812   2.457411   0.2018824 
2376.599902763963 90.44608   2.470087   0.2080798 
2376.799902766943 88.90658   2.487066   0.2341166 
2376.999902769923 94.78051   2.482794   0.2415944 
2377.199902772903 102.1298   2.472342   0.2453174 
2377.399902775884 101.0269   2.460024   0.2353894 
2377.599902778864 100.7832   2.479224   0.2068812 
2377.799902781844 94.15582   2.510192   0.2118044 
2377.999902784824 97.33874   2.471969   0.1994004 
2378.199902787805 99.09243   2.495672   0.1981594 
2378.399902790785 89.20301   2.467489   0.2304254 
2378.599902793765 91.23446   2.47681    0.1981988 
2378.799902796745 92.96141   2.492481   0.2093148 
2378.999902799726 95.3048    2.459091   0.2167744 
2379.199902802706 90.76688   2.50967    0.2428354 
2379.399902805686 91.67989   2.475515   0.2391124 
2379.599902808666 100.7176   2.474956   0.2415914 
2379.799902811646 105.6944   2.482784   0.232918  
