~Version
 VERS              .         2.0                           : CWLS LOG ASCII STANDARD - VERSION 2.0
 WRAP              .         NO                            : ONE LINE PER DEPTH STEP
 DLM               .         SPACE                         : DELIMITING CHARACTER(SPACE TAB OR COMMA)
~Well Information
#_______________________________________________________________________________
#
#PARAMETER_NAME    .UNIT     VALUE                         : DESCRIPTION
#_______________________________________________________________________________
STRT               .m        2348.39990234375              : First reference value
STOP               .m        2578.599905774                : Last reference value
STEP               .m        0.2                           : Step increment
NULL               .         -9999                         : Missing value
COMP               .                                       : Company
WELL               .         504                           : Well name
FLD                .                                       : Field
LOC                .                                       : Location
CNTY               .                                       : County
STAT               .                                       : State
CTRY               .                                       : Country
SRVC               .                                       : Service Company
DATE               .                                       : Date
API                .                                       : API number
EREF               .m        139.4                         : 
PROJECT_UPGRADE_TIME .         2014-05-27T11_38_46           : 
Pad                .         Pad5                          : 
X                  .m        230550                        : 
Y                  .m        242075                        : 
group              .         Pad5                          : 
Интер-р            .         Зайцев                        : 
Куст               .         5                             : 
Статус             .         Не проверено                  : 
Тип                .         Эксплуатация                  : 
~Parameter Information Block
#_______________________________________________________________________________
#
#PARAMETER_NAME    .UNIT     VALUE                         : DESCRIPTION
#_______________________________________________________________________________
SET                .         LQC                           : 
PROJECT_UPGRADE_TIME .         2014-05-27T11_38_46           : 
TLFamily_GR_NORM   .         Gamma Ray                     : 
TLFamily_MD        .         Measured Depth                : 
TLFamily_RHOB_NORM .         Bulk Density                  : 
TLFamily_TNPH_NORM .         Neutron Porosity              : 
~Curve Information
#_______________________________________________________________________________
#
#LOGNAME           .UNIT     LOG_ID                        : DESCRIPTION
#_______________________________________________________________________________
MD                 .m                                      :  
GR_NORM            .gAPI                                   : Normalised By Techlog 
RHOB_NORM          .g/cm3                                  : Normalized By Techlog 
TNPH_NORM          .v/v                                    : Normalised By Techlog 
~Ascii
# ...
2379.999902814627 100.5207   2.449385   0.2267024 
2380.199902817607 97.81784   2.451252   0.2515224 
2380.399902820587 101.7682   2.531134   0.2093284 
2380.599902823567 103.7184   2.646338   0.2130468 
2380.799902826548 92.7058    2.61106    0.2192488 
2380.999902829528 96.02798   2.570329   0.2155334 
2381.199902832508 96.20878   2.526842   0.2006414 
2381.399902835488 94.87994   2.544573   0.2006414 
2381.599902838469 92.37899   2.516237   0.2390655 
2381.799902841449 99.38217   2.486377   0.2378729 
2381.999902844429 95.97375   2.515643   0.2080874 
2382.199902847409 91.78837   2.435387   0.2068464 
2382.399902850389 93.09912   2.398619   0.2490404 
2382.59990285337 93.66792   2.504688   0.2614353 
2382.79990285635 93.57834   2.501649   0.2540135 
2382.99990285933 94.46412   2.462264   0.2626914 
2383.19990286231 98.64046   2.470289   0.2329074 
2383.399902865291 90.42337   2.526095   0.2415944 
2383.599902868271 88.85239   2.491236   0.2415944 
2383.799902871251 89.76236   2.510953   0.2564683 
2383.999902874231 93.83134   2.488393   0.2242204 
2384.199902877212 86.16568   2.482981   0.2639324 
2384.399902880192 90.43241   2.494366   0.2639324 
2384.599902883172 99.69583   2.518413   0.2478191 
2384.799902886152 96.51099   2.535966   0.2490389 
2384.999902889132 87.74763   2.527588   0.2701374 
2385.199902892113 79.5667    2.517696   0.2316664 
2385.399902895093 70.95187   2.449572   0.2167744 
2385.599902898073 71.16856   2.414899   0.2254508 
2385.799902901053 65.80581   2.425109   0.2589275 
2385.999902904034 61.91218   2.473462   0.2490404 
2386.199902907014 55.25897   2.402725   0.2254614 
2386.399902909994 63.5122    2.393019   0.2564864 
2386.599902912974 71.92693   2.428438   0.2391336 
2386.799902915955 75.17848   2.518705   0.2589442 
2386.999902918935 78.02995   2.578914   0.2602094 
2387.199902921915 85.32498   2.493246   0.2899934 
2387.399902924895 88.00977   2.480741   0.2763424 
2387.599902927876 83.39612   2.473657   0.267666  
2387.799902930856 84.66353   2.449042   0.2279919 
2387.999902933836 77.16214   2.41467    0.2267024 
2388.199902936816 68.83659   2.473835   0.2180154 
2388.399902939796 71.68409   2.504258   0.2192564 
2388.599902942777 71.68409   2.496056   0.2403277 
2388.799902945757 66.37524   2.446832   0.2564667 
2388.999902948737 71.24114   2.479061   0.2564864 
2389.199902951717 77.25254   2.484474   0.2056054 
2389.399902954698 83.91479   2.469356   0.1969184 
2389.599902957678 94.50542   2.480355   0.2105528 
2389.799902960658 86.22102   2.558661   0.2229643 
2389.999902963638 85.49673   2.554837   0.2142924 
2390.199902966619 77.7226    2.533747   0.2006414 
2390.399902969599 63.71108   2.507244   0.2180154 
2390.599902972579 53.42743   2.501279   0.2155364 
2390.799902975559 55.38312   2.464734   0.2142939 
2390.999902978539 56.04542   2.535614   0.2043644 
2391.19990298152 53.20695   2.635093   0.1807854 
2391.3999029845 49.53684   2.633787   0.1485194 
2391.59990298748 49.08541   2.570033   0.1485194 
2391.79990299046 53.92422   2.525775   0.1956198 
2391.999902993441 60.95397   2.424562   0.2279434 
2392.199902996421 67.63431   2.400672   0.2850294 
2392.399902999401 71.83777   2.364837   0.2589684 
2392.599903002381 75.44021   2.404729   0.2292207 
2392.799903005362 69.79266   2.466108   0.2676085 
2392.999903008342 72.27167   2.482421   0.2788244 
2393.199903011322 70.90667   2.421949   0.2254614 
2393.399903014302 69.07162   2.394326   0.2366304 
2393.599903017282 70.71483   2.387988   0.2577017 
2393.799903020263 79.47463   2.480255   0.2304588 
2393.999903023243 76.89095   2.488953   0.2267024 
2394.199903026223 78.85257   2.506871   0.2254614 
2394.399903029203 75.65251   2.449945   0.2279434 
2394.599903032184 69.02547   2.435778   0.2267039 
2394.799903035164 63.0675    2.387106   0.2056312 
2394.999903038144 63.72012   2.403845   0.2229794 
2395.199903041124 67.75182   2.409817   0.1994004 
2395.399903044105 75.90562   2.421202   0.2329074 
2395.599903047085 82.27083   2.531      0.2477813 
2395.799903050065 90.97321   2.571959   0.2614338 
2395.999903053045 102.0303   2.591979   0.2540044 
2396.199903056026 101.9128   2.477942   0.2316664 
2396.399903059006 97.22122   2.496419   0.2155334 
2396.599903061986 92.01168   2.453917   0.2415626 
2396.799903064966 93.05264   2.446781   0.2688631 
2396.999903067946 92.87313   2.515456   0.2713784 
2397.199903070927 94.29237   2.478874   0.2788244 
2397.399903073907 102.9162   2.521616   0.2937164 
2397.599903076887 106.4645   2.531868   0.2850401 
2397.799903079867 108.2294   2.555741   0.2639582 
2397.999903082848 114.3786   2.521616   0.2701374 
2398.199903085828 107.7705   2.487087   0.2564864 
2398.399903088808 105.4021   2.506871   0.2887524 
2398.599903091788 104.6076   2.557761   0.282555  
2398.799903094769 111.9199   2.511593   0.2689131 
2398.999903097749 107.2282   2.526655   0.2415944 
2399.199903100729 94.60875   2.524042   0.2279434 
2399.399903103709 89.84483   2.548305   0.2726194 
2399.599903106689 98.25955   2.557253   0.2118846 
2399.79990310967 101.3396   2.615052   0.2316422 
2399.99990311265 98.45966   2.585073   0.2453174 
2400.19990311563 101.6688   2.560997   0.2130514 
2400.39990311861 100.8371   2.544759   0.2118104 
2400.599903121591 98.81467   2.501325   0.2328817 
2400.799903124571 96.88911   2.465853   0.2539787 
2400.999903127551 97.88112   2.504071   0.2577274 
2401.199903130531 93.09912   2.51415    0.2676554 
2401.399903133512 93.95789   2.56249    0.2391124 
2401.599903136492 97.28947   2.452133   0.230436  
2401.799903139472 97.6276    2.429628   0.2180306 
2401.999903142452 98.36022   2.534867   0.2329074 
2402.199903145432 102.8349   2.577795   0.2465584 
2402.399903148413 97.88112   2.595712   0.2366304 
2402.599903151393 95.72327   2.522638   0.2378699 
2402.799903154373 98.70009   2.541563   0.2539847 
2402.999903157353 92.35786   2.576675   0.2304254 
2403.199903160334 93.67766   2.537107   0.2192564 
2403.399903163314 91.83356   2.542706   0.1944364 
2403.599903166294 98.36128   2.573278   0.2031128 
2403.799903169274 97.4032    2.577789   0.2155183 
2403.999903172255 103.7117   2.601125   0.2527634 
2404.199903175235 96.0099    2.674475   0.2527634 
2404.399903178215 96.69692   2.674475   0.2515224 
2404.599903181195 95.68571   2.628058   0.2552409 
2404.799903184175 93.66206   2.554927   0.2316952 
2404.999903187156 98.41446   2.4897     0.2242204 
2405.199903190136 105.4383   2.445279   0.2378714 
2405.399903193116 100.9185   2.455358   0.2279434 
2405.599903196096 99.93433   2.487048   0.2180275 
2405.799903199077 102.7049   2.49007    0.2167759 
2405.999903202057 99.58058   2.476635   0.2428354 
2406.199903205037 111.1514   2.482608   0.2279434 
2406.399903208017 100.2314   2.497912   0.2291844 
2406.599903210998 90.13739   2.53128    0.2490162 
2406.799903213978 91.37102   2.518831   0.2490404 
2406.999903216958 96.24493   2.506498   0.2378714 
2407.199903219938 93.78613   2.552971   0.2763424 
2407.399903222919 85.88544   2.553531   0.2564864 
2407.599903225899 90.4359    2.566394   0.2316967 
2407.799903228879 91.29917   2.47022    0.2093557 
2407.999903231859 93.24376   2.455171   0.2316664 
2408.199903234839 88.55215   2.525348   0.2688964 
2408.39990323782 87.12389   2.511537   0.2589684 
2408.5999032408 84.24374   2.52123    0.2366577 
2408.79990324378 89.84702   2.573624   0.2267146 
2408.99990324676 94.3466    2.627815   0.1956774 
2409.199903249741 82.22437   2.642559   0.1944364 
2409.399903252721 82.57692   2.653944   0.2329074 
2409.599903255701 82.50468   2.693837   0.2366259 
2409.799903258681 91.54228   2.611864   0.227954  
2409.999903261662 92.63809   2.610084   0.2254614 
2410.199903264642 96.06413   2.527588   0.2304254 
2410.399903267622 85.15323   2.453678   0.2614504 
2410.599903270602 88.99042   2.440629   0.2738453 
2410.799903273582 90.13271   2.484979   0.2713815 
2410.999903276563 95.12402   2.470476   0.2651734 
2411.199903279543 95.06977   2.559317   0.2763424 
2411.399903282523 97.09467   2.540093   0.2602094 
