~Version
 VERS              .         2.0                           : CWLS LOG ASCII STANDARD - VERSION 2.0
 WRAP              .         NO                            : ONE LINE PER DEPTH STEP
 DLM               .         SPACE                         : DELIMITING CHARACTER(SPACE TAB OR COMMA)
~Well Information
#_______________________________________________________________________________
#
#PARAMETER_NAME    .UNIT     VALUE                         : DESCRIPTION
#_______________________________________________________________________________
STRT               .m        2348.39990234375              : First reference value
STOP               .m        2578.599905774                : Last reference value
STEP               .m        0.2                           : Step increment
NULL               .         -9999                         : Missing value
COMP               .                                       : Company
WELL               .         504                           : Well name
FLD                .                                       : Field
LOC                .                                       : Location
CNTY               .                                       : County
STAT               .                                       : State
CTRY               .                                       : Country
SRVC               .                                       : Service Company
DATE               .                                       : Date
API                .                                       : API number
EREF               .m        139.4                         : 
PROJECT_UPGRADE_TIME .         2014-05-27T11_38_46           : 
Pad                .         Pad5                          : 
X                  .m        230550                        : 
Y                  .m        242075                        : 
group              .         Pad5                          : 
Интер-р            .         Зайцев                        : 
Куст               .         5                             : 
Статус             .         Не проверено                  : 
Тип                .         Эксплуатация                  : 
~Parameter Information Block
#_______________________________________________________________________________
#
#PARAMETER_NAME    .UNIT     VALUE                         : DESCRIPTION
#_______________________________________________________________________________
SET                .         LQC                           : 
PROJECT_UPGRADE_TIME .         2014-05-27T11_38_46           : 
TLFamily_GR_NORM   .         Gamma Ray                     : 
TLFamily_MD        .         Measured Depth                : 
TLFamily_RHOB_NORM .         Bulk Density                  : 
TLFamily_TNPH_NORM .         Neutron Porosity              : 
~Curve Information
#_______________________________________________________________________________
#
#LOGNAME           .UNIT     LOG_ID                        : DESCRIPTION
#_______________________________________________________________________________
MD                 .m                                      :  
GR_NORM            .gAPI                                   : Normalised By Techlog 
RHOB_NORM          .g/cm3                                  : Normalized By Techlog 
TNPH_NORM          .v/v                                    : Normalised By Techlog 
~Ascii
# ...
2443.19990375638 323.7921   2.198539   0.3632125 
2443.39990375936 314.7705   2.186594   0.3805865 
2443.599903762341 304.9653   2.145583   0.3396834 
2443.799903765321 284.2868   2.149075   0.3495494 
2443.999903768301 259.4023   2.178569   0.3458385 
2444.199903771281 244.6767   2.197793   0.3346695 
2444.399903774261 242.8145   2.159718   0.3508025 
2444.599903777242 261.3143   2.137162   0.3049414 
2444.799903780222 259.3776   2.1623     0.2887721 
2444.999903783202 269.6082   2.256958   0.3123315 
2445.199903786182 297.7668   2.339827   0.3346695 
2445.399903789163 305.5319   2.279728   0.3508025 
2445.599903792143 285.8223   2.188945   0.3768317 
2445.799903795123 288.9492   2.251842   0.4152876 
2445.999903798103 284.8672   2.292046   0.3768635 
2446.199903801084 275.71     2.208245   0.4215395 
2446.399903804064 274.9235   2.200965   0.3830685 
2446.599903807044 256.7939   2.180646   0.4066188 
2446.799903810024 257.9004   2.127494   0.3521102 
2446.999903813004 270.3313   2.188087   0.3470795 
2447.199903815985 269.1381   2.203392   0.3495615 
2447.399903818965 259.4385   2.253785   0.3694175 
2447.599903821945 246.5095   2.244465   0.4004046 
2447.799903824925 233.2757   2.322001   0.3644974 
2447.999903827906 226.3352   2.263864   0.4178165 
2448.199903830886 220.9565   2.206752   0.4314675 
2448.399903833866 198.3483   2.185287   0.3483205 
2448.599903836846 181.1667   2.317082   0.3024594 
2448.799903839827 161.5535   2.34129    0.3234747 
2448.999903842807 158.1578   2.303805   0.3272234 
2449.199903845787 162.8946   2.203578   0.2974395 
2449.399903848767 168.4902   2.214591   0.3545254 
2449.599903851748 157.728    2.206761   0.3222988 
2449.799903854728 150.519    2.238815   0.3073857 
2449.999903857708 154.9306   2.32079    0.2912344 
2450.199903860688 156.0606   2.309218   0.2639324 
2450.399903863668 153.0323   2.287007   0.3185365 
2450.599903866649 152.4183   2.30453    0.2949862 
2450.799903869629 148.7881   2.258694   0.3011549 
2450.999903872609 147.1022   2.232881   0.2527634 
2451.199903875589 137.3123   2.325455   0.2651734 
2451.39990387857 127.8025   2.381634   0.3222595 
2451.59990388155 123.6854   2.379584   0.3061461 
2451.79990388453 122.3171   2.464772   0.263984  
2451.99990388751 130.3155   2.430908   0.2813064 
2452.199903890491 136.8784   2.376782   0.3061265 
2452.399903893471 130.6952   2.453118   0.3172955 
2452.599903896451 104.4489   2.514821   0.2280524 
2452.799903899431 87.05471   2.541367   0.2304224 
2452.999903902411 88.0369    2.576115   0.2217384 
2453.199903905392 103.3773   2.488953   0.1944364 
2453.399903908372 149.4164   2.41747    0.2490404 
2453.599903911352 139.5842   2.416538   0.2961409 
2453.799903914332 131.0672   2.475443   0.3457778 
2453.999903917313 128.2635   2.423255   0.3098495 
2454.199903920293 120.7606   2.39134    0.2713784 
2454.399903923273 117.3345   2.375288   0.2217384 
2454.599903926253 111.8361   2.30296    0.2192595 
2454.799903929234 106.1052   2.28479    0.2589199 
2454.999903932214 119.9199   2.29074    0.2465584 
2455.199903935194 115.6532   2.281221   0.2602094 
2455.399903938174 108.6564   2.311271   0.2899934 
2455.599903941154 109.8392   2.336996   0.237935  
2455.799903944135 112.2242   2.370022   0.275056  
2455.999903947115 110.7898   2.349719   0.2614504 
2456.199903950095 106.8033   2.313137   0.2664144 
2456.399903953075 109.4971   2.281968   0.2688964 
2456.599903956056 113.56     2.242262   0.2812913 
2456.799903959036 118.3592   2.307272   0.3011382 
2456.999903962016 115.5176   2.320603   0.2800654 
2457.199903964996 117.6329   2.36017    0.2738605 
2457.399903967977 125.3527   2.390593   0.2664144 
2457.599903970957 130.8602   2.362817   0.2788093 
2457.799903973937 136.1668   2.263798   0.320967  
2457.999903976917 141.0456   2.274689   0.3210185 
2458.199903979897 143.3508   2.270769   0.3408745 
2458.399903982878 140.8739   2.251732   0.3346695 
2458.599903985858 129.2991   2.345498   0.3135982 
2458.799903988838 121.6919   2.317837   0.4102523 
2458.999903991818 113.0407   2.251732   0.4128525 
2459.199903994799 119.8204   2.236614   0.3880325 
2459.399903997779 127.468    2.253412   0.3036444 
2459.599904000759 126.8451   2.36321    0.3098419 
2459.799904003739 115.2786   2.424301   0.3172864 
2459.99990400672 104.0462   2.406271   0.2415944 
2460.1999040097 97.53761   2.390407   0.2378714 
2460.39990401268 94.97938   2.28962    0.2502814 
2460.59990401566 100.3605   2.231459   0.2651553 
2460.799904018641 110.759    2.292346   0.3345847 
2460.999904021621 118.0125   2.329561   0.3408745 
2461.199904024601 114.7311   2.23736    0.4004425 
2461.399904027581 111.7751   2.191447   0.3582485 
2461.599904030561 111.2605   2.246812   0.3557695 
2461.799904033542 105.7975   2.353694   0.3396532 
2461.999904036522 97.97151   2.416909   0.2664144 
2462.199904039502 104.679    2.369503   0.2664144 
2462.399904042482 117.0091   2.280848   0.3247415 
2462.599904045463 129.4596   2.314589   0.3049097 
2462.799904048443 145.0312   2.329916   0.298688  
2462.999904051423 147.1836   2.405898   0.3346695 
2463.199904054403 142.3203   2.378834   0.2701374 
2463.399904057384 143.3869   2.384434   0.2800654 
2463.599904060364 143.6397   2.288431   0.3408003 
2463.799904063344 149.292    2.243574   0.3136058 
2463.999904066324 147.0209   2.299885   0.2825474 
2464.199904069304 133.8862   2.332734   0.3334285 
2464.399904072285 131.4545   2.238294   0.4811075 
2464.599904075265 136.2668   2.256376   0.436486  
2464.799904078245 133.4648   2.276531   0.3856126 
2464.999904081225 131.4907   2.259758   0.3656945 
2465.199904084206 148.5938   2.253038   0.3421155 
2465.399904087186 159.5589   2.184728   0.4165755 
2465.599904090166 179.6929   2.131413   0.4091386 
2465.799904093146 185.6583   2.216912   0.4302008 
2465.999904096127 176.5626   2.303805   0.4202985 
2466.199904099107 154.1351   2.356438   0.3843095 
2466.399904102087 129.059    2.410377   0.3421155 
2466.599904105067 124.7072   2.370857   0.3371575 
2466.799904108047 122.6975   2.291211   0.3408699 
2466.999904111028 126.2296   2.26629    0.3619715 
2467.199904114008 130.9122   2.305298   0.3210185 
2467.399904116988 119.0611   2.38686    0.3520435 
2467.599904119968 117.5714   2.419482   0.353283  
2467.799904122949 120.4858   2.402559   0.395427  
2467.999904125929 122.3064   2.400858   0.3433565 
2468.199904128909 117.4882   2.457971   0.2961985 
2468.399904131889 121.8182   2.442106   0.3148135 
2468.59990413487 128.1112   2.435395   0.2466417 
2468.79990413785 137.4094   2.494667   0.2329241 
2468.99990414083 141.2445   2.507431   0.3210185 
2469.19990414381 150.0582   2.455544   0.3235005 
2469.399904146791 134.7359   2.466183   0.2924755 
2469.599904149771 130.962    2.550442   0.2986729 
2469.799904152751 124.5019   2.504314   0.2850461 
2469.999904155731 116.078    2.421016   0.2899934 
2470.199904158711 108.8553   2.517509   0.2713784 
2470.399904161692 112.6701   2.573875   0.2813064 
2470.599904164672 116.9858   2.484956   0.2602352 
2470.799904167652 116.368    2.443463   0.3085493 
2470.999904170632 119.1967   2.429228   0.2899934 
2471.199904173613 112.1096   2.454051   0.3309464 
2471.399904176593 110.1389   2.511537   0.3011625 
2471.599904179573 107.2407   2.533161   0.2602594 
2471.799904182553 112.537    2.458808   0.2763227 
2471.999904185534 107.9242   2.529641   0.2155334 
2472.199904188514 112.1458   2.502578   0.2391124 
2472.399904191494 119.1696   2.438374   0.2626914 
2472.599904194474 113.8878   2.483299   0.2788047 
2472.799904197454 119.7139   2.486336   0.2602322 
2472.999904200435 121.9448   2.507057   0.2688964 
2473.199904203415 119.7572   2.465996   0.2899934 
2473.399904206395 107.1106   2.432214   0.2254614 
2473.599904209375 87.067     2.494849   0.2155455 
2473.799904212356 81.65242   2.573406   0.1907437 
2473.999904215336 99.77945   2.454051   0.2453174 
2474.199904218316 124.8104   2.421762   0.2961985 
2474.399904221296 123.8974   2.400485   0.3470795 
2474.599904224277 122.534    2.426397   0.2900631 
