~Version
 VERS              .         2.0                           : CWLS LOG ASCII STANDARD - VERSION 2.0
 WRAP              .         NO                            : ONE LINE PER DEPTH STEP
 DLM               .         SPACE                         : DELIMITING CHARACTER(SPACE TAB OR COMMA)
~Well Information
#_______________________________________________________________________________
#
#PARAMETER_NAME    .UNIT     VALUE                         : DESCRIPTION
#_______________________________________________________________________________
STRT               .m        2348.39990234375              : First reference value
STOP               .m        2578.599905774                : Last reference value
STEP               .m        0.2                           : Step increment
NULL               .         -9999                         : Missing value
COMP               .                                       : Company
WELL               .         504                           : Well name
FLD                .                                       : Field
LOC                .                                       : Location
CNTY               .                                       : County
STAT               .                                       : State
CTRY               .                                       : Country
SRVC               .                                       : Service Company
DATE               .                                       : Date
API                .                                       : API number
EREF               .m        139.4                         : 
PROJECT_UPGRADE_TIME .         2014-05-27T11_38_46           : 
Pad                .         Pad5                          : 
X                  .m        230550                        : 
Y                  .m        242075                        : 
group              .         Pad5                          : 
Интер-р            .         Зайцев                        : 
Куст               .         5                             : 
Статус             .         Не проверено                  : 
Тип                .         Эксплуатация                  : 
~Parameter Information Block
#_______________________________________________________________________________
#
#PARAMETER_NAME    .UNIT     VALUE                         : DESCRIPTION
#_______________________________________________________________________________
SET                .         LQC                           : 
PROJECT_UPGRADE_TIME .         2014-05-27T11_38_46           : 
TLFamily_GR_NORM   .         Gamma Ray                     : 
TLFamily_MD        .         Measured Depth                : 
TLFamily_RHOB_NORM .         Bulk Density                  : 
TLFamily_TNPH_NORM .         Neutron Porosity              : 
~Curve Information
#_______________________________________________________________________________
#
#LOGNAME           .UNIT     LOG_ID                        : DESCRIPTION
#_______________________________________________________________________________
MD                 .m                                      :  
GR_NORM            .gAPI                                   : Normalised By Techlog 
RHOB_NORM          .g/cm3                                  : Normalized By Techlog 
TNPH_NORM          .v/v                                    : Normalised By Techlog 
~Ascii
# ...
2506.399904698133 95.69351   2.489513   0.2515224 
2506.599904701114 97.12907   2.456331   0.2663963 
2506.799904704094 97.501     2.307533   0.3259097 
2506.999904707074 89.77251   2.124256   0.4153345 
2507.199904710054 85.93065   1.94956    0.4202985 
2507.399904713035 98.5139    1.94508    0.3383925 
2507.599904716015 103.3803   2.236258   0.291292  
2507.799904718995 95.39593   2.420418   0.2664447 
2507.999904721975 84.58373   2.459091   0.2564864 
2508.199904724956 84.2131    2.453118   0.2676554 
2508.399904727936 82.17918   2.475515   0.2788244 
2508.599904730916 81.17699   2.428352   0.2490767 
2508.799904733896 87.78474   2.432582   0.2279692 
2508.999904736876 83.92384   2.449385   0.1919544 
2509.199904739857 76.05025   2.480368   0.1882314 
2509.399904742837 70.59933   2.506124   0.2068464 
2509.599904745817 72.33282   2.487669   0.2056069 
2509.799904748797 77.75214   2.539843   0.1882526 
2509.999904751778 79.72942   2.567902   0.2043644 
2510.199904754758 82.65827   2.538413   0.2242204 
2510.399904757738 82.87523   2.593472   0.2316664 
2510.599904760718 86.35127   2.556189   0.2068767 
2510.799904763699 85.83184   2.485493   0.2105649 
2510.999904766679 89.43804   2.494366   0.2068464 
2511.199904769659 87.74763   2.562304   0.2180154 
2511.399904772639 82.96563   2.517136   0.2341484 
2511.59990477562 85.57491   2.539692   0.2453038 
2511.7999047786 83.37511   2.666667   0.2354016 
2511.99990478158 87.24139   2.582461   0.2639324 
2512.19990478456 87.53067   2.582834   0.2639324 
2512.39990478754 88.69679   2.557264   0.2639324 
2512.599904790521 86.82786   2.545333   0.2081555 
2512.799904793501 87.15061   2.58894    0.1956925 
2512.999904796481 87.75666   2.625015   0.1832674 
2513.199904799461 89.98043   2.640133   0.2204974 
2513.399904802442 90.50473   2.637706   0.2204974 
2513.599904805422 84.87084   2.608626   0.2291738 
2513.799904808402 83.48258   2.58417    0.2452977 
2513.999904811382 91.64373   2.587873   0.2403534 
2514.199904814363 91.22791   2.520683   0.2415944 
2514.399904817343 84.3939    2.463383   0.2217384 
2514.599904820323 83.81606   2.493769   0.2452887 
2514.799904823303 81.53111   2.438441   0.2973758 
2514.999904826283 67.2004    2.41299    0.3160545 
2515.199904829264 69.67728   2.410191   0.3508025 
2515.399904832244 83.7792    2.368383   0.4066475 
2515.599904835224 93.65656   2.464572   0.313686  
2515.799904838204 100.6297   2.492652   0.2020188 
2515.999904841185 87.47643   2.470662   0.2453174 
2516.199904844165 93.08104   2.495299   0.2701374 
2516.399904847145 93.34319   2.469729   0.2763424 
2516.599904850125 88.34131   2.522671   0.3172455 
2516.799904853106 82.29504   2.589471   0.2850688 
2516.999904856086 78.67177   2.596085   0.2738605 
2517.199904859066 77.71356   2.603364   0.2378714 
2517.399904862046 74.02537   2.55913    0.2229794 
2517.599904865026 76.71591   2.548878   0.2130635 
2517.799904868007 71.41938   2.552407   0.2440385 
2517.999904870987 67.29079   2.596272   0.2167744 
2518.199904873967 67.336     2.614749   0.2105694 
2518.399904876947 60.42967   2.564917   0.2267024 
2518.599904879928 56.74597   2.582812   0.2614081 
2518.799904882908 58.01451   2.594205   0.2850007 
2518.999904885888 53.20695   2.555958   0.2639324 
2519.199904888868 55.43072   2.533747   0.2564864 
2519.399904891849 63.44893   2.553344   0.2664144 
2519.599904894829 68.43275   2.560987   0.2490616 
2519.799904897809 75.54439   2.564725   0.2564773 
2519.999904900789 89.62788   2.530947   0.2664144 
2520.199904903769 98.73084   2.496792   0.2986805 
2520.39990490675 97.66416   2.480181   0.3297055 
2520.59990490973 97.57388   2.43451    0.2714496 
2520.79990491271 103.1625   2.465957   0.2713784 
2520.99990491569 102.2111   2.46301    0.2651734 
2521.199904918671 101.0992   2.457038   0.2602094 
2521.399904921651 91.41773   2.388167   0.2875114 
2521.599904924631 91.65248   2.330751   0.2664402 
2521.799904927611 91.17426   2.170365   0.2503011 
2521.999904930592 89.30245   1.856426   0.2490404 
2522.199904933572 79.48534   1.550893   0.2788244 
2522.399904936552 60.98109   1.22819    0.2862704 
2522.599904939532 52.95461   0.8575997  0.3631186 
2522.799904942513 35.22156   0.6317731  0.5565722 
2522.999904945493 19.97705   0.6173129  0.6039666 
2523.199904948473 24.24378   0.6966354  0.6684986 
2523.399904951453 33.2202    0.8580803  0.5034455 
2523.599904954433 44.39769   0.8817548  0.5331932 
2523.799904957414 53.06981   0.9062039  0.6336279 
2523.999904960394 56.69628   1.101274   0.5133736 
2524.199904963374 60.88166   1.441895   0.4798665 
2524.399904966354 68.1134    1.954225   0.4426365 
2524.599904969335 72.04991   2.47954    0.3286037 
2524.799904972315 78.37478   2.33366    0.2788851 
2524.999904975295 83.45377   2.155238   0.2788244 
2525.199904978275 84.81876   2.062104   0.3110904 
2525.399904981256 84.20406   2.134894   0.3458385 
2525.599904984236 83.3644    2.331002   0.3098934 
2525.799904987216 82.80359   2.390334   0.2168881 
2525.999904990196 78.35538   2.395446   0.1696164 
2526.199904993176 73.85361   2.475142   0.1658934 
2526.399904996157 62.24665   2.425869   0.1857494 
2526.599904999137 66.55332   2.441341   0.1944258 
2526.799905002117 72.12926   2.436512   0.1919574 
2526.999905005097 71.8016    2.346919   0.1758214 
2527.199905008078 57.8172    2.359797   0.1857494 
2527.399905011058 60.10424   2.33964    0.2105694 
2527.599905014038 55.57185   2.30273    0.2118089 
2527.799905017018 52.35212   2.376878   0.2192473 
2527.999905019999 51.79676   2.469729   0.1994004 
2528.199905022979 56.13582   2.478315   0.2018824 
2528.399905025959 59.33587   2.483354   0.2006414 
2528.599905028939 55.57994   2.457815   0.2068388 
2528.799905031919 54.05854   2.441566   0.2130438 
2528.9999050349 52.63745   2.414297   0.1894724 
2529.19990503788 48.06337   2.34468    0.1832674 
2529.39990504086 49.51876   2.371183   0.2142924 
2529.59990504384 57.22924   2.399517   0.2254478 
2529.799905046821 53.20285   2.482506   0.221743  
2529.999905049801 46.02944   2.507057   0.2155334 
2530.199905052781 46.49951   2.459651   0.2192564 
2530.399905055761 48.74135   2.449572   0.2291844 
2530.599905058742 50.45679   2.433541   0.2043947 
2530.799905061722 52.87857   2.440045   0.2018854 
2530.999905064702 52.14027   2.437627   0.2391124 
2531.199905067682 51.06455   2.355691   0.2602094 
2531.399905070662 51.37189   2.317616   0.2701374 
2531.599905073643 57.28568   2.470476   0.2056841 
2531.799905076623 69.88788   2.541313   0.2316346 
2531.999905079603 83.30009   2.488767   0.2813064 
2532.199905082583 90.94767   2.583954   0.3359105 
2532.399905085564 87.97362   2.500525   0.3644535 
2532.599905088544 86.19496   2.463615   0.2876053 
2532.799905091524 81.88613   2.492465   0.2317346 
2532.999905094504 89.89907   2.457784   0.2391124 
2533.199905097485 94.10252   2.448825   0.2142924 
2533.399905100465 99.22803   2.477568   0.2391124 
2533.599905103445 99.59821   2.53983    0.1982094 
2533.799905106425 98.57843   2.508775   0.2142727 
2533.999905109406 87.23236   2.420083   0.2204974 
2534.199905112386 78.98816   2.419896   0.1882314 
2534.399905115366 73.71803   2.449572   0.1994004 
2534.599905118346 68.9238    2.396817   0.239064  
2534.799905121326 77.74797   2.463675   0.2577047 
2534.999905124307 84.20406   2.478688   0.2316664 
2535.199905127287 81.4108    2.538973   0.2229794 
2535.399905130267 75.49884   2.534494   0.2502814 
2535.599905133247 65.77496   2.593587   0.2068994 
2535.799905136228 65.04079   2.568493   0.1994095 
2535.999905139208 70.55413   2.551291   0.2167744 
2536.199905142188 71.17786   2.593286   0.2279434 
2536.399905145168 60.69183   2.625388   0.1857494 
2536.599905148149 52.70145   2.568905   0.177073  
2536.799905151129 62.32527   2.461648   0.1807809 
2536.999905154109 68.82755   2.456291   0.2192564 
2537.199905157089 84.14983   2.467863   0.2589684 
2537.399905160069 93.62342   2.447145   0.2267024 
2537.59990516305 92.25106   2.377054   0.268845  
2537.79990516603 94.96702   2.26568    0.2825308 
