~Version
 VERS              .         2.0                           : CWLS LOG ASCII STANDARD - VERSION 2.0
 WRAP              .         NO                            : ONE LINE PER DEPTH STEP
 DLM               .         SPACE                         : DELIMITING CHARACTER(SPACE TAB OR COMMA)
~Well Information
#_______________________________________________________________________________
#
#PARAMETER_NAME    .UNIT     VALUE                         : DESCRIPTION
#_______________________________________________________________________________
STRT               .m        2348.39990234375              : First reference value
STOP               .m        2578.599905774                : Last reference value
STEP               .m        0.2                           : Step increment
NULL               .         -9999                         : Missing value
COMP               .                                       : Company
WELL               .         504                           : Well name
FLD                .                                       : Field
LOC                .                                       : Location
CNTY               .                                       : County
STAT               .                                       : State
CTRY               .                                       : Country
SRVC               .                                       : Service Company
DATE               .                                       : Date
API                .                                       : API number
EREF               .m        139.4                         : 
PROJECT_UPGRADE_TIME .         2014-05-27T11_38_46           : 
Pad                .         Pad5                          : 
X                  .m        230550                        : 
Y                  .m        242075                        : 
group              .         Pad5                          : 
Интер-р            .         Зайцев                        : 
Куст               .         5                             : 
Статус             .         Не проверено                  : 
Тип                .         Эксплуатация                  : 
~Parameter Information Block
#_______________________________________________________________________________
#
#PARAMETER_NAME    .UNIT     VALUE                         : DESCRIPTION
#_______________________________________________________________________________
SET                .         LQC                           : 
PROJECT_UPGRADE_TIME .         2014-05-27T11_38_46           : 
TLFamily_GR_NORM   .         Gamma Ray                     : 
TLFamily_MD        .         Measured Depth                : 
TLFamily_RHOB_NORM .         Bulk Density                  : 
TLFamily_TNPH_NORM .         Neutron Porosity              : 
~Curve Information
#_______________________________________________________________________________
#
#LOGNAME           .UNIT     LOG_ID                        : DESCRIPTION
#_______________________________________________________________________________
MD                 .m                                      :  
GR_NORM            .gAPI                                   : Normalised By Techlog 
RHOB_NORM          .g/cm3                                  : Normalized By Techlog 
TNPH_NORM          .v/v                                    : Normalised By Techlog 
~Ascii
# ...
2474.799904227257 121.6746   2.469117   0.2763591 
2474.999904230237 115.9424   2.465623   0.3024035 
2475.199904233217 109.4429   2.430721   0.2775834 
2475.399904236197 111.739    2.44192    0.2937164 
2475.599904239178 114.7636   2.406501   0.3271826 
2475.799904242158 111.7788   2.421557   0.3185471 
2475.999904245138 116.5029   2.493993   0.3557665 
2476.199904248118 111.6938   2.481488   0.2999214 
2476.399904251099 115.1831   2.491753   0.2453174 
2476.599904254079 113.3774   2.54078    0.2862205 
2476.799904257059 113.5196   2.542144   0.3135391 
2476.999904260039 119.4769   2.528708   0.3508025 
2477.19990426302 116.3673   2.511164   0.3607305 
2477.399904266 113.9899   2.51527    0.3160545 
2477.59990426898 128.1468   2.464751   0.314815  
2477.79990427196 141.9689   2.453878   0.2987002 
2477.99990427494 140.8106   2.51079    0.2515224 
2478.199904277921 133.0455   2.578914   0.2788244 
2478.399904280901 144.4084   2.507617   0.3024035 
2478.599904283881 140.6344   2.433611   0.3259538 
2478.799904286861 136.8288   2.461856   0.3185456 
2478.999904289842 132.5122   2.473462   0.3197775 
2479.199904292822 124.8917   2.44192    0.2899934 
2479.399904295802 133.6602   2.401605   0.2961985 
2479.599904298782 137.9127   2.473375   0.2652113 
2479.799904301763 129.7018   2.4949     0.2763288 
2479.999904304743 132.8828   2.506871   0.3098495 
2480.199904307723 135.0252   2.350839   0.2924755 
2480.399904310703 128.8873   2.376968   0.2751015 
2480.599904313684 129.5373   2.420962   0.2812989 
2480.799904316664 124.13     2.478245   0.2763485 
2480.999904319644 118.5459   2.543266   0.2502814 
2481.199904322624 117.4701   2.508364   0.2279434 
2481.399904325604 118.2656   2.549612   0.2577274 
2481.599904328585 116.6134   2.511397   0.2366561 
2481.799904331565 114.9952   2.525704   0.2056433 
2481.999904334545 111.7028   2.527028   0.2527634 
2482.199904337525 109.3254   2.50967    0.2763424 
2482.399904340506 107.3547   2.516762   0.3210185 
2482.599904343486 113.4491   2.465313   0.3073841 
2482.799904346466 115.1539   2.48501    0.265225  
2482.999904349446 116.4848   2.533747   0.2453174 
2483.199904352427 113.4746   2.476075   0.2825474 
2483.399904355407 107.9604   2.46413    0.3135724 
2483.599904358387 119.3455   2.538322   0.3420807 
2483.799904361367 109.4821   2.601607   0.4152451 
2483.999904364347 111.6938   2.522362   0.3781045 
2484.199904367328 116.4758   2.469356   0.3632125 
2484.399904370308 119.4046   2.493246   0.3110904 
2484.599904373288 113.6353   2.471809   0.2838217 
2484.799904376268 117.8537   2.438415   0.2949438 
2484.999904379249 119.7662   2.473835   0.3197775 
2485.199904382229 124.9912   2.408511   0.3036444 
2485.399904385209 126.4375   2.413737   0.3656945 
2485.599904388189 133.7597   2.415041   0.3322283 
2485.79990439117 125.2818   2.417839   0.3160742 
2485.99990439415 126.7901   2.380141   0.3632125 
2486.19990439713 120.0645   2.377155   0.3743815 
2486.39990440011 125.8138   2.454611   0.3756225 
2486.59990440309 126.2923   2.49991    0.3347194 
2486.799904406071 121.8869   2.50127    0.3173167 
2486.999904409051 127.7844   2.460957   0.3433565 
2487.199904412031 131.6353   2.459837   0.3346695 
2487.399904415011 125.8228   2.437067   0.3359105 
2487.599904417992 126.4729   2.427933   0.3024443 
2487.799904420972 124.5506   2.43892    0.2565425 
2487.999904423952 129.8274   2.465063   0.2329074 
2488.199904426932 135.3597   2.516203   0.1845084 
2488.399904429913 144.0197   2.452931   0.1485194 
2488.599904432893 135.2348   2.416767   0.1621538 
2488.799904435873 97.98991   2.506574   0.1621704 
2488.999904438853 75.19148   2.541026   0.1522424 
2489.199904441833 62.21953   2.58806    0.1547244 
2489.399904444814 56.88611   2.66477    0.1472784 
2489.599904447794 54.67409   2.641468   0.1509968 
2489.799904450774 51.18632   2.596327   0.1485224 
2489.999904453754 57.44658   2.541213   0.1485194 
2490.199904456735 51.3267    2.509111   0.1497604 
2490.399904459715 56.24429   2.449945   0.1485194 
2490.599904462695 56.16304   2.497854   0.1472799 
2490.799904465675 55.79276   2.557937   0.1733076 
2490.999904468656 52.84537   2.598698   0.1646524 
2491.199904471636 40.88585   2.641439   0.1435554 
2491.399904474616 31.95464   2.695939   0.1336274 
2491.599904477596 28.84878   2.697057   0.1261905 
2491.799904480577 31.41815   2.629949   0.09023631
2491.999904483557 35.85074   2.526842   0.07654136
2492.199904486537 33.86201   2.444906   0.3222595 
2492.399904489517 35.81459   2.397126   0.2353894 
2492.599904492497 38.1801    2.293666   0.1920074 
2492.799904495478 36.01611   2.30864    0.1919544 
2492.999904498458 35.85979   2.344493   0.2018824 
2493.199904501438 41.39208   2.444346   0.1845084 
2493.399904504418 35.56148   2.457971   0.1907134 
2493.599904507399 32.50076   2.478663   0.1634447 
2493.799904510379 34.92573   2.497702   0.1299453 
2493.999904513359 32.89477   2.533001   0.1323864 
2494.199904516339 35.61572   2.479995   0.1162534 
2494.39990451932 32.86765   2.362783   0.1348684 
2494.5999045223 32.61485   2.353649   0.1881663 
2494.79990452528 33.95078   2.468655   0.1745971 
2494.99990452826 37.62252   2.488393   0.2130514 
2495.19990453124 42.07909   2.405338   0.2279434 
2495.399904534221 40.59658   2.382008   0.2341484 
2495.599904537201 38.19496   2.422273   0.2093587 
2495.799904540181 37.09956   2.4926     0.1932151 
2495.999904543161 35.92307   2.468049   0.1820264 
2496.199904546142 38.3457    2.504444   0.1832674 
2496.399904549122 35.55243   2.495299   0.1720984 
2496.599904552102 39.2271    2.452424   0.1869722 
2496.799904555082 40.08028   2.359351   0.2055827 
2496.999904558063 40.22596   2.356998   0.2043644 
2497.199904561043 37.64965   2.402165   0.2304254 
2497.399904564023 37.15246   2.507057   0.2577274 
2497.599904567003 35.58147   2.415342   0.2428536 
2497.799904569983 36.73522   2.337496   0.193256  
2497.999904572964 36.17617   2.377155   0.1894724 
2498.199904575944 35.66995   2.481861   0.1609294 
2498.399904578924 33.1298    2.614936   0.1224584 
2498.599904581904 37.02116   2.668624   0.08527376
2498.799904584885 35.84315   2.646319   0.07159402
2498.999904587865 36.20329   2.643306   0.06661335
2499.199904590845 28.14893   2.607097   0.06289035
2499.399904593825 33.18404   2.621469   0.07157736
2499.599904596806 34.69183   2.510552   0.1100015 
2499.799904599786 34.71172   2.454866   0.1534304 
2499.999904602766 35.81459   2.43464    0.1894724 
2500.199904605746 36.76376   2.421762   0.1882314 
2500.399904608727 35.83266   2.348972   0.1820264 
2500.599904611707 37.7016    2.339652   0.1832659 
2500.799904614687 35.55506   2.363501   0.1845069 
2500.999904617667 36.08578   2.313137   0.1807854 
2501.199904620647 42.78419   2.31575    0.2142924 
2501.399904623628 43.54353   2.318736   0.2242204 
2501.599904626608 44.67211   2.316126   0.1957122 
2501.799904629588 45.63955   2.263554   0.1956774 
2501.999904632568 49.63628   2.29354    0.2018824 
2502.199904635549 48.49728   2.387607   0.1981594 
2502.399904638529 49.74475   2.401605   0.1956774 
2502.599904641509 53.65417   2.381099   0.2477359 
2502.799904644489 57.16206   2.381634   0.2589548 
2502.99990464747 57.34714   2.331615   0.2453174 
2503.19990465045 62.29185   2.333854   0.1919544 
2503.39990465343 65.50094   2.317616   0.1882314 
2503.59990465641 68.71515   2.317243   0.1944288 
2503.79990465939 66.38065   2.395723   0.188239  
2503.999904662371 61.26132   2.51639    0.1696164 
2504.199904665351 56.28949   2.582834   0.1969184 
2504.399904668331 51.20919   2.536734   0.1919544 
2504.599904671311 41.25959   2.629754   0.1684041 
2504.799904674292 39.81189   2.689334   0.162178  
2504.999904677272 42.52204   2.642746   0.1646524 
2505.199904680252 54.40019   2.644985   0.1832674 
2505.399904683232 57.13018   2.639946   0.2105694 
2505.599904686213 69.18346   2.607696   0.2266827 
2505.799904689193 80.59234   2.6496     0.2353788 
2505.999904692173 88.48888   2.599072   0.2403534 
2506.199904695153 92.62906   2.552785   0.2552454 
