~Version
 VERS              .         2.0                           : CWLS LOG ASCII STANDARD - VERSION 2.0
 WRAP              .         NO                            : ONE LINE PER DEPTH STEP
 DLM               .         SPACE                         : DELIMITING CHARACTER(SPACE TAB OR COMMA)
~Well Information
#_______________________________________________________________________________
#
#PARAMETER_NAME    .UNIT     VALUE                         : DESCRIPTION
#_______________________________________________________________________________
STRT               .m        2888                          : First reference value
STOP               .m        3108.80000329018              : Last reference value
STEP               .m        0.2                           : Step increment
NULL               .         -9999                         : Missing value
COMP               .                                       : Company
WELL               .         505                           : Well name
FLD                .                                       : Field
LOC                .                                       : Location
CNTY               .                                       : County
STAT               .                                       : State
CTRY               .                                       : Country
SRVC               .                                       : Service Company
DATE               .                                       : Date
API                .                                       : API number
EREF               .m        139.4                         : 
PROJECT_UPGRADE_TIME .         2014-05-27T11_38_46           : 
Pad                .         Pad5                          : 
X                  .m        230550                        : 
Y                  .m        242075                        : 
group              .         Pad5                          : 
Интер-р            .         Старостина                    : 
Куст               .         5                             : 
Статус             .         Не проверено                  : 
Тип                .         Разведка                      : 
~Parameter Information Block
#_______________________________________________________________________________
#
#PARAMETER_NAME    .UNIT     VALUE                         : DESCRIPTION
#_______________________________________________________________________________
SET                .         LQC                           : 
PROJECT_UPGRADE_TIME .         2014-05-27T11_38_46           : 
TLFamily_GR_NORM   .         Gamma Ray                     : 
TLFamily_MD        .         Measured Depth                : 
TLFamily_RHOB_NORM .         Bulk Density                  : 
TLFamily_TNPH_NORM .         Neutron Porosity              : 
~Curve Information
#_______________________________________________________________________________
#
#LOGNAME           .UNIT     LOG_ID                        : DESCRIPTION
#_______________________________________________________________________________
MD                 .m                                      :  
GR_NORM            .gAPI                                   : Normalised By Techlog 
RHOB_NORM          .g/cm3                                  : Normalized By Techlog 
TNPH_NORM          .v/v                                    : Normalised By Techlog 
~Ascii
# ...
2982.80000141263 294.9224   2.389985   0.3327031 
2983.00000141561 273.1754   2.447641   0.306244  
2983.200001418591 254.5646   2.439003   0.2935043 
2983.400001421571 231.5202   2.417005   0.3131038 
2983.600001424551 227.6193   2.336949   0.3454428 
2983.800001427531 257.3742   2.303099   0.3797418 
2984.000001430511 291.0215   2.239014   0.372882  
2984.200001433492 295.8332   2.223445   0.3513226 
2984.400001436472 281.6731   2.237809   0.3307432 
2984.600001439452 274.2151   2.25378    0.337603  
2984.800001442432 272.7286   2.275978   0.3464228 
2985.000001445413 272.7286   2.292853   0.3346631 
2985.200001448393 276.1827   2.264427   0.3297633 
2985.400001451373 288.5555   2.24484    0.3327031 
2985.600001454353 302.9475   2.227463   0.3346631 
2985.800001457334 308.7817   2.205465   0.3454428 
2986.000001460314 308.9363   2.228568   0.3591624 
2986.200001463294 304.9323   2.260007   0.3660222 
2986.400001466274 291.5113   2.281905   0.3777818 
2986.600001469254 267.5647   2.297574   0.3983612 
2986.800001472235 250.8355   2.278489   0.3817017 
2987.000001475215 243.472    2.276179   0.3866016 
2987.200001478195 246.1785   2.276581   0.3954213 
2987.400001481175 244.5976   2.221134   0.3846416 
2987.600001484156 238.0417   2.215911   0.3954213 
2987.800001487136 239.9663   2.255387   0.4130608 
2988.000001490116 257.0134   2.247351   0.3777818 
2988.200001493096 266.6195   2.194215   0.3317232 
2988.400001496077 262.7702   2.196927   0.3336831 
2988.600001499057 268.5613   2.205967   0.3581824 
2988.800001502037 277.4286   2.204661   0.3630823 
2989.000001505017 272.7887   2.20667    0.3552425 
2989.200001507998 262.0656   2.17945    0.3758219 
2989.400001510978 256.3604   2.187987   0.3944413 
2989.600001513958 256.9704   2.225755   0.3768019 
2989.800001516938 257.4774   2.233289   0.3738619 
2990.000001519918 255.1746   2.196224   0.3944413 
2990.200001522899 243.7126   2.156045   0.3905215 
2990.400001525879 233.0582   2.16378    0.3670021 
2990.600001528859 236.9934   2.153534   0.3552425 
2990.800001531839 245.2506   2.170409   0.3660222 
2991.00000153482 243.2314   2.175331   0.3973812 
2991.2000015378 226.0469   2.195219   0.4209006 
2991.40000154078 200.5623   2.231179   0.3895415 
2991.60000154376 176.8734   2.272664   0.337603  
2991.800001546741 156.0372   2.282106   0.2993841 
2992.000001549721 140.7172   2.295063   0.2984042 
2992.200001552701 146.7232   2.312943   0.3082039 
2992.400001555681 168.917    2.323791   0.3111438 
2992.600001558661 180.6712   2.281603   0.3327031 
2992.800001561642 180.6197   2.264025   0.3601424 
2993.000001564622 180.3791   2.238713   0.3768019 
2993.200001567602 179.6831   2.246849   0.3905215 
2993.400001570582 178.0678   2.239617   0.3895415 
2993.600001573563 171.7868   2.250566   0.3611223 
2993.800001576543 156.5012   2.272161   0.3287833 
2994.000001579523 139.669    2.2584     0.3209435 
2994.200001582503 132.2281   2.238512   0.3248634 
2994.400001585484 126.858    2.270755   0.2993841 
2994.600001588464 119.5288   2.302496   0.270965  
2994.800001591444 118.0595   2.327206   0.2768448 
2995.000001594424 125.0794   2.343579   0.2993841 
2995.200001597404 134.0325   2.320175   0.3336831 
2995.400001600385 138.4575   2.300387   0.337603  
2995.600001603365 136.7906   2.310431   0.3082039 
2995.800001606345 133.5341   2.324193   0.2886045 
2996.000001609325 129.1521   2.375119   0.2876245 
2996.200001612306 142.1006   2.38667    0.2856646 
2996.400001615286 156.484    2.335342   0.2758648 
2996.600001618266 140.133    2.299181   0.269985  
2996.800001621246 124.4178   2.308824   0.2748849 
2997.000001624227 124.5295   2.316458   0.269985  
2997.200001627207 125.0364   2.33042    0.2670451 
2997.400001630187 115.2928   2.363969   0.2611653 
2997.600001633167 109.1064   2.349605   0.269005  
2997.800001636147 106.4428   2.343478   0.2895844 
2998.000001639128 106.0647   2.283512   0.2944843 
2998.200001642108 109.0033   2.286425   0.306244  
2998.400001645088 108.5049   2.268244   0.3111438 
2998.600001648068 106.4771   2.293355   0.2915444 
2998.800001651049 108.5049   2.29888    0.2925244 
2999.000001654029 110.9795   2.309628   0.304284  
2999.200001657009 110.5155   2.312641   0.2925244 
2999.400001659989 104.4837   2.324695   0.2895844 
2999.60000166297 101.0211   2.321882   0.3013441 
2999.80000166595 105.1453   2.306213   0.3003641 
3000.00000166893 114.4336   2.30109    0.2984042 
3000.20000167191 121.7713   2.301291   0.2984042 
3000.400001674891 120.9465   2.294561   0.2964442 
3000.600001677871 111.8988   2.304103   0.2846846 
3000.800001680851 104.9391   2.314449   0.2631252 
3001.000001683831 108.2214   2.32128    0.2719449 
3001.200001686811 117.5955   2.34157    0.3170236 
3001.400001689792 126.1018   2.334337   0.3415229 
3001.600001692772 131.2572   2.274572   0.3454428 
3001.800001695752 133.1389   2.232786   0.3297633 
3002.000001698732 134.7027   2.229371   0.339563  
3002.200001701713 129.1349   2.235398   0.3444628 
3002.400001704693 115.5506   2.248757   0.2984042 
3002.600001707673 102.7395   2.286525   0.2846846 
3002.800001710653 102.834    2.277887   0.3180036 
3003.000001713634 115.3615   2.263322   0.3405429 
3003.200001716614 123.7561   2.270755   0.3356431 
3003.400001719594 123.7905   2.276179   0.3454428 
3003.600001722574 115.7396   2.259304   0.339563  
3003.800001725554 100.7375   2.330621   0.3082039 
3004.000001728535 91.32041   2.370599   0.2993841 
3004.200001731515 90.83065   2.368088   0.3248634 
3004.400001734495 92.40303   2.332931   0.3562225 
3004.600001737475 95.77119   2.299784   0.3405429 
3004.800001740456 103.1949   2.257295   0.3346631 
3005.000001743436 112.8268   2.24926    0.336623  
3005.200001746416 122.1838   2.224349   0.3297633 
3005.400001749396 131.0767   2.223746   0.3209435 
3005.600001752377 130.312    2.259907   0.3072239 
3005.800001755357 114.657    2.242731   0.2876245 
3006.000001758337 99.23386   2.272965   0.2788048 
3006.200001761317 95.39314   2.281603   0.2886045 
3006.400001764297 98.33169   2.292652   0.3268234 
3006.600001767278 104.0885   2.279393   0.3738619 
3006.800001770258 115.4474   2.246346   0.3983612 
3007.000001773238 124.4435   2.237608   0.3915014 
3007.200001776218 127.2618   2.234594   0.3640622 
3007.400001779199 127.3735   2.252072   0.3542625 
3007.600001782179 129.9855   2.245945   0.3425029 
3007.800001785159 134.1356   2.218423   0.3131038 
3008.000001788139 131.0939   2.201748   0.2974242 
3008.20000179112 126.4369   2.211592   0.3170236 
3008.4000017941 136.1118   2.206269   0.3425029 
3008.60000179708 138.2169   2.180755   0.3621023 
3008.80000180006 127.2016   2.199438   0.3562225 
3009.000001803041 120.0357   2.258601   0.371902  
3009.200001806021 123.6788   2.238813   0.3944413 
3009.400001809001 129.1005   2.204159   0.3591624 
3009.600001811981 139.669    2.164684   0.3503426 
3009.800001814961 168.1523   2.137262   0.370922  
3010.000001817942 192.3739   2.13013    0.3699421 
3010.200001820922 186.3936   2.150722   0.3405429 
3010.400001823902 161.0207   2.225454   0.3111438 
3010.600001826882 144.9017   2.288434   0.2807647 
3010.800001829863 133.0186   2.323992   0.2837046 
3011.000001832843 123.2492   2.330219   0.2895844 
3011.200001835823 112.0707   2.340766   0.3189836 
3011.400001838803 112.2425   2.283311   0.3307432 
3011.600001841784 120.2419   2.258099   0.3621023 
3011.800001844764 122.622    2.275476   0.3826817 
3012.000001847744 116.8222   2.32138    0.3660222 
3012.200001850724 109.1493   2.33042    0.3552425 
3012.400001853704 106.7693   2.37321    0.3444628 
3012.600001856685 108.883    2.398221   0.3346631 
3012.800001859665 107.0872   2.470342   0.3121238 
3013.000001862645 101.6053   2.537942   0.2807647 
3013.200001865625 92.69517   2.606447   0.2435258 
3013.400001868606 90.40962   2.689716   0.2307862 
3013.600001871586 106.3654   2.623723   0.2582254 
3013.800001874566 124.7271   2.597406   0.305264  
3014.000001877546 135.0292   2.541157   0.3425029 
3014.200001880527 135.1323   2.463612   0.3581824 
