~Version
 VERS              .         2.0                           : CWLS LOG ASCII STANDARD - VERSION 2.0
 WRAP              .         NO                            : ONE LINE PER DEPTH STEP
 DLM               .         SPACE                         : DELIMITING CHARACTER(SPACE TAB OR COMMA)
~Well Information
#_______________________________________________________________________________
#
#PARAMETER_NAME    .UNIT     VALUE                         : DESCRIPTION
#_______________________________________________________________________________
STRT               .m        2888                          : First reference value
STOP               .m        3108.80000329018              : Last reference value
STEP               .m        0.2                           : Step increment
NULL               .         -9999                         : Missing value
COMP               .                                       : Company
WELL               .         505                           : Well name
FLD                .                                       : Field
LOC                .                                       : Location
CNTY               .                                       : County
STAT               .                                       : State
CTRY               .                                       : Country
SRVC               .                                       : Service Company
DATE               .                                       : Date
API                .                                       : API number
EREF               .m        139.4                         : 
PROJECT_UPGRADE_TIME .         2014-05-27T11_38_46           : 
Pad                .         Pad5                          : 
X                  .m        230550                        : 
Y                  .m        242075                        : 
group              .         Pad5                          : 
Интер-р            .         Старостина                    : 
Куст               .         5                             : 
Статус             .         Не проверено                  : 
Тип                .         Разведка                      : 
~Parameter Information Block
#_______________________________________________________________________________
#
#PARAMETER_NAME    .UNIT     VALUE                         : DESCRIPTION
#_______________________________________________________________________________
SET                .         LQC                           : 
PROJECT_UPGRADE_TIME .         2014-05-27T11_38_46           : 
TLFamily_GR_NORM   .         Gamma Ray                     : 
TLFamily_MD        .         Measured Depth                : 
TLFamily_RHOB_NORM .         Bulk Density                  : 
TLFamily_TNPH_NORM .         Neutron Porosity              : 
~Curve Information
#_______________________________________________________________________________
#
#LOGNAME           .UNIT     LOG_ID                        : DESCRIPTION
#_______________________________________________________________________________
MD                 .m                                      :  
GR_NORM            .gAPI                                   : Normalised By Techlog 
RHOB_NORM          .g/cm3                                  : Normalized By Techlog 
TNPH_NORM          .v/v                                    : Normalised By Techlog 
~Ascii
# ...
3014.400001883507 126.7548   2.42725    0.3444628 
3014.600001886487 115.4646   2.453768   0.3317232 
3014.800001889467 109.8539   2.492239   0.3258434 
3015.000001892447 113.5829   2.475766   0.3278033 
3015.200001895428 115.1381   2.428154   0.3297633 
3015.400001898408 112.148    2.444427   0.2905644 
3015.600001901388 111.3747   2.452261   0.2523455 
3015.800001904368 116.0747   2.459293   0.2837046 
3016.000001907349 123.3781   2.480286   0.3258434 
3016.200001910329 126.4627   2.478076   0.3268234 
3016.400001913309 121.9174   2.462406   0.3513226 
3016.600001916289 116.5473   2.42725    0.338583  
3016.80000191927 113.4454   2.421525   0.3072239 
3017.00000192225 113.3595   2.410174   0.2993841 
3017.20000192523 117.6127   2.506      0.2807647 
3017.40000192821 120.4911   2.46321    0.2719449 
3017.60000193119 121.8229   2.418913   0.2739049 
3017.800001934171 122.3041   2.396112   0.2827246 
3018.000001937151 119.7779   2.418612   0.3072239 
3018.200001940131 120.9293   2.462005   0.3131038 
3018.400001943111 121.462    2.45186    0.2768448 
3018.600001946092 104.7845   2.449449   0.2317661 
3018.800001949072 72.95017   2.503991   0.1925673 
3019.000001952052 55.08688   2.53744    0.1817876 
3019.200001955032 69.76244   2.515442   0.2170666 
3019.400001958013 114.803    2.460598   0.2964442 
3019.600001960993 127.4336   2.457284   0.2846846 
3019.800001963973 126.0675   2.477172   0.2797847 
3020.000001966953 121.2043   2.529103   0.2915444 
3020.200001969934 118.0165   2.508813   0.3072239 
3020.400001972914 114.5624   2.505498   0.3131038 
3020.600001975894 110.2491   2.437195   0.3091839 
3020.800001978874 109.6305   2.439605   0.2876245 
3021.000001981854 109.8453   2.429761   0.2748849 
3021.200001984835 107.8175   2.455174   0.2915444 
3021.400001987815 105.9616   2.507507   0.304284  
3021.600001990795 106.2967   2.594493   0.3091839 
3021.800001993775 104.9907   2.567574   0.3317232 
3022.000001996756 102.0092   2.490933   0.3444628 
3022.200001999736 104.2002   2.422128   0.3238834 
3022.400002002716 106.4943   2.44965    0.2993841 
3022.600002005696 109.6133   2.432172   0.3013441 
3022.800002008677 119.5975   2.423534   0.306244  
3023.000002011657 124.5209   2.429962   0.3180036 
3023.200002014637 122.9227   2.423433   0.3189836 
3023.400002017617 121.6596   2.434181   0.3101638 
3023.600002020597 121.7799   2.458891   0.3131038 
3023.800002023578 124.4092   2.48109    0.3101638 
3024.000002026558 126.2909   2.471246   0.2974242 
3024.200002029538 127.3649   2.449348   0.3003641 
3024.400002032518 124.2287   2.536235   0.3503426 
3024.600002035499 116.5816   2.542563   0.371902  
3024.800002038479 114.6398   2.498467   0.3287833 
3025.000002041459 119.1249   2.487317   0.2935043 
3025.200002044439 125.0794   2.459393   0.2944843 
3025.40000204742 129.0919   2.434181   0.3248634 
3025.6000020504 126.4197   2.485007   0.3454428 
3025.80000205338 119.5975   2.481993   0.3474028 
3026.00000205636 121.5651   2.496659   0.3160436 
3026.20000205934 125.3371   2.471949   0.2650852 
3026.400002062321 120.7575   2.473456   0.2650852 
3026.600002065301 116.1262   2.504694   0.305264  
3026.800002068281 117.0714   2.5511     0.3091839 
3027.000002071261 116.994    2.546179   0.3023241 
3027.200002074242 116.0661   2.552808   0.3199635 
3027.400002077222 117.1229   2.511324   0.3238834 
3027.600002080202 116.8222   2.500777   0.2935043 
3027.800002083182 112.9471   2.518556   0.2993841 
3028.000002086163 109.7851   2.54186    0.3327031 
3028.200002089143 108.6338   2.541358   0.3297633 
3028.400002092123 107.4652   2.5285     0.3013441 
3028.600002095103 107.5254   2.533623   0.305264  
3028.800002098083 109.0204   2.527496   0.3405429 
3029.000002101064 109.8023   2.540353   0.3621023 
3029.200002104044 111.2802   2.543165   0.3581824 
3029.400002107024 110.3351   2.547786   0.3258434 
3029.600002110004 110.4382   2.537138   0.3111438 
3029.800002112985 117.1745   2.52398    0.3219235 
3030.000002115965 120.0013   2.50369    0.3513226 
3030.200002118945 119.8123   2.487016   0.3630823 
3030.400002121925 119.2968   2.484204   0.3474028 
3030.600002124906 117.7931   2.465822   0.3689621 
3030.800002127886 117.8103   2.439605   0.3875815 
3031.000002130866 115.3787   2.446837   0.3846416 
3031.200002133846 114.5109   2.522373   0.3474028 
3031.400002136827 117.7931   2.511123   0.3170236 
3031.600002139807 121.1355   2.482295   0.3160436 
3031.800002142787 121.969    2.44965    0.3219235 
3032.000002145767 123.0688   2.49013    0.3307432 
3032.200002148747 122.8024   2.498567   0.3425029 
3032.400002151728 119.6576   2.459996   0.3415229 
3032.600002154708 117.733    2.48802    0.3248634 
3032.800002157688 119.6576   2.508411   0.3238834 
3033.000002160668 123.7132   2.530107   0.2974242 
3033.200002163649 125.6636   2.500275   0.269005  
3033.400002166629 124.2717   2.553913   0.2445058 
3033.600002169609 136.6445   2.655464   0.2141267 
3033.800002172589 174.6996   2.67927    0.2111868 
3034.00000217557 190.3461   2.57571    0.2219664 
3034.20000217855 150.9764   2.494349   0.2062869 
3034.40000218153 98.21998   2.490833   0.1896274 
3034.60000218451 72.26279   2.534728   0.1857075 
3034.80000218749 62.02082   2.529304   0.1768878 
3035.000002190471 51.03134   2.553813   0.170028  
3035.200002193451 43.83963   2.550699   0.1612082 
3035.400002196431 42.18991   2.511223   0.1572883 
3035.600002199411 44.65589   2.511324   0.1661081 
3035.800002202392 47.39682   2.538344   0.1592483 
3036.000002205372 45.36045   2.54186    0.1494486 
3036.200002208352 39.93015   2.534226   0.1425888 
3036.400002211332 37.03456   2.640397   0.1269092 
3036.600002214313 35.35048   2.628846   0.1200494 
3036.800002217293 34.06165   2.556324   0.1239693 
3037.000002220273 33.68358   2.60283    0.1190695 
3037.200002223253 30.90829   2.707797   0.1053499 
3037.400002226233 27.77212   2.731502   0.09947006
3037.600002229214 27.55731   2.673846   0.1122097 
3037.800002232194 30.16935   2.536335   0.1416088 
3038.000002235174 32.74703   2.36859    0.1651281 
3038.200002238154 35.08412   2.357139   0.1798277 
3038.400002241135 41.64001   2.381648   0.1935473 
3038.600002244115 49.1926    2.387273   0.203347  
3038.800002247095 50.97119   2.30792    0.1915873 
3039.000002250075 48.99498   2.372407   0.1719879 
3039.200002253056 49.14964   2.478679   0.1749278 
3039.400002256036 53.84101   2.485409   0.2004071 
3039.600002259016 54.65727   2.480788   0.2111868 
3039.800002261996 51.28911   2.492239   0.2004071 
3040.000002264977 49.98309   2.472049   0.1906074 
3040.200002267957 50.80794   2.487016   0.1817876 
3040.400002270937 52.1913    2.492641   0.1798277 
3040.600002273917 51.34925   2.464717   0.1866875 
3040.800002276897 47.51711   2.470643   0.1896274 
3041.000002279878 44.04584   2.562953   0.1759078 
3041.200002282858 42.10399   2.612875   0.1455287 
3041.400002285838 42.79996   2.579828   0.1465087 
3041.600002288818 43.6506    2.438802   0.1553284 
3041.800002291799 44.46686   2.350911   0.168068  
3042.000002294779 42.5336    2.331324   0.1798277 
3042.200002297759 40.23947   2.366581   0.1719879 
3042.400002300739 41.57986   2.408668   0.1651281 
3042.60000230372 41.82045   2.510721   0.1445487 
3042.8000023067 39.91297   2.57581    0.1122097 
3043.00000230968 36.39874   2.692328   0.08379052
3043.20000231266 31.86203   2.756714   0.06713101
3043.40000231564 30.54741   2.755107   0.05537136
3043.600002318621 31.20042   2.756011   0.05145147
3043.800002321601 29.74833   2.704783   0.05635133
3044.000002324581 28.0127    2.695844   0.07301083
3044.200002327561 30.66771   2.643712   0.09359022
3044.400002330542 32.48067   2.571391   0.09751011
3044.600002333522 30.87392   2.574505   0.0945702 
3044.800002336502 30.82237   2.56446    0.10241   
3045.000002339482 33.20242   2.471648   0.1200494 
3045.200002342463 34.19053   2.434483   0.133769  
3045.400002345443 32.65252   2.430766   0.1455287 
3045.600002348423 31.59567   2.449549   0.1621882 
3045.800002351403 32.9962    2.457083   0.1768878 
