~Version
 VERS              .         2.0                           : CWLS LOG ASCII STANDARD - VERSION 2.0
 WRAP              .         NO                            : ONE LINE PER DEPTH STEP
 DLM               .         SPACE                         : DELIMITING CHARACTER(SPACE TAB OR COMMA)
~Well Information
#_______________________________________________________________________________
#
#PARAMETER_NAME    .UNIT     VALUE                         : DESCRIPTION
#_______________________________________________________________________________
STRT               .m        2888                          : First reference value
STOP               .m        3108.80000329018              : Last reference value
STEP               .m        0.2                           : Step increment
NULL               .         -9999                         : Missing value
COMP               .                                       : Company
WELL               .         505                           : Well name
FLD                .                                       : Field
LOC                .                                       : Location
CNTY               .                                       : County
STAT               .                                       : State
CTRY               .                                       : Country
SRVC               .                                       : Service Company
DATE               .                                       : Date
API                .                                       : API number
EREF               .m        139.4                         : 
PROJECT_UPGRADE_TIME .         2014-05-27T11_38_46           : 
Pad                .         Pad5                          : 
X                  .m        230550                        : 
Y                  .m        242075                        : 
group              .         Pad5                          : 
Интер-р            .         Старостина                    : 
Куст               .         5                             : 
Статус             .         Не проверено                  : 
Тип                .         Разведка                      : 
~Parameter Information Block
#_______________________________________________________________________________
#
#PARAMETER_NAME    .UNIT     VALUE                         : DESCRIPTION
#_______________________________________________________________________________
SET                .         LQC                           : 
PROJECT_UPGRADE_TIME .         2014-05-27T11_38_46           : 
TLFamily_GR_NORM   .         Gamma Ray                     : 
TLFamily_MD        .         Measured Depth                : 
TLFamily_RHOB_NORM .         Bulk Density                  : 
TLFamily_TNPH_NORM .         Neutron Porosity              : 
~Curve Information
#_______________________________________________________________________________
#
#LOGNAME           .UNIT     LOG_ID                        : DESCRIPTION
#_______________________________________________________________________________
MD                 .m                                      :  
GR_NORM            .gAPI                                   : Normalised By Techlog 
RHOB_NORM          .g/cm3                                  : Normalized By Techlog 
TNPH_NORM          .v/v                                    : Normalised By Techlog 
~Ascii
2888.0     75.55363   -9999      0.2944843 
2888.20000000298 85.64951   -9999      0.2797847 
2888.40000000596 86.56889   -9999      0.2817447 
2888.600000008941 83.29524   -9999      0.2592053 
2888.800000011921 80.61446   -9999      0.2288262 
2889.000000014901 84.79888   -9999      0.2209865 
2889.200000017881 94.18162   -9999      0.2337261 
2889.400000020862 99.10498   -9999      0.2513656 
2889.600000023842 93.82075   -9999      0.269005  
2889.800000026822 82.04077   -9999      0.2592053 
2890.000000029802 77.98524   -9999      0.2317661 
2890.200000032783 77.83057   -9999      0.2229464 
2890.400000035763 76.15508   -9999      0.2209865 
2890.600000038743 81.95486   -9999      0.2307862 
2890.800000041723 90.58147   -9999      0.2543055 
2891.000000044703 93.63171   -9999      0.2523455 
2891.200000047684 92.214     -9999      0.235686  
2891.400000050664 90.35807   -9999      0.2258863 
2891.600000053644 88.82006   -9999      0.2278463 
2891.800000056624 92.00779   -9999      0.2386259 
2892.000000059605 97.18891   -9999      0.2298062 
2892.200000062585 99.65488   -9999      0.2200065 
2892.400000065565 96.4242    -9999      0.2327461 
2892.600000068545 88.45919   -9999      0.2454858 
2892.800000071526 87.94365   -9999      0.2464657 
2893.000000074506 92.23119   -9999      0.2484256 
2893.200000077486 90.92516   -9999      0.2484256 
2893.400000080466 89.80817   -9999      0.2503856 
2893.600000083447 92.92715   -9999      0.2572454 
2893.800000086427 95.99459   -9999      0.2425458 
2894.000000089407 98.58086   -9999      0.2317661 
2894.200000092387 101.5194   -9999      0.2533255 
2894.400000095367 99.79236   -9999      0.2601853 
2894.600000098348 93.57157   -9999      0.2415659 
2894.800000101328 88.24438   -9999      0.2278463 
2895.000000104308 81.80019   -9999      0.2278463 
2895.200000107288 77.07446   -9999      0.2386259 
2895.400000110269 76.5761    -9999      0.2523455 
2895.600000113249 74.76314   -9999      0.2523455 
2895.800000116229 74.40226   -9999      0.2484256 
2896.000000119209 76.85964   -9999      0.2415659 
2896.20000012219 79.54043   -9999      0.2317661 
2896.40000012517 84.1115    -9999      0.237646  
2896.60000012815 84.25758   -9999      0.237646  
2896.80000013113 79.84975   -9999      0.2337261 
2897.00000013411 80.77772   -9999      0.2415659 
2897.200000137091 88.85442   -9999      0.2513656 
2897.400000140071 94.61983   -9999      0.2572454 
2897.600000143051 89.5504    -9999      0.2464657 
2897.800000146031 75.81998   -9999      0.2278463 
2898.000000149012 65.8272    -9999      0.2092268 
2898.200000151992 61.78024   -9999      0.1876675 
2898.400000154972 59.08228   -9999      0.1631682 
2898.600000157952 56.34135   -9999      0.1445487 
2898.800000160933 51.10008   -9999      0.1386689 
2899.000000163913 47.62881   -9999      0.1465087 
2899.200000166893 54.08159   -9999      0.1514085 
2899.400000169873 58.76437   -9999      0.1886474 
2899.600000172853 61.51388   -9999      0.2219664 
2899.800000175834 70.2608    -9999      0.235686  
2900.000000178814 77.65013   -9999      0.2435258 
2900.200000181794 77.18615   -9999      0.2396059 
2900.400000184774 78.96474   -9999      0.2278463 
2900.600000187755 79.84975   -9999      0.2337261 
2900.800000190735 74.97794   -9999      0.2572454 
2901.000000193715 70.69041   -9999      0.269985  
2901.200000196695 69.65934   -9999      0.2601853 
2901.400000199676 71.53245   -9999      0.2415659 
2901.600000202656 74.33353   -9999      0.237646  
2901.800000205636 79.73805   -9999      0.2415659 
2902.000000208616 89.15515   -9999      0.2337261 
2902.200000211596 94.5425    -9999      0.2229464 
2902.400000214577 93.5458    -9999      0.2239264 
2902.600000217557 95.96881   -9999      0.2307862 
2902.800000220537 96.87959   -9999      0.2396059 
2903.000000223517 89.28404   -9999      0.2523455 
2903.200000226498 80.09033   -9999      0.2533255 
2903.400000229478 79.38577   -9999      0.2611653 
2903.600000232458 83.76781   -9999      0.2846846 
2903.800000235438 82.63364   -9999      0.2778248 
2904.000000238419 79.29125   -9999      0.2503856 
2904.200000241399 84.20602   -9999      0.2464657 
2904.400000244379 90.55569   -9999      0.2523455 
2904.600000247359 90.70176   -9999      0.235686  
2904.80000025034 91.6641    -9999      0.2249063 
2905.00000025332 92.48035   -9999      0.2307862 
2905.2000002563 87.38515   -9999      0.236666  
2905.40000025928 85.79559   -9999      0.2445058 
2905.60000026226 91.56099   -9999      0.2484256 
2905.800000265241 93.41692   -9999      0.2513656 
2906.000000268221 85.7784    -9999      0.2552854 
2906.200000271201 74.78891   -9999      0.2552854 
2906.400000274181 66.75516   -9999      0.2592053 
2906.600000277162 63.87676   -9999      0.2748849 
2906.800000280142 67.67453   -9999      0.2817447 
2907.000000283122 71.22313   -9999      0.2758648 
2907.200000286102 75.71688   -9999      0.269985  
2907.400000289083 83.95685   -9999      0.2513656 
2907.600000292063 92.78108   -9999      0.2464657 
2907.800000295043 96.68197   -9999      0.2631252 
2908.000000298023 100.0673   -9999      0.2788048 
2908.200000301003 100.5485   -9999      0.2758648 
2908.400000303984 97.17173   -9999      0.2670451 
2908.600000306964 89.78239   -9999      0.2592053 
2908.800000309944 74.29057   -9999      0.2347061 
2909.000000312924 63.52447   -9999      0.2121667 
2909.200000315905 60.91243   -9999      0.2200065 
2909.400000318885 59.99305   -9999      0.2386259 
2909.600000321865 59.01354   2.3935     0.2327461 
2909.800000324845 57.70752   2.442619   0.201387  
2910.000000327826 60.6031    2.469538   0.1984471 
2910.200000330806 69.11803   2.374014   0.2249063 
2910.400000333786 72.9158    2.335242   0.2121667 
2910.600000336766 68.74856   2.349505   0.2229464 
2910.800000339746 66.07637   2.35744    0.2425458 
2911.000000342727 67.94089   2.348199   0.2494056 
2911.200000345707 68.92041   2.319873   0.2533255 
2911.400000348687 70.46702   2.288635   0.2484256 
2911.600000351667 71.37779   2.297775   0.2445058 
2911.800000354648 70.28657   2.329516   0.2582254 
2912.000000357628 68.44783   2.312139   0.2729249 
2912.200000360608 69.04929   2.297574   0.269985  
2912.400000363588 68.12132   2.308222   0.2523455 
2912.600000366569 66.67783   2.330822   0.2445058 
2912.800000369549 70.17487   2.338657   0.2405859 
2913.000000372529 72.41745   2.393099   0.2268663 
2913.200000375509 71.64414   2.365878   0.237646  
2913.400000378489 68.40487   2.392998   0.2582254 
2913.60000038147 66.32555   2.39561    0.2562654 
2913.80000038445 70.11473   2.40244    0.237646  
2914.00000038743 73.32822   2.43157    0.2258863 
2914.20000039041 71.85896   2.459996   0.2298062 
2914.400000393391 72.60648   2.443924   0.2386259 
2914.600000396371 81.04408   2.404549   0.2562654 
2914.800000399351 82.62505   2.394304   0.269985  
2915.000000402331 71.10284   2.401235   0.2445058 
2915.200000405312 65.2773    2.4158     0.2523455 
2915.400000408292 68.61108   2.39561    0.2964442 
2915.600000411272 74.49678   2.40465    0.2993841 
2915.800000414252 77.78761   2.424839   0.2758648 
2916.000000417233 78.95616   2.449248   0.2748849 
2916.200000420213 86.672     2.501179   0.2680251 
2916.400000423193 96.39842   2.47225    0.2513656 
2916.600000426173 98.05672   2.467228   0.2425458 
2916.800000429153 93.2107    2.509516   0.236666  
2917.000000432134 90.96812   2.492942   0.237646  
2917.200000435114 92.23119   2.474761   0.2445058 
2917.400000438094 94.92056   2.446436   0.2562654 
2917.600000441074 98.94173   2.451358   0.2631252 
2917.800000444055 102.5848   2.480989   0.2543055 
2918.000000447035 102.1982   2.468534   0.2415659 
2918.200000450015 100.2993   2.457485   0.235686  
2918.400000452995 99.15654   2.437697   0.2503856 
2918.600000455976 98.81285   2.45638    0.269005  
2918.800000458956 99.81814   2.435085   0.2827246 
2919.000000461936 96.14925   2.434382   0.2886045 
2919.200000464916 87.05006   2.44734    0.2876245 
2919.400000467896 80.87222   2.498868   0.2719449 
