~Version
 VERS              .         2.0                           : CWLS LOG ASCII STANDARD - VERSION 2.0
 WRAP              .         NO                            : ONE LINE PER DEPTH STEP
 DLM               .         SPACE                         : DELIMITING CHARACTER(SPACE TAB OR COMMA)
~Well Information
#_______________________________________________________________________________
#
#PARAMETER_NAME    .UNIT     VALUE                         : DESCRIPTION
#_______________________________________________________________________________
STRT               .m        2888                          : First reference value
STOP               .m        3108.80000329018              : Last reference value
STEP               .m        0.2                           : Step increment
NULL               .         -9999                         : Missing value
COMP               .                                       : Company
WELL               .         505                           : Well name
FLD                .                                       : Field
LOC                .                                       : Location
CNTY               .                                       : County
STAT               .                                       : State
CTRY               .                                       : Country
SRVC               .                                       : Service Company
DATE               .                                       : Date
API                .                                       : API number
EREF               .m        139.4                         : 
PROJECT_UPGRADE_TIME .         2014-05-27T11_38_46           : 
Pad                .         Pad5                          : 
X                  .m        230550                        : 
Y                  .m        242075                        : 
group              .         Pad5                          : 
Интер-р            .         Старостина                    : 
Куст               .         5                             : 
Статус             .         Не проверено                  : 
Тип                .         Разведка                      : 
~Parameter Information Block
#_______________________________________________________________________________
#
#PARAMETER_NAME    .UNIT     VALUE                         : DESCRIPTION
#_______________________________________________________________________________
SET                .         LQC                           : 
PROJECT_UPGRADE_TIME .         2014-05-27T11_38_46           : 
TLFamily_GR_NORM   .         Gamma Ray                     : 
TLFamily_MD        .         Measured Depth                : 
TLFamily_RHOB_NORM .         Bulk Density                  : 
TLFamily_TNPH_NORM .         Neutron Porosity              : 
~Curve Information
#_______________________________________________________________________________
#
#LOGNAME           .UNIT     LOG_ID                        : DESCRIPTION
#_______________________________________________________________________________
MD                 .m                                      :  
GR_NORM            .gAPI                                   : Normalised By Techlog 
RHOB_NORM          .g/cm3                                  : Normalized By Techlog 
TNPH_NORM          .v/v                                    : Normalised By Techlog 
~Ascii
# ...
2919.600000470877 79.90131   2.536837   0.2513656 
2919.800000473857 76.92838   2.574906   0.2533255 
2920.000000476837 76.18945   2.530509   0.2425458 
2920.200000479817 75.72547   2.58254    0.2141267 
2920.400000482798 65.17419   2.589471   0.1866875 
2920.600000485778 55.76567   2.590878   0.1602283 
2920.800000488758 56.03203   2.682786   0.1288692 
2921.000000491738 53.34266   2.69283    0.09653015
2921.200000494719 49.22697   2.660487   0.09163029
2921.400000497699 47.22497   2.618098   0.1092698 
2921.600000500679 45.18002   2.497161   0.1425888 
2921.800000503659 48.76299   2.457183   0.1847275 
2922.000000506639 59.82121   2.426447   0.2151066 
2922.20000050962 72.99313   2.504895   0.2278463 
2922.4000005126 84.10291   2.551804   0.2278463 
2922.60000051558 90.19482   2.527094   0.2396059 
2922.80000051856 93.08182   2.518556   0.2572454 
2923.000000521541 97.20609   2.499572   0.2729249 
2923.200000524521 99.57756   2.493344   0.2670451 
2923.400000527501 99.07921   2.448244   0.2543055 
2923.600000530481 99.33698   2.446335   0.2572454 
2923.800000533462 99.92984   2.441815   0.2660652 
2924.000000536442 99.15654   2.51494    0.2601853 
2924.200000539422 98.73552   2.51725    0.2523455 
2924.400000542402 99.12217   2.514438   0.2592053 
2924.600000545382 94.11288   2.558935   0.2513656 
2924.800000548363 90.35807   2.549996   0.2337261 
2925.000000551343 91.51803   2.547284   0.2327461 
2925.200000554323 91.84454   2.591681   0.2307862 
2925.400000557303 94.61983   2.602931   0.2190265 
2925.600000560284 97.87629   2.600319   0.2160866 
2925.800000563264 97.92784   2.593891   0.2239264 
2926.000000566244 100.2477   2.605543   0.2307862 
2926.200000569224 104.7329   2.541157   0.235686  
2926.400000572205 103.3581   2.54196    0.2445058 
2926.600000575185 99.04484   2.516848   0.2454858 
2926.800000578165 98.06532   2.489628   0.236666  
2927.000000581145 100.033    2.503791   0.2415659 
2927.200000584126 100.6774   2.502585   0.2484256 
2927.400000587106 102.0521   2.542663   0.2513656 
2927.600000590086 101.8717   2.577518   0.2621453 
2927.800000593066 96.49294   2.587261   0.2660652 
2928.000000596046 87.57418   2.598712   0.2621453 
2928.200000599027 85.95884   2.574605   0.2494056 
2928.400000602007 95.01507   2.543668   0.2435258 
2928.600000604987 101.0039   2.575208   0.2523455 
2928.800000607967 101.064    2.596603   0.2572454 
2929.000000610948 101.6569   2.581737   0.2582254 
2929.200000613928 101.4593   2.571893   0.2396059 
2929.400000616908 100.9953   2.556525   0.2337261 
2929.600000619888 101.8459   2.55321    0.2513656 
2929.800000622869 101.253    2.525587   0.2523455 
2930.000000625849 96.69057   2.529605   0.2396059 
2930.200000628829 93.89808   2.543969   0.2347061 
2930.400000631809 98.91595   2.531513   0.2396059 
2930.600000634789 102.2154   2.608857   0.2503856 
2930.80000063777 99.47445   2.599616   0.2670451 
2931.00000064075 97.00848   2.619103   0.2768448 
2931.20000064373 93.80357   2.657975   0.236666  
2931.40000064671 86.12209   2.622217   0.2170666 
2931.600000649691 82.41024   2.571692   0.2258863 
2931.800000652671 80.63165   2.586156   0.2513656 
2932.000000655651 91.7672    2.561647   0.2739049 
2932.200000658631 93.09041   2.560744   0.2846846 
2932.400000661612 88.91457   2.618199   0.2641052 
2932.600000664592 89.35278   2.604136   0.2415659 
2932.800000667572 92.94434   2.552507   0.2337261 
2933.000000670552 96.87959   2.558333   0.2435258 
2933.200000673532 98.35745   2.498266   0.2474457 
2933.400000676513 96.66479   2.541458   0.2405859 
2933.600000679493 92.00779   2.551603   0.235686  
2933.800000682473 85.66671   2.585052   0.2386259 
2934.000000685453 87.24767   2.596904   0.2562654 
2934.200000688434 93.33099   2.562551   0.2748849 
2934.400000691414 94.70575   2.566268   0.269985  
2934.600000694394 96.48435   2.562551   0.2523455 
2934.800000697374 99.92125   2.586056   0.2494056 
2935.000000700355 101.0296   2.571692   0.2435258 
2935.200000703335 102.8512   2.569181   0.2396059 
2935.400000706315 104.6642   2.612574   0.2611653 
2935.600000709295 104.2174   2.626937   0.2758648 
2935.800000712276 102.37     2.554315   0.2886045 
2936.000000715256 98.72692   2.568176   0.2984042 
2936.200000718236 95.73682   2.565967   0.2572454 
2936.400000721216 97.3178    2.599917   0.2258863 
2936.600000724196 98.44338   2.577217   0.237646  
2936.800000727177 96.63901   2.535532   0.2523455 
2937.000000730157 91.04545   2.547987   0.2503856 
2937.200000733137 81.67131   2.540956   0.2474457 
2937.400000736117 79.33421   2.51946    0.2425458 
2937.600000739098 87.86632   2.516848   0.2396059 
2937.800000742078 98.59804   2.518857   0.2435258 
2938.000000745058 104.5868   2.520464   0.2327461 
2938.200000748038 103.8651   2.544973   0.2229464 
2938.400000751019 100.5571   2.541659   0.2396059 
2938.600000753999 99.39712   2.547686   0.2543055 
2938.800000756979 97.73022   2.543065   0.2611653 
2939.000000759959 92.39444   2.484003   0.270965  
2939.200000762939 88.3389    2.472351   0.2572454 
2939.40000076592 88.14127   2.524181   0.2601853 
2939.6000007689 87.39375   2.493444   0.270965  
2939.80000077188 87.49685   2.456982   0.2601853 
2940.00000077486 95.01507   2.481692   0.2631252 
2940.200000777841 100.222    2.585956   0.2797847 
2940.400000780821 93.94104   2.612272   0.2935043 
2940.600000783801 85.58937   2.615587   0.2944843 
2940.800000786781 85.80418   2.549192   0.2876245 
2941.000000789762 89.23249   2.508009   0.2915444 
2941.200000792742 90.68458   2.502987   0.2954643 
2941.400000795722 92.4288    2.499371   0.2935043 
2941.600000798702 86.3369    2.543165   0.2788048 
2941.800000801682 79.18814   2.597708   0.2562654 
2942.000000804663 81.80878   2.551402   0.2503856 
2942.200000807643 85.23709   2.54427    0.2494056 
2942.400000810623 83.46709   2.527797   0.2494056 
2942.600000813603 80.51994   2.526089   0.2572454 
2942.800000816584 80.64024   2.540051   0.2650852 
2943.000000819564 80.85504   2.522172   0.2641052 
2943.200000822544 81.19014   2.534226   0.2523455 
2943.400000825524 79.27407   2.582842   0.2405859 
2943.600000828505 77.40096   2.53975    0.2386259 
2943.800000831485 77.48688   2.545074   0.235686  
2944.000000834465 78.34611   2.53965    0.2337261 
2944.200000837445 81.95486   2.579627   0.2592053 
2944.400000840425 89.96283   2.568478   0.2817447 
2944.600000843406 95.73682   2.5284     0.2533255 
2944.800000846386 96.4242    2.500275   0.2464657 
2945.000000849366 98.21998   2.485911   0.2739049 
2945.200000852346 98.92455   2.464817   0.2935043 
2945.400000855327 95.33299   2.47456    0.2846846 
2945.600000858307 91.32041   2.526592   0.2739049 
2945.800000861287 86.76651   2.568779   0.2768448 
2946.000000864267 84.85044   2.549192   0.269985  
2946.200000867248 89.84254   2.508913   0.269005  
2946.400000870228 93.52002   2.481893   0.270965  
2946.600000873208 91.34618   2.488121   0.2562654 
2946.800000876188 91.22589   2.516748   0.2386259 
2947.000000879169 90.68458   2.509114   0.2454858 
2947.200000882149 84.67859   2.53744    0.2415659 
2947.400000885129 76.75654   2.568779   0.2386259 
2947.600000888109 72.21983   2.571592   0.2513656 
2947.800000891089 74.83187   2.599114   0.2611653 
2948.00000089407 81.37917   2.585052   0.2592053 
2948.20000089705 85.95884   2.551201   0.2611653 
2948.40000090003 89.59336   2.55994    0.2719449 
2948.60000090301 93.12477   2.579427   0.2748849 
2948.800000905991 97.84193   2.60504    0.2788048 
2949.000000908971 100.5828   2.569482   0.2935043 
2949.200000911951 96.04614   2.547886   0.2837046 
2949.400000914931 89.62773   2.520565   0.2719449 
2949.600000917912 87.41953   2.519761   0.2778248 
2949.800000920892 87.36797   2.486413   0.2680251 
2950.000000923872 88.8802    2.468232   0.2494056 
2950.200000926852 88.82006   2.495152   0.2474457 
2950.400000929832 88.95753   2.514136   0.2562654 
2950.600000932813 88.51073   2.526089   0.2435258 
2950.800000935793 83.44991   2.542563   0.2435258 
2951.000000938773 82.76253   2.543165   0.2611653 
