~Version
 VERS              .         2.0                           : CWLS LOG ASCII STANDARD - VERSION 2.0
 WRAP              .         NO                            : ONE LINE PER DEPTH STEP
 DLM               .         SPACE                         : DELIMITING CHARACTER(SPACE TAB OR COMMA)
~Well Information
#_______________________________________________________________________________
#
#PARAMETER_NAME    .UNIT     VALUE                         : DESCRIPTION
#_______________________________________________________________________________
STRT               .m        2888                          : First reference value
STOP               .m        3108.80000329018              : Last reference value
STEP               .m        0.2                           : Step increment
NULL               .         -9999                         : Missing value
COMP               .                                       : Company
WELL               .         505                           : Well name
FLD                .                                       : Field
LOC                .                                       : Location
CNTY               .                                       : County
STAT               .                                       : State
CTRY               .                                       : Country
SRVC               .                                       : Service Company
DATE               .                                       : Date
API                .                                       : API number
EREF               .m        139.4                         : 
PROJECT_UPGRADE_TIME .         2014-05-27T11_38_46           : 
Pad                .         Pad5                          : 
X                  .m        230550                        : 
Y                  .m        242075                        : 
group              .         Pad5                          : 
Интер-р            .         Старостина                    : 
Куст               .         5                             : 
Статус             .         Не проверено                  : 
Тип                .         Разведка                      : 
~Parameter Information Block
#_______________________________________________________________________________
#
#PARAMETER_NAME    .UNIT     VALUE                         : DESCRIPTION
#_______________________________________________________________________________
SET                .         LQC                           : 
PROJECT_UPGRADE_TIME .         2014-05-27T11_38_46           : 
TLFamily_GR_NORM   .         Gamma Ray                     : 
TLFamily_MD        .         Measured Depth                : 
TLFamily_RHOB_NORM .         Bulk Density                  : 
TLFamily_TNPH_NORM .         Neutron Porosity              : 
~Curve Information
#_______________________________________________________________________________
#
#LOGNAME           .UNIT     LOG_ID                        : DESCRIPTION
#_______________________________________________________________________________
MD                 .m                                      :  
GR_NORM            .gAPI                                   : Normalised By Techlog 
RHOB_NORM          .g/cm3                                  : Normalized By Techlog 
TNPH_NORM          .v/v                                    : Normalised By Techlog 
~Ascii
# ...
2951.200000941753 86.31113   2.556123   0.269005  
2951.400000944734 90.45258   2.568076   0.2621453 
2951.600000947714 91.86172   2.631056   0.2572454 
2951.800000950694 94.50813   2.657674   0.2592053 
2952.000000953674 95.81416   2.633768   0.2778248 
2952.200000956655 89.71365   2.622317   0.2788048 
2952.400000959635 86.78369   2.611871   0.2739049 
2952.600000962615 89.19811   2.596402   0.2758648 
2952.800000965595 94.77449   2.593188   0.269005  
2953.000000968575 99.49163   2.564159   0.2827246 
2953.200000971556 98.641     2.574103   0.2876245 
2953.400000974536 98.46916   2.608656   0.2886045 
2953.600000977516 95.50483   2.589873   0.3072239 
2953.800000980496 90.67598   2.577217   0.3131038 
2954.000000983477 88.49355   2.532619   0.2974242 
2954.200000986457 87.80618   2.51936    0.2778248 
2954.400000989437 95.63372   2.516246   0.2739049 
2954.600000992417 100.5914   2.471447   0.2846846 
2954.800000995398 95.40173   2.516648   0.2827246 
2955.000000998378 87.81477   2.553712   0.2631252 
2955.200001001358 84.59267   2.610163   0.2513656 
2955.400001004338 86.96413   2.612775   0.2523455 
2955.600001007318 91.27744   2.536938   0.2552854 
2955.800001010299 91.11419   2.496156   0.2572454 
2956.000001013279 88.14986   2.490431   0.2582254 
2956.200001016259 87.61714   2.456681   0.2572454 
2956.400001019239 90.41822   2.522674   0.2445058 
2956.60000102222 86.89539   2.629549   0.2396059 
2956.8000010252 77.86494   2.625029   0.2523455 
2957.00000102818 77.58999   2.574203   0.2729249 
2957.20000103116 80.73475   2.51725    0.2876245 
2957.400001034141 81.12141   2.51042    0.2876245 
2957.600001037121 84.22321   2.51052    0.2807647 
2957.800001040101 87.25627   2.55311    0.2837046 
2958.000001043081 88.96613   2.547686   0.3023241 
2958.200001046062 89.97142   2.524181   0.2984042 
2958.400001049042 87.58278   2.509215   0.270965  
2958.600001052022 85.74403   2.488221   0.2562654 
2958.800001055002 88.3389    2.491034   0.2631252 
2959.000001057982 91.50085   2.542864   0.2758648 
2959.200001060963 92.7725    2.589471   0.2915444 
2959.400001063943 93.74342   2.585554   0.2984042 
2959.600001066923 93.89808   2.614181   0.2846846 
2959.800001069903 93.34818   2.617596   0.2729249 
2960.000001072884 92.00779   2.659482   0.2739049 
2960.200001075864 90.61584   2.61167    0.2729249 
2960.400001078844 90.5471    2.569482   0.2719449 
2960.600001081824 91.61254   2.603031   0.2817447 
2960.800001084805 87.61714   2.637585   0.2827246 
2961.000001087785 78.95616   2.677763   0.2631252 
2961.200001090765 83.37257   2.671837   0.2494056 
2961.400001093745 87.557     2.686603   0.2494056 
2961.600001096725 86.92117   2.646324   0.2611653 
2961.800001099706 91.16574   2.597105   0.269985  
2962.000001102686 95.33299   2.59831    0.2670451 
2962.200001105666 97.79897   2.567574   0.2572454 
2962.400001108646 97.4295    2.602228   0.2415659 
2962.600001111627 93.05604   2.627339   0.2219664 
2962.800001114607 83.15776   2.615286   0.2092268 
2963.000001117587 70.34673   2.661089   0.2062869 
2963.200001120567 61.65137   2.653255   0.1984471 
2963.400001123548 67.49409   2.644013   0.1935473 
2963.600001126528 73.42274   2.59821    0.2072669 
2963.800001129508 73.20794   2.56898    0.2258863 
2964.000001132488 72.10813   2.594091   0.2337261 
2964.200001135468 72.67522   2.607451   0.2386259 
2964.400001138449 77.33222   2.591882   0.2445058 
2964.600001141429 84.58408   2.599516   0.236666  
2964.800001144409 82.35009   2.638187   0.2209865 
2965.000001147389 78.09693   2.619605   0.2111868 
2965.20000115037 78.93897   2.596603   0.2062869 
2965.40000115335 77.30644   2.601022   0.2111868 
2965.60000115633 77.41814   2.57129    0.2170666 
2965.80000115931 86.15646   2.596804   0.2278463 
2966.000001162291 92.00779   2.551904   0.2621453 
2966.200001165271 93.90667   2.577217   0.2807647 
2966.400001168251 96.51871   2.557328   0.2768448 
2966.600001171231 97.88489   2.552507   0.269005  
2966.800001174212 100.1532   2.520464   0.2621453 
2967.000001177192 107.955    2.467831   0.2650852 
2967.200001180172 116.7535   2.47898    0.2954643 
2967.400001183152 120.6028   2.479181   0.3111438 
2967.600001186132 122.8196   2.518355   0.2935043 
2967.800001189113 120.8949   2.565063   0.2886045 
2968.000001192093 118.1712   2.566469   0.306244  
2968.200001195073 120.4653   2.496659   0.3278033 
2968.400001198053 121.9174   2.537942   0.3229035 
2968.600001201034 121.2128   2.545174   0.3013441 
2968.800001204014 123.9538   2.504895   0.2915444 
2969.000001206994 126.4971   2.507507   0.2895844 
2969.200001209974 122.2869   2.491034   0.2856646 
2969.400001212955 115.1123   2.523578   0.2876245 
2969.600001215935 113.2392   2.515442   0.2846846 
2969.800001218915 113.729    2.529304   0.2729249 
2970.000001221895 114.0813   2.560442   0.2660652 
2970.200001224875 113.7805   2.549192   0.2758648 
2970.400001227856 108.4963   2.552607   0.2925244 
2970.600001230836 106.2537   2.571391   0.2984042 
2970.800001233816 108.6166   2.564058   0.2954643 
2971.000001236796 102.0263   2.557127   0.2797847 
2971.200001239777 90.96812   2.588969   0.2719449 
2971.400001242757 91.4407    2.611569   0.2807647 
2971.600001245737 97.87629   2.643612   0.2778248 
2971.800001248717 103.951    2.623121   0.2592053 
2972.000001251698 107.1044   2.646625   0.2445058 
2972.200001254678 106.1077   2.654058   0.235686  
2972.400001257658 104.5697   2.646223   0.2288262 
2972.600001260638 103.341    2.615889   0.237646  
2972.800001263618 103.3066   2.630554   0.2552854 
2973.000001266599 106.7521   2.667217   0.2621453 
2973.200001269579 110.7303   2.638991   0.2729249 
2973.400001272559 110.0945   2.610665   0.2837046 
2973.600001275539 109.8883   2.589471   0.2817447 
2973.80000127852 114.2359   2.561346   0.2641052 
2974.0000012815 129.6934   2.552507   0.2552854 
2974.20000128448 160.2303   2.527797   0.2650852 
2974.40000128746 180.4478   2.517351   0.2817447 
2974.600001290441 171.1424   2.506201   0.2925244 
2974.800001293421 153.5541   2.529706   0.2925244 
2975.000001296401 151.7153   2.530308   0.2856646 
2975.200001299381 161.3472   2.509014   0.2876245 
2975.400001302361 167.2501   2.478679   0.2984042 
2975.600001305342 175.6104   2.445933   0.3091839 
2975.800001308322 186.4452   2.389282   0.338583  
2976.000001311302 195.6132   2.366279   0.3454428 
2976.200001314282 194.436    2.407362   0.3170236 
2976.400001317263 181.5219   2.444226   0.3209435 
2976.600001320243 167.7914   2.448244   0.3562225 
2976.800001323223 158.1681   2.410174   0.3630823 
2977.000001326203 158.4946   2.367887   0.3287833 
2977.200001329184 163.3492   2.411681   0.3023241 
2977.400001332164 168.8998   2.407161   0.3170236 
2977.600001335144 180.2158   2.358947   0.338583  
2977.800001338124 193.1042   2.378433   0.3356431 
2978.000001341105 204.5061   2.372507   0.3444628 
2978.200001344085 215.5558   2.361458   0.3532825 
2978.400001347065 220.797    2.36186    0.3562225 
2978.600001350045 215.8737   2.35523    0.3503426 
2978.800001353025 207.2127   2.40234    0.3405429 
2979.000001356006 201.937    2.448043   0.3415229 
2979.200001358986 202.1432   2.44965    0.3356431 
2979.400001361966 184.8299   2.453366   0.3317232 
2979.600001364946 161.8714   2.447139   0.336623  
2979.800001367927 154.3102   2.482596   0.3180036 
2980.000001370907 148.3128   2.468735   0.3023241 
2980.200001373887 142.6419   2.393701   0.305264  
2980.400001376867 144.8243   2.374014   0.3160436 
2980.600001379848 152.6347   2.351012   0.3327031 
2980.800001382828 168.6421   2.368489   0.3640622 
2981.000001385808 188.9799   2.372306   0.371902  
2981.200001388788 201.6363   2.41821    0.3552425 
2981.400001391768 207.0924   2.435587   0.3464228 
2981.600001394749 210.8214   2.430364   0.3503426 
2981.800001397729 224.4831   2.373713   0.3405429 
2982.000001400709 270.4259   2.344583   0.3258434 
2982.200001403689 341.2947   2.308021   0.3493627 
2982.40000140667 367.0114   2.322485   0.3513226 
2982.60000140965 333.9999   2.349304   0.3346631 
