~Version
 VERS              .         2.0                           : CWLS LOG ASCII STANDARD - VERSION 2.0
 WRAP              .         NO                            : ONE LINE PER DEPTH STEP
 DLM               .         SPACE                         : DELIMITING CHARACTER(SPACE TAB OR COMMA)
~Well Information
#_______________________________________________________________________________
#
#PARAMETER_NAME    .UNIT     VALUE                         : DESCRIPTION
#_______________________________________________________________________________
STRT               .m        2888                          : First reference value
STOP               .m        3108.80000329018              : Last reference value
STEP               .m        0.2                           : Step increment
NULL               .         -9999                         : Missing value
COMP               .                                       : Company
WELL               .         505                           : Well name
FLD                .                                       : Field
LOC                .                                       : Location
CNTY               .                                       : County
STAT               .                                       : State
CTRY               .                                       : Country
SRVC               .                                       : Service Company
DATE               .                                       : Date
API                .                                       : API number
EREF               .m        139.4                         : 
PROJECT_UPGRADE_TIME .         2014-05-27T11_38_46           : 
Pad                .         Pad5                          : 
X                  .m        230550                        : 
Y                  .m        242075                        : 
group              .         Pad5                          : 
Интер-р            .         Старостина                    : 
Куст               .         5                             : 
Статус             .         Не проверено                  : 
Тип                .         Разведка                      : 
~Parameter Information Block
#_______________________________________________________________________________
#
#PARAMETER_NAME    .UNIT     VALUE                         : DESCRIPTION
#_______________________________________________________________________________
SET                .         LQC                           : 
PROJECT_UPGRADE_TIME .         2014-05-27T11_38_46           : 
TLFamily_GR_NORM   .         Gamma Ray                     : 
TLFamily_MD        .         Measured Depth                : 
TLFamily_RHOB_NORM .         Bulk Density                  : 
TLFamily_TNPH_NORM .         Neutron Porosity              : 
~Curve Information
#_______________________________________________________________________________
#
#LOGNAME           .UNIT     LOG_ID                        : DESCRIPTION
#_______________________________________________________________________________
MD                 .m                                      :  
GR_NORM            .gAPI                                   : Normalised By Techlog 
RHOB_NORM          .g/cm3                                  : Normalized By Techlog 
TNPH_NORM          .v/v                                    : Normalised By Techlog 
~Ascii
# ...
3077.60000282526 92.01637   2.546681   0.2680251 
3077.80000282824 105.1367   2.542563   0.2729249 
3078.000002831221 107.7574   2.493746   0.2523455 
3078.200002834201 99.01907   2.491335   0.2405859 
3078.400002837181 90.48696   2.47215    0.2327461 
3078.600002840161 88.05535   2.488824   0.2405859 
3078.800002843142 86.95554   2.530609   0.2631252 
3079.000002846122 83.81937   2.537339   0.2641052 
3079.200002849102 83.09762   2.522574   0.2258863 
3079.400002852082 87.70306   2.526089   0.2072669 
3079.600002855062 93.48566   2.527797   0.2229464 
3079.800002858043 92.72953   2.521971   0.2494056 
3080.000002861023 90.33229   2.518958   0.235686  
3080.200002864003 96.17503   2.490833   0.204327  
3080.400002866983 103.1519   2.471848   0.2111868 
3080.600002869964 102.5934   2.412485   0.2582254 
3080.800002872944 99.9728    2.390788   0.2886045 
3081.000002875924 94.85181   2.41148    0.3082039 
3081.200002878904 81.35339   2.378433   0.3140837 
3081.400002881885 72.23701   2.404248   0.2895844 
3081.600002884865 68.98914   2.462005   0.2552854 
3081.800002887845 69.33284   2.489427   0.236666  
3082.000002890825 74.56551   2.478478   0.2474457 
3082.200002893806 80.20203   2.417206   0.2827246 
3082.400002896786 82.18684   2.369996   0.2974242 
3082.600002899766 78.51794   2.296771   0.3082039 
3082.800002902746 73.37119   2.219427   0.3121238 
3083.000002905726 74.62566   2.18869    0.3101638 
3083.200002908707 74.17027   2.255688   0.2974242 
3083.400002911687 65.40617   2.333634   0.2641052 
3083.600002914667 58.48942   2.413891   0.2464657 
3083.800002917647 56.46164   2.479583   0.2415659 
3084.000002920628 60.13054   2.517752   0.2396059 
3084.200002923608 70.26939   2.492038   0.236666  
3084.400002926588 79.60916   2.53523    0.2317661 
3084.600002929568 83.16636   2.561145   0.2337261 
3084.800002932549 83.21791   2.531011   0.2611653 
3085.000002935529 92.06793   2.509415   0.303304  
3085.200002938509 96.90536   2.498165   0.3219235 
3085.400002941489 90.34089   2.397619   0.3317232 
3085.600002944469 74.59129   2.308021   0.2778248 
3085.80000294745 63.07767   2.322083   0.2288262 
3086.00000295043 60.00165   2.348802   0.2092268 
3086.20000295341 58.52378   2.368188   0.1984471 
3086.40000295639 56.56475   2.380442   0.203347  
3086.600002959371 56.32417   2.436491   0.2092268 
3086.800002962351 59.21116   2.455375   0.203347  
3087.000002965331 61.20457   2.453768   0.203347  
3087.200002968311 61.24753   2.438299   0.2072669 
3087.400002971292 63.36981   2.460398   0.2298062 
3087.600002974272 66.29977   2.44744    0.2445058 
3087.800002977252 69.65075   2.483299   0.236666  
3088.000002980232 77.65013   2.478579   0.2425458 
3088.200002983212 82.47898   2.398623   0.2543055 
3088.400002986193 79.9099    2.372708   0.2337261 
3088.600002989173 73.0275    2.383757   0.2062869 
3088.800002992153 64.5985    2.417808   0.2141267 
3089.000002995133 56.37572   2.397719   0.2317661 
3089.200002998114 52.26003   2.414092   0.2268663 
3089.400003001094 53.27392   2.450152   0.2170666 
3089.600003004074 55.46494   2.47888    0.2151066 
3089.800003007054 58.36913   2.520665   0.2268663 
3090.000003010035 68.90322   2.580933   0.2543055 
3090.200003013015 89.52462   2.567574   0.2856646 
3090.400003015995 102.181    2.560744   0.303304  
3090.600003018975 97.85051   2.638288   0.2984042 
3090.800003021955 91.91327   2.588467   0.2768448 
3091.000003024936 86.41423   2.587362   0.2611653 
3091.200003027916 75.64814   2.585453   0.2562654 
3091.400003030896 68.63686   2.6185     0.269985  
3091.600003033876 69.06647   2.576112   0.2817447 
3091.800003036857 72.68381   2.563455   0.2562654 
3092.000003039837 76.06916   2.563255   0.2180465 
3092.200003042817 74.10153   2.518556   0.2053069 
3092.400003045797 69.05788   2.506904   0.2219664 
3092.600003048778 67.9323    2.453065   0.2405859 
3092.800003051758 68.33614   2.496458   0.2415659 
3093.000003054738 64.63287   2.546681   0.2268663 
3093.200003057718 57.81922   2.52619    0.2239264 
3093.400003060699 53.36843   2.522273   0.2268663 
3093.600003063679 58.01684   2.513031   0.2268663 
3093.800003066659 67.88934   2.576212   0.236666  
3094.000003069639 74.4624    2.591982   0.2484256 
3094.200003072619 78.38907   2.534025   0.2641052 
3094.4000030756 81.11281   2.525286   0.2739049 
3094.60000307858 81.9033    2.509817   0.2650852 
3094.80000308156 81.47368   2.485308   0.2611653 
3095.00000308454 81.74004   2.419616   0.2827246 
3095.200003087521 80.77772   2.313847   0.2886045 
3095.400003090501 79.61776   2.245443   0.2660652 
3095.600003093481 80.87222   2.144494   0.2513656 
3095.800003096461 72.8041    1.999249   0.2935043 
3096.000003099442 52.97319   1.874595   0.3640622 
3096.200003102422 29.60227   1.77224    0.3944413 
3096.400003105402 17.09195   1.696102   0.4591194 
3096.600003108382 25.18585   1.648993   0.4679392 
3096.800003111362 47.91235   1.666571   0.3307432 
3097.000003114343 68.16428   1.811615   0.2425458 
3097.200003117323 73.74066   2.371101   0.2249063 
3097.400003120303 69.7023    2.585152   0.2151066 
3097.600003123283 64.28059   2.593489   0.1984471 
3097.800003126264 58.18009   2.551201   0.1935473 
3098.000003129244 50.12056   2.482395   0.1886474 
3098.200003132224 44.35516   2.442317   0.1798277 
3098.400003135204 44.30361   2.395811   0.1817876 
3098.600003138185 47.44837   2.423634   0.1886474 
3098.800003141165 53.97848   2.462306   0.2111868 
3099.000003144145 61.68573   2.453467   0.2337261 
3099.200003147125 68.23302   2.483902   0.2386259 
3099.400003150105 76.64484   2.448444   0.2317661 
3099.600003153086 87.6601    2.495152   0.236666  
3099.800003156066 98.09969   2.499873   0.2464657 
3100.000003159046 100.5828   2.560442   0.2445058 
3100.200003162026 100.1618   2.563857   0.2454858 
3100.400003165007 101.2616   2.601123   0.2552854 
3100.600003167987 101.3905   2.621212   0.2650852 
3100.800003170967 101.5452   2.614884   0.2768448 
3101.000003173947 98.47775   2.611469   0.2827246 
3101.200003176928 84.71297   2.567273   0.2778248 
3101.400003179908 63.98845   2.498768   0.235686  
3101.600003182888 51.5211    2.490029   0.1974671 
3101.800003185868 52.56076   2.490933   0.201387  
3102.000003188848 57.75048   2.411279   0.2288262 
3102.200003191829 63.32685   2.416201   0.236666  
3102.400003194809 65.66395   2.411279   0.2327461 
3102.600003197789 63.73928   2.445532   0.2209865 
3102.800003200769 63.42136   2.489527   0.2131467 
3103.00000320375 68.2588    2.517953   0.2288262 
3103.20000320673 71.1458    2.530609   0.2454858 
3103.40000320971 74.28197   2.511726   0.235686  
3103.60000321269 80.87222   2.536435   0.2268663 
3103.800003215671 86.50874   2.564259   0.2464657 
3104.000003218651 91.73283   2.561848   0.2748849 
3104.200003221631 93.69186   2.59831    0.2984042 
3104.400003224611 93.09041   2.601123   0.3209435 
3104.600003227592 91.8875    2.603433   0.3101638 
3104.800003230572 89.27544   2.616893   0.2827246 
3105.000003233552 89.14657   2.617094   0.3003641 
3105.200003236532 91.4407    2.581435   0.3219235 
3105.400003239512 94.80027   2.634873   0.3327031 
3105.600003242493 95.05803   2.653757   0.3317232 
3105.800003245473 87.60855   2.602931   0.2974242 
3106.000003248453 80.58009   2.608857   0.2601853 
3106.200003251433 77.99382   2.65225    0.2523455 
3106.400003254414 79.17096   2.655163   0.2494056 
3106.600003257394 84.14588   2.673846   0.2592053 
3106.800003260374 86.82665   2.608757   0.2748849 
3107.000003263354 87.1102    2.658377   0.2925244 
3107.200003266335 87.65152   2.680676   0.2993841 
3107.400003269315 85.03947   2.642808   0.2778248 
3107.600003272295 82.4532    2.64994    0.2601853 
3107.800003275275 84.00839   2.576514   0.270965  
3108.000003278255 84.69578   2.511324   0.2817447 
3108.200003281236 85.85573   2.429661   0.2641052 
3108.400003284216 88.68259   2.358043   0.237646  
3108.600003287196 86.34549   2.286023   0.2190265 
3108.800003290176 83.93966   2.336949   0.2121667 
