~Version
 VERS              .         2.0                           : CWLS LOG ASCII STANDARD - VERSION 2.0
 WRAP              .         NO                            : ONE LINE PER DEPTH STEP
 DLM               .         SPACE                         : DELIMITING CHARACTER(SPACE TAB OR COMMA)
~Well Information
#_______________________________________________________________________________
#
#PARAMETER_NAME    .UNIT     VALUE                         : DESCRIPTION
#_______________________________________________________________________________
STRT               .m        2888                          : First reference value
STOP               .m        3108.80000329018              : Last reference value
STEP               .m        0.2                           : Step increment
NULL               .         -9999                         : Missing value
COMP               .                                       : Company
WELL               .         505                           : Well name
FLD                .                                       : Field
LOC                .                                       : Location
CNTY               .                                       : County
STAT               .                                       : State
CTRY               .                                       : Country
SRVC               .                                       : Service Company
DATE               .                                       : Date
API                .                                       : API number
EREF               .m        139.4                         : 
PROJECT_UPGRADE_TIME .         2014-05-27T11_38_46           : 
Pad                .         Pad5                          : 
X                  .m        230550                        : 
Y                  .m        242075                        : 
group              .         Pad5                          : 
Интер-р            .         Старостина                    : 
Куст               .         5                             : 
Статус             .         Не проверено                  : 
Тип                .         Разведка                      : 
~Parameter Information Block
#_______________________________________________________________________________
#
#PARAMETER_NAME    .UNIT     VALUE                         : DESCRIPTION
#_______________________________________________________________________________
SET                .         LQC                           : 
PROJECT_UPGRADE_TIME .         2014-05-27T11_38_46           : 
TLFamily_GR_NORM   .         Gamma Ray                     : 
TLFamily_MD        .         Measured Depth                : 
TLFamily_RHOB_NORM .         Bulk Density                  : 
TLFamily_TNPH_NORM .         Neutron Porosity              : 
~Curve Information
#_______________________________________________________________________________
#
#LOGNAME           .UNIT     LOG_ID                        : DESCRIPTION
#_______________________________________________________________________________
MD                 .m                                      :  
GR_NORM            .gAPI                                   : Normalised By Techlog 
RHOB_NORM          .g/cm3                                  : Normalized By Techlog 
TNPH_NORM          .v/v                                    : Normalised By Techlog 
~Ascii
# ...
3046.000002354383 35.41063   2.412585   0.1857075 
3046.200002357364 37.4384    2.389583   0.1964872 
3046.400002360344 38.68428   2.409672   0.204327  
3046.600002363324 39.51773   2.387172   0.1915873 
3046.800002366304 39.97311   2.369192   0.1847275 
3047.000002369285 37.80787   2.390587   0.1925673 
3047.200002372265 37.37825   2.376827   0.1945273 
3047.400002375245 38.46947   2.322384   0.1808077 
3047.600002378225 37.31811   2.313244   0.169048  
3047.800002381206 36.72524   2.305409   0.1768878 
3048.000002384186 38.2117    2.324695   0.1866875 
3048.200002387166 37.96252   2.304706   0.1935473 
3048.400002390146 35.61684   2.29426    0.1994271 
3048.600002393126 33.43441   2.318266   0.1964872 
3048.800002396107 34.37097   2.363668   0.1896274 
3049.000002399087 39.31151   2.404951   0.1964872 
3049.200002402067 44.49264   2.431971   0.202367  
3049.400002405047 49.94012   2.435889   0.1994271 
3049.600002408028 59.12524   2.440007   0.202367  
3049.800002411008 68.12132   2.452462   0.203347  
3050.000002413988 71.30905   2.42504    0.2102068 
3050.200002416968 72.02221   2.431469   0.2396059 
3050.400002419949 72.86425   2.481893   0.2621453 
3050.600002422929 73.40556   2.589672   0.2729249 
3050.800002425909 72.78692   2.629951   0.2494056 
3051.000002428889 65.01952   2.596603   0.2102068 
3051.20000243187 46.76958   2.589571   0.170028  
3051.40000243485 29.97174   2.526491   0.1514085 
3051.60000243783 30.59038   2.508411   0.1612082 
3051.80000244081 80.46839   2.413991   0.1994271 
3052.00000244379 113.2306   2.290643   0.2396059 
3052.200002446771 133.4826   2.1458     0.3915014 
3052.400002449751 117.9736   2.078099   0.4806788 
3052.600002452731 100.5141   2.312842   0.3405429 
3052.800002455711 94.7573    2.567473   0.2435258 
3053.000002458692 91.37196   2.574404   0.2239264 
3053.200002461672 83.51865   2.601726   0.2307862 
3053.400002464652 73.42274   2.546882   0.235686  
3053.600002467632 68.01822   2.499873   0.2288262 
3053.800002470613 64.35792   2.505598   0.2327461 
3054.000002473593 58.98776   2.522674   0.2396059 
3054.200002476573 55.60242   2.462909   0.2288262 
3054.400002479553 56.728     2.479985   0.2141267 
3054.600002482533 57.58723   2.451358   0.2141267 
3054.800002485514 58.92762   2.421023   0.2298062 
3055.000002488494 63.6104    2.386268   0.2484256 
3055.200002491474 66.01622   2.407764   0.2660652 
3055.400002494454 61.56544   2.427953   0.2729249 
3055.600002497435 56.59912   2.412987   0.2552854 
3055.800002500415 56.32417   2.426346   0.2386259 
3056.000002503395 57.25213   2.420119   0.235686  
3056.200002506375 57.64737   2.381849   0.2268663 
3056.400002509356 57.2865    2.377931   0.2121667 
3056.600002512336 54.39091   2.365275   0.2053069 
3056.800002515316 52.88726   2.357239   0.201387  
3057.000002518296 53.66057   2.350811   0.204327  
3057.200002521276 54.09018   2.382652   0.2229464 
3057.400002524257 56.64208   2.347094   0.2190265 
3057.600002527237 58.01684   2.3483     0.204327  
3057.800002530217 54.01285   2.365275   0.204327  
3058.000002533197 53.49731   2.370197   0.2111868 
3058.200002536178 58.03402   2.383556   0.2170666 
3058.400002539158 55.18999   2.39571    0.2190265 
3058.600002542138 49.33867   2.392998   0.2229464 
3058.800002545118 49.53629   2.416503   0.2317661 
3059.000002548099 51.06571   2.413891   0.2258863 
3059.200002551079 49.80265   2.373009   0.2111868 
3059.400002554059 49.58784   2.399628   0.203347  
3059.600002557039 54.94081   2.388478   0.203347  
3059.800002560019 56.55616   2.361558   0.1994271 
3060.000002563 51.62421   2.384259   0.2004071 
3060.20000256598 47.01017   2.435386   0.2092268 
3060.40000256896 47.31089   2.456179   0.2180465 
3060.60000257194 52.05382   2.479081   0.2258863 
3060.800002574921 54.8463    2.445331   0.2288262 
3061.000002577901 54.50261   2.427552   0.2327461 
3061.200002580881 55.48212   2.377329   0.2435258 
3061.400002583861 55.67975   2.353121   0.2523455 
3061.600002586842 55.14703   2.321179   0.2415659 
3061.800002589822 56.13514   2.348199   0.235686  
3062.000002592802 54.25343   2.3934     0.2288262 
3062.200002595782 50.42129   2.410275   0.2180465 
3062.400002598763 50.50721   2.386168   0.2131467 
3062.600002601743 50.99697   2.375219   0.2072669 
3062.800002604723 49.57925   2.37984    0.1984471 
3063.000002607703 50.6361    2.36648    0.1935473 
3063.200002610683 50.46425   2.352318   0.1925673 
3063.400002613664 49.02076   2.353021   0.1906074 
3063.600002616644 50.05182   2.364773   0.1847275 
3063.800002619624 50.36114   2.362362   0.1837476 
3064.000002622604 49.89716   2.35503    0.1876675 
3064.200002625585 51.88197   2.376425   0.1915873 
3064.400002628565 57.71611   2.395108   0.1994271 
3064.600002631545 70.49278   2.426447   0.2219664 
3064.800002634525 86.9985    2.47225    0.2592053 
3065.000002637506 94.85181   2.555922   0.2719449 
3065.200002640486 91.02827   2.543065   0.2533255 
3065.400002643466 87.10161   2.512127   0.2474457 
3065.600002646446 84.31772   2.553009   0.2552854 
3065.800002649426 81.03548   2.543868   0.2533255 
3066.000002652407 77.88213   2.500978   0.2327461 
3066.200002655387 75.29585   2.47215    0.2219664 
3066.400002658367 73.09624   2.46321    0.2484256 
3066.600002661347 67.14182   2.409672   0.2680251 
3066.800002664328 59.14242   2.402942   0.2503856 
3067.000002667308 60.69762   2.445431   0.2425458 
3067.200002670288 71.88474   2.47888    0.2523455 
3067.400002673268 78.82727   2.488322   0.2543055 
3067.600002676249 85.61515   2.486212   0.2592053 
3067.800002679229 97.11158   2.51484    0.2601853 
3068.000002682209 102.7739   2.507406   0.2660652 
3068.200002685189 102.7395   2.533221   0.2886045 
3068.400002688169 103.0832   2.495253   0.306244  
3068.60000269115 100.7375   2.497262   0.2944843 
3068.80000269413 95.50483   2.53282    0.2739049 
3069.00000269711 93.27944   2.515844   0.2768448 
3069.20000270009 97.71304   2.548288   0.2856646 
3069.400002703071 102.3013   2.596302   0.2915444 
3069.600002706051 100.1275   2.570185   0.3072239 
3069.800002709031 92.22259   2.544471   0.303304  
3070.000002712011 84.57549   2.507909   0.270965  
3070.200002714992 81.20733   2.471346   0.2562654 
3070.400002717972 81.72286   2.342775   0.2464657 
3070.600002720952 82.53912   2.264527   0.2474457 
3070.800002723932 84.18024   2.115666   0.2621453 
3071.000002726912 83.68189   1.977552   0.2974242 
3071.200002729893 66.85827   1.853903   0.3866016 
3071.400002732873 37.22359   1.753959   0.4973383 
3071.600002735853 16.00933   1.680432   0.5502568 
3071.800002738833 10.59621   1.643066   0.6247345 
3072.000002741814 15.53675   1.638144   0.5933754 
3072.200002744794 22.42774   1.647586   0.4924385 
3072.400002747774 26.37158   1.658435   0.4796988 
3072.600002750754 31.41523   1.663859   0.5120379 
3072.800002753735 47.24216   1.673803   0.5120379 
3073.000002756715 63.77365   1.717397   0.5247775 
3073.200002759695 70.32095   1.852999   0.5208576 
3073.400002762675 71.99643   2.013211   0.4375601 
3073.600002765656 78.38907   2.260108   0.3523026 
3073.800002768636 86.70637   2.518857   0.303304  
3074.000002771616 91.79298   2.619906   0.2631252 
3074.200002774596 91.83594   2.61167    0.2298062 
3074.400002777576 85.23709   2.538645   0.2288262 
3074.600002780557 79.90131   2.51504    0.2660652 
3074.800002783537 77.73605   2.469136   0.305264  
3075.000002786517 75.45911   2.3258     0.3454428 
3075.200002789497 76.94557   2.181358   0.3562225 
3075.400002792478 84.24898   2.121291   0.3434829 
3075.600002795458 94.68856   2.19301    0.3258434 
3075.800002798438 102.2583   2.349405   0.2876245 
3076.000002801418 104.5954   2.432273   0.269005  
3076.200002804399 109.9054   2.484103   0.2817447 
3076.400002807379 107.6886   2.492139   0.3072239 
3076.600002810359 88.68259   2.468935   0.3003641 
3076.800002813339 69.00633   2.46321    0.2748849 
3077.000002816319 61.75447   2.493746   0.2552854 
3077.2000028193 67.38239   2.526391   0.2268663 
3077.40000282228 78.84445   2.556726   0.2307862 
