~Version
 VERS              .         2.0                           : CWLS LOG ASCII STANDARD - VERSION 2.0
 WRAP              .         NO                            : ONE LINE PER DEPTH STEP
 DLM               .         SPACE                         : DELIMITING CHARACTER(SPACE TAB OR COMMA)
~Well Information
#_______________________________________________________________________________
#
#PARAMETER_NAME    .UNIT     VALUE                         : DESCRIPTION
#_______________________________________________________________________________
STRT               .m        3023.52001953125              : First reference value
STOP               .m        3219.52002245188              : Last reference value
STEP               .m        0.2                           : Step increment
NULL               .         -9999                         : Missing value
COMP               .                                       : Company
WELL               .         506                           : Well name
FLD                .                                       : Field
LOC                .                                       : Location
CNTY               .                                       : County
STAT               .                                       : State
CTRY               .                                       : Country
SRVC               .                                       : Service Company
DATE               .                                       : Date
API                .                                       : API number
EREF               .m        139.4                         : 
PROJECT_UPGRADE_TIME .         2014-05-27T11_38_46           : 
Pad                .         Pad5                          : 
X                  .m        230550                        : 
Y                  .m        242075                        : 
group              .         Pad5                          : 
Интер-р            .         Ярышев                        : 
Куст               .         5                             : 
Статус             .         Не проверено                  : 
Тип                .         Нагнетательные                : 
~Parameter Information Block
#_______________________________________________________________________________
#
#PARAMETER_NAME    .UNIT     VALUE                         : DESCRIPTION
#_______________________________________________________________________________
SET                .         LQC                           : 
PROJECT_UPGRADE_TIME .         2014-05-27T11_38_46           : 
TLFamily_GR_NORM   .         Gamma Ray                     : 
TLFamily_MD        .         Measured Depth                : 
TLFamily_RHOB_NORM .         Bulk Density                  : 
TLFamily_TNPH_NORM .         Neutron Porosity              : 
~Curve Information
#_______________________________________________________________________________
#
#LOGNAME           .UNIT     LOG_ID                        : DESCRIPTION
#_______________________________________________________________________________
MD                 .m                                      :  
GR_NORM            .gAPI                                   : Normalised By Techlog 
RHOB_NORM          .g/cm3                                  : Normalized By Techlog 
TNPH_NORM          .v/v                                    : Normalised By Techlog 
~Ascii
# ...
3181.520021885633 64.75379   2.692054   0.2731924 
3181.720021888614 60.94789   2.701708   0.2682961 
3181.920021891594 62.7093    2.65079    0.2496901 
3182.120021894574 69.07867   2.633985   0.2350012 
3182.320021897554 71.73652   2.642545   0.2330427 
3182.520021900535 67.69471   2.669517   0.2428353 
3182.720021903515 64.79311   2.663154   0.2487109 
3182.920021906495 70.29751   2.560724   0.2633998 
3183.120021909475 84.89989   2.501335   0.2722132 
3183.320021912456 89.86172   2.446404   0.2555657 
3183.520021915436 85.11221   2.43563    0.2350012 
3183.720021918416 72.79808   2.484872   0.2134575 
3183.920021921396 64.51003   2.479783   0.2105197 
3184.120021924376 64.32917   2.436271   0.2340219 
3184.320021927357 68.96858   2.429855   0.2555657 
3184.520021930337 75.66037   2.447694   0.2614413 
3184.720021933317 82.74532   2.4684     0.2614413 
3184.920021936297 88.061     2.488228   0.2614413 
3185.120021939278 86.12659   2.503167   0.2526279 
3185.320021942258 82.83182   2.499454   0.2350012 
3185.520021945238 78.80574   2.480374   0.2252086 
3185.720021948218 75.16497   2.46005    0.2252086 
3185.920021951199 71.09957   2.424386   0.2163952 
3186.120021954179 65.96475   2.403086   0.2075819 
3186.320021957159 60.39745   2.367799   0.2114989 
3186.520021960139 56.63873   2.360867   0.2056233 
3186.72002196312 54.35833   2.36368    0.1987685 
3186.9200219661 53.43045   2.369906   0.2105197 
3187.12002196908 54.15388   2.410629   0.2203123 
3187.32002197206 55.50639   2.446338   0.2056233 
3187.52002197504 54.49988   2.488131   0.1840796 
3187.720021978021 45.92873   2.580249   0.1615566 
3187.920021981001 41.08486   2.658599   0.1380543 
3188.120021983981 39.74808   2.692593   0.1292409 
3188.320021986961 39.29986   2.684055   0.1341372 
3188.520021989942 40.9905    2.645888   0.1400128 
3188.720021992922 48.24845   2.622052   0.1527432 
3188.920021995902 60.11436   2.584881   0.1821211 
3189.120021998882 67.94633   2.529019   0.2105197 
3189.320022001863 67.82839   2.496449   0.2261879 
3189.520022004843 66.86906   2.49814    0.2369597 
3189.720022007823 71.0524    2.497228   0.2663376 
3189.920022010803 81.49503   2.56184    0.3143214 
3190.120022013783 92.49598   2.631411   0.31628   
3190.320022016764 84.68759   2.597317   0.2780887 
3190.520022019744 75.69968   2.529846   0.2673169 
3190.720022022724 50.19858   2.439326   0.2526279 
3190.920022025704 48.01255   2.323727   0.2242293 
3191.120022028685 49.18419   2.303795   0.2105197 
3191.320022031665 53.17095   2.316836   0.2017063 
3191.520022034645 53.70567   2.347166   0.1938722 
3191.720022037625 53.70567   2.389467   0.1928929 
3191.920022040606 57.38575   2.413954   0.19681   
3192.120022043586 55.71084   2.421477   0.1948515 
3192.320022046566 53.72926   2.432401   0.1909344 
3192.520022049546 55.10536   2.446332   0.19681   
3192.720022052526 60.82207   2.467901   0.2036648 
3192.920022055507 66.52306   2.472131   0.2114989 
3193.120022058487 71.35121   2.445786   0.219333  
3193.320022061467 75.27505   2.437612   0.2222708 
3193.520022064447 78.9866    2.441039   0.2281464 
3193.720022067428 82.36001   2.41713    0.2330427 
3193.920022070408 83.29576   2.409876   0.2271671 
3194.120022073388 80.19757   2.455881   0.2163952 
3194.320022076368 70.1481    2.499205   0.2075819 
3194.520022079349 60.94002   2.505937   0.200727  
3194.720022082329 61.82859   2.49393    0.2017063 
3194.920022085309 64.3213    2.460799   0.2085611 
3195.120022088289 66.4287    2.431284   0.215416  
3195.320022091269 68.30806   2.459321   0.2163952 
3195.52002209425 69.03149   2.483807   0.2232501 
3195.72002209723 71.20181   2.550598   0.2359805 
3195.92002210021 76.27371   2.57164    0.2575242 
3196.12002210319 80.37843   2.568471   0.2839643 
3196.320022106171 85.19871   2.5495     0.3045288 
3196.520022109151 87.22748   2.497567   0.3153007 
3196.720022112131 85.14366   2.40317    0.3064874 
3196.920022115111 78.54625   2.381089   0.2859229 
3197.120022118092 71.79942   2.374902   0.2771095 
3197.320022121072 65.67381   2.366678   0.279068  
3197.520022124052 63.87309   2.418924   0.2702546 
3197.720022127032 61.66346   2.458861   0.2545865 
3197.920022130013 59.06067   2.46377    0.2457731 
3198.120022132993 59.21007   2.469395   0.2447938 
3198.320022135973 62.55202   2.455947   0.2418561 
3198.520022138953 65.96475   2.450195   0.2310842 
3198.720022141933 64.65943   2.456089   0.2252086 
3198.920022144914 58.57313   2.459301   0.2203123 
3199.120022147894 51.95212   2.458414   0.2095404 
3199.320022150874 48.47649   2.43848    0.2036648 
3199.520022153854 48.72812   2.442456   0.1997478 
3199.720022156835 52.98223   2.45846    0.1958307 
3199.920022159815 61.43542   2.460456   0.2017063 
3200.120022162795 69.72348   2.484201   0.2163952 
3200.320022165775 72.26337   2.482064   0.2320634 
3200.520022168756 71.57138   2.447532   0.2389183 
3200.720022171736 68.96858   2.424077   0.2340219 
3200.920022174716 66.60169   2.396388   0.2261879 
3201.120022177696 65.81535   2.315016   0.2359805 
3201.320022180676 65.81535   2.224646   0.2692754 
3201.520022183657 63.14179   2.106254   0.2741717 
3201.720022186637 53.46976   2.004133   0.2692754 
3201.920022189617 36.39039   1.916003   0.439667  
3202.120022192597 21.42628   1.85063    0.5346554 
3202.320022195578 16.40941   1.790109   0.4347707 
3202.520022198558 19.46829   1.753491   0.4239988 
3202.720022201538 43.03499   1.775966   0.4073513 
3202.920022204518 54.38192   1.821065   0.3104044 
3203.120022207499 67.08923   1.946246   0.2369597 
3203.320022210479 70.91872   2.256313   0.2114989 
3203.520022213459 63.40914   2.43983    0.2017063 
3203.720022216439 50.11994   2.433694   0.1840796 
3203.920022219419 41.21854   2.395166   0.1664529 
3204.1200222224 38.52924   2.378911   0.1635151 
3204.32002222538 40.77032   2.397132   0.1703699 
3204.52002222836 42.79909   2.401835   0.1831003 
3204.72002223134 43.7427    2.398312   0.1997478 
3204.920022234321 46.61285   2.448819   0.2173745 
3205.120022237301 56.73309   2.478616   0.2212915 
3205.320022240281 73.93041   2.534631   0.2281464 
3205.520022243261 87.05448   2.606168   0.2350012 
3205.720022246242 89.46069   2.592235   0.2369597 
3205.920022249222 87.90372   2.525749   0.2526279 
3206.120022252202 87.03088   2.50037    0.2673169 
3206.320022255182 85.49752   2.499656   0.2585035 
3206.520022258162 86.67704   2.520028   0.2575242 
3206.720022261143 91.21423   2.557636   0.2741717 
3206.920022264123 91.36364   2.556692   0.2663376 
3207.120022267103 79.36404   2.506542   0.2291256 
3207.320022270083 63.21256   2.444533   0.2026856 
3207.520022273064 59.42238   2.390002   0.1948515 
3207.720022276044 64.88747   2.398242   0.1919137 
3207.920022279024 67.43522   2.437292   0.1958307 
3208.120022282004 67.70258   2.471297   0.2085611 
3208.320022284985 68.59901   2.461376   0.2183537 
3208.520022287965 73.58442   2.465517   0.2144367 
3208.720022290945 77.76777   2.501815   0.219333  
3208.920022293925 77.40604   2.526675   0.2222708 
3209.120022296906 69.64484   2.515239   0.2173745 
3209.320022299886 59.39879   2.503099   0.2232501 
3209.520022302866 55.64794   2.481454   0.2232501 
3209.720022305846 53.57199   2.483441   0.2212915 
3209.920022308826 51.04782   2.509979   0.2222708 
3210.120022311807 52.39248   2.544157   0.2242293 
3210.320022314787 62.58348   2.549577   0.2330427 
3210.520022317767 73.31707   2.561599   0.2477316 
3210.720022320747 79.09669   2.580545   0.2624205 
3210.920022323728 84.4045    2.559765   0.2682961 
3211.120022326708 88.80803   2.523725   0.2741717 
3211.320022329688 90.76602   2.523509   0.2849436 
3211.520022332668 85.94574   2.518269   0.2927777 
3211.720022335649 78.27888   2.486099   0.2927777 
3211.920022338629 76.4939    2.474694   0.2898399 
3212.120022341609 74.84258   2.493625   0.2820058 
3212.320022344589 73.79674   2.511404   0.2800473 
3212.520022347569 73.76528   2.530676   0.2917984 
3212.72002235055 72.4285    2.556442   0.3084459 
3212.92002235353 75.47951   2.609874   0.3182385 
