~Version
 VERS              .         2.0                           : CWLS LOG ASCII STANDARD - VERSION 2.0
 WRAP              .         NO                            : ONE LINE PER DEPTH STEP
 DLM               .         SPACE                         : DELIMITING CHARACTER(SPACE TAB OR COMMA)
~Well Information
#_______________________________________________________________________________
#
#PARAMETER_NAME    .UNIT     VALUE                         : DESCRIPTION
#_______________________________________________________________________________
STRT               .m        3023.52001953125              : First reference value
STOP               .m        3219.52002245188              : Last reference value
STEP               .m        0.2                           : Step increment
NULL               .         -9999                         : Missing value
COMP               .                                       : Company
WELL               .         506                           : Well name
FLD                .                                       : Field
LOC                .                                       : Location
CNTY               .                                       : County
STAT               .                                       : State
CTRY               .                                       : Country
SRVC               .                                       : Service Company
DATE               .                                       : Date
API                .                                       : API number
EREF               .m        139.4                         : 
PROJECT_UPGRADE_TIME .         2014-05-27T11_38_46           : 
Pad                .         Pad5                          : 
X                  .m        230550                        : 
Y                  .m        242075                        : 
group              .         Pad5                          : 
Интер-р            .         Ярышев                        : 
Куст               .         5                             : 
Статус             .         Не проверено                  : 
Тип                .         Нагнетательные                : 
~Parameter Information Block
#_______________________________________________________________________________
#
#PARAMETER_NAME    .UNIT     VALUE                         : DESCRIPTION
#_______________________________________________________________________________
SET                .         LQC                           : 
PROJECT_UPGRADE_TIME .         2014-05-27T11_38_46           : 
TLFamily_GR_NORM   .         Gamma Ray                     : 
TLFamily_MD        .         Measured Depth                : 
TLFamily_RHOB_NORM .         Bulk Density                  : 
TLFamily_TNPH_NORM .         Neutron Porosity              : 
~Curve Information
#_______________________________________________________________________________
#
#LOGNAME           .UNIT     LOG_ID                        : DESCRIPTION
#_______________________________________________________________________________
MD                 .m                                      :  
GR_NORM            .gAPI                                   : Normalised By Techlog 
RHOB_NORM          .g/cm3                                  : Normalized By Techlog 
TNPH_NORM          .v/v                                    : Normalised By Techlog 
~Ascii
# ...
3086.720020473003 103.9294   2.313148   0.2966948 
3086.920020475984 107.9398   2.315091   0.3006118 
3087.120020478964 113.5621   2.284312   0.3231348 
3087.320020481944 117.8477   2.255629   0.3466371 
3087.520020484924 119.2395   2.239614   0.3495749 
3087.720020487905 119.6877   2.236191   0.3427201 
3087.920020490885 118.4138   2.239722   0.3358652 
3088.120020493865 112.3747   2.252726   0.3231348 
3088.320020496845 102.1759   2.260803   0.3123629 
3088.520020499825 93.54967   2.268533   0.3153007 
3088.720020502806 93.57327   2.260914   0.3290104 
3088.920020505786 101.6412   2.226086   0.3436993 
3089.120020508766 110.692    2.197486   0.3368445 
3089.320020511746 114.4271   2.203561   0.3113837 
3089.520020514727 113.6486   2.221168   0.2888606 
3089.720020517707 107.3657   2.274033   0.2810265 
3089.920020520687 98.57441   2.331502   0.2810265 
3090.120020523667 92.02417   2.371443   0.2839643 
3090.320020526648 90.3178    2.414008   0.2917984 
3090.520020529628 90.29421   2.400426   0.3006118 
3090.720020532608 87.2432    2.362656   0.3064874 
3090.920020535588 87.46338   2.331965   0.3290104 
3091.120020538568 94.40679   2.302495   0.357409  
3091.320020541549 105.164    2.288784   0.3564297 
3091.520020544529 114.49     2.300533   0.3339067 
3091.720020547509 116.1099   2.316019   0.3123629 
3091.920020550489 110.519    2.313626   0.3025703 
3092.12002055347 100.3987   2.321812   0.2957155 
3092.32002055645 93.34522   2.378729   0.2908192 
3092.52002055943 90.71884   2.39391    0.2957155 
3092.72002056241 89.49215   2.373604   0.2957155 
3092.920020565391 90.15267   2.355026   0.2957155 
3093.120020568371 95.06731   2.314777   0.3035496 
3093.320020571351 103.8429   2.298903   0.3182385 
3093.520020574331 112.1781   2.312089   0.334886  
3093.720020577312 115.5673   2.307472   0.3407615 
3093.920020580292 116.1649   2.30002    0.3417408 
3094.120020583272 118.1465   2.280606   0.3544712 
3094.320020586252 120.4505   2.248655   0.3672016 
3094.520020589232 118.1858   2.224771   0.3681809 
3094.720020592213 113.0038   2.207571   0.3485956 
3094.920020595193 113.4363   2.1935     0.3329274 
3095.120020598173 124.3665   2.176172   0.3446786 
3095.320020601153 134.9428   2.159233   0.3623053 
3095.520020604134 133.3308   2.177855   0.3642638 
3095.720020607114 121.6379   2.217447   0.361326  
3095.920020610094 109.2608   2.263178   0.3691601 
3096.120020613074 103.9609   2.247596   0.3867868 
3096.320020616055 107.578    2.234479   0.4063721 
3096.520020619035 116.5424   2.22509    0.417144  
3096.720020622015 127.8893   2.209135   0.4142062 
3096.920020624995 142.4524   2.181931   0.4132269 
3097.120020627975 157.676    2.157111   0.3975587 
3097.320020630956 165.5158   2.154937   0.3466371 
3097.520020633936 159.9328   2.168828   0.301591  
3097.720020636916 145.755    2.210588   0.2996325 
3097.920020639896 131.3492   2.281147   0.320197  
3098.120020642877 120.0652   2.318282   0.3211763 
3098.320020645857 110.6605   2.321225   0.3182385 
3098.520020648837 103.2138   2.33286    0.3299896 
3098.720020651817 100.5796   2.349403   0.3358652 
3098.920020654798 102.6005   2.32245    0.3485956 
3099.120020657778 106.5086   2.280659   0.3701394 
3099.320020660758 110.3145   2.260426   0.3701394 
3099.520020663738 109.1035   2.275746   0.3466371 
3099.720020666718 104.7158   2.303656   0.3280311 
3099.920020669699 103.4026   2.317607   0.3231348 
3100.120020672679 103.9609   2.319      0.320197  
3100.320020675659 103.5284   2.330067   0.3172593 
3100.520020678639 102.5297   2.371741   0.3192178 
3100.72002068162 100.7919   2.405807   0.3250933 
3100.9200206846 100.6897   2.438484   0.31628   
3101.12002068758 99.87974   2.472426   0.2780887 
3101.32002069056 95.20885   2.478278   0.2369597 
3101.520020693541 89.37419   2.447101   0.2212915 
3101.720020696521 90.24703   2.454212   0.215416  
3101.920020699501 99.87974   2.448016   0.2134575 
3102.120020702481 113.625    2.449305   0.2389183 
3102.320020705462 127.1265   2.481534   0.2536072 
3102.520020708442 137.0187   2.489518   0.2467524 
3102.720020711422 136.4919   2.459129   0.2506694 
3102.920020714402 126.6311   2.40264    0.2526279 
3103.120020717382 118.9564   2.375232   0.2496901 
3103.320020720363 114.2855   2.398667   0.2447938 
3103.520020723343 108.6711   2.441624   0.2457731 
3103.720020726323 104.0552   2.458486   0.2614413 
3103.920020729303 103.6306   2.455881   0.2780887 
3104.120020732284 105.9896   2.44441    0.2800473 
3104.320020735264 107.3657   2.447334   0.2820058 
3104.520020738244 108.5295   2.4505     0.2986532 
3104.720020741224 108.9856   2.454027   0.3104044 
3104.920020744205 107.4365   2.457621   0.3094251 
3105.120020747185 103.3239   2.458053   0.3064874 
3105.320020750165 100.9728   2.472021   0.3064874 
3105.520020753145 102.4432   2.455616   0.3133422 
3105.720020756125 104.1653   2.451845   0.3309689 
3105.920020759106 101.3817   2.452154   0.3515334 
3106.120020762086 95.6728    2.435264   0.3485956 
3106.320020765066 92.91273   2.415127   0.3260726 
3106.520020768046 95.44476   2.402009   0.2996325 
3106.720020771027 100.1864   2.415507   0.2800473 
3106.920020774007 103.8115   2.453122   0.2780887 
3107.120020776987 105.6672   2.458028   0.2888606 
3107.320020779967 105.6751   2.462352   0.2966948 
3107.520020782948 105.5021   2.483756   0.297674  
3107.720020785928 106.6816   2.50664    0.3045288 
3107.920020788908 106.6108   2.510242   0.3084459 
3108.120020791888 99.72247   2.500507   0.2585035 
3108.320020794868 81.37708   2.501824   0.2056233 
3108.520020797849 59.26512   2.495769   0.2056233 
3108.720020800829 47.14757   2.520302   0.2017063 
3108.920020803809 67.17573   2.564781   0.2026856 
3109.120020806789 71.97242   2.529236   0.2506694 
3109.32002080977 100.8391   2.45975    0.2908192 
3109.52002081275 105.8795   2.452505   0.301591  
3109.72002081573 105.8953   2.453022   0.3055081 
3109.92002081871 103.7643   2.501864   0.301591  
3110.120020821691 102.5376   2.505189   0.297674  
3110.320020824671 102.9701   2.487591   0.2908192 
3110.520020827651 103.434    2.466576   0.2780887 
3110.720020830631 102.5533   2.468703   0.2712339 
3110.920020833611 101.2794   2.476273   0.2741717 
3111.120020836592 101.248    2.483192   0.2820058 
3111.320020839572 100.9334   2.4663     0.2898399 
3111.520020842552 97.3713    2.450258   0.2966948 
3111.720020845532 97.3713    2.459265   0.3064874 
3111.920020848513 96.38837   2.484069   0.31628   
3112.120020851493 97.5443    2.471469   0.3358652 
3112.320020854473 98.49577   2.455972   0.3544712 
3112.520020857453 97.46567   2.471153   0.3456578 
3112.720020860434 95.95589   2.483327   0.31628   
3112.920020863414 95.18527   2.488156   0.2986532 
3113.120020866394 95.75143   2.497216   0.2937569 
3113.320020869374 96.89163   2.496803   0.2908192 
3113.520020872355 98.06329   2.507801   0.2908192 
3113.720020875335 99.42366   2.524857   0.2898399 
3113.920020878315 102.1759   2.524833   0.2829851 
3114.120020881295 106.2884   2.541017   0.2771095 
3114.320020884275 110.2437   2.50243    0.2839643 
3114.520020887256 112.4219   2.466166   0.297674  
3114.720020890236 112.5084   2.453528   0.3104044 
3114.920020893216 111.093    2.444749   0.3153007 
3115.120020896196 110.4718   2.436553   0.3182385 
3115.320020899177 111.9422   2.434445   0.320197  
3115.520020902157 114.9461   2.442621   0.3182385 
3115.720020905137 116.0705   2.458565   0.3192178 
3115.920020908117 114.5372   2.468854   0.3113837 
3116.120020911098 111.7221   2.480524   0.3006118 
3116.320020914078 110.173    2.490459   0.2986532 
3116.520020917058 110.9436   2.479894   0.3113837 
3116.720020920038 113.7666   2.466743   0.3260726 
3116.920020923018 116.8254   2.476939   0.3270518 
3117.120020925999 115.7875   2.464962   0.320197  
3117.320020928979 111.2974   2.458193   0.320197  
3117.520020931959 106.2491   2.456384   0.3172593 
3117.720020934939 102.3803   2.466337   0.3153007 
3117.92002093792 99.4787    2.466079   0.3221556 
3118.1200209409 98.33064   2.472901   0.3319482 
