~Version
 VERS              .         2.0                           : CWLS LOG ASCII STANDARD - VERSION 2.0
 WRAP              .         NO                            : ONE LINE PER DEPTH STEP
 DLM               .         SPACE                         : DELIMITING CHARACTER(SPACE TAB OR COMMA)
~Well Information
#_______________________________________________________________________________
#
#PARAMETER_NAME    .UNIT     VALUE                         : DESCRIPTION
#_______________________________________________________________________________
STRT               .m        3023.52001953125              : First reference value
STOP               .m        3219.52002245188              : Last reference value
STEP               .m        0.2                           : Step increment
NULL               .         -9999                         : Missing value
COMP               .                                       : Company
WELL               .         506                           : Well name
FLD                .                                       : Field
LOC                .                                       : Location
CNTY               .                                       : County
STAT               .                                       : State
CTRY               .                                       : Country
SRVC               .                                       : Service Company
DATE               .                                       : Date
API                .                                       : API number
EREF               .m        139.4                         : 
PROJECT_UPGRADE_TIME .         2014-05-27T11_38_46           : 
Pad                .         Pad5                          : 
X                  .m        230550                        : 
Y                  .m        242075                        : 
group              .         Pad5                          : 
Интер-р            .         Ярышев                        : 
Куст               .         5                             : 
Статус             .         Не проверено                  : 
Тип                .         Нагнетательные                : 
~Parameter Information Block
#_______________________________________________________________________________
#
#PARAMETER_NAME    .UNIT     VALUE                         : DESCRIPTION
#_______________________________________________________________________________
SET                .         LQC                           : 
PROJECT_UPGRADE_TIME .         2014-05-27T11_38_46           : 
TLFamily_GR_NORM   .         Gamma Ray                     : 
TLFamily_MD        .         Measured Depth                : 
TLFamily_RHOB_NORM .         Bulk Density                  : 
TLFamily_TNPH_NORM .         Neutron Porosity              : 
~Curve Information
#_______________________________________________________________________________
#
#LOGNAME           .UNIT     LOG_ID                        : DESCRIPTION
#_______________________________________________________________________________
MD                 .m                                      :  
GR_NORM            .gAPI                                   : Normalised By Techlog 
RHOB_NORM          .g/cm3                                  : Normalized By Techlog 
TNPH_NORM          .v/v                                    : Normalised By Techlog 
~Ascii
# ...
3118.32002094388 100.2808   2.483598   0.3368445 
3118.52002094686 103.0644   2.502366   0.3378237 
3118.720020949841 104.1417   2.509691   0.3290104 
3118.920020952821 105.0146   2.513671   0.3094251 
3119.120020955801 104.8337   2.499627   0.2908192 
3119.320020958781 103.088    2.493275   0.2839643 
3119.520020961761 100.6897   2.473025   0.2849436 
3119.720020964742 98.598     2.44788    0.2839643 
3119.920020967722 95.83007   2.441935   0.2780887 
3120.120020970702 94.84714   2.431676   0.2780887 
3120.320020973682 96.78155   2.426059   0.2820058 
3120.520020976663 97.52071   2.429313   0.2810265 
3120.720020979643 97.3084    2.429704   0.275151  
3120.920020982623 98.56654   2.439461   0.2849436 
3121.120020985603 102.3567   2.477015   0.297674  
3121.320020988584 103.9609   2.515805   0.2878814 
3121.520020991564 98.54295   2.537539   0.2594828 
3121.720020994544 83.07558   2.585797   0.2212915 
3121.920020997524 64.43925   2.646007   0.1928929 
3122.120021000504 67.69471   2.649158   0.2144367 
3122.320021003485 80.62219   2.578239   0.260462  
3122.520021006465 104.6528   2.553225   0.2898399 
3122.720021009445 114.2698   2.529164   0.301591  
3122.920021012425 115.9211   2.494204   0.2810265 
3123.120021015406 112.705    2.468234   0.260462  
3123.320021018386 104.7158   2.464341   0.2741717 
3123.520021021366 98.73168   2.450805   0.3153007 
3123.720021024346 97.49712   2.431551   0.3339067 
3123.920021027327 97.20617   2.414196   0.3231348 
3124.120021030307 96.83659   2.402123   0.3172593 
3124.320021033287 99.52589   2.408771   0.3153007 
3124.520021036267 103.2689   2.421817   0.3133422 
3124.720021039248 100.7762   2.433972   0.3123629 
3124.920021042228 101.2637   2.42804    0.3123629 
3125.120021045208 107.35     2.435634   0.3074666 
3125.320021048188 114.4979   2.442239   0.3045288 
3125.520021051168 116.448    2.460533   0.3074666 
3125.720021054149 116.7232   2.491906   0.3143214 
3125.920021057129 115.9054   2.524234   0.3231348 
3126.120021060109 112.4062   2.530014   0.3436993 
3126.320021063089 107.9476   2.503052   0.3691601 
3126.52002106607 107.3028   2.480362   0.3779735 
3126.72002106905 107.3579   2.473615   0.3779735 
3126.92002107203 105.0303   2.486233   0.3730772 
3127.12002107501 101.1929   2.489052   0.357409  
3127.320021077991 97.37917   2.475784   0.3329274 
3127.520021080971 94.68987   2.495565   0.3133422 
3127.720021083951 96.82087   2.511601   0.2937569 
3127.920021086931 108.1521   2.522617   0.2555657 
3128.120021089911 132.5916   2.552696   0.2173745 
3128.320021092892 165.9011   2.60058    0.1879966 
3128.520021095872 179.5992   2.625378   0.1723284 
3128.720021098852 152.7141   2.634342   0.1498054 
3128.920021101832 104.8416   2.655709   0.1076971 
3129.120021104813 72.12182   2.637353   0.08125705
3129.320021107793 60.31882   2.683375   0.08419484
3129.520021110773 56.84317   2.717941   0.09692525
3129.720021113753 53.30463   2.684541   0.1243446 
3129.920021116734 48.70452   2.640384   0.1566602 
3130.120021119714 42.1307    2.535853   0.1615566 
3130.320021122694 40.95905   2.468696   0.1566602 
3130.520021125674 41.91838   2.465994   0.159598  
3130.720021128654 41.89479   2.484288   0.1693906 
3130.920021131635 38.54497   2.474855   0.1801625 
3131.120021134615 34.4953    2.449557   0.1870174 
3131.320021137595 31.7667    2.408591   0.1879966 
3131.520021140575 29.82443   2.415242   0.1840796 
3131.720021143556 28.27533   2.425132   0.1791833 
3131.920021146536 28.14952   2.4368     0.1821211 
3132.120021149516 30.51641   2.4238     0.1919137 
3132.320021152496 33.10348   2.423611   0.19681   
3132.520021155477 33.55956   2.427349   0.1919137 
3132.720021158457 31.79028   2.40782    0.1919137 
3132.920021161437 30.1311    2.382634   0.19681   
3133.120021164417 31.42857   2.407433   0.1997478 
3133.320021167397 35.77704   2.415298   0.1997478 
3133.520021170378 39.59081   2.409664   0.1889759 
3133.720021173358 40.86468   2.40518    0.1811418 
3133.920021176338 40.95905   2.375249   0.1850588 
3134.120021179318 40.4951    2.360479   0.1889759 
3134.320021182299 38.96173   2.356859   0.1938722 
3134.520021185279 35.72986   2.347178   0.1997478 
3134.720021188259 33.19784   2.318063   0.1997478 
3134.920021191239 34.29086   2.295432   0.2310842 
3135.12002119422 41.88693   2.234855   0.2917984 
3135.3200211972 56.04897   2.152884   0.3427201 
3135.52002120018 71.91737   2.070624   0.3838491 
3135.72002120316 73.4586    1.979794   0.3789527 
3135.920021206141 66.09843   2.044256   0.3064874 
3136.120021209121 53.80003   2.225941   0.2369597 
3136.320021212101 42.35873   2.361638   0.1987685 
3136.520021215081 34.69189   2.351787   0.1772248 
3136.720021218061 30.9489    2.302438   0.1703699 
3136.920021221042 29.74579   2.277463   0.1664529 
3137.120021224022 29.50989   2.285503   0.1703699 
3137.320021227002 29.34476   2.291918   0.1752662 
3137.520021229982 29.24253   2.287365   0.1723284 
3137.720021232963 29.67502   2.27233    0.1693906 
3137.920021235943 29.67502   2.28576    0.1693906 
3138.120021238923 29.92665   2.325131   0.1693906 
3138.320021241903 29.38408   2.358203   0.1684114 
3138.520021244884 29.38408   2.345088   0.1615566 
3138.720021247864 29.39194   2.331238   0.1566602 
3138.920021250844 30.79163   2.328103   0.1537225 
3139.120021253824 32.8833    2.343077   0.1537225 
3139.320021256804 32.34072   2.376546   0.1615566 
3139.520021259785 32.71817   2.413784   0.1635151 
3139.720021262765 47.17115   2.456875   0.1693906 
3139.920021265745 55.97033   2.49987    0.1919137 
3140.120021268725 63.22042   2.492313   0.1997478 
3140.320021271706 58.68322   2.497631   0.1889759 
3140.520021274686 50.93774   2.462319   0.1821211 
3140.720021277666 46.1725    2.422961   0.174287  
3140.920021280646 43.90783   2.428282   0.1684114 
3141.120021283627 43.93142   2.444933   0.1762455 
3141.320021286607 46.2354    2.450867   0.1821211 
3141.520021289587 46.8173    2.440434   0.1811418 
3141.720021292567 43.54611   2.406645   0.174287  
3141.920021295547 38.10462   2.381051   0.174287  
3142.120021298528 36.14663   2.365072   0.1831003 
3142.320021301508 38.25402   2.342259   0.1860381 
3142.520021304488 41.70607   2.337545   0.1772248 
3142.720021307468 42.52387   2.357847   0.1693906 
3142.920021310449 39.39422   2.371977   0.1478469 
3143.120021313429 38.33266   2.377258   0.118469  
3143.320021316409 39.91321   2.42398    0.09496672
3143.520021319389 41.10845   2.548948   0.07636075
3143.72002132237 39.18977   2.653326   0.07244369
3143.92002132535 37.86872   2.657763   0.07734   
3144.12002132833 39.51217   2.625098   0.08909115
3144.32002133131 42.39805   2.604351   0.1047593 
3144.520021334291 45.80292   2.548842   0.1204275 
3144.720021337271 50.41089   2.491727   0.1458884 
3144.920021340251 56.59941   2.465519   0.2036648 
3145.120021343231 64.36062   2.496539   0.2633998 
3145.320021346211 71.2883    2.515392   0.2849436 
3145.520021349192 73.73383   2.48426    0.297674  
3145.720021352172 71.89379   2.467949   0.2927777 
3145.920021355152 69.47185   2.501538   0.2418561 
3146.120021358132 66.20852   2.501492   0.1909344 
3146.320021361113 59.76051   2.519881   0.1733077 
3146.520021364093 54.84587   2.585943   0.1713492 
3146.720021367073 58.98989   2.607072   0.1791833 
3146.920021370053 70.21101   2.585441   0.2134575 
3147.120021373034 83.24857   2.595976   0.2467524 
3147.320021376014 93.68336   2.605944   0.256545  
3147.520021378994 94.68987   2.63264    0.2653584 
3147.720021381974 71.93311   2.668671   0.260462  
3147.920021384954 61.12089   2.72186    0.2242293 
3148.120021387935 56.78027   2.776625   0.1938722 
3148.320021390915 56.60727   2.797989   0.1938722 
3148.520021393895 56.60727   2.773268   0.1938722 
3148.720021396875 62.54417   2.722928   0.2017063 
3148.920021399856 68.01711   2.654716   0.2271671 
3149.120021402836 87.10166   2.633378   0.2408768 
3149.320021405816 86.89722   2.574547   0.237939  
3149.520021408796 85.47393   2.530707   0.2350012 
3149.720021411777 91.34792   2.485146   0.2398975 
