~Version
 VERS              .         2.0                           : CWLS LOG ASCII STANDARD - VERSION 2.0
 WRAP              .         NO                            : ONE LINE PER DEPTH STEP
 DLM               .         SPACE                         : DELIMITING CHARACTER(SPACE TAB OR COMMA)
~Well Information
#_______________________________________________________________________________
#
#PARAMETER_NAME    .UNIT     VALUE                         : DESCRIPTION
#_______________________________________________________________________________
STRT               .m        3023.52001953125              : First reference value
STOP               .m        3219.52002245188              : Last reference value
STEP               .m        0.2                           : Step increment
NULL               .         -9999                         : Missing value
COMP               .                                       : Company
WELL               .         506                           : Well name
FLD                .                                       : Field
LOC                .                                       : Location
CNTY               .                                       : County
STAT               .                                       : State
CTRY               .                                       : Country
SRVC               .                                       : Service Company
DATE               .                                       : Date
API                .                                       : API number
EREF               .m        139.4                         : 
PROJECT_UPGRADE_TIME .         2014-05-27T11_38_46           : 
Pad                .         Pad5                          : 
X                  .m        230550                        : 
Y                  .m        242075                        : 
group              .         Pad5                          : 
Интер-р            .         Ярышев                        : 
Куст               .         5                             : 
Статус             .         Не проверено                  : 
Тип                .         Нагнетательные                : 
~Parameter Information Block
#_______________________________________________________________________________
#
#PARAMETER_NAME    .UNIT     VALUE                         : DESCRIPTION
#_______________________________________________________________________________
SET                .         LQC                           : 
PROJECT_UPGRADE_TIME .         2014-05-27T11_38_46           : 
TLFamily_GR_NORM   .         Gamma Ray                     : 
TLFamily_MD        .         Measured Depth                : 
TLFamily_RHOB_NORM .         Bulk Density                  : 
TLFamily_TNPH_NORM .         Neutron Porosity              : 
~Curve Information
#_______________________________________________________________________________
#
#LOGNAME           .UNIT     LOG_ID                        : DESCRIPTION
#_______________________________________________________________________________
MD                 .m                                      :  
GR_NORM            .gAPI                                   : Normalised By Techlog 
RHOB_NORM          .g/cm3                                  : Normalized By Techlog 
TNPH_NORM          .v/v                                    : Normalised By Techlog 
~Ascii
3023.52001953125 52.8171    -9999      -9999     
3023.72001953423 49.73463   -9999      -9999     
3023.92001953721 50.36371   -9999      -9999     
3024.120019540191 50.08849   -9999      -9999     
3024.320019543171 48.72812   -9999      -9999     
3024.520019546151 46.91953   -9999      -9999     
3024.720019549131 43.05858   -9999      -9999     
3024.920019552112 35.11652   -9999      -9999     
3025.120019555092 27.30813   -9999      -9999     
3025.320019558072 26.34879   -9999      -9999     
3025.520019561052 33.60674   -9999      -9999     
3025.720019564033 44.08083   -9999      -9999     
3025.920019567013 51.3545    -9999      -9999     
3026.120019569993 54.22465   -9999      -9999     
3026.320019572973 54.69646   -9999      -9999     
3026.520019575953 53.68208   -9999      -9999     
3026.720019578934 50.9456    -9999      -9999     
3026.920019581914 48.90897   -9999      -9999     
3027.120019584894 49.66386   -9999      -9999     
3027.320019587874 51.37809   -9999      -9999     
3027.520019590855 51.56682   -9999      -9999     
3027.720019593835 51.57468   -9999      -9999     
3027.920019596815 52.66769   -9999      -9999     
3028.120019599795 52.88001   -9999      -9999     
3028.320019602776 51.92067   -9999      -9999     
3028.520019605756 52.43179   -9999      -9999     
3028.720019608736 53.45404   -9999      -9999     
3028.920019611716 53.92584   -9999      -9999     
3029.120019614697 55.11322   -9999      -9999     
3029.320019617677 55.30194   -9999      -9999     
3029.520019620657 51.16578   -9999      -9999     
3029.720019623637 44.74136   -9999      -9999     
3029.920019626617 41.98129   -9999      -9999     
3030.120019629598 43.25517   -9999      -9999     
3030.320019632578 45.24461   -9999      -9999     
3030.520019635558 46.69935   -9999      -9999     
3030.720019638538 49.06624   -9999      -9999     
3030.920019641519 52.29025   -9999      -9999     
3031.120019644499 53.91011   -9999      -9999     
3031.320019647479 52.80924   -9999      -9999     
3031.520019650459 50.96919   -9999      0.3466371 
3031.72001965344 50.27721   2.107291   0.3456578 
3031.92001965642 50.7097    2.104635   0.3456578 
3032.1200196594 51.70835   2.117454   0.3525127 
3032.32001966238 53.10805   2.133863   0.3505541 
3032.52001966536 55.93102   2.176419   0.3329274 
3032.720019668341 57.92833   2.197315   0.320197  
3032.920019671321 57.83397   2.172255   0.3290104 
3033.120019674301 56.60727   2.156006   0.3456578 
3033.320019677281 56.97686   2.138776   0.3485956 
3033.520019680262 59.07639   2.107037   0.3417408 
3033.720019683242 59.15503   2.084451   0.3270518 
3033.920019686222 56.76454   2.086866   0.3094251 
3034.120019689202 54.5156    2.092728   0.2908192 
3034.320019692183 53.32822   2.101098   0.2849436 
3034.520019695163 51.74767   2.107581   0.3074666 
3034.720019698143 50.04917   2.08405    0.3407615 
3034.920019701123 50.96919   2.050049   0.3534919 
3035.120019704103 54.48415   2.002505   0.3427201 
3035.320019707084 57.00045   1.972111   0.3280311 
3035.520019710064 55.25476   1.984826   0.3153007 
3035.720019713044 50.29294   1.998486   0.3055081 
3035.920019716024 46.45559   2.002109   0.2966948 
3036.120019719005 45.85796   1.990714   0.3006118 
3036.320019721985 45.46479   1.972699   0.3172593 
3036.520019724965 44.01792   1.977673   0.3250933 
3036.720019727945 43.69552   1.985753   0.3319482 
3036.920019730926 44.04937   2.016314   0.338803  
3037.120019733906 40.91973   2.097207   0.3672016 
3037.320019736886 35.25806   2.254313   0.402455  
3037.520019739866 32.67099   2.411582   0.402455  
3037.720019742846 38.3012    2.469515   0.3897246 
3037.920019745827 52.69915   2.228305   0.3436993 
3038.120019748807 65.09191   2.181911   0.2643791 
3038.320019751787 66.71178   2.468391   0.2105197 
3038.520019754767 61.82859   2.610148   0.1889759 
3038.720019757748 57.73961   2.649477   0.1831003 
3038.920019760728 56.05684   2.684012   0.1811418 
3039.120019763708 58.00696   2.702097   0.1899552 
3039.320019766688 63.62146   2.651402   0.1997478 
3039.520019769669 68.30806   2.54934    0.1997478 
3039.720019772649 68.26088   2.519189   0.1987685 
3039.920019775629 64.44711   2.523793   0.1997478 
3040.120019778609 61.49047   2.5451     0.2046441 
3040.32001978159 62.24535   2.593042   0.2095404 
3040.52001978457 64.43925   2.567219   0.2075819 
3040.72001978755 64.55721   2.534038   0.2056233 
3040.92001979053 63.22828   2.512343   0.2056233 
3041.12001979351 62.51271   2.500704   0.2056233 
3041.320019796491 63.29119   2.515721   0.2056233 
3041.520019799471 64.53361   2.521535   0.2036648 
3041.720019802451 66.15348   2.5436     0.2036648 
3041.920019805431 68.11148   2.566114   0.2183537 
3042.120019808412 70.32896   2.58963    0.2281464 
3042.320019811392 70.4705    2.625353   0.215416  
3042.520019814372 68.03284   2.614561   0.1987685 
3042.720019817352 67.13641   2.631641   0.1899552 
3042.920019820333 69.13372   2.665725   0.1889759 
3043.120019823313 73.1598    2.629735   0.2046441 
3043.320019826293 78.18452   2.623375   0.2301049 
3043.520019829273 81.77812   2.603562   0.2477316 
3043.720019832253 82.04547   2.580213   0.260462  
3043.920019835234 80.1897    2.579313   0.2663376 
3044.120019838214 80.06389   2.552373   0.2536072 
3044.320019841194 83.2014    2.539477   0.2447938 
3044.520019844174 87.31397   2.548227   0.2545865 
3044.720019847155 91.65459   2.532537   0.2712339 
3044.920019850135 97.06463   2.512619   0.2898399 
3045.120019853115 102.8678   2.469094   0.3055081 
3045.320019856095 107.2556   2.435352   0.3143214 
3045.520019859076 108.8676   2.433427   0.3221556 
3045.720019862056 108.0105   2.44135    0.3260726 
3045.920019865036 106.776    2.447927   0.3192178 
3046.120019868016 110.6055   2.454841   0.3006118 
3046.320019870996 119.7113   2.436683   0.2849436 
3046.520019873977 125.2865   2.433779   0.2849436 
3046.720019876957 122.6837   2.465418   0.2957155 
3046.920019879937 116.4165   2.491683   0.2957155 
3047.120019882917 110.9279   2.482758   0.2761302 
3047.320019885898 107.4758   2.464414   0.260462  
3047.520019888878 105.7459   2.478523   0.2653584 
3047.720019891858 105.0775   2.483591   0.2810265 
3047.920019894838 102.1523   2.482669   0.2937569 
3048.120019897819 98.24415   2.458199   0.2996325 
3048.320019900799 95.97161   2.483573   0.301591  
3048.520019903779 97.80379   2.485339   0.3035496 
3048.720019906759 101.3502   2.492019   0.3182385 
3048.920019909739 104.8494   2.498766   0.3319482 
3049.12001991272 105.2976   2.514654   0.3084459 
3049.3200199157 100.4538   2.527677   0.2761302 
3049.52001991868 93.78558   2.538532   0.2682961 
3049.72001992166 89.72018   2.573825   0.2643791 
3049.920019924641 89.30342   2.5482     0.2643791 
3050.120019927621 89.29556   2.542808   0.256545  
3050.320019930601 88.30477   2.595564   0.2408768 
3050.520019933581 89.19334   2.613628   0.2330427 
3050.720019936562 91.75681   2.585653   0.2330427 
3050.920019939542 93.589     2.586095   0.2340219 
3051.120019942522 93.3295    2.585625   0.2350012 
3051.320019945502 92.62965   2.568959   0.2389183 
3051.520019948483 93.33736   2.555702   0.237939  
3051.720019951463 92.18144   2.545563   0.2340219 
3051.920019954443 89.95609   2.519277   0.2291256 
3052.120019957423 90.5537    2.514319   0.2340219 
3052.320019960403 94.48542   2.509256   0.2467524 
3052.520019963384 100.0449   2.500936   0.2575242 
3052.720019966364 105.5729   2.48445    0.2614413 
3052.920019969344 113.0038   2.455758   0.2614413 
3053.120019972324 119.7192   2.440147   0.2643791 
3053.320019975305 124.2957   2.457252   0.2712339 
3053.520019978285 129.1396   2.484005   0.2820058 
3053.720019981265 135.5561   2.496804   0.2947362 
3053.920019984245 142.2715   2.467976   0.3045288 
3054.120019987226 144.0408   2.44592    0.3064874 
3054.320019990206 139.8338   2.467957   0.3045288 
3054.520019993186 134.6911   2.47596    0.3074666 
3054.720019996166 133.1656   2.463078   0.3133422 
3054.920019999146 136.4683   2.480606   0.3074666 
