~Version
 VERS              .         2.0                           : CWLS LOG ASCII STANDARD - VERSION 2.0
 WRAP              .         NO                            : ONE LINE PER DEPTH STEP
 DLM               .         SPACE                         : DELIMITING CHARACTER(SPACE TAB OR COMMA)
~Well Information
#_______________________________________________________________________________
#
#PARAMETER_NAME    .UNIT     VALUE                         : DESCRIPTION
#_______________________________________________________________________________
STRT               .m        3023.52001953125              : First reference value
STOP               .m        3219.52002245188              : Last reference value
STEP               .m        0.2                           : Step increment
NULL               .         -9999                         : Missing value
COMP               .                                       : Company
WELL               .         506                           : Well name
FLD                .                                       : Field
LOC                .                                       : Location
CNTY               .                                       : County
STAT               .                                       : State
CTRY               .                                       : Country
SRVC               .                                       : Service Company
DATE               .                                       : Date
API                .                                       : API number
EREF               .m        139.4                         : 
PROJECT_UPGRADE_TIME .         2014-05-27T11_38_46           : 
Pad                .         Pad5                          : 
X                  .m        230550                        : 
Y                  .m        242075                        : 
group              .         Pad5                          : 
Интер-р            .         Ярышев                        : 
Куст               .         5                             : 
Статус             .         Не проверено                  : 
Тип                .         Нагнетательные                : 
~Parameter Information Block
#_______________________________________________________________________________
#
#PARAMETER_NAME    .UNIT     VALUE                         : DESCRIPTION
#_______________________________________________________________________________
SET                .         LQC                           : 
PROJECT_UPGRADE_TIME .         2014-05-27T11_38_46           : 
TLFamily_GR_NORM   .         Gamma Ray                     : 
TLFamily_MD        .         Measured Depth                : 
TLFamily_RHOB_NORM .         Bulk Density                  : 
TLFamily_TNPH_NORM .         Neutron Porosity              : 
~Curve Information
#_______________________________________________________________________________
#
#LOGNAME           .UNIT     LOG_ID                        : DESCRIPTION
#_______________________________________________________________________________
MD                 .m                                      :  
GR_NORM            .gAPI                                   : Normalised By Techlog 
RHOB_NORM          .g/cm3                                  : Normalized By Techlog 
TNPH_NORM          .v/v                                    : Normalised By Techlog 
~Ascii
# ...
3055.120020002127 145.7786   2.480698   0.3025703 
3055.320020005107 162.5749   2.476853   0.31628   
3055.520020008087 177.9557   2.48635    0.3427201 
3055.720020011067 182.2177   2.453078   0.3534919 
3055.920020014048 176.7998   2.42257    0.3407615 
3056.120020017028 167.4738   2.393533   0.3133422 
3056.320020020008 157.0233   2.380105   0.2869021 
3056.520020022988 149.3486   2.388568   0.2771095 
3056.720020025969 150.1585   2.415413   0.2878814 
3056.920020028949 154.5935   2.410661   0.3074666 
3057.120020031929 157.3457   2.404257   0.3153007 
3057.320020034909 161.702    2.406661   0.3035496 
3057.520020037889 170.1159   2.416185   0.279068  
3057.72002004087 178.805    2.405207   0.2673169 
3057.92002004385 189.9082   2.378869   0.2859229 
3058.12002004683 202.985    2.360014   0.3192178 
3058.32002004981 212.0123   2.362296   0.3417408 
3058.520020052791 212.9323   2.364319   0.3554505 
3058.720020055771 208.1592   2.37922    0.3662223 
3058.920020058751 200.744    2.394368   0.3652431 
3059.120020061731 190.6788   2.395824   0.3446786 
3059.320020064712 178.5534   2.399901   0.3221556 
3059.520020067692 166.0662   2.419361   0.301591  
3059.720020070672 154.4677   2.443198   0.2810265 
3059.920020073652 145.8336   2.463265   0.2702546 
3060.120020076632 141.6896   2.490614   0.2653584 
3060.320020079613 139.8653   2.487288   0.2633998 
3060.520020082593 137.8758   2.458587   0.2633998 
3060.720020085573 136.1537   2.457827   0.2712339 
3060.920020088553 135.965    2.469924   0.2898399 
3061.120020091534 140.6516   2.471212   0.3113837 
3061.320020094514 153.9644   2.45928    0.3192178 
3061.520020097494 175.3372   2.436964   0.3172593 
3061.720020100474 194.4454   2.425293   0.3143214 
3061.920020103455 204.6757   2.402126   0.3153007 
3062.120020106435 208.5681   2.40322    0.3241141 
3062.320020109415 216.1406   2.389994   0.3329274 
3062.520020112395 239.0468   2.353652   0.3299896 
3062.720020115376 273.4964   2.334315   0.3250933 
3062.920020118356 307.8203   2.313172   0.3358652 
3063.120020121336 330.3648   2.320708   0.3711186 
3063.320020124316 330.3727   2.334083   0.3995173 
3063.520020127296 312.9709   2.33645    0.3711186 
3063.720020130277 285.6612   2.337122   0.320197  
3063.920020133257 252.3438   2.370644   0.2839643 
3064.120020136237 218.8456   2.42509    0.2741717 
3064.320020139217 197.1897   2.461135   0.2849436 
3064.520020142198 193.5253   2.45147    0.2908192 
3064.720020145178 207.9154   2.376763   0.2966948 
3064.920020148158 236.7742   2.308474   0.320197  
3065.120020151138 266.9777   2.287644   0.3476164 
3065.320020154119 281.8002   2.280653   0.3378237 
3065.520020157099 280.4556   2.271489   0.3113837 
3065.720020160079 272.7415   2.2759     0.3094251 
3065.920020163059 264.1389   2.264617   0.3378237 
3066.120020166039 252.0057   2.240165   0.3681809 
3066.32002016902 241.7439   2.232072   0.3711186 
3066.520020172 239.4163   2.246162   0.3564297 
3066.72002017498 243.2851   2.259376   0.3446786 
3066.92002017796 244.9443   2.257652   0.3476164 
3067.120020180941 250.315    2.244305   0.3691601 
3067.320020183921 263.274    2.225439   0.3916832 
3067.520020186901 275.6982   2.219693   0.3936417 
3067.720020189881 279.968    2.218033   0.3769942 
3067.920020192862 275.6589   2.230037   0.3476164 
3068.120020195842 267.0641   2.240102   0.3153007 
3068.320020198822 256.3384   2.255526   0.2947362 
3068.520020201802 246.7844   2.277382   0.2878814 
3068.720020204782 238.8187   2.292151   0.2898399 
3068.920020207763 230.6407   2.286783   0.2986532 
3069.120020210743 223.9411   2.274018   0.3299896 
3069.320020213723 222.5807   2.238506   0.3603468 
3069.520020216703 226.3394   2.22797    0.3769942 
3069.720020219684 229.2568   2.207789   0.3926624 
3069.920020222664 226.0013   2.208116   0.3828698 
3070.120020225644 222.2505   2.231182   0.3642638 
3070.320020228624 230.8531   2.247035   0.3534919 
3070.520020231605 254.0502   2.228566   0.3427201 
3070.720020234585 270.8465   2.201433   0.3378237 
3070.920020237565 269.2188   2.208324   0.3436993 
3071.120020240545 262.0866   2.230202   0.3505541 
3071.320020243526 263.0223   2.24914    0.3476164 
3071.520020246506 266.2935   2.252981   0.338803  
3071.720020249486 261.3317   2.258215   0.3446786 
3071.920020252466 248.7502   2.248816   0.3662223 
3072.120020255446 238.7322   2.238021   0.3965795 
3072.320020258427 235.8621   2.221015   0.4151855 
3072.520020261407 235.5397   2.204581   0.4083306 
3072.720020264387 232.6774   2.204498   0.4004965 
3072.920020267367 227.747    2.211512   0.4004965 
3073.120020270348 224.2163   2.219931   0.4083306 
3073.320020273328 222.7852   2.238051   0.4063721 
3073.520020276308 219.8207   2.243387   0.3858076 
3073.720020279288 214.8352   2.240088   0.361326  
3073.920020282269 211.2495   2.247395   0.3583882 
3074.120020285249 209.4252   2.235216   0.3642638 
3074.320020288229 204.8408   2.224542   0.3603468 
3074.520020291209 191.992    2.233197   0.3476164 
3074.720020294189 172.4356   2.249443   0.3319482 
3074.92002029717 154.1689   2.259698   0.3319482 
3075.12002030015 144.0408   2.256356   0.3466371 
3075.32002030313 143.105    2.26533    0.3672016 
3075.52002030611 148.3892   2.27031    0.3838491 
3075.720020309091 155.773    2.28387    0.3818905 
3075.920020312071 159.0521   2.300712   0.3642638 
3076.120020315051 156.5122   2.314168   0.3495749 
3076.320020318031 150.8505   2.303779   0.3485956 
3076.520020321012 146.9109   2.276855   0.3544712 
3076.720020323992 145.7786   2.265892   0.3525127 
3076.920020326972 146.2189   2.254003   0.338803  
3077.120020329952 145.7865   2.248985   0.3231348 
3077.320020332932 144.8586   2.266464   0.3153007 
3077.520020335913 142.1929   2.29462    0.3123629 
3077.720020338893 138.0882   2.307981   0.3221556 
3077.920020341873 132.9848   2.327135   0.3319482 
3078.120020344853 126.1043   2.354011   0.3192178 
3078.320020347834 116.1413   2.365164   0.2986532 
3078.520020350814 106.9568   2.357578   0.2878814 
3078.720020353794 104.4091   2.341426   0.2839643 
3078.920020356774 108.9384   2.328264   0.2908192 
3079.120020359755 117.8634   2.311806   0.3104044 
3079.320020362735 123.588    2.316366   0.3378237 
3079.520020365715 123.7059   2.325381   0.3505541 
3079.720020368695 122.8881   2.316486   0.3397823 
3079.920020371675 126.0099   2.296073   0.3172593 
3080.120020374656 132.3085   2.308351   0.3035496 
3080.320020377636 141.7053   2.308385   0.3006118 
3080.520020380616 153.8543   2.307926   0.2947362 
3080.720020383596 158.824    2.303828   0.2937569 
3080.920020386577 148.1297   2.289104   0.2898399 
3081.120020389557 130.1775   2.295057   0.2849436 
3081.320020392537 119.9079   2.30821    0.2839643 
3081.520020395517 118.4768   2.322506   0.2820058 
3081.720020398498 116.2593   2.330749   0.2839643 
3081.920020401478 111.3682   2.344009   0.2810265 
3082.120020404458 107.7825   2.351964   0.2712339 
3082.320020407438 106.9175   2.342159   0.2722132 
3082.520020410419 105.8953   2.342951   0.2849436 
3082.720020413399 104.0002   2.33616    0.2927777 
3082.920020416379 104.1417   2.32579    0.2908192 
3083.120020419359 105.8559   2.326705   0.2810265 
3083.320020422339 103.2925   2.320457   0.2692754 
3083.52002042532 95.88512   2.312346   0.2643791 
3083.7200204283 89.24838   2.320287   0.2594828 
3083.92002043128 87.25893   2.331137   0.2545865 
3084.12002043426 89.23265   2.343795   0.2585035 
3084.320020437241 92.10281   2.359643   0.275151  
3084.520020440221 93.8878    2.373085   0.301591  
3084.720020443201 93.51823   2.350916   0.3153007 
3084.920020446181 94.43824   2.339213   0.3113837 
3085.120020449162 102.2781   2.331865   0.301591  
3085.320020452142 110.6212   2.32034    0.2829851 
3085.520020455122 112.2253   2.319142   0.2682961 
3085.720020458102 107.9398   2.328869   0.2643791 
3085.920020461082 104.2675   2.313261   0.2702546 
3086.120020464063 102.1601   2.268739   0.2859229 
3086.320020467043 101.7591   2.258129   0.3006118 
3086.520020470023 102.2938   2.28804    0.3025703 
