~Version
 VERS              .         2.0                           : CWLS LOG ASCII STANDARD - VERSION 2.0
 WRAP              .         NO                            : ONE LINE PER DEPTH STEP
 DLM               .         SPACE                         : DELIMITING CHARACTER(SPACE TAB OR COMMA)
~Well Information
#_______________________________________________________________________________
#
#PARAMETER_NAME    .UNIT     VALUE                         : DESCRIPTION
#_______________________________________________________________________________
STRT               .m        3023.52001953125              : First reference value
STOP               .m        3219.52002245188              : Last reference value
STEP               .m        0.2                           : Step increment
NULL               .         -9999                         : Missing value
COMP               .                                       : Company
WELL               .         506                           : Well name
FLD                .                                       : Field
LOC                .                                       : Location
CNTY               .                                       : County
STAT               .                                       : State
CTRY               .                                       : Country
SRVC               .                                       : Service Company
DATE               .                                       : Date
API                .                                       : API number
EREF               .m        139.4                         : 
PROJECT_UPGRADE_TIME .         2014-05-27T11_38_46           : 
Pad                .         Pad5                          : 
X                  .m        230550                        : 
Y                  .m        242075                        : 
group              .         Pad5                          : 
Интер-р            .         Ярышев                        : 
Куст               .         5                             : 
Статус             .         Не проверено                  : 
Тип                .         Нагнетательные                : 
~Parameter Information Block
#_______________________________________________________________________________
#
#PARAMETER_NAME    .UNIT     VALUE                         : DESCRIPTION
#_______________________________________________________________________________
SET                .         LQC                           : 
PROJECT_UPGRADE_TIME .         2014-05-27T11_38_46           : 
TLFamily_GR_NORM   .         Gamma Ray                     : 
TLFamily_MD        .         Measured Depth                : 
TLFamily_RHOB_NORM .         Bulk Density                  : 
TLFamily_TNPH_NORM .         Neutron Porosity              : 
~Curve Information
#_______________________________________________________________________________
#
#LOGNAME           .UNIT     LOG_ID                        : DESCRIPTION
#_______________________________________________________________________________
MD                 .m                                      :  
GR_NORM            .gAPI                                   : Normalised By Techlog 
RHOB_NORM          .g/cm3                                  : Normalized By Techlog 
TNPH_NORM          .v/v                                    : Normalised By Techlog 
~Ascii
# ...
3149.920021414757 104.126    2.409269   0.2839643 
3150.120021417737 111.9029   2.332991   0.3104044 
3150.320021420717 95.84579   2.259059   0.2849436 
3150.520021423697 83.34294   2.205767   0.2663376 
3150.720021426678 75.93559   2.315502   0.2350012 
3150.920021429658 74.40221   2.437279   0.1958307 
3151.120021432638 74.40221   2.455852   0.1899552 
3151.320021435618 76.25799   2.486872   0.2017063 
3151.520021438599 78.08231   2.515168   0.2105197 
3151.720021441579 79.99312   2.510258   0.2095404 
3151.920021444559 80.9446    2.511171   0.2066026 
3152.120021447539 79.11241   2.550815   0.2056233 
3152.32002145052 72.24764   2.571696   0.2017063 
3152.5200214535 64.4078    2.547925   0.19681   
3152.72002145648 58.77758   2.506312   0.1977893 
3152.92002145946 56.92968   2.488351   0.2056233 
3153.12002146244 60.78276   2.488391   0.2124782 
3153.320021465421 69.77066   2.519209   0.219333  
3153.520021468401 77.03647   2.530314   0.219333  
3153.720021471381 77.18587   2.498592   0.2085611 
3153.920021474361 74.33932   2.480738   0.2066026 
3154.120021477342 75.14925   2.508547   0.2310842 
3154.320021480322 78.75069   2.52015    0.2633998 
3154.520021483302 81.35349   2.514148   0.2741717 
3154.720021486282 80.81878   2.517925   0.2820058 
3154.920021489263 80.3627    2.506168   0.2947362 
3155.120021492243 80.00884   2.502187   0.2878814 
3155.320021495223 80.77946   2.520677   0.275151  
3155.520021498203 83.32721   2.518175   0.2722132 
3155.720021501184 85.41103   2.527256   0.2673169 
3155.920021504164 87.90372   2.544329   0.256545  
3156.120021507144 88.92597   2.533804   0.2418561 
3156.320021510124 83.90125   2.516908   0.219333  
3156.520021513104 73.75742   2.534015   0.2066026 
3156.720021516085 68.08002   2.544425   0.2114989 
3156.920021519065 68.08002   2.53731    0.2222708 
3157.120021522045 70.33683   2.540568   0.2330427 
3157.320021525025 77.45323   2.517211   0.2359805 
3157.520021528006 81.43999   2.524799   0.2320634 
3157.720021530986 77.85426   2.542266   0.2330427 
3157.920021533966 68.34738   2.517953   0.2222708 
3158.120021536946 58.42373   2.516243   0.2075819 
3158.320021539927 54.31901   2.514781   0.2066026 
3158.520021542907 56.47359   2.506144   0.2075819 
3158.720021545887 58.14064   2.491581   0.2105197 
3158.920021548867 57.7632    2.474736   0.2163952 
3159.120021551847 57.3543    2.484878   0.2183537 
3159.320021554828 55.4199    2.494088   0.215416  
3159.520021557808 55.4199    2.490441   0.2114989 
3159.720021560788 53.1395    2.496343   0.2085611 
3159.920021563768 54.54705   2.4981     0.2075819 
3160.120021566749 51.95212   2.496005   0.1977893 
3160.320021569729 50.36371   2.507203   0.1762455 
3160.520021572709 50.64679   2.532588   0.1654736 
3160.720021575689 47.3992    2.589465   0.1615566 
3160.92002157867 42.1307    2.651202   0.1576395 
3161.12002158165 42.38233   2.649582   0.1605773 
3161.32002158463 47.06107   2.606503   0.1674321 
3161.52002158761 50.09635   2.532874   0.174287  
3161.72002159059 49.71891   2.468691   0.1821211 
3161.920021593571 46.78585   2.463134   0.1889759 
3162.120021596551 43.27089   2.476437   0.1919137 
3162.320021599531 42.39019   2.469506   0.1909344 
3162.520021602511 45.95232   2.459957   0.1821211 
3162.720021605492 50.44234   2.447823   0.1821211 
3162.920021608472 52.29025   2.432713   0.1977893 
3163.120021611452 49.99413   2.410496   0.215416  
3163.320021614432 50.70184   2.368975   0.2310842 
3163.520021617413 60.52327   2.337103   0.2330427 
3163.720021620393 80.80305   2.30214    0.2585035 
3163.920021623373 87.71501   2.257283   0.2966948 
3164.120021626353 88.99674   2.281541   0.2829851 
3164.320021629333 86.80286   2.352435   0.2506694 
3164.520021632314 84.20006   2.569778   0.2428353 
3164.720021635294 81.51863   2.648051   0.2398975 
3164.920021638274 77.64981   2.583103   0.2291256 
3165.120021641254 71.50062   2.488518   0.2261879 
3165.320021644235 63.59      2.455683   0.2232501 
3165.520021647215 55.19972   2.471288   0.2124782 
3165.720021650195 47.73732   2.497983   0.2036648 
3165.920021653175 42.59464   2.484396   0.2075819 
3166.120021656156 40.62092   2.469475   0.2085611 
3166.320021659136 40.89614   2.450103   0.1997478 
3166.520021662116 41.83975   2.425784   0.1919137 
3166.720021665096 41.51735   2.462967   0.19681   
3166.920021668077 40.40075   2.511362   0.2056233 
3167.120021671057 42.81482   2.475438   0.219333  
3167.320021674037 48.85393   2.443304   0.2340219 
3167.520021677017 57.27567   2.458537   0.2350012 
3167.720021679997 65.52441   2.479056   0.2477316 
3167.920021682978 76.5332    2.494267   0.2780887 
3168.120021685958 80.97605   2.498071   0.2966948 
3168.320021688938 87.61279   2.484381   0.3035496 
3168.520021691918 89.46069   2.495956   0.297674  
3168.720021694899 89.55505   2.515011   0.275151  
3168.920021697879 87.03088   2.524018   0.2477316 
3169.120021700859 85.78847   2.48919    0.2408768 
3169.320021703839 86.77926   2.463966   0.2585035 
3169.52002170682 89.4371    2.465913   0.2898399 
3169.7200217098 91.30074   2.462596   0.3035496 
3169.92002171278 91.94553   2.452371   0.2859229 
3170.12002171576 91.19851   2.458797   0.2633998 
3170.32002171874 89.56292   2.433294   0.2536072 
3170.520021721721 90.04259   2.357616   0.2487109 
3170.720021724701 89.89318   2.246453   0.2467524 
3170.920021727681 85.78061   2.138948   0.2780887 
3171.120021730661 78.60916   2.054577   0.338803  
3171.320021733642 68.65405   1.955127   0.398538  
3171.520021736622 52.85641   1.841968   0.4200818 
3171.720021739602 36.50834   1.788968   0.4122477 
3171.920021742582 25.63322   1.769471   0.4298744 
3172.120021745563 18.46177   1.765134   0.4690449 
3172.320021748543 13.82234   1.769448   0.4896094 
3172.520021751523 16.97558   1.792597   0.4758997 
3172.720021754503 28.80218   1.842611   0.4602315 
3172.920021757483 40.27493   1.874068   0.4435841 
3173.120021760464 43.16867   1.842839   0.421061  
3173.320021763444 42.42165   1.82058    0.402455  
3173.520021766424 46.14104   1.877465   0.3926624 
3173.720021769404 52.93505   1.993847   0.3632846 
3173.920021772385 57.23635   2.08954    0.3006118 
3174.120021775365 59.84701   2.389419   0.2712339 
3174.320021778345 65.9333    2.457609   0.2731924 
3174.520021781325 75.85696   2.410173   0.2692754 
3174.720021784306 83.4373    2.31514    0.2624205 
3174.920021787286 84.04279   2.228836   0.2771095 
3175.120021790266 80.29979   2.232488   0.3094251 
3175.320021793246 77.08365   2.267993   0.3270518 
3175.520021796227 75.93559   2.27324    0.3319482 
3175.720021799207 73.75742   2.242912   0.3192178 
3175.920021802187 71.36694   2.323103   0.3084459 
3176.120021805167 74.81111   2.489643   0.3153007 
3176.320021808147 78.41257   2.636358   0.3074666 
3176.520021811128 75.72327   2.627647   0.2829851 
3176.720021814108 70.36041   2.520281   0.2585035 
3176.920021817088 67.63967   2.496186   0.2389183 
3177.120021820068 67.98566   2.52036    0.2350012 
3177.320021823049 68.43388   2.516879   0.2359805 
3177.520021826029 67.04991   2.493969   0.2212915 
3177.720021829009 70.1481    2.493122   0.2066026 
3177.920021831989 69.85715   2.513845   0.2114989 
3178.12002183497 69.6527    2.518605   0.2232501 
3178.32002183795 72.11396   2.512066   0.2369597 
3178.52002184093 77.22519   2.510204   0.2477316 
3178.72002184391 82.35215   2.511441   0.260462  
3178.92002184689 89.96395   2.502705   0.2741717 
3179.120021849871 98.8339    2.492784   0.2692754 
3179.320021852851 100.7368   2.483866   0.260462  
3179.520021855831 93.02282   2.48913    0.2673169 
3179.720021858811 83.68893   2.497281   0.2820058 
3179.920021861792 77.05219   2.497242   0.2859229 
3180.120021864772 71.09957   2.493801   0.2761302 
3180.320021867752 69.01577   2.475896   0.2614413 
3180.520021870732 71.06026   2.477945   0.2496901 
3180.720021873713 72.57004   2.481429   0.2457731 
3180.920021876693 72.01173   2.509932   0.2447938 
3181.120021879673 70.2346    2.585713   0.2447938 
3181.320021882653 68.74841   2.637064   0.256545  
