~Version
 VERS              .         2.0                           : CWLS LOG ASCII STANDARD - VERSION 2.0
 WRAP              .         NO                            : ONE LINE PER DEPTH STEP
 DLM               .         SPACE                         : DELIMITING CHARACTER(SPACE TAB OR COMMA)
~Well Information
#_______________________________________________________________________________
#
#PARAMETER_NAME    .UNIT     VALUE                         : DESCRIPTION
#_______________________________________________________________________________
STRT               .m        2701                          : First reference value
STOP               .m        2965.80000394583              : Last reference value
STEP               .m        0.2                           : Step increment
NULL               .         -9999                         : Missing value
COMP               .                                       : Company
WELL               .         507                           : Well name
FLD                .                                       : Field
LOC                .                                       : Location
CNTY               .                                       : County
STAT               .                                       : State
CTRY               .                                       : Country
SRVC               .                                       : Service Company
DATE               .                                       : Date
API                .                                       : API number
EREF               .m        139.4                         : 
PROJECT_UPGRADE_TIME .         2014-05-27T11_38_46           : 
Pad                .         Pad5                          : 
X                  .m        230550                        : 
Y                  .m        242075                        : 
group              .         Pad5                          : 
Интер-р            .         Пузин                         : 
Куст               .         5                             : 
Статус             .         Не проверено                  : 
Тип                .         Разведка                      : 
~Parameter Information Block
#_______________________________________________________________________________
#
#PARAMETER_NAME    .UNIT     VALUE                         : DESCRIPTION
#_______________________________________________________________________________
SET                .         LQC                           : 
PROJECT_UPGRADE_TIME .         2014-05-27T11_38_46           : 
TLFamily_GR_NORM   .         Gamma Ray                     : 
TLFamily_MD        .         Measured Depth                : 
TLFamily_RHOB_NORM .         Bulk Density                  : 
TLFamily_TNPH_NORM .         Neutron Porosity              : 
~Curve Information
#_______________________________________________________________________________
#
#LOGNAME           .UNIT     LOG_ID                        : DESCRIPTION
#_______________________________________________________________________________
MD                 .m                                      :  
GR_NORM            .gAPI                                   : Normalised By Techlog 
RHOB_NORM          .g/cm3                                  : Normalized By Techlog 
TNPH_NORM          .v/v                                    : Normalised By Techlog 
~Ascii
# ...
2922.200003296137 60.12855   2.4504     0.2165398 
2922.400003299117 52.47749   2.455969   0.2059643 
2922.600003302097 48.49697   2.434302   0.2038492 
2922.800003305078 52.2491    2.455186   0.1975039 
2923.000003308058 63.10578   2.485904   0.2080794 
2923.200003311038 73.11416   2.494344   0.2197125 
2923.400003314018 75.88747   2.488079   0.2271154 
2923.600003316998 76.72762   2.483902   0.2450937 
2923.800003319979 84.85994   2.5114     0.2694174 
2924.000003322959 94.19946   2.494257   0.2852807 
2924.200003325939 97.40508   2.48164    0.2852807 
2924.400003328919 96.36916   2.467282   0.2852807 
2924.6000033319 94.82754   2.436738   0.2852807 
2924.80000333488 92.77203   2.454403   0.291626  
2925.00000333786 90.32499   2.450922   0.3127771 
2925.20000334084 90.27605   2.447355   0.3148922 
2925.400003343821 94.02817   2.479116   0.3000865 
2925.600003346801 95.90424   2.467717   0.3053742 
2925.800003349781 95.9287    2.397406   0.3022016 
2926.000003352761 98.63676   2.329793   0.2926836 
2926.200003355742 97.67426   2.250954   0.2842232 
2926.400003358722 91.7198    2.188214   0.2736477 
2926.600003361702 88.31842   2.089535   0.2673023 
2926.800003364682 84.68049   1.985636   0.2567268 
2927.000003367662 70.91998   1.894092   0.2842232 
2927.200003370643 49.98151   1.821954   0.3307555 
2927.400003373623 33.6924    1.781752   0.4195898 
2927.600003376603 25.56008   1.782013   0.5115969 
2927.800003379583 19.5159    1.776443   0.5369781 
2928.000003382564 17.16674   1.776443   0.5020789 
2928.200003385544 22.72152   1.791933   0.4671797 
2928.400003388524 33.42323   1.84745    0.4227625 
2928.600003391504 41.41688   1.901837   0.433338  
2928.800003394485 41.90628   1.880256   0.4587193 
2929.000003397465 43.53764   1.876166   0.4534315 
2929.200003400445 53.90492   1.902968   0.464007  
2929.400003403425 63.56256   2.08005    0.4893883 
2929.600003406405 68.85632   2.48747    0.4396833 
2929.800003409386 76.40134   2.53942    0.3265252 
2930.000003412366 81.73589   2.529239   0.2725901 
2930.200003415346 82.49448   2.510182   0.2472088 
2930.400003418326 83.13071   2.487122   0.2461513 
2930.600003421307 84.99045   2.506875   0.2514391 
2930.800003424287 84.05242   2.492865   0.2577844 
2931.000003427267 82.37212   2.451879   0.2546117 
2931.200003430247 80.52869   2.383396   0.2440362 
2931.400003433228 76.69499   2.323528   0.2514391 
2931.600003436208 69.43545   2.222325   0.2979714 
2931.800003439188 64.11723   2.130086   0.3201799 
2932.000003442168 68.61977   2.142442   0.2768203 
2932.200003445148 76.80919   2.258264   0.260957  
2932.400003448129 79.75379   2.502089   0.230288  
2932.600003451109 78.87286   2.497738   0.1953888 
2932.800003454089 78.61183   2.551515   0.1879859 
2933.000003457069 83.12254   2.543945   0.2112521 
2933.20000346005 88.32657   2.547077   0.2197125 
2933.40000346303 90.78992   2.565699   0.2080794 
2933.60000346601 91.98898   2.548731   0.2017341 
2933.80000346899 88.98727   2.553343   0.2133672 
2934.000003471971 84.62339   2.534373   0.2345182 
2934.200003474951 78.24479   2.540899   0.2324031 
2934.400003477931 70.67529   2.536287   0.230288  
2934.600003480911 71.17284   2.551602   0.2472088 
2934.800003483891 82.34765   2.518275   0.2546117 
2935.000003486872 94.91726   2.485381   0.2281729 
2935.200003489852 89.06884   2.475636   0.1932737 
2935.400003492832 66.62136   2.43787    0.1805831 
2935.600003495812 59.79413   2.427166   0.1826982 
2935.800003498793 62.56743   2.45449    0.1953888 
2936.000003501773 69.72094   2.53124    0.2101945 
2936.200003504753 73.59541   2.509224   0.2144247 
2936.400003507733 74.1827    2.47172    0.2228851 
2936.600003510714 75.06364   2.45623    0.2292305 
2936.800003513694 74.37031   2.470066   0.2450937 
2937.000003516674 73.78301   2.455969   0.2641297 
2937.200003519654 76.56448   2.462409   0.2524966 
2937.400003522635 79.12572   2.478333   0.2271154 
2937.600003525615 79.54171   2.483989   0.2218276 
2937.800003528595 76.92338   2.484859   0.2260578 
2938.000003531575 80.1861    2.495127   0.2218276 
2938.200003534555 81.34436   2.469544   0.230288  
2938.400003537536 72.65738   2.482423   0.2461513 
2938.600003540516 67.99986   2.460668   0.2440362 
2938.800003543496 67.11892   2.410981   0.2239427 
2939.000003546476 65.01447   2.414114   0.2281729 
2939.200003549457 68.43217   2.404454   0.2419211 
2939.400003552437 84.32974   2.315087   0.2736477 
2939.600003555417 91.1162    2.333186   0.2831656 
2939.800003558397 86.42604   2.384179   0.2926836 
2940.000003561378 74.99837   2.373128   0.2683599 
2940.200003564358 75.47147   2.344064   0.260957  
2940.400003567338 85.20252   2.27062    0.3022016 
2940.600003570318 88.18791   2.22102    0.3487339 
2940.800003573298 89.33802   2.319176   0.341331  
2941.000003576279 86.85835   2.498173   0.2895109 
2941.200003579259 82.77996   2.515055   0.260957  
2941.400003582239 78.13874   2.511226   0.2376909 
2941.600003585219 77.60856   2.47755    0.2503815 
2941.8000035882 74.63132   2.429255   0.2768203 
2942.00000359118 68.28534   2.436303   0.291626  
2942.20000359416 62.03724   2.43787    0.260957  
2942.40000359714 59.91647   2.450052   0.2408635 
2942.600003600121 59.98173   2.45536    0.2408635 
2942.800003603101 59.81044   2.480683   0.2260578 
2943.000003606081 63.19551   2.508702   0.2281729 
2943.200003609061 71.13206   2.528281   0.2408635 
2943.400003612041 74.96575   2.550819   0.2419211 
2943.600003615022 77.10284   2.533416   0.2376909 
2943.800003618002 84.33791   2.542814   0.239806  
2944.000003620982 88.03294   2.541856   0.239806  
2944.200003623962 84.66418   2.535243   0.2546117 
2944.400003626943 94.81122   2.606163   0.2725901 
2944.600003629923 103.1148   2.517056   0.2842232 
2944.800003632903 101.5977   2.36695    0.3233526 
2945.000003635883 83.16333   2.313259   0.3445036 
2945.200003638864 66.14011   2.368168   0.2884534 
2945.400003641844 56.50694   2.412895   0.230288  
2945.600003644824 52.41223   2.424034   0.2080794 
2945.800003647804 50.65852   2.438044   0.1953888 
2946.000003650784 51.6618    2.430386   0.1816406 
2946.200003653765 54.8348    2.437957   0.1763529 
2946.400003656745 58.17908   2.440741   0.1795255 
2946.600003659725 59.71256   2.430299   0.1805831 
2946.800003662705 59.36181   2.453881   0.1826982 
2947.000003665686 57.86913   2.464497   0.1816406 
2947.200003668666 59.76149   2.447703   0.1869284 
2947.400003671646 65.45493   2.430386   0.2123096 
2947.600003674626 70.40611   2.400887   0.2376909 
2947.800003677607 73.09785   2.366514   0.2440362 
2948.000003680587 77.69828   2.381221   0.2271154 
2948.200003683567 83.80771   2.43378    0.2123096 
2948.400003686547 77.56777   2.454316   0.199619  
2948.600003689528 71.51543   2.441785   0.1826982 
2948.800003692508 68.06511   2.478246   0.1647198 
2949.000003695488 68.26903   2.520972   0.1668349 
2949.200003698468 69.27232   2.526106   0.178468  
2949.400003701448 72.73895   2.467456   0.2070219 
2949.600003704429 81.4504    2.418116   0.2482664 
2949.800003707409 95.48008   2.365296   0.3022016 
2950.000003710389 99.3464    2.34972    0.3074893 
2950.200003713369 93.4572    2.41655    0.2831656 
2950.40000371635 81.71957   2.488688   0.2799929 
2950.60000371933 74.6721    2.50557    0.2863383 
2950.80000372231 70.00642   2.489733   0.2376909 
2951.00000372529 67.86935   2.464236   0.2080794 
2951.200003728271 70.59371   2.446397   0.2101945 
2951.400003731251 74.52528   2.42473    0.2239427 
2951.600003734231 71.66225   2.420814   0.230288  
2951.800003737211 61.28682   2.4323     0.2059643 
2952.000003740191 52.3796    2.455534   0.1943312 
2952.200003743172 48.74983   2.46763    0.190101  
2952.400003746152 48.81509   2.518275   0.1731802 
2952.600003749132 51.74337   2.510878   0.1668349 
2952.800003752112 54.42696   2.523757   0.1795255 
2953.000003755093 52.68956   2.490951   0.1826982 
2953.200003758073 49.03532   2.481466   0.1763529 
2953.400003761053 48.18701   2.460842   0.1721227 
2953.600003764033 48.61932   2.441698   0.1816406 
