~Version
 VERS              .         2.0                           : CWLS LOG ASCII STANDARD - VERSION 2.0
 WRAP              .         NO                            : ONE LINE PER DEPTH STEP
 DLM               .         SPACE                         : DELIMITING CHARACTER(SPACE TAB OR COMMA)
~Well Information
#_______________________________________________________________________________
#
#PARAMETER_NAME    .UNIT     VALUE                         : DESCRIPTION
#_______________________________________________________________________________
STRT               .m        2701                          : First reference value
STOP               .m        2965.80000394583              : Last reference value
STEP               .m        0.2                           : Step increment
NULL               .         -9999                         : Missing value
COMP               .                                       : Company
WELL               .         507                           : Well name
FLD                .                                       : Field
LOC                .                                       : Location
CNTY               .                                       : County
STAT               .                                       : State
CTRY               .                                       : Country
SRVC               .                                       : Service Company
DATE               .                                       : Date
API                .                                       : API number
EREF               .m        139.4                         : 
PROJECT_UPGRADE_TIME .         2014-05-27T11_38_46           : 
Pad                .         Pad5                          : 
X                  .m        230550                        : 
Y                  .m        242075                        : 
group              .         Pad5                          : 
Интер-р            .         Пузин                         : 
Куст               .         5                             : 
Статус             .         Не проверено                  : 
Тип                .         Разведка                      : 
~Parameter Information Block
#_______________________________________________________________________________
#
#PARAMETER_NAME    .UNIT     VALUE                         : DESCRIPTION
#_______________________________________________________________________________
SET                .         LQC                           : 
PROJECT_UPGRADE_TIME .         2014-05-27T11_38_46           : 
TLFamily_GR_NORM   .         Gamma Ray                     : 
TLFamily_MD        .         Measured Depth                : 
TLFamily_RHOB_NORM .         Bulk Density                  : 
TLFamily_TNPH_NORM .         Neutron Porosity              : 
~Curve Information
#_______________________________________________________________________________
#
#LOGNAME           .UNIT     LOG_ID                        : DESCRIPTION
#_______________________________________________________________________________
MD                 .m                                      :  
GR_NORM            .gAPI                                   : Normalised By Techlog 
RHOB_NORM          .g/cm3                                  : Normalized By Techlog 
TNPH_NORM          .v/v                                    : Normalised By Techlog 
~Ascii
# ...
2859.000002354383 103.7511   2.349285   0.2831656 
2859.200002357364 102.4786   2.375738   0.2895109 
2859.400002360344 108.9551   2.357203   0.3085469 
2859.600002363324 115.0645   2.310214   0.3148922 
2859.800002366304 119.5752   2.305341   0.301144  
2860.000002369285 119.8689   2.302643   0.3201799 
2860.200002372265 112.8459   2.335188   0.3466188 
2860.400002375245 106.1736   2.339539   0.331813  
2860.600002378225 103.3269   2.364948   0.2958562 
2860.800002381206 103.278    2.38679    0.2768203 
2861.000002384186 107.9518   2.392446   0.2694174 
2861.200002387166 112.0955   2.405238   0.2725901 
2861.400002390146 109.5995   2.449878   0.2873958 
2861.600002393126 107.3482   2.504525   0.2715325 
2861.800002396107 109.2161   2.45684    0.2419211 
2862.000002399087 113.4005   2.473547   0.2345182 
2862.200002402067 123.8331   2.482684   0.2588419 
2862.400002405047 134.7469   2.507223   0.2778779 
2862.600002408028 132.9687   2.474156   0.291626  
2862.800002411008 125.3421   2.409153   0.2990289 
2863.000002413988 121.6715   2.385746   0.2905685 
2863.200002416968 118.3517   2.424381   0.2768203 
2863.400002419949 111.9894   2.38357    0.2747052 
2863.600002422929 105.5211   2.420292   0.2884534 
2863.800002425909 103.7103   2.431691   0.3201799 
2864.000002428889 104.8685   2.43787    0.3455612 
2864.20000243187 107.5929   2.430212   0.3371008 
2864.40000243485 112.0465   2.4256     0.3159497 
2864.60000243783 114.2407   2.438392   0.2821081 
2864.80000244081 112.7235   2.485642   0.2630721 
2865.00000244379 110.7904   2.490428   0.2831656 
2865.200002446771 111.5897   2.455708   0.3043166 
2865.400002449751 113.89     2.443352   0.2979714 
2865.600002452731 113.5392   2.445614   0.2969138 
2865.800002455711 110.929    2.447877   0.2958562 
2866.000002458692 107.0872   2.415245   0.2937411 
2866.200002461672 104.4689   2.441611   0.291626  
2866.400002464652 106.2552   2.444396   0.3043166 
2866.600002467632 110.717    2.448399   0.3159497 
2866.800002470613 115.5295   2.469892   0.2958562 
2867.000002473593 118.3191   2.491734   0.2598995 
2867.200002476573 118.107    2.485555   0.2376909 
2867.400002479553 113.4332   2.44544    0.2419211 
2867.600002482533 94.83569   2.441263   0.2366333 
2867.800002485514 64.52506   2.5181     0.2175974 
2868.000002488494 50.74825   2.604335   0.2123096 
2868.200002491474 69.68831   2.619215   0.2239427 
2868.400002494454 104.3057   2.569354   0.2271154 
2868.600002497435 123.5394   2.539942   0.2757628 
2868.800002500415 126.1985   2.499653   0.310662  
2869.000002503395 121.4594   2.518187   0.2810505 
2869.200002506375 115.4642   2.49826    0.2345182 
2869.400002509356 111.9079   2.480595   0.2419211 
2869.600002512336 112.2912   2.460233   0.301144  
2869.800002515316 114.363    2.472242   0.3265252 
2870.000002518296 114.2081   2.435607   0.2831656 
2870.200002521276 113.6534   2.465193   0.2546117 
2870.400002524257 114.1673   2.454229   0.2641297 
2870.600002527237 110.0726   2.45536    0.270475  
2870.800002530217 104.1589   2.478942   0.2799929 
2871.000002533197 99.7053    2.477115   0.2937411 
2871.200002536178 98.04947   2.476331   0.2736477 
2871.400002539158 101.0349   2.501741   0.2514391 
2871.600002542138 104.5341   2.511226   0.260957  
2871.800002545118 109.3956   2.49504    0.2852807 
2872.000002548099 112.8785   2.493126   0.3043166 
2872.200002551079 110.6354   2.467195   0.3233526 
2872.400002554059 110.1623   2.464236   0.3286403 
2872.600002557039 113.4495   2.46763    0.3117195 
2872.800002560019 114.0042   2.466499   0.3000865 
2873.000002563 114.5751   2.465454   0.3117195 
2873.20000256598 115.244    2.46441    0.3519065 
2873.40000256896 111.916    2.470849   0.3645971 
2873.60000257194 108.376    2.461277   0.331813  
2873.800002574921 112.9519   2.438827   0.3148922 
2874.000002577901 121.9896   2.45945    0.3085469 
2874.200002580881 128.7924   2.484163   0.291626  
2874.400002583861 127.3405   2.453272   0.2947987 
2874.600002586842 122.2343   2.469196   0.3170073 
2874.800002589822 122.2262   2.471284   0.3074893 
2875.000002592802 125.0403   2.474156   0.2757628 
2875.200002595782 124.453    2.453707   0.2598995 
2875.400002598763 120.9782   2.431082   0.2567268 
2875.600002601743 118.3436   2.514968   0.2598995 
2875.800002604723 117.7236   2.521146   0.2778779 
2876.000002607703 116.0678   2.577447   0.2842232 
2876.200002610683 112.1118   2.54525    0.2842232 
2876.400002613664 110.0399   2.470937   0.3022016 
2876.600002616644 110.3091   2.474156   0.2979714 
2876.800002619624 108.3515   2.452576   0.2947987 
2877.000002622604 106.7772   2.446397   0.3085469 
2877.200002625585 108.1884   2.431343   0.3032591 
2877.400002628565 107.9029   2.424556   0.2768203 
2877.600002631545 105.5456   2.428819   0.2567268 
2877.800002634525 105.8066   2.451009   0.2641297 
2878.000002637506 105.6516   2.494431   0.2895109 
2878.200002640486 106.9322   2.482423   0.301144  
2878.400002643466 108.4331   2.45684    0.2947987 
2878.600002646446 105.1867   2.460407   0.2895109 
2878.800002649426 106.0023   2.476158   0.2873958 
2879.000002652407 107.2095   2.484772   0.291626  
2879.200002655387 105.0888   2.510617   0.2884534 
2879.400002658367 101.0756   2.542291   0.2852807 
2879.600002661347 86.5647    2.523582   0.2736477 
2879.800002664328 62.95081   2.589716   0.2313456 
2880.000002667308 56.47431   2.56831    0.1879859 
2880.200002670288 74.99023   2.555953   0.2144247 
2880.400002673268 98.55519   2.556214   0.2651872 
2880.600002676249 112.6664   2.510443   0.3053742 
2880.800002679229 117.4137   2.504525   0.3064318 
2881.000002682209 115.6518   2.48573    0.3085469 
2881.200002685189 112.3646   2.482249   0.3117195 
2881.400002688169 111.4511   2.465541   0.3233526 
2881.60000269115 113.2048   2.466759   0.331813  
2881.80000269413 115.9373   2.444918   0.3349857 
2882.00000269711 115.3174   2.425861   0.3402734 
2882.20000270009 112.9111   2.398015   0.3794029 
2882.400002703071 117.2913   2.417072   0.3878633 
2882.600002706051 122.3893   2.454229   0.3191224 
2882.800002709031 122.1446   2.463453   0.291626  
2883.000002712011 121.6634   2.454229   0.2990289 
2883.200002714992 119.4937   2.44283    0.3074893 
2883.400002717972 114.9993   2.464584   0.3074893 
2883.600002720952 113.8573   2.456056   0.3138346 
2883.800002723932 115.6926   2.463801   0.3244102 
2884.000002726912 118.7188   2.4752     0.3296979 
2884.200002729893 121.4839   2.465193   0.3191224 
2884.400002732873 120.4317   2.460755   0.3022016 
2884.600002735853 115.2032   2.449965   0.3074893 
2884.800002738833 110.3744   2.455795   0.3265252 
2885.000002741814 109.2243   2.49069    0.3244102 
2885.200002744794 104.4199   2.499391   0.3233526 
2885.400002747774 94.37891   2.480509   0.310662  
2885.600002750754 90.76546   2.520363   0.2831656 
2885.800002753735 99.37903   2.546642   0.2588419 
2886.000002756715 120.9619   2.590674   0.2154823 
2886.200002759695 155.2693   2.616779   0.190101  
2886.400002762675 169.1359   2.572226   0.2133672 
2886.600002765656 132.0388   2.483119   0.2133672 
2886.800002768636 78.48949   2.464845   0.1932737 
2887.000002771616 52.76297   2.469805   0.1552018 
2887.200002774596 46.1886    2.547426   0.1128997 
2887.400002777576 40.38096   2.578665   0.08646093
2887.600002780557 33.51295   2.671079   0.06848255
2887.800002783537 30.61729   2.7078     0.06107968
2888.000002786517 30.46231   2.760881   0.05684947
2888.200002789497 30.02184   2.779677   0.04627395
2888.400002792478 30.7478    2.736777   0.04415885
2888.600002795458 32.81146   2.697271   0.06636745
2888.800002798438 36.25363   2.58058    0.09915155
2889.000002801418 39.36953   2.509311   0.1224177 
2889.200002804399 43.3745    2.475374   0.1541443 
2889.400002807379 49.93256   2.489297   0.1615471 
2889.600002810359 55.89518   2.479899   0.1615471 
2889.800002813339 54.93268   2.470849   0.1710651 
2890.000002816319 48.27674   2.455447   0.1752953 
2890.2000028193 42.31412   2.398189   0.1742377 
2890.40000282228 38.25204   2.360423   0.1826982 
