~Version
 VERS              .         2.0                           : CWLS LOG ASCII STANDARD - VERSION 2.0
 WRAP              .         NO                            : ONE LINE PER DEPTH STEP
 DLM               .         SPACE                         : DELIMITING CHARACTER(SPACE TAB OR COMMA)
~Well Information
#_______________________________________________________________________________
#
#PARAMETER_NAME    .UNIT     VALUE                         : DESCRIPTION
#_______________________________________________________________________________
STRT               .m        2701                          : First reference value
STOP               .m        2965.80000394583              : Last reference value
STEP               .m        0.2                           : Step increment
NULL               .         -9999                         : Missing value
COMP               .                                       : Company
WELL               .         507                           : Well name
FLD                .                                       : Field
LOC                .                                       : Location
CNTY               .                                       : County
STAT               .                                       : State
CTRY               .                                       : Country
SRVC               .                                       : Service Company
DATE               .                                       : Date
API                .                                       : API number
EREF               .m        139.4                         : 
PROJECT_UPGRADE_TIME .         2014-05-27T11_38_46           : 
Pad                .         Pad5                          : 
X                  .m        230550                        : 
Y                  .m        242075                        : 
group              .         Pad5                          : 
Интер-р            .         Пузин                         : 
Куст               .         5                             : 
Статус             .         Не проверено                  : 
Тип                .         Разведка                      : 
~Parameter Information Block
#_______________________________________________________________________________
#
#PARAMETER_NAME    .UNIT     VALUE                         : DESCRIPTION
#_______________________________________________________________________________
SET                .         LQC                           : 
PROJECT_UPGRADE_TIME .         2014-05-27T11_38_46           : 
TLFamily_GR_NORM   .         Gamma Ray                     : 
TLFamily_MD        .         Measured Depth                : 
TLFamily_RHOB_NORM .         Bulk Density                  : 
TLFamily_TNPH_NORM .         Neutron Porosity              : 
~Curve Information
#_______________________________________________________________________________
#
#LOGNAME           .UNIT     LOG_ID                        : DESCRIPTION
#_______________________________________________________________________________
MD                 .m                                      :  
GR_NORM            .gAPI                                   : Normalised By Techlog 
RHOB_NORM          .g/cm3                                  : Normalized By Techlog 
TNPH_NORM          .v/v                                    : Normalised By Techlog 
~Ascii
# ...
2827.400001883507 355.5349   2.338669   0.3603669 
2827.600001886487 361.0896   2.340235   0.3434461 
2827.800001889467 325.3466   2.374433   0.301144  
2828.000001892447 292.4747   2.35468    0.2852807 
2828.200001895428 264.5051   2.354767   0.3085469 
2828.400001898408 233.9742   2.372258   0.331813  
2828.600001901388 209.1694   2.392968   0.2768203 
2828.800001904368 212.7339   2.416463   0.2757628 
2829.000001907349 244.7167   2.385571   0.2831656 
2829.200001910329 274.9539   2.342062   0.3275828 
2829.400001913309 281.5446   2.315261   0.3709425 
2829.600001916289 270.3535   2.288894   0.3688273 
2829.80000191927 253.8686   2.292114   0.3423885 
2830.00000192225 242.237    2.280976   0.3148922 
2830.20000192523 239.3006   2.264268   0.3117195 
2830.40000192821 243.118    2.243471   0.3201799 
2830.60000193119 247.074    2.260004   0.3339281 
2830.800001934171 253.3221   2.282803   0.381518  
2831.000001937151 259.766    2.300555   0.4407409 
2831.200001940131 263.2816   2.303339   0.412187  
2831.400001943111 263.9015   2.278365   0.3709425 
2831.600001946092 261.1118   2.285849   0.3603669 
2831.800001949072 263.1918   2.268271   0.3582518 
2832.000001952052 270.1088   2.281236   0.3381583 
2832.200001955032 264.3501   2.286545   0.2958562 
2832.400001958013 249.2274   2.308647   0.2694174 
2832.600001960993 234.325    2.297074   0.2673023 
2832.800001963973 222.5629   2.353375   0.2884534 
2833.000001966953 222.4731   2.345282   0.3275828 
2833.200001969934 231.674    2.328053   0.3434461 
2833.400001972914 229.4635   2.281846   0.3328706 
2833.600001975894 219.7569   2.245907   0.3402734 
2833.800001978874 219.8466   2.24817    0.3582518 
2834.000001981854 234.7817   2.256523   0.3466188 
2834.200001984835 265.0598   2.296204   0.3233526 
2834.400001987815 278.6653   2.284717   0.3550792 
2834.600001990795 267.8004   2.286023   0.4016114 
2834.800001993775 266.0956   2.276451   0.3994963 
2835.000001996756 271.4384   2.293158   0.3963237 
2835.200001999736 264.7579   2.273753   0.3899784 
2835.400002002716 249.5782   2.247735   0.3825755 
2835.600002005696 243.3953   2.230157   0.4016114 
2835.800002008677 246.6499   2.221542   0.3920935 
2836.000002011657 248.6401   2.2111     0.381518  
2836.200002014637 249.5945   2.188997   0.4037265 
2836.400002017617 245.2877   2.210491   0.4174747 
2836.600002020597 234.1618   2.231723   0.3910359 
2836.800002023578 228.7375   2.222151   0.372     
2837.000002026558 233.4277   2.207271   0.3772877 
2837.200002029538 235.9482   2.202485   0.3603669 
2837.400002032518 226.4536   2.222586   0.3328706 
2837.600002035499 206.5511   2.255479   0.3286403 
2837.800002038479 185.0335   2.27297    0.3423885 
2838.000002041459 167.945    2.27471    0.3550792 
2838.200002044439 154.1682   2.280192   0.3571943 
2838.40000204742 146.1419   2.288024   0.3508489 
2838.6000020504 150.8891   2.297944   0.3349857 
2838.80000205338 158.3934   2.305602   0.3159497 
2839.00000205636 157.4635   2.349111   0.3138346 
2839.20000205934 153.5238   2.355202   0.3296979 
2839.400002062321 153.638    2.348067   0.3286403 
2839.600002065301 156.5173   2.355724   0.3180648 
2839.800002068281 162.9041   2.309257   0.3593094 
2840.000002071261 165.1228   2.274971   0.3994963 
2840.200002074242 157.1128   2.279496   0.3751726 
2840.400002077222 146.7781   2.298727   0.341331  
2840.600002080202 139.5023   2.310823   0.3360432 
2840.800002083182 132.047    2.320308   0.3508489 
2841.000002086163 122.5117   2.343629   0.3603669 
2841.200002089143 112.7235   2.334492   0.3434461 
2841.400002092123 111.6305   2.338582   0.3275828 
2841.600002095103 118.1641   2.3579     0.3085469 
2841.800002098083 122.7564   2.35877    0.2873958 
2842.000002101064 125.4237   2.350677   0.2789354 
2842.200002104044 127.5526   2.354941   0.2821081 
2842.400002107024 130.7827   2.35294    0.2895109 
2842.600002110004 129.3797   2.344412   0.2789354 
2842.800002112985 115.9128   2.372345   0.2556693 
2843.000002115965 109.9176   2.425774   0.2546117 
2843.200002118945 124.9669   2.496172   0.2567268 
2843.400002121925 126.2475   2.519841   0.249324  
2843.600002124906 89.88452   2.492691   0.2112521 
2843.800002127886 55.53628   2.546207   0.1731802 
2844.000002130866 62.14328   2.562219   0.1710651 
2844.200002133846 94.16684   2.513053   0.1932737 
2844.400002136827 118.4496   2.453533   0.249324  
2844.600002139807 122.7727   2.405847   0.2736477 
2844.800002142787 114.8606   2.388443   0.2768203 
2845.000002145767 106.2063   2.386355   0.2577844 
2845.200002148747 104.526    2.393664   0.2472088 
2845.400002151728 106.6059   2.357203   0.2472088 
2845.600002154708 106.6957   2.332839   0.2725901 
2845.800002157688 107.8131   2.302556   0.3032591 
2846.000002160668 108.4412   2.329271   0.2810505 
2846.200002163649 107.6174   2.345195   0.2577844 
2846.400002166629 109.0938   2.337798   0.2577844 
2846.600002169609 112.1852   2.359988   0.2683599 
2846.800002172589 108.6696   2.350764   0.2852807 
2847.00000217557 102.0218   2.342149   0.2821081 
2847.20000217855 106.0676   2.318654   0.2662448 
2847.40000218153 116.6959   2.330489   0.2736477 
2847.60000218451 116.6306   2.315435   0.2831656 
2847.80000218749 110.9127   2.352417   0.2725901 
2848.000002190471 108.1476   2.378871   0.2725901 
2848.200002193451 106.818    2.361641   0.2736477 
2848.400002196431 108.9959   2.335971   0.2789354 
2848.600002199411 111.8508   2.311432   0.2969138 
2848.800002202392 113.4903   2.286458   0.3127771 
2849.000002205372 116.8264   2.280627   0.3117195 
2849.200002208352 119.3468   2.241991   0.3148922 
2849.400002211332 122.7319   2.237206   0.3381583 
2849.600002214313 125.6847   2.248257   0.3603669 
2849.800002217293 121.2229   2.26218    0.3614245 
2850.000002220273 105.9126   2.265399   0.3148922 
2850.200002223253 94.54205   2.303165   0.291626  
2850.400002226233 100.9288   2.337798   0.2969138 
2850.600002229214 115.5132   2.322222   0.3148922 
2850.800002232194 124.347    2.316479   0.3328706 
2851.000002235174 119.771    2.295073   0.3349857 
2851.200002238154 109.7137   2.318393   0.3032591 
2851.400002241135 101.5895   2.352853   0.2651872 
2851.600002244115 94.01186   2.392185   0.2620146 
2851.800002247095 89.26461   2.402888   0.2694174 
2852.000002250075 93.44089   2.410285   0.2747052 
2852.200002253056 102.6825   2.389574   0.2937411 
2852.400002256036 108.0334   2.373389   0.2937411 
2852.600002259016 114.7546   2.358944   0.2810505 
2852.800002261996 122.4546   2.330141   0.2863383 
2853.000002264977 122.1609   2.319525   0.3022016 
2853.200002267957 115.3663   2.326486   0.3096044 
2853.400002270937 106.0431   2.364687   0.3032591 
2853.600002273917 95.95317   2.381308   0.2873958 
2853.800002276897 91.35275   2.371387   0.2715325 
2854.000002279878 96.79332   2.392707   0.2757628 
2854.200002282858 106.2715   2.394534   0.2884534 
2854.400002285838 112.5196   2.348937   0.2863383 
2854.600002288818 117.4218   2.325703   0.2905685 
2854.800002291799 121.0924   2.293854   0.3180648 
2855.000002294779 126.223    2.284804   0.3540216 
2855.200002297759 134.1188   2.267314   0.3762302 
2855.400002300739 135.2852   2.250432   0.3709425 
2855.60000230372 126.2801   2.266531   0.3540216 
2855.8000023067 119.1185   2.268967   0.3381583 
2856.00000230968 126.4188   2.248866   0.3286403 
2856.20000231266 142.3979   2.255827   0.3561367 
2856.40000231564 142.6019   2.242513   0.3709425 
2856.600002318621 124.7711   2.239294   0.352964  
2856.800002321601 108.1639   2.25165    0.3561367 
2857.000002324581 105.9371   2.275928   0.3910359 
2857.200002327561 113.1151   2.225893   0.4312229 
2857.400002330542 124.8201   2.202398   0.4407409 
2857.600002333522 146.982    2.224414   0.4354531 
2857.800002336502 169.5193   2.215016   0.3920935 
2858.000002339482 173.4753   2.191782   0.3244102 
2858.200002342463 156.8436   2.189606   0.3117195 
2858.400002345443 140.424    2.228852   0.3402734 
2858.600002348423 131.0192   2.291679   0.3423885 
2858.800002351403 117.7726   2.328575   0.3138346 
