~Version
 VERS              .         2.0                           : CWLS LOG ASCII STANDARD - VERSION 2.0
 WRAP              .         NO                            : ONE LINE PER DEPTH STEP
 DLM               .         SPACE                         : DELIMITING CHARACTER(SPACE TAB OR COMMA)
~Well Information
#_______________________________________________________________________________
#
#PARAMETER_NAME    .UNIT     VALUE                         : DESCRIPTION
#_______________________________________________________________________________
STRT               .m        2701                          : First reference value
STOP               .m        2965.80000394583              : Last reference value
STEP               .m        0.2                           : Step increment
NULL               .         -9999                         : Missing value
COMP               .                                       : Company
WELL               .         507                           : Well name
FLD                .                                       : Field
LOC                .                                       : Location
CNTY               .                                       : County
STAT               .                                       : State
CTRY               .                                       : Country
SRVC               .                                       : Service Company
DATE               .                                       : Date
API                .                                       : API number
EREF               .m        139.4                         : 
PROJECT_UPGRADE_TIME .         2014-05-27T11_38_46           : 
Pad                .         Pad5                          : 
X                  .m        230550                        : 
Y                  .m        242075                        : 
group              .         Pad5                          : 
Интер-р            .         Пузин                         : 
Куст               .         5                             : 
Статус             .         Не проверено                  : 
Тип                .         Разведка                      : 
~Parameter Information Block
#_______________________________________________________________________________
#
#PARAMETER_NAME    .UNIT     VALUE                         : DESCRIPTION
#_______________________________________________________________________________
SET                .         LQC                           : 
PROJECT_UPGRADE_TIME .         2014-05-27T11_38_46           : 
TLFamily_GR_NORM   .         Gamma Ray                     : 
TLFamily_MD        .         Measured Depth                : 
TLFamily_RHOB_NORM .         Bulk Density                  : 
TLFamily_TNPH_NORM .         Neutron Porosity              : 
~Curve Information
#_______________________________________________________________________________
#
#LOGNAME           .UNIT     LOG_ID                        : DESCRIPTION
#_______________________________________________________________________________
MD                 .m                                      :  
GR_NORM            .gAPI                                   : Normalised By Techlog 
RHOB_NORM          .g/cm3                                  : Normalized By Techlog 
TNPH_NORM          .v/v                                    : Normalised By Techlog 
~Ascii
# ...
2764.200000941753 88.9628    2.485381   0.2101945 
2764.400000944734 93.90582   2.5047     0.209137  
2764.600000947714 99.41165   2.505831   0.199619  
2764.800000950694 94.54205   2.514794   0.1890435 
2765.000000953674 91.48325   2.485121   0.199619  
2765.200000956655 95.83082   2.483641   0.2239427 
2765.400000959635 100.3497   2.5181     0.2313456 
2765.600000962615 101.0756   2.538811   0.2218276 
2765.800000965595 99.52585   2.524279   0.2239427 
2766.000000968575 96.17341   2.500697   0.2228851 
2766.200000971556 91.3609    2.545772   0.2154823 
2766.400000974536 85.55327   2.565873   0.2197125 
2766.600000977516 80.85496   2.556649   0.22077   
2766.800000980496 85.17805   2.572922   0.1953888 
2767.000000983477 87.56799   2.581189   0.178468  
2767.200000986457 87.57615   2.579622   0.1943312 
2767.400000989437 90.95306   2.577186   0.2239427 
2767.600000992417 92.35603   2.556041   0.2387484 
2767.800000995398 92.4376    2.532719   0.2535542 
2768.000000998378 94.88464   2.482597   0.2546117 
2768.200001001358 95.95317   2.478072   0.239806  
2768.400001004338 93.72637   2.532632   0.2271154 
2768.600001007318 88.36736   2.550036   0.2101945 
2768.800001010299 83.81587   2.59633    0.2017341 
2769.000001013279 84.06057   2.574314   0.1922161 
2769.200001016259 85.14543   2.553865   0.1964464 
2769.400001019239 84.92519   2.550123   0.2250003 
2769.60000102222 89.63982   2.560304   0.2482664 
2769.8000010252 95.61059   2.556475   0.2461513 
2770.00000102818 95.59428   2.588237   0.2313456 
2770.20000103116 93.00042   2.621739   0.2144247 
2770.400001034141 92.23367   2.5724     0.2112521 
2770.600001037121 92.61704   2.562479   0.2218276 
2770.800001040101 93.7019    2.518709   0.249324  
2771.000001043081 94.40339   2.524192   0.270475  
2771.200001046062 94.95805   2.522451   0.2683599 
2771.400001049042 95.61874   2.524888   0.2514391 
2771.600001052022 96.74438   2.521407   0.2355758 
2771.800001055002 96.05106   2.492691   0.2250003 
2772.000001057982 96.35285   2.491473   0.2271154 
2772.200001060963 96.30392   2.516099   0.2440362 
2772.400001063943 92.31525   2.518623   0.2546117 
2772.600001066923 89.00359   2.523931   0.2408635 
2772.800001069903 90.68389   2.503394   0.2376909 
2773.000001072884 94.58283   2.522625   0.2598995 
2773.200001075864 95.9858    2.527846   0.2598995 
2773.400001078844 93.20434   2.535852   0.2376909 
2773.600001081824 91.94003   2.572226   0.2355758 
2773.800001084805 93.22065   2.577447   0.2366333 
2774.000001087785 93.05752   2.565003   0.2313456 
2774.200001090765 91.5322    2.58406    0.2271154 
2774.400001093745 92.4947    2.550297   0.2345182 
2774.600001096725 94.40339   2.519319   0.2334607 
2774.800001099706 93.08198   2.499218   0.2292305 
2775.000001102686 89.80296   2.504612   0.2524966 
2775.200001105666 91.09173   2.47929    0.2747052 
2775.400001108646 94.68071   2.464932   0.2673023 
2775.600001111627 93.8895    2.473808   0.2429786 
2775.800001114607 92.45391   2.531849   0.239806  
2776.000001117587 91.85847   2.569528   0.270475  
2776.200001120567 91.74427   2.558912   0.2905685 
2776.400001123548 93.26144   2.582581   0.2736477 
2776.600001126528 91.40169   2.570398   0.2546117 
2776.800001129508 86.3037    2.552734   0.2366333 
2777.000001132488 84.47657   2.556823   0.2366333 
2777.200001135468 83.82403   2.592849   0.2450937 
2777.400001138449 79.76195   2.574836   0.2429786 
2777.600001141429 77.2986    2.539246   0.2408635 
2777.800001144409 79.23175   2.531762   0.2472088 
2778.000001147389 81.6217    2.528891   0.2535542 
2778.20000115037 80.64288   2.543858   0.2673023 
2778.40000115335 78.65262   2.558912   0.2778779 
2778.60000115633 77.44542   2.567353   0.2535542 
2778.80000115931 76.28715   2.58554    0.2324031 
2779.000001162291 76.62158   2.546903   0.2292305 
2779.200001165271 78.83207   2.54029    0.2281729 
2779.400001168251 80.34924   2.586932   0.2292305 
2779.600001171231 79.43568   2.558912   0.2345182 
2779.800001174212 78.74235   2.520537   0.2419211 
2780.000001177192 76.99679   2.551602   0.2472088 
2780.200001180172 76.30347   2.570485   0.2408635 
2780.400001183152 80.34108   2.58232    0.2345182 
2780.600001186132 86.14056   2.609818   0.2387484 
2780.800001189113 86.76048   2.582059   0.2524966 
2781.000001192093 84.35422   2.542291   0.260957  
2781.200001195073 85.76534   2.527063   0.270475  
2781.400001198053 86.80941   2.53359    0.2895109 
2781.600001201034 85.4717    2.602769   0.2958562 
2781.800001204014 85.33303   2.581537   0.2736477 
2782.000001206994 86.46683   2.566657   0.2577844 
2782.200001209974 88.9057    2.492691   0.2641297 
2782.400001212955 89.21566   2.531327   0.2768203 
2782.600001215935 85.39829   2.522538   0.2620146 
2782.800001218915 85.40644   2.544815   0.2345182 
2783.000001221895 90.30052   2.557868   0.2387484 
2783.200001224875 92.41312   2.552647   0.2747052 
2783.400001227856 89.86005   2.590326   0.2725901 
2783.600001230836 87.0378    2.582146   0.2461513 
2783.800001233816 84.08504   2.576925   0.2419211 
2784.000001236796 81.73589   2.58145    0.2482664 
2784.200001239777 82.02953   2.585366   0.2419211 
2784.400001242757 83.39988   2.581537   0.239806  
2784.600001245737 85.4717    2.5905     0.2366333 
2784.800001248717 87.7556    2.611297   0.2419211 
2785.000001251698 87.39671   2.591805   0.2747052 
2785.200001254678 85.10464   2.577621   0.2926836 
2785.400001257658 80.93652   2.620086   0.270475  
2785.600001260638 78.85654   2.616083   0.2598995 
2785.800001263618 81.90718   2.63601    0.2662448 
2786.000001266599 87.33144   2.597461   0.2567268 
2786.200001269579 89.32986   2.54699    0.2556693 
2786.400001272559 85.73271   2.539681   0.2641297 
2786.600001275539 83.61195   2.518187   0.2641297 
2786.80000127852 85.82244   2.502611   0.2503815 
2787.0000012815 83.76692   2.546033   0.2281729 
2787.20000128448 80.44711   2.571617   0.2154823 
2787.40000128746 80.63472   2.556214   0.2271154 
2787.600001290441 83.62827   2.55517    0.2334607 
2787.800001293421 85.94479   2.559434   0.2271154 
2788.000001296401 84.76206   2.530631   0.2387484 
2788.200001299381 81.46671   2.545772   0.2683599 
2788.400001302361 81.77667   2.593023   0.2715325 
2788.600001305342 80.66735   2.578578   0.2577844 
2788.800001308322 76.43398   2.587106   0.2408635 
2789.000001311302 72.93472   2.575968   0.2027917 
2789.200001314282 73.30992   2.569876   0.1922161 
2789.400001317263 76.84997   2.591196   0.2250003 
2789.600001320243 78.62      2.554387   0.2651872 
2789.800001323223 79.33779   2.54029    0.2747052 
2790.000001326203 81.90718   2.537331   0.2683599 
2790.200001329184 82.88599   2.59076    0.2429786 
2790.400001332164 81.02625   2.540725   0.2271154 
2790.600001335144 81.49119   2.513314   0.2281729 
2790.800001338124 84.46025   2.506701   0.230288  
2791.000001341105 87.02965   2.507049   0.2355758 
2791.200001344085 87.85348   2.530805   0.2461513 
2791.400001347065 86.36079   2.559434   0.2472088 
2791.600001350045 85.78166   2.524888   0.2461513 
2791.800001353025 85.85506   2.519145   0.2630721 
2792.000001356006 85.91216   2.509921   0.2831656 
2792.200001358986 87.14384   2.526106   0.2852807 
2792.400001361966 88.6039    2.519493   0.2736477 
2792.600001364946 90.9449    2.533503   0.2747052 
2792.800001367927 91.50772   2.503742   0.2873958 
2793.000001370907 89.68876   2.511922   0.270475  
2793.200001373887 87.82901   2.549427   0.2313456 
2793.400001376867 83.69352   2.552734   0.2101945 
2793.600001379848 79.78642   2.518535   0.2123096 
2793.800001382828 79.99033   2.561784   0.2281729 
2794.000001385808 81.28726   2.567353   0.2472088 
2794.200001388788 82.86153   2.559434   0.2503815 
2794.400001391768 85.6022    2.59224    0.2651872 
2794.600001394749 88.36736   2.616518   0.2715325 
2794.800001397729 90.70836   2.605293   0.2683599 
2795.000001400709 92.06239   2.556214   0.2683599 
2795.200001403689 92.20921   2.507397   0.2567268 
2795.40000140667 91.40984   2.516708   0.2673023 
2795.60000140965 94.49311   2.543684   0.2958562 
