~Version
 VERS              .         2.0                           : CWLS LOG ASCII STANDARD - VERSION 2.0
 WRAP              .         NO                            : ONE LINE PER DEPTH STEP
 DLM               .         SPACE                         : DELIMITING CHARACTER(SPACE TAB OR COMMA)
~Well Information
#_______________________________________________________________________________
#
#PARAMETER_NAME    .UNIT     VALUE                         : DESCRIPTION
#_______________________________________________________________________________
STRT               .m        2701                          : First reference value
STOP               .m        2965.80000394583              : Last reference value
STEP               .m        0.2                           : Step increment
NULL               .         -9999                         : Missing value
COMP               .                                       : Company
WELL               .         507                           : Well name
FLD                .                                       : Field
LOC                .                                       : Location
CNTY               .                                       : County
STAT               .                                       : State
CTRY               .                                       : Country
SRVC               .                                       : Service Company
DATE               .                                       : Date
API                .                                       : API number
EREF               .m        139.4                         : 
PROJECT_UPGRADE_TIME .         2014-05-27T11_38_46           : 
Pad                .         Pad5                          : 
X                  .m        230550                        : 
Y                  .m        242075                        : 
group              .         Pad5                          : 
Интер-р            .         Пузин                         : 
Куст               .         5                             : 
Статус             .         Не проверено                  : 
Тип                .         Разведка                      : 
~Parameter Information Block
#_______________________________________________________________________________
#
#PARAMETER_NAME    .UNIT     VALUE                         : DESCRIPTION
#_______________________________________________________________________________
SET                .         LQC                           : 
PROJECT_UPGRADE_TIME .         2014-05-27T11_38_46           : 
TLFamily_GR_NORM   .         Gamma Ray                     : 
TLFamily_MD        .         Measured Depth                : 
TLFamily_RHOB_NORM .         Bulk Density                  : 
TLFamily_TNPH_NORM .         Neutron Porosity              : 
~Curve Information
#_______________________________________________________________________________
#
#LOGNAME           .UNIT     LOG_ID                        : DESCRIPTION
#_______________________________________________________________________________
MD                 .m                                      :  
GR_NORM            .gAPI                                   : Normalised By Techlog 
RHOB_NORM          .g/cm3                                  : Normalized By Techlog 
TNPH_NORM          .v/v                                    : Normalised By Techlog 
~Ascii
# ...
2890.60000282526 36.9959    2.361293   0.1943312 
2890.80000282824 38.03997   2.395753   0.190101  
2891.000002831221 38.34177   2.39175    0.1890435 
2891.200002834201 38.10522   2.3713     0.2006766 
2891.400002837181 38.24389   2.389487   0.1932737 
2891.600002840161 38.39071   2.389226   0.16895   
2891.800002843142 38.08075   2.400191   0.1604896 
2892.000002846122 36.93064   2.355637   0.1668349 
2892.200002849102 35.6174    2.348676   0.1678924 
2892.400002852082 34.86697   2.345891   0.1626047 
2892.600002855062 35.76422   2.31674    0.1615471 
2892.800002858043 37.04484   2.278626   0.1710651 
2893.000002861023 36.75119   2.234247   0.1953888 
2893.200002864003 35.42979   2.183428   0.2228851 
2893.400002866983 36.71857   2.133741   0.2831656 
2893.600002869964 45.38108   2.063517   0.3571943 
2893.800002872944 56.72717   2.065431   0.341331  
2894.000002875924 58.45641   2.23007    0.2598995 
2894.200002878904 51.7189    2.306124   0.2123096 
2894.400002881885 43.29294   2.323963   0.1869284 
2894.600002884865 36.59621   2.331098   0.1721227 
2894.800002887845 32.86856   2.320656   0.1721227 
2895.000002890825 29.92396   2.344238   0.178468  
2895.200002893806 29.58137   2.351547   0.1752953 
2895.400002896786 31.80002   2.341627   0.1742377 
2895.600002899766 35.79685   2.36634    0.1805831 
2895.800002902746 39.26348   2.39758    0.1858708 
2896.000002905726 38.79039   2.42473    0.1774104 
2896.200002908707 40.15257   2.372867   0.1795255 
2896.400002911687 49.55735   2.379132   0.199619  
2896.600002914667 66.915     2.44222    0.2101945 
2896.800002917647 72.94287   2.460842   0.2197125 
2897.000002920628 68.09773   2.462147   0.2218276 
2897.200002923608 63.87252   2.438566   0.2345182 
2897.400002926588 60.52823   2.487296   0.2281729 
2897.600002929568 56.36012   2.465454   0.2165398 
2897.800002932549 52.63247   2.444831   0.2059643 
2898.000002935529 51.67812   2.403062   0.1922161 
2898.200002938509 51.91467   2.387747   0.178468  
2898.400002941489 51.4742    2.368255   0.1731802 
2898.600002944469 51.39263   2.408979   0.1826982 
2898.80000294745 46.75142   2.453533   0.16895   
2899.00000295043 40.27493   2.522538   0.1160724 
2899.20000295341 35.71528   2.526715   0.08117317
2899.40000295639 30.06262   2.557694   0.06636745
2899.600002959371 27.77057   2.543684   0.07059766
2899.800002962351 32.49335   2.580666   0.08223072
2900.000002965331 41.06614   2.543858   0.1023242 
2900.200002968311 49.31265   2.477115   0.1361659 
2900.400002971292 52.16753   2.402105   0.159432  
2900.600002974272 47.73839   2.408718   0.178468  
2900.800002977252 41.87366   2.362164   0.1805831 
2901.000002980232 40.38912   2.353027   0.1626047 
2901.200002983212 44.6225    2.332839   0.1647198 
2901.400002986193 49.20661   2.346674   0.2017341 
2901.600002989173 49.05979   2.354158   0.2324031 
2901.800002992153 46.81667   2.357552   0.2334607 
2902.000002995133 47.5671    2.365993   0.22077   
2902.200002998114 48.18701   2.354593   0.2123096 
2902.400003001094 45.55237   2.324659   0.2101945 
2902.600003004074 44.03521   2.335014   0.1932737 
2902.800003007054 44.32885   2.358857   0.1721227 
2903.000003010035 41.91444   2.365557   0.1626047 
2903.200003013015 39.94865   2.384092   0.1583745 
2903.400003015995 41.93891   2.404454   0.1742377 
2903.600003018975 44.58987   2.416376   0.2144247 
2903.800003021955 47.09401   2.443961   0.2112521 
2904.000003024936 48.65195   2.489558   0.1668349 
2904.200003027916 53.04846   2.527934   0.1604896 
2904.400003030896 67.44519   2.580666   0.1943312 
2904.600003033876 80.02296   2.538811   0.239806  
2904.800003036857 77.60856   2.531936   0.2598995 
2905.000003039837 68.3506    2.604074   0.2313456 
2905.200003042817 60.52008   2.804564   0.1879859 
2905.400003045797 57.55101   2.717894   0.159432  
2905.600003048778 62.84476   2.551428   0.178468  
2905.800003051758 72.42899   2.579448   0.2218276 
2906.000003054738 83.39172   2.519145   0.2567268 
2906.200003057718 90.34946   2.491038   0.2620146 
2906.400003060699 91.67086   2.469979   0.2524966 
2906.600003063679 92.67414   2.444396   0.2429786 
2906.800003066659 94.99883   2.422206   0.239806  
2907.000003069639 98.77542   2.434911   0.2408635 
2907.200003072619 103.7103   2.368516   0.2472088 
2907.4000030756 114.8606   2.284978   0.2736477 
2907.60000307858 139.2657   2.189867   0.3022016 
2907.80000308156 159.3151   2.106939   0.3434461 
2908.00000308454 157.2433   2.032538   0.3942086 
2908.200003087521 135.3913   2.0462     0.3550792 
2908.400003090501 109.5995   2.218584   0.2228851 
2908.600003093481 92.2663    2.586845   0.178468  
2908.800003096461 85.34119   2.618607   0.1953888 
2909.000003099442 82.47      2.556475   0.2250003 
2909.200003102422 79.17465   2.505222   0.2123096 
2909.400003105402 78.84023   2.519928   0.2059643 
2909.600003108382 83.83218   2.540029   0.2218276 
2909.800003111362 91.002     2.564568   0.2440362 
2910.000003114343 94.62362   2.545163   0.2408635 
2910.200003117323 88.39999   2.518275   0.2218276 
2910.400003120303 76.36056   2.518449   0.2197125 
2910.600003123283 69.28863   2.517317   0.2239427 
2910.800003126264 66.12379   2.496172   0.2260578 
2911.000003129244 62.32273   2.459711   0.2324031 
2911.200003132224 62.25748   2.483032   0.230288  
2911.400003135204 66.13195   2.542117   0.2281729 
2911.600003138185 68.43217   2.575184   0.2197125 
2911.800003141165 67.50229   2.615039   0.2271154 
2912.000003144145 67.79594   2.578491   0.2281729 
2912.200003147125 71.71935   2.598331   0.2133672 
2912.400003150105 75.30833   2.590586   0.2197125 
2912.600003153086 79.4683    2.590239   0.2366333 
2912.800003156066 84.6397    2.589455   0.2334607 
2913.000003159046 86.54024   2.600507   0.2260578 
2913.200003162026 86.84204   2.594328   0.22077   
2913.400003165007 88.32657   2.53707    0.2292305 
2913.600003167987 85.96926   2.589542   0.2450937 
2913.800003170967 84.37869   2.587715   0.2503815 
2914.000003173947 86.75231   2.538028   0.249324  
2914.200003176928 86.76048   2.499913   0.2324031 
2914.400003179908 84.48473   2.496955   0.2271154 
2914.600003182888 82.59235   2.477811   0.2324031 
2914.800003185868 78.43239   2.492778   0.2281729 
2915.000003188848 73.12232   2.493213   0.2281729 
2915.200003191829 69.22337   2.451705   0.2271154 
2915.400003194809 68.50558   2.452662   0.2144247 
2915.600003197789 68.76659   2.384614   0.2165398 
2915.800003200769 65.52835   2.418813   0.2514391 
2916.00000320375 62.23301   2.457623   0.2683599 
2916.20000320673 59.12526   2.471198   0.2419211 
2916.40000320971 54.48405   2.470675   0.2175974 
2916.60000321269 51.80862   2.488514   0.2017341 
2916.800003215671 53.08109   2.52802    0.1975039 
2917.000003218651 53.39104   2.508702   0.2027917 
2917.200003221631 51.97992   2.468674   0.2080794 
2917.400003224611 51.57208   2.434737   0.2366333 
2917.600003227592 54.3617    2.41829    0.2715325 
2917.800003230572 56.77611   2.413939   0.2503815 
2918.000003233552 58.1954    2.42473    0.2133672 
2918.200003236532 57.81203   2.445701   0.1890435 
2918.400003239512 53.85598   2.434215   0.1721227 
2918.600003242493 49.44316   2.429516   0.1710651 
2918.800003245473 48.88034   2.429516   0.1879859 
2919.000003248453 52.76297   2.462844   0.1943312 
2919.200003251433 56.7598    2.463018   0.1943312 
2919.400003254414 56.86584   2.422206   0.1964464 
2919.600003257394 55.54444   2.427688   0.2038492 
2919.800003260374 55.0795    2.440393   0.2144247 
2920.000003263354 57.01266   2.422206   0.2271154 
2920.200003266335 60.4222    2.426818   0.22077   
2920.400003269315 62.66531   2.389139   0.2101945 
2920.600003272295 70.12878   2.373041   0.2154823 
2920.800003275275 84.80284   2.365122   0.2440362 
2921.000003278255 91.99713   2.345108   0.2990289 
2921.200003281236 90.17001   2.396275   0.3307555 
2921.400003284216 88.06556   2.53446    0.2757628 
2921.600003287196 85.45538   2.524975   0.2355758 
2921.800003290176 80.08006   2.511139   0.2313456 
2922.000003293157 70.09615   2.505222   0.2324031 
