~Version
 VERS              .         2.0                           : CWLS LOG ASCII STANDARD - VERSION 2.0
 WRAP              .         NO                            : ONE LINE PER DEPTH STEP
 DLM               .         SPACE                         : DELIMITING CHARACTER(SPACE TAB OR COMMA)
~Well Information
#_______________________________________________________________________________
#
#PARAMETER_NAME    .UNIT     VALUE                         : DESCRIPTION
#_______________________________________________________________________________
STRT               .m        2701                          : First reference value
STOP               .m        2965.80000394583              : Last reference value
STEP               .m        0.2                           : Step increment
NULL               .         -9999                         : Missing value
COMP               .                                       : Company
WELL               .         507                           : Well name
FLD                .                                       : Field
LOC                .                                       : Location
CNTY               .                                       : County
STAT               .                                       : State
CTRY               .                                       : Country
SRVC               .                                       : Service Company
DATE               .                                       : Date
API                .                                       : API number
EREF               .m        139.4                         : 
PROJECT_UPGRADE_TIME .         2014-05-27T11_38_46           : 
Pad                .         Pad5                          : 
X                  .m        230550                        : 
Y                  .m        242075                        : 
group              .         Pad5                          : 
Интер-р            .         Пузин                         : 
Куст               .         5                             : 
Статус             .         Не проверено                  : 
Тип                .         Разведка                      : 
~Parameter Information Block
#_______________________________________________________________________________
#
#PARAMETER_NAME    .UNIT     VALUE                         : DESCRIPTION
#_______________________________________________________________________________
SET                .         LQC                           : 
PROJECT_UPGRADE_TIME .         2014-05-27T11_38_46           : 
TLFamily_GR_NORM   .         Gamma Ray                     : 
TLFamily_MD        .         Measured Depth                : 
TLFamily_RHOB_NORM .         Bulk Density                  : 
TLFamily_TNPH_NORM .         Neutron Porosity              : 
~Curve Information
#_______________________________________________________________________________
#
#LOGNAME           .UNIT     LOG_ID                        : DESCRIPTION
#_______________________________________________________________________________
MD                 .m                                      :  
GR_NORM            .gAPI                                   : Normalised By Techlog 
RHOB_NORM          .g/cm3                                  : Normalized By Techlog 
TNPH_NORM          .v/v                                    : Normalised By Techlog 
~Ascii
# ...
2732.600000470877 83.00835   2.444918   0.2101945 
2732.800000473857 84.67233   2.448225   0.2049068 
2733.000000476837 81.4504    2.465106   0.2027917 
2733.200000479817 84.24002   2.444483   0.209137  
2733.400000482798 92.14395   2.478159   0.2112521 
2733.600000485778 95.55349   2.500871   0.2144247 
2733.800000488758 93.759     2.508441   0.2250003 
2734.000000491738 89.18304   2.498956   0.2101945 
2734.200000494719 81.23016   2.513576   0.1858708 
2734.400000497699 69.66384   2.507223   0.1668349 
2734.600000500679 64.39455   2.449443   0.1509716 
2734.800000503659 70.97708   2.458058   0.1573169 
2735.000000506639 79.25623   2.427079   0.2049068 
2735.20000050962 83.47329   2.453881   0.2334607 
2735.4000005126 84.19108   2.498869   0.2334607 
2735.60000051558 84.37053   2.517839   0.2250003 
2735.80000051856 83.88113   2.49739    0.2059643 
2736.000000521541 82.02953   2.50644    0.1953888 
2736.200000524521 83.31831   2.501654   0.1964464 
2736.400000527501 85.50433   2.507919   0.2165398 
2736.600000530481 82.34765   2.497564   0.239806  
2736.800000533462 77.49436   2.439436   0.2387484 
2737.000000536442 78.06534   2.423599   0.2133672 
2737.200000539422 84.5092    2.45858    0.1975039 
2737.400000542402 87.69035   2.445701   0.1985614 
2737.600000545382 88.68548   2.441176   0.199619  
2737.800000548363 89.99056   2.43726    0.2006766 
2738.000000551343 89.70507   2.469892   0.2059643 
2738.200000554323 87.42117   2.523408   0.2123096 
2738.400000557303 86.49129   2.463627   0.2175974 
2738.600000560284 89.7377    2.442046   0.2101945 
2738.800000563264 89.29723   2.456753   0.2038492 
2739.000000566244 85.85506   2.470762   0.2027917 
2739.200000569224 89.51747   2.501132   0.2027917 
2739.400000572205 94.94989   2.567701   0.2038492 
2739.600000575185 97.47034   2.602682   0.2123096 
2739.800000578165 99.43612   2.578752   0.2175974 
2740.000000581145 101.3856   2.525497   0.2165398 
2740.200000584126 101.1572   2.471894   0.2123096 
2740.400000587106 99.36272   2.486165   0.2186549 
2740.600000590086 93.44904   2.491473   0.2387484 
2740.800000593066 80.61841   2.449617   0.2355758 
2741.000000596046 69.04392   2.425426   0.2070219 
2741.200000599027 66.11564   2.424904   0.1943312 
2741.400000602007 65.07156   2.466585   0.1858708 
2741.600000604987 61.49073   2.471546   0.1774104 
2741.800000607967 56.67823   2.478768   0.1626047 
2742.000000610948 51.80047   2.509921   0.1393385 
2742.200000613928 48.61932   2.501654   0.1340508 
2742.400000616908 48.1136    2.524801   0.128763  
2742.600000619888 49.04348   2.592066   0.1107846 
2742.800000622869 48.87218   2.605032   0.09069113
2743.000000625849 47.47737   2.580231   0.07377031
2743.200000628829 45.07112   2.569789   0.06107968
2743.400000631809 43.21952   2.659766   0.04944661
2743.600000634789 44.46752   2.648628   0.03992864
2743.80000063777 46.12334   2.670034   0.03146822
2744.00000064075 45.32398   2.70197    0.03041067
2744.20000064373 44.5083    2.687177   0.03252577
2744.40000064671 44.97324   2.677779   0.03781354
2744.600000649691 43.38266   2.690048   0.04098619
2744.800000652671 40.56857   2.726335   0.03992864
2745.000000655651 40.34018   2.760794   0.03358332
2745.200000658631 42.39569   2.722941   0.03464088
2745.400000661612 45.06296   2.705886   0.04415885
2745.600000664592 46.29464   2.664552   0.04944661
2745.800000667572 46.67801   2.655676   0.05367682
2746.000000670552 46.82483   2.587802   0.06107968
2746.200000673532 46.87377   2.569093   0.06213723
2746.400000676513 48.76614   2.55256    0.06002213
2746.600000679493 50.60958   2.569789   0.07271276
2746.800000682473 50.89507   2.550906   0.09703645
2747.000000685453 54.98162   2.504177   0.1224177 
2747.200000688434 61.22156   2.489558   0.1403961 
2747.400000691414 65.39783   2.437521   0.1583745 
2747.600000694394 65.63438   2.447268   0.1731802 
2747.800000697374 65.90356   2.447093   0.1816406 
2748.000000700355 66.73556   2.407587   0.1932737 
2748.200000703335 64.19879   2.405673   0.1964464 
2748.400000706315 60.56086   2.382439   0.190101  
2748.600000709295 62.77135   2.395492   0.1911586 
2748.800000712276 67.99986   2.414723   0.1932737 
2749.000000715256 68.17114   2.415854   0.2017341 
2749.200000718236 65.4631    2.431256   0.2218276 
2749.400000721216 67.93459   2.461973   0.2387484 
2749.600000724196 76.07507   2.476419   0.2450937 
2749.800000727177 86.34447   2.474504   0.2419211 
2750.000000730157 94.50126   2.491212   0.2355758 
2750.200000733137 95.77372   2.461016   0.2334607 
2750.400000736117 92.19289   2.456056   0.2387484 
2750.600000739098 87.82085   2.45623    0.2461513 
2750.800000742078 82.79627   2.444483   0.2440362 
2751.000000745058 80.56947   2.46937    0.2218276 
2751.200000748038 82.5842    2.470849   0.199619  
2751.400000751019 81.09966   2.436303   0.199619  
2751.600000753999 79.69669   2.395056   0.2133672 
2751.800000756979 81.67879   2.398885   0.2345182 
2752.000000759959 79.06046   2.440741   0.2524966 
2752.200000762939 71.09128   2.463105   0.2387484 
2752.40000076592 68.61977   2.483902   0.2186549 
2752.6000007689 72.36374   2.468848   0.2186549 
2752.80000077188 80.31661   2.463105   0.2218276 
2753.00000077486 85.65115   2.498521   0.2154823 
2753.200000777841 89.10147   2.51227    0.2144247 
2753.400000780821 93.82426   2.49417    0.2165398 
2753.600000783801 95.49639   2.506092   0.230288  
2753.800000786781 93.35931   2.486948   0.2334607 
2754.000000789762 93.22881   2.546642   0.2133672 
2754.200000792742 91.37721   2.5476     0.2017341 
2754.400000795722 91.88293   2.536374   0.2250003 
2754.600000798702 95.90424   2.514097   0.2577844 
2754.800000801682 96.7607    2.501132   0.2620146 
2755.000000804663 92.51101   2.493822   0.2598995 
2755.200000807643 87.54352   2.484685   0.2577844 
2755.400000810623 85.12096   2.448399   0.2503815 
2755.600000813603 88.36736   2.478594   0.249324  
2755.800000816584 93.29406   2.530457   0.230288  
2756.000000819564 88.92203   2.498173   0.2027917 
2756.200000822544 76.8255    2.449617   0.1879859 
2756.400000825524 65.07973   2.467891   0.1678924 
2756.600000828505 57.74677   2.489733   0.1552018 
2756.800000831485 58.4972    2.485381   0.16895   
2757.000000834465 62.75504   2.447615   0.1826982 
2757.200000837445 63.92146   2.445962   0.1668349 
2757.400000840425 61.72728   2.501045   0.1467414 
2757.600000843406 57.42866   2.55021    0.1298206 
2757.800000846386 55.25079   2.576838   0.1107846 
2758.000000849366 61.49073   2.618084   0.1181875 
2758.200000852346 69.49255   2.560913   0.1446263 
2758.400000855327 70.6345    2.519754   0.199619  
2758.600000858307 66.49085   2.453968   0.2292305 
2758.800000861287 60.40588   2.465541   0.209137  
2759.000000864267 57.23289   2.491995   0.1816406 
2759.200000867248 64.85949   2.509921   0.1721227 
2759.400000870228 82.55157   2.521407   0.1826982 
2759.600000873208 95.83082   2.496607   0.2006766 
2759.800000876188 97.38062   2.518275   0.2175974 
2760.000000879169 95.25169   2.521146   0.2239427 
2760.200000882149 96.66281   2.502002   0.2387484 
2760.400000885129 99.4035    2.488688   0.2387484 
2760.600000888109 100.8309   2.45127    0.2186549 
2760.800000891089 100.8962   2.467804   0.2123096 
2761.00000089407 99.35455   2.481466   0.230288  
2761.20000089705 97.5519    2.515751   0.2408635 
2761.40000090003 95.10487   2.514097   0.2429786 
2761.60000090301 93.12276   2.54525    0.2503815 
2761.800000905991 96.18156   2.513053   0.2345182 
2762.000000908971 96.5323    2.543771   0.2154823 
2762.200000911951 93.7019    2.571878   0.2271154 
2762.400000914931 96.19788   2.523757   0.2472088 
2762.600000917912 98.17182   2.482684   0.2429786 
2762.800000920892 95.31694   2.456056   0.2440362 
2763.000000923872 92.79649   2.462147   0.2461513 
2763.200000926852 91.51588   2.467717   0.2366333 
2763.400000929832 90.43919   2.502524   0.2313456 
2763.600000932813 90.00687   2.536461   0.2250003 
2763.800000935793 91.15697   2.527498   0.2144247 
2764.000000938773 90.35761   2.482684   0.2133672 
