~Version
 VERS              .         2.0                           : CWLS LOG ASCII STANDARD - VERSION 2.0
 WRAP              .         NO                            : ONE LINE PER DEPTH STEP
 DLM               .         SPACE                         : DELIMITING CHARACTER(SPACE TAB OR COMMA)
~Well Information
#_______________________________________________________________________________
#
#PARAMETER_NAME    .UNIT     VALUE                         : DESCRIPTION
#_______________________________________________________________________________
STRT               .m        2701                          : First reference value
STOP               .m        2965.80000394583              : Last reference value
STEP               .m        0.2                           : Step increment
NULL               .         -9999                         : Missing value
COMP               .                                       : Company
WELL               .         507                           : Well name
FLD                .                                       : Field
LOC                .                                       : Location
CNTY               .                                       : County
STAT               .                                       : State
CTRY               .                                       : Country
SRVC               .                                       : Service Company
DATE               .                                       : Date
API                .                                       : API number
EREF               .m        139.4                         : 
PROJECT_UPGRADE_TIME .         2014-05-27T11_38_46           : 
Pad                .         Pad5                          : 
X                  .m        230550                        : 
Y                  .m        242075                        : 
group              .         Pad5                          : 
Интер-р            .         Пузин                         : 
Куст               .         5                             : 
Статус             .         Не проверено                  : 
Тип                .         Разведка                      : 
~Parameter Information Block
#_______________________________________________________________________________
#
#PARAMETER_NAME    .UNIT     VALUE                         : DESCRIPTION
#_______________________________________________________________________________
SET                .         LQC                           : 
PROJECT_UPGRADE_TIME .         2014-05-27T11_38_46           : 
TLFamily_GR_NORM   .         Gamma Ray                     : 
TLFamily_MD        .         Measured Depth                : 
TLFamily_RHOB_NORM .         Bulk Density                  : 
TLFamily_TNPH_NORM .         Neutron Porosity              : 
~Curve Information
#_______________________________________________________________________________
#
#LOGNAME           .UNIT     LOG_ID                        : DESCRIPTION
#_______________________________________________________________________________
MD                 .m                                      :  
GR_NORM            .gAPI                                   : Normalised By Techlog 
RHOB_NORM          .g/cm3                                  : Normalized By Techlog 
TNPH_NORM          .v/v                                    : Normalised By Techlog 
~Ascii
# ...
2795.80000141263 100.8799   2.571791   0.2905685 
2796.00000141561 101.5079   2.584408   0.2736477 
2796.200001418591 96.69543   2.591979   0.2567268 
2796.400001421571 93.89767   2.57005    0.2461513 
2796.600001424551 89.93346   2.569702   0.2524966 
2796.800001427531 85.99374   2.56596    0.2630721 
2797.000001430511 86.94807   2.615735   0.2630721 
2797.200001433492 87.79639   2.676213   0.2535542 
2797.400001436472 87.28251   2.655241   0.2482664 
2797.600001439452 84.89256   2.62844    0.2419211 
2797.800001442432 84.05242   2.606859   0.2260578 
2798.000001445413 84.5092    2.588063   0.2197125 
2798.200001448393 84.92519   2.580231   0.2376909 
2798.400001451373 85.6593    2.557781   0.2440362 
2798.600001454353 86.62997   2.563524   0.2725901 
2798.800001457334 84.37053   2.563524   0.2768203 
2799.000001460314 77.52699   2.537766   0.2641297 
2799.200001463294 76.3361    2.540638   0.249324  
2799.400001466274 81.46671   2.594502   0.230288  
2799.600001469254 86.64628   2.599637   0.2271154 
2799.800001472235 89.77032   2.604683   0.2567268 
2800.000001475215 92.80466   2.6039     0.2852807 
2800.200001478195 97.89449   2.617475   0.2873958 
2800.400001481175 99.39534   2.650281   0.2778779 
2800.600001484156 99.04459   2.651412   0.2598995 
2800.800001487136 100.3089   2.609556   0.2440362 
2801.000001490116 95.04777   2.620869   0.2461513 
2801.200001493096 85.25962   2.577882   0.2429786 
2801.400001496077 83.55486   2.56657    0.2345182 
2801.600001499057 87.29882   2.588324   0.2366333 
2801.800001502037 89.2483    2.605554   0.2429786 
2802.000001505017 90.07213   2.621652   0.2429786 
2802.200001507998 88.82414   2.578491   0.2376909 
2802.400001510978 82.69839   2.585713   0.2324031 
2802.600001513958 74.76183   2.586758   0.2228851 
2802.800001516938 71.35229   2.599637   0.2218276 
2803.000001519918 76.18927   2.619129   0.2292305 
2803.200001522899 83.51407   2.624872   0.2440362 
2803.400001525879 90.44734   2.617997   0.2535542 
2803.600001528859 95.96948   2.623131   0.2620146 
2803.800001531839 97.92712   2.654197   0.270475  
2804.00000153482 95.15381   2.624176   0.2715325 
2804.2000015378 90.29236   2.5972     0.2503815 
2804.40000154078 85.52879   2.641927   0.2440362 
2804.60000154376 78.1469    2.685785   0.2281729 
2804.800001546741 69.32941   2.70023    0.1774104 
2805.000001549721 63.43206   2.782462   0.1583745 
2805.200001552701 59.4026    2.778633   0.1573169 
2805.400001555681 56.84137   2.738083   0.1488565 
2805.600001558661 61.2705    2.692398   0.1604896 
2805.800001561642 70.48768   2.612776   0.1805831 
2806.000001564622 76.49107   2.622435   0.199619  
2806.200001567602 78.22031   2.594415   0.2260578 
2806.400001570582 76.70316   2.589107   0.2461513 
2806.600001573563 73.63619   2.575619   0.2281729 
2806.800001576543 75.91194   2.581189   0.2080794 
2807.000001579523 77.25781   2.544815   0.1964464 
2807.200001582503 72.59212   2.575532   0.1879859 
2807.400001585484 64.10091   2.661245   0.1858708 
2807.600001588464 59.65546   2.682826   0.1869284 
2807.800001591444 62.33089   2.77463    0.1816406 
2808.000001594424 68.26088   2.687525   0.1774104 
2808.200001597404 72.33111   2.71015    0.1837557 
2808.400001600385 71.6541    2.730338   0.1911586 
2808.600001603365 68.60346   2.723551   0.178468  
2808.800001606345 65.24286   2.721462   0.16895   
2809.000001609325 67.29838   2.694399   0.1721227 
2809.200001612306 77.83694   2.64915    0.2006766 
2809.400001615286 88.46524   2.571356   0.2260578 
2809.600001618266 91.19776   2.573009   0.2165398 
2809.800001621246 90.0395    2.553952   0.209137  
2810.000001624227 92.29077   2.567092   0.2123096 
2810.200001627207 98.43284   2.571704   0.2112521 
2810.400001630187 104.0855   2.564742   0.2175974 
2810.600001633167 110.7333   2.506962   0.2577844 
2810.800001636147 116.1412   2.488601   0.3043166 
2811.000001639128 117.8052   2.49478    0.2958562 
2811.200001642108 120.5133   2.509747   0.2736477 
2811.400001645088 125.0077   2.513053   0.2694174 
2811.600001648068 126.7532   2.467891   0.2884534 
2811.800001651049 126.5574   2.461626   0.310662  
2812.000001654029 121.9407   2.47346    0.3000865 
2812.200001657009 116.6959   2.520624   0.2863383 
2812.400001659989 114.102    2.495911   0.2778779 
2812.60000166297 112.381    2.53124    0.2715325 
2812.80000166595 111.9568   2.559521   0.270475  
2813.00000166893 110.8638   2.522973   0.2842232 
2813.20000167191 111.2798   2.508876   0.2842232 
2813.400001674891 116.7285   2.512879   0.2810505 
2813.600001677871 119.1103   2.513488   0.2789354 
2813.800001680851 116.1331   2.597026   0.2884534 
2814.000001683831 114.2244   2.631224   0.310662  
2814.200001686811 111.9323   2.604509   0.3053742 
2814.400001689792 107.5113   2.599114   0.2662448 
2814.600001692772 104.7788   2.62522    0.2450937 
2814.800001695752 96.9483    2.610514   0.2408635 
2815.000001698732 88.06556   2.634966   0.2556693 
2815.200001701713 87.91874   2.701013   0.2842232 
2815.400001704693 90.53707   2.648193   0.2842232 
2815.600001707673 94.12605   2.650803   0.2440362 
2815.800001710653 100.3742   2.661506   0.2239427 
2816.000001713634 103.4003   2.631224   0.2429786 
2816.200001716614 101.8098   2.64828    0.2673023 
2816.400001719594 98.04947   2.612341   0.2651872 
2816.600001722574 96.14078   2.59894    0.2556693 
2816.800001725554 96.5323    2.593719   0.2662448 
2817.000001728535 94.57468   2.598505   0.2842232 
2817.200001731515 97.08697   2.578317   0.2799929 
2817.400001734495 104.2731   2.511313   0.2514391 
2817.600001737475 109.1101   2.517578   0.2334607 
2817.800001740456 108.7022   2.516012   0.2334607 
2818.000001743436 111.2635   2.524105   0.2429786 
2818.200001746416 122.8869   2.54934    0.2577844 
2818.400001749396 133.4826   2.533067   0.2673023 
2818.600001752377 144.3963   2.490168   0.2715325 
2818.800001755357 154.5271   2.458319   0.2673023 
2819.000001758337 154.7229   2.489733   0.2736477 
2819.200001761317 147.5775   2.520189   0.2715325 
2819.400001764297 146.8597   2.517578   0.2736477 
2819.600001767278 153.1241   2.525236   0.2821081 
2819.800001770258 151.0768   2.502524   0.2842232 
2820.000001773238 143.1565   2.556127   0.2598995 
2820.200001776218 150.3427   2.575881   0.2588419 
2820.400001779199 176.5749   2.585279   0.2905685 
2820.600001782179 193.1332   2.539159   0.3244102 
2820.800001785159 185.3516   2.467282   0.3275828 
2821.000001788139 168.6302   2.4752     0.2990289 
2821.20000179112 158.0345   2.487731   0.2895109 
2821.4000017941 155.7261   2.487644   0.3096044 
2821.60000179708 159.2499   2.440741   0.3392159 
2821.80000180006 165.2696   2.408805   0.3476763 
2822.000001803041 167.9042   2.403845   0.3455612 
2822.200001806021 173.6058   2.454577   0.3392159 
2822.400001809001 188.3288   2.421249   0.3148922 
2822.600001811981 199.8951   2.376522   0.301144  
2822.800001814961 206.9589   2.386007   0.3000865 
2823.000001817942 217.9461   2.374955   0.2905685 
2823.200001820922 224.2921   2.395405   0.2926836 
2823.400001823902 214.9771   2.377392   0.3085469 
2823.600001826882 203.0681   2.380176   0.3265252 
2823.800001829863 197.1055   2.392794   0.3402734 
2824.000001832843 190.9961   2.397928   0.3117195 
2824.200001835823 183.8834   2.39671    0.2662448 
2824.400001838803 173.2714   2.440741   0.2482664 
2824.600001841784 159.1683   2.479029   0.2408635 
2824.800001844764 148.4829   2.525062   0.2387484 
2825.000001847744 140.3098   2.49652    0.2419211 
2825.200001850724 133.1726   2.507919   0.2450937 
2825.400001853704 135.587    2.506527   0.2482664 
2825.600001856685 147.9119   2.451009   0.2683599 
2825.800001859665 163.9645   2.409589   0.3191224 
2826.000001862645 179.3971   2.410546   0.3571943 
2826.200001865625 198.6145   2.386442   0.352964  
2826.400001868606 214.0472   2.332751   0.3487339 
2826.600001871586 218.4192   2.343629   0.3550792 
2826.800001874566 225.8174   2.365296   0.3466188 
2827.000001877546 249.9207   2.360336   0.3339281 
2827.200001880527 301.8387   2.354941   0.3423885 
