~Version
 VERS              .         2.0                           : CWLS LOG ASCII STANDARD - VERSION 2.0
 WRAP              .         NO                            : ONE LINE PER DEPTH STEP
 DLM               .         SPACE                         : DELIMITING CHARACTER(SPACE TAB OR COMMA)
~Well Information
#_______________________________________________________________________________
#
#PARAMETER_NAME    .UNIT     VALUE                         : DESCRIPTION
#_______________________________________________________________________________
STRT               .m        2701                          : First reference value
STOP               .m        2965.80000394583              : Last reference value
STEP               .m        0.2                           : Step increment
NULL               .         -9999                         : Missing value
COMP               .                                       : Company
WELL               .         507                           : Well name
FLD                .                                       : Field
LOC                .                                       : Location
CNTY               .                                       : County
STAT               .                                       : State
CTRY               .                                       : Country
SRVC               .                                       : Service Company
DATE               .                                       : Date
API                .                                       : API number
EREF               .m        139.4                         : 
PROJECT_UPGRADE_TIME .         2014-05-27T11_38_46           : 
Pad                .         Pad5                          : 
X                  .m        230550                        : 
Y                  .m        242075                        : 
group              .         Pad5                          : 
Интер-р            .         Пузин                         : 
Куст               .         5                             : 
Статус             .         Не проверено                  : 
Тип                .         Разведка                      : 
~Parameter Information Block
#_______________________________________________________________________________
#
#PARAMETER_NAME    .UNIT     VALUE                         : DESCRIPTION
#_______________________________________________________________________________
SET                .         LQC                           : 
PROJECT_UPGRADE_TIME .         2014-05-27T11_38_46           : 
TLFamily_GR_NORM   .         Gamma Ray                     : 
TLFamily_MD        .         Measured Depth                : 
TLFamily_RHOB_NORM .         Bulk Density                  : 
TLFamily_TNPH_NORM .         Neutron Porosity              : 
~Curve Information
#_______________________________________________________________________________
#
#LOGNAME           .UNIT     LOG_ID                        : DESCRIPTION
#_______________________________________________________________________________
MD                 .m                                      :  
GR_NORM            .gAPI                                   : Normalised By Techlog 
RHOB_NORM          .g/cm3                                  : Normalized By Techlog 
TNPH_NORM          .v/v                                    : Normalised By Techlog 
~Ascii
2701.0     57.06976   -9999      0.2662448 
2701.20000000298 57.61626   -9999      0.2503815 
2701.40000000596 59.8349    -9999      0.2482664 
2701.600000008941 60.34879   -9999      0.260957  
2701.800000011921 54.7206    -9999      0.2757628 
2702.000000014901 44.07599   -9999      0.2694174 
2702.200000017881 31.75924   -9999      0.2757628 
2702.400000020862 30.61729   -9999      0.3053742 
2702.600000023842 50.5117    -9999      0.2821081 
2702.800000026822 71.99668   -9999      0.249324  
2703.000000029802 82.24976   -9999      0.2260578 
2703.200000032783 81.08334   -9999      0.2228851 
2703.400000035763 76.27084   -9999      0.1816406 
2703.600000038743 72.7471    -9999      0.1678924 
2703.800000041723 74.55791   -9999      0.1837557 
2704.000000044703 78.85654   -9999      0.2080794 
2704.200000047684 81.40146   2.305167   0.2080794 
2704.400000050664 83.91375   2.477115   0.2006766 
2704.600000053644 86.49129   2.503655   0.2186549 
2704.800000056624 85.65115   2.504961   0.2440362 
2705.000000059605 85.08833   2.528281   0.2345182 
2705.200000062585 87.21725   2.548644   0.2186549 
2705.400000065565 89.71323   2.530544   0.2250003 
2705.600000068545 91.71165   2.565786   0.2355758 
2705.800000071526 94.0608    2.564655   0.2376909 
2706.000000074506 96.04289   2.559869   0.239806  
2706.200000077486 95.85529   2.540812   0.230288  
2706.400000080466 93.53061   2.57649    0.2059643 
2706.600000083447 89.38696   2.5543     0.190101  
2706.800000086427 84.71311   2.489558   0.2017341 
2707.000000089407 88.92203   2.486687   0.2218276 
2707.200000092387 94.02002   2.502524   0.2250003 
2707.400000095367 94.67256   2.512618   0.2186549 
2707.600000098348 91.51588   2.554909   0.2154823 
2707.800000101328 89.81927   2.52454    0.2144247 
2708.000000104308 89.94978   2.530718   0.2112521 
2708.200000107288 90.96122   2.583451   0.2101945 
2708.400000110269 89.45221   2.560652   0.2027917 
2708.600000113249 84.72942   2.554126   0.1943312 
2708.800000116229 83.51407   2.528891   0.2006766 
2709.000000119209 84.85178   2.517317   0.2080794 
2709.20000012219 84.61523   2.524366   0.209137  
2709.40000012517 85.67561   2.516969   0.2006766 
2709.60000012815 89.46852   2.508876   0.1975039 
2709.80000013113 90.27605   2.503568   0.2112521 
2710.00000013411 89.08516   2.521581   0.2250003 
2710.200000137091 92.25815   2.519493   0.2059643 
2710.400000140071 94.80307   2.535591   0.178468  
2710.600000143051 93.62033   2.545859   0.1858708 
2710.800000146031 91.37721   2.529065   0.2186549 
2711.000000149012 89.35433   2.536809   0.2419211 
2711.200000151992 86.14056   2.53446    0.2450937 
2711.400000154972 84.13398   2.531936   0.2366333 
2711.600000157952 84.71311   2.510008   0.2260578 
2711.800000160933 85.14543   2.474765   0.2197125 
2712.000000163913 83.38356   2.47024    0.2228851 
2712.200000166893 80.33292   2.477811   0.2250003 
2712.400000169873 77.36385   2.454664   0.2154823 
2712.600000172853 74.59054   2.459015   0.2027917 
2712.800000175834 73.81565   2.475984   0.2049068 
2713.000000178814 77.5433    2.48016    0.2123096 
2713.200000181794 84.74575   2.517317   0.2250003 
2713.400000184774 86.92361   2.511139   0.2366333 
2713.600000187755 80.19425   2.50557    0.2334607 
2713.800000190735 73.92168   2.490951   0.2387484 
2714.000000193715 75.05547   2.472416   0.2450937 
2714.200000196695 78.40792   2.506179   0.2313456 
2714.400000199676 78.68525   2.537331   0.1858708 
2714.600000202656 69.01945   2.529848   0.1499141 
2714.800000205636 60.3651    2.554387   0.1234753 
2715.000000208616 57.75493   2.597635   0.1128997 
2715.200000211596 57.16764   2.590065   0.1118422 
2715.400000214577 56.36827   2.638621   0.1266479 
2715.600000217557 58.99476   2.611558   0.147799  
2715.800000220537 66.08301   2.542291   0.1837557 
2716.000000223517 70.23482   2.508093   0.1953888 
2716.200000226498 67.43703   2.487644   0.1964464 
2716.400000229478 65.91987   2.48164    0.2154823 
2716.600000232458 72.99996   2.460755   0.2387484 
2716.800000235438 84.73759   2.501132   0.2366333 
2717.000000238419 92.81281   2.522973   0.2250003 
2717.200000241399 91.80137   2.521494   0.2133672 
2717.400000244379 89.31355   2.532806   0.2144247 
2717.600000247359 91.05094   2.569267   0.2260578 
2717.80000025034 90.81439   2.563959   0.2334607 
2718.00000025332 88.10634   2.546294   0.2334607 
2718.2000002563 88.13081   2.543684   0.2419211 
2718.40000025928 88.57128   2.551428   0.249324  
2718.60000026226 85.34119   2.552037   0.2429786 
2718.800000265241 83.10623   2.555518   0.2355758 
2719.000000268221 87.46195   2.547338   0.2387484 
2719.200000271201 91.77689   2.545424   0.2472088 
2719.400000274181 92.5518    2.55343    0.2450937 
2719.600000277162 91.50772   2.560652   0.2324031 
2719.800000280142 89.15041   2.536026   0.2144247 
2720.000000283122 86.35263   2.518709   0.2080794 
2720.200000286102 88.21238   2.512531   0.2165398 
2720.400000289083 92.65783   2.511748   0.2165398 
2720.600000292063 94.50126   2.549427   0.2144247 
2720.800000295043 95.30063   2.534895   0.2154823 
2721.000000298023 97.609     2.530892   0.2112521 
2721.200000301003 98.34312   2.486078   0.2059643 
2721.400000303984 95.9287    2.486948   0.2070219 
2721.600000306964 92.3234    2.503307   0.2038492 
2721.800000309944 86.28738   2.519406   0.1953888 
2722.000000312924 81.16492   2.513576   0.1858708 
2722.200000315905 80.52052   2.53446    0.1869284 
2722.400000318885 82.97572   2.520276   0.1953888 
2722.600000321865 85.82244   2.510965   0.2154823 
2722.800000324845 85.97742   2.484163   0.2271154 
2723.000000327826 86.1895    2.484076   0.2218276 
2723.200000330806 89.68876   2.510617   0.2366333 
2723.400000333786 94.25656   2.519928   0.2450937 
2723.600000336766 96.98908   2.512966   0.2101945 
2723.800000339746 94.77859   2.47929    0.190101  
2724.000000342727 92.4947    2.458406   0.199619  
2724.200000345707 94.21577   2.467282   0.2228851 
2724.400000348687 92.77203   2.4933     0.2345182 
2724.600000351667 88.02477   2.527237   0.2175974 
2724.800000354648 87.24988   2.545076   0.2112521 
2725.000000357628 87.06227   2.513749   0.2239427 
2725.200000360608 86.80941   2.535591   0.2218276 
2725.400000363588 88.44077   2.529152   0.2133672 
2725.600000366569 88.87308   2.509398   0.2218276 
2725.800000369549 86.88283   2.482336   0.2324031 
2726.000000372529 86.64628   2.464758   0.2345182 
2726.200000375509 89.63982   2.479899   0.2292305 
2726.400000378489 92.23367   2.492865   0.2112521 
2726.60000038147 92.1358    2.509485   0.1953888 
2726.80000038445 94.0608    2.460929   0.2017341 
2727.00000038743 95.85529   2.465628   0.209137  
2727.20000039041 96.97277   2.475113   0.2123096 
2727.400000393391 97.08697   2.543597   0.2228851 
2727.600000396371 94.44416   2.554648   0.2197125 
2727.800000399351 90.77361   2.549601   0.2080794 
2728.000000402331 88.39999   2.553865   0.2197125 
2728.200000405312 87.9432    2.516534   0.2345182 
2728.400000408292 87.8127    2.524801   0.2366333 
2728.600000411272 87.91874   2.536287   0.2313456 
2728.800000414252 89.20751   2.528804   0.2271154 
2729.000000417233 92.02975   2.524453   0.2123096 
2729.200000420213 91.40169   2.51897    0.1922161 
2729.400000423193 89.58272   2.506875   0.1922161 
2729.600000426173 90.31683   2.517143   0.2006766 
2729.800000429153 90.19447   2.524279   0.2027917 
2730.000000432134 89.86005   2.506092   0.2049068 
2730.200000435114 87.48643   2.457797   0.2080794 
2730.400000438094 80.92837   2.492169   0.2123096 
2730.600000441074 78.12243   2.488775   0.2154823 
2730.800000444055 81.37699   2.492952   0.2186549 
2731.000000447035 85.13727   2.492343   0.2313456 
2731.200000450015 83.60379   2.509138   0.230288  
2731.400000452995 80.01481   2.512096   0.2250003 
2731.600000455976 83.14702   2.492343   0.2239427 
2731.800000458956 88.1716    2.475984   0.2260578 
2732.000000461936 88.51418   2.491473   0.2250003 
2732.200000464916 85.21884   2.474678   0.2186549 
2732.400000467896 81.81746   2.459189   0.2165398 
