~Version
 VERS              .         2.0                           : CWLS LOG ASCII STANDARD - VERSION 2.0
 WRAP              .         NO                            : ONE LINE PER DEPTH STEP
 DLM               .         SPACE                         : DELIMITING CHARACTER(SPACE TAB OR COMMA)
~Well Information
#_______________________________________________________________________________
#
#PARAMETER_NAME    .UNIT     VALUE                         : DESCRIPTION
#_______________________________________________________________________________
STRT               .m        2390                          : First reference value
STOP               .m        2561.80000256002              : Last reference value
STEP               .m        0.2                           : Step increment
NULL               .         -9999                         : Missing value
COMP               .                                       : Company
WELL               .         600                           : Well name
FLD                .                                       : Field
LOC                .                                       : Location
CNTY               .                                       : County
STAT               .                                       : State
CTRY               .                                       : Country
SRVC               .                                       : Service Company
DATE               .                                       : Date
API                .                                       : API number
Cartographic_reference_system .         GCS_WGS_1984                  : GEOGCS["GCS_WGS_1984",DATUM["D_WGS_1984",SPHEROID["WGS_1984",6378137.0,298.257223563]],PRIMEM["Greenwich",0.0],UNIT["Degree",0.0174532925199433],AUTHORITY["EPSG",4326]]
EREF               .m        134                           : 
HZCS               .GCS_WGS_1984 World_Mercator                : PROJCS["World_Mercator",GEOGCS["GCS_WGS_1984",DATUM["D_WGS_1984",SPHEROID["WGS_1984",6378137.0,298.257223563]],PRIMEM["Greenwich",0.0],UNIT["Degree",0.0174532925199433]],PROJECTION["Mercator"],PARAMETER["False_Easting",0.0],PARAMETER["False_Northing",0.0],PARAMETER["Central_Meridian",0.0],PARAMETER["Standard_Parallel_1",0.0],UNIT["Meter",1.0],AUTHORITY["ESRI",54004]]
LATI               .dega     2.1305856004                  : GCS_WGS_1984
LONG               .dega     2.0279108213                  : GCS_WGS_1984
PROJECT_UPGRADE_TIME .         2014-05-27T11_38_46           : 
Pad                .         Pad6                          : 
X                  .m        225746                        : 
Y                  .m        235643                        : 
group              .         Pad6                          : 
Интер-р            .         Ярышев                        : 
Куст               .         6                             : 
Статус             .         Не проверено                  : 
Тип                .         Разобраться                   : 
~Parameter Information Block
#_______________________________________________________________________________
#
#PARAMETER_NAME    .UNIT     VALUE                         : DESCRIPTION
#_______________________________________________________________________________
SET                .         LQC                           : 
PROJECT_UPGRADE_TIME .         2014-05-27T11_38_46           : 
TLFamily_GR_NORM   .         Gamma Ray                     : 
TLFamily_MD        .         Measured Depth                : 
TLFamily_RHOB_NORM .         Bulk Density                  : 
TLFamily_TNPH_NORM .         Neutron Porosity              : 
~Curve Information
#_______________________________________________________________________________
#
#LOGNAME           .UNIT     LOG_ID                        : DESCRIPTION
#_______________________________________________________________________________
MD                 .m                                      :  
GR_NORM            .gAPI                                   : Normalised By Techlog 
RHOB_NORM          .g/cm3                                  : Normalized By Techlog 
TNPH_NORM          .v/v                                    : Normalised By Techlog 
~Ascii
# ...
2516.400001883507 57.50624   2.593483   0.1950734 
2516.600001886487 55.39136   2.72847    0.193886  
2516.800001889467 55.01244   2.69108    0.1891363 
2517.000001892447 57.54149   2.635676   0.1950734 
2517.200001895428 63.01375   2.556974   0.2128848 
2517.400001898408 66.07152   2.519264   0.2247591 
2517.600001901388 70.89169   2.505413   0.2318836 
2517.800001904368 79.00756   2.519905   0.241383  
2518.000001907349 90.56892   2.504452   0.2508824 
2518.200001910329 95.08949   2.559936   0.274631  
2518.400001913309 96.22623   2.592762   0.299567  
2518.600001916289 99.60124   2.587638   0.3256904 
2518.80000191927 99.44262   2.595324   0.3304401 
2519.00000192225 93.18609   2.598767   0.2936298 
2519.20000192523 88.79771   2.540401   0.2615693 
2519.40000192821 86.93837   2.588359   0.2449453 
2519.60000193119 85.75756   2.6151     0.2461327 
2519.800001934171 84.36526   2.569304   0.2544447 
2520.000001937151 81.13126   2.562899   0.266319  
2520.200001940131 77.74744   2.573787   0.2793807 
2520.400001943111 80.30293   2.554892   0.2841304 
2520.600001946092 84.37407   2.474188   0.2900676 
2520.800001949072 86.11886   2.389321   0.3150035 
2521.000001952052 87.74027   2.226072   0.355376  
2521.200001955032 86.33034   2.103975   0.3648754 
2521.400001958013 86.5154    1.998612   0.3696252 
2521.600001960993 87.01768   2.056338   0.3458766 
2521.800001963973 83.18446   2.427111   0.3126287 
2522.000001966953 77.16585   2.547366   0.2770059 
2522.200001969934 73.37669   2.529672   0.2532573 
2522.400001972914 73.22688   2.567142   0.2366333 
2522.600001975894 73.64104   2.584035   0.2378208 
2522.800001978874 76.53139   2.582594   0.2473202 
2523.000001981854 81.06956   2.503572   0.2437579 
2523.200001984835 81.52779   2.491562   0.2378208 
2523.400001987815 82.63811   2.503972   0.2354459 
2523.600001990795 86.6652    2.483796   0.2259465 
2523.800001993775 90.52486   2.51374    0.2378208 
2524.000001996756 92.3842    2.537038   0.2710687 
2524.200001999736 86.69164   2.584356   0.3019418 
2524.400002002716 82.54118   2.545765   0.3090664 
2524.600002005696 81.59829   2.548007   0.2971921 
2524.800002008677 83.5105    2.586838   0.282943  
2525.000002011657 84.22427   2.609976   0.2758184 
2525.200002014637 84.15378   2.556334   0.2876927 
2525.400002017617 85.50201   2.544484   0.3043167 
2525.600002020597 85.32578   2.543283   0.3031293 
2525.800002023578 82.03008   2.570985   0.2805681 
2526.000002026558 78.12636   2.671545   0.2686939 
2526.200002029538 75.33295   2.594123   0.2758184 
2526.400002032518 75.63255   2.595164   0.2971921 
2526.600002035499 76.52257   2.571946   0.3007544 
2526.800002038479 77.65051   2.531274   0.3031293 
2527.000002041459 81.43967   2.535517   0.3126287 
2527.200002044439 88.51572   2.567062   0.3292526 
2527.40000204742 91.93479   2.523908   0.3304401 
2527.6000020504 93.49451   2.519665   0.3280652 
2527.80000205338 93.15966   2.470025   0.3138161 
2528.00000205636 89.21188   2.524148   0.299567  
2528.20000205934 82.10058   2.564019   0.2865053 
2528.400002062321 76.70762   2.555293   0.2793807 
2528.600002065301 71.86102   2.55169    0.2805681 
2528.800002068281 71.02387   2.570184   0.282943  
2529.000002071261 74.00233   2.531914   0.274631  
2529.200002074242 82.01246   2.531034   0.2651316 
2529.400002077222 88.74483   2.546165   0.2710687 
2529.600002080202 92.54281   2.569224   0.2853178 
2529.800002083182 95.84732   2.586037   0.3102538 
2530.000002086163 99.04609   2.556734   0.3233155 
2530.200002089143 100.0242   2.532715   0.3114412 
2530.400002092123 98.94034   2.500369   0.3114412 
2530.600002095103 99.24876   2.528311   0.3173784 
2530.800002098083 99.43382   2.554572   0.3055041 
2531.000002101064 98.0327    2.565781   0.3043167 
2531.200002104044 87.11462   2.548487   0.299567  
2531.400002107024 74.87473   2.543844   0.2770059 
2531.600002110004 62.62602   2.532715   0.2544447 
2531.800002112985 56.89822   2.521666   0.233071  
2532.000002115965 55.63809   2.53976    0.2188219 
2532.200002118945 57.87634   2.542002   0.2105099 
2532.400002121925 60.79312   2.531113   0.2116974 
2532.600002124906 64.48535   2.537198   0.2116974 
2532.800002127886 66.57381   2.571786   0.2164471 
2533.000002130866 66.35351   2.543603   0.2295088 
2533.200002133846 66.94391   2.509977   0.2473202 
2533.400002136827 67.97492   2.505573   0.258007  
2533.600002139807 68.15997   2.449849   0.2627567 
2533.800002142787 68.36265   2.412139   0.2639441 
2534.000002145767 69.8695    2.375951   0.2627567 
2534.200002148747 68.81206   2.357376   0.2520699 
2534.400002151728 64.89953   2.270587   0.2627567 
2534.600002154708 62.79345   2.156417   0.2888801 
2534.800002157688 57.45337   2.030797   0.3209406 
2535.000002160668 47.26668   1.891727   0.3838743 
2535.200002163649 28.55877   1.786364   0.444433  
2535.400002166629 8.449752   1.709343   0.4717439 
2535.600002169609 1.400137   1.677397   0.4848056 
2535.800002172589 1.638063   1.635604   0.4741187 
2536.00000217557 4.449096   1.633443   0.4741187 
2536.20000217855 6.035258   1.635844   0.4836181 
2536.40000218153 9.251643   1.636565   0.4456204 
2536.60000218451 15.97521   1.646333   0.4194971 
2536.80000218749 22.65472   1.661305   0.3696252 
2537.000002190471 32.53299   1.711905   0.3007544 
2537.200002193451 45.11655   2.038563   0.274631  
2537.400002196431 50.55356   2.359698   0.2710687 
2537.600002199411 48.64135   2.277873   0.2758184 
2537.800002202392 40.63123   2.134319   0.3185658 
2538.000002205372 38.04931   2.050493   0.3423143 
2538.200002208352 41.15995   2.080677   0.2865053 
2538.400002211332 52.95924   2.41278    0.233071  
2538.600002214313 73.27094   2.577871   0.2045728 
2538.800002217293 77.99417   2.507495   0.1950734 
2539.000002220273 79.43935   2.504612   0.2057602 
2539.200002223253 83.51932   2.531113   0.2259465 
2539.400002226233 87.60809   2.5392     0.2342585 
2539.600002229214 87.69621   2.557134   0.2271339 
2539.800002232194 86.25985   2.559216   0.2306962 
2540.000002235174 90.04901   2.610616   0.2473202 
2540.200002238154 91.38844   2.626389   0.2556322 
2540.400002241135 88.46285   2.669383   0.2651316 
2540.600002244115 78.20567   2.58964    0.2758184 
2540.800002247095 66.32707   2.651929   0.2686939 
2541.000002250075 60.14103   2.646325   0.2603819 
2541.200002253056 59.11003   2.614059   0.249695  
2541.400002256036 60.29965   2.589079   0.2235716 
2541.600002259016 57.40931   2.555853   0.2045728 
2541.800002261996 54.42204   2.498368   0.1950734 
2542.000002264977 55.29443   2.499568   0.2069477 
2542.200002267957 56.47523   2.488039   0.2200094 
2542.400002270937 57.88516   2.459457   0.2295088 
2542.600002273917 59.52419   2.429513   0.2449453 
2542.800002276897 64.67922   2.420306   0.2603819 
2543.000002279878 70.58327   2.457055   0.2722561 
2543.200002282858 72.65409   2.478112   0.2770059 
2543.400002285838 78.50527   2.499168   0.2710687 
2543.600002288818 87.89007   2.447207   0.2758184 
2543.800002291799 91.55587   2.46314    0.2924424 
2544.000002294779 93.62669   2.4384     0.3256904 
2544.200002297759 91.59112   2.442243   0.3055041 
2544.400002300739 86.67401   2.446246   0.2722561 
2544.60000230372 81.73048   2.487399   0.266319  
2544.8000023067 80.05619   2.47563    0.2722561 
2545.00000230968 86.0748    2.468744   0.2865053 
2545.20000231266 96.68446   2.505253   0.2853178 
2545.40000231564 96.76377   2.557775   0.2781933 
2545.600002318621 92.94817   2.552971   0.2793807 
2545.800002321601 87.58165   2.587318   0.2770059 
2546.000002324581 81.28106   2.605572   0.2698813 
2546.200002327561 72.13419   2.560256   0.2556322 
2546.400002330542 67.32283   2.543043   0.2390082 
2546.600002333522 64.80259   2.531834   0.233071  
2546.800002336502 62.69652   2.532715   0.2235716 
2547.000002339482 61.24253   2.522226   0.2211968 
2547.200002342463 57.05683   2.542002   0.2105099 
2547.400002345443 51.24971   2.626549   0.1879488 
2547.600002348423 50.15702   2.747365   0.1796368 
2547.800002351403 53.27647   2.751688   0.1808243 
