~Version
 VERS              .         2.0                           : CWLS LOG ASCII STANDARD - VERSION 2.0
 WRAP              .         NO                            : ONE LINE PER DEPTH STEP
 DLM               .         SPACE                         : DELIMITING CHARACTER(SPACE TAB OR COMMA)
~Well Information
#_______________________________________________________________________________
#
#PARAMETER_NAME    .UNIT     VALUE                         : DESCRIPTION
#_______________________________________________________________________________
STRT               .m        2390                          : First reference value
STOP               .m        2561.80000256002              : Last reference value
STEP               .m        0.2                           : Step increment
NULL               .         -9999                         : Missing value
COMP               .                                       : Company
WELL               .         600                           : Well name
FLD                .                                       : Field
LOC                .                                       : Location
CNTY               .                                       : County
STAT               .                                       : State
CTRY               .                                       : Country
SRVC               .                                       : Service Company
DATE               .                                       : Date
API                .                                       : API number
Cartographic_reference_system .         GCS_WGS_1984                  : GEOGCS["GCS_WGS_1984",DATUM["D_WGS_1984",SPHEROID["WGS_1984",6378137.0,298.257223563]],PRIMEM["Greenwich",0.0],UNIT["Degree",0.0174532925199433],AUTHORITY["EPSG",4326]]
EREF               .m        134                           : 
HZCS               .GCS_WGS_1984 World_Mercator                : PROJCS["World_Mercator",GEOGCS["GCS_WGS_1984",DATUM["D_WGS_1984",SPHEROID["WGS_1984",6378137.0,298.257223563]],PRIMEM["Greenwich",0.0],UNIT["Degree",0.0174532925199433]],PROJECTION["Mercator"],PARAMETER["False_Easting",0.0],PARAMETER["False_Northing",0.0],PARAMETER["Central_Meridian",0.0],PARAMETER["Standard_Parallel_1",0.0],UNIT["Meter",1.0],AUTHORITY["ESRI",54004]]
LATI               .dega     2.1305856004                  : GCS_WGS_1984
LONG               .dega     2.0279108213                  : GCS_WGS_1984
PROJECT_UPGRADE_TIME .         2014-05-27T11_38_46           : 
Pad                .         Pad6                          : 
X                  .m        225746                        : 
Y                  .m        235643                        : 
group              .         Pad6                          : 
Интер-р            .         Ярышев                        : 
Куст               .         6                             : 
Статус             .         Не проверено                  : 
Тип                .         Разобраться                   : 
~Parameter Information Block
#_______________________________________________________________________________
#
#PARAMETER_NAME    .UNIT     VALUE                         : DESCRIPTION
#_______________________________________________________________________________
SET                .         LQC                           : 
PROJECT_UPGRADE_TIME .         2014-05-27T11_38_46           : 
TLFamily_GR_NORM   .         Gamma Ray                     : 
TLFamily_MD        .         Measured Depth                : 
TLFamily_RHOB_NORM .         Bulk Density                  : 
TLFamily_TNPH_NORM .         Neutron Porosity              : 
~Curve Information
#_______________________________________________________________________________
#
#LOGNAME           .UNIT     LOG_ID                        : DESCRIPTION
#_______________________________________________________________________________
MD                 .m                                      :  
GR_NORM            .gAPI                                   : Normalised By Techlog 
RHOB_NORM          .g/cm3                                  : Normalized By Techlog 
TNPH_NORM          .v/v                                    : Normalised By Techlog 
~Ascii
# ...
2421.600000470877 93.45045   2.562338   0.2615693 
2421.800000473857 84.63844   2.546165   0.2722561 
2422.000000476837 72.40736   2.506214   0.2734436 
2422.200000479817 63.78039   2.443044   0.258007  
2422.400000482798 56.76603   2.436478   0.2378208 
2422.600000485778 55.69097   2.447047   0.2283213 
2422.800000488758 54.88907   2.510537   0.2140722 
2423.000000491738 49.95435   2.548887   0.1986357 
2423.200000494719 44.89625   2.676829   0.1867614 
2423.400000497699 40.85153   2.666981   0.1831991 
2423.600000500679 40.5343    2.662257   0.1820117 
2423.800000503659 41.96185   2.638478   0.1867614 
2424.000000506639 44.65832   2.608615   0.1998231 
2424.20000050962 50.2187    2.597886   0.2045728 
2424.4000005126 57.42693   2.494284   0.2140722 
2424.60000051558 62.26473   2.433356   0.2283213 
2424.80000051856 64.77615   2.440242   0.2425705 
2425.000000521541 65.05814   2.433116   0.2532573 
2425.200000524521 66.65311   2.415021   0.2556322 
2425.400000527501 71.80814   2.42527    0.2508824 
2425.600000530481 72.12537   2.430714   0.2532573 
2425.800000533462 63.33098   2.429753   0.249695  
2426.000000536442 56.91584   2.432075   0.2401956 
2426.200000539422 63.99188   2.443844   0.2295088 
2426.400000542402 80.89333   2.431995   0.2366333 
2426.600000545382 92.28727   2.459056   0.2485076 
2426.800000548363 96.91357   2.465061   0.2556322 
2427.000000551343 97.33656   2.46362    0.2675064 
2427.200000554323 98.60548   2.542002   0.2888801 
2427.400000557303 99.80392   2.524788   0.2936298 
2427.600000560284 100.3238   2.557214   0.2924424 
2427.800000563264 103.2935   2.52735    0.282943  
2428.000000566244 103.0203   2.60293    0.2675064 
2428.200000569224 104.5183   2.574348   0.2781933 
2428.400000572205 102.8264   2.548567   0.2781933 
2428.600000575185 102.5356   2.591241   0.2758184 
2428.800000578165 104.5007   2.604692   0.2865053 
2429.000000581145 105.6022   2.578031   0.291255  
2429.200000584126 107.5673   2.567863   0.2971921 
2429.400000587106 108.9684   2.540961   0.3019418 
2429.600000590086 108.3428   2.621665   0.3066915 
2429.800000593066 108.0079   2.572266   0.3066915 
2430.000000596046 108.986    2.575789   0.3126287 
2430.200000599027 112.7047   2.583475   0.3245029 
2430.400000602007 115.0046   2.596685   0.3411269 
2430.600000604987 116.582    2.590921   0.3411269 
2430.800000607967 116.4322   2.558415   0.3233155 
2431.000000610948 113.2863   2.535917   0.3078789 
2431.200000613928 106.5804   2.565221   0.2888801 
2431.400000616908 101.8395   2.545365   0.2817556 
2431.600000619888 98.66717   2.555613   0.2924424 
2431.800000622869 97.55685   2.548167   0.299567  
2432.000000625849 95.60058   2.588759   0.2924424 
2432.200000628829 93.83818   2.562819   0.2888801 
2432.400000631809 95.30098   2.591241   0.2841304 
2432.600000634789 102.9851   2.569544   0.2900676 
2432.80000063777 111.2067   2.517022   0.3019418 
2433.00000064075 120.0892   2.569944   0.3066915 
2433.20000064373 132.752    2.581553   0.2983795 
2433.40000064671 141.4231   2.541041   0.2948173 
2433.600000649691 148.1907   2.540641   0.2936298 
2433.800000652671 146.4635   2.524548   0.2876927 
2434.000000655651 142.7977   2.516382   0.2960047 
2434.200000658631 142.7184   2.515901   0.3043167 
2434.400000661612 144.6659   2.515981   0.3150035 
2434.600000664592 146.3842   2.508536   0.3351898 
2434.800000667572 147.4769   2.524148   0.3411269 
2435.000000670552 151.7772   2.571065   0.3387521 
2435.200000673532 152.9492   2.542403   0.3185658 
2435.400000676513 140.4449   2.554252   0.3066915 
2435.600000679493 124.2396   2.599888   0.3043167 
2435.800000682473 116.6084   2.594284   0.3090664 
2436.000000685453 115.5774   2.570985   0.2948173 
2436.200000688434 118.7498   2.603331   0.2734436 
2436.400000691414 120.706    2.637838   0.266319  
2436.600000694394 125.0063   2.635676   0.2686939 
2436.800000697374 133.3513   2.599568   0.2853178 
2437.000000700355 143.159    2.588279   0.2853178 
2437.200000703335 162.9244   2.558495   0.2805681 
2437.400000706315 184.2318   2.483956   0.2971921 
2437.600000709295 193.6166   2.452011   0.3078789 
2437.800000712276 184.2318   2.419905   0.3209406 
2438.000000715256 173.9218   2.418864   0.3292526 
2438.200000718236 180.4339   2.432475   0.3185658 
2438.400000721216 186.5494   2.42615    0.3173784 
2438.600000724196 193.2289   2.393885   0.3256904 
2438.800000727177 198.8157   2.38772    0.3375646 
2439.000000730157 204.3761   2.413901   0.3411269 
2439.200000733137 202.1378   2.380594   0.3351898 
2439.400000736117 195.1147   2.378032   0.3316275 
2439.600000739098 187.6597   2.406535   0.3399395 
2439.800000742078 180.9626   2.397327   0.3340023 
2440.000000745058 178.5833   2.404693   0.3161909 
2440.200000748038 186.5053   2.385078   0.3280652 
2440.400000751019 193.6254   2.410298   0.3446892 
2440.600000753999 199.3709   2.401331   0.3660629 
2440.800000756979 207.2841   2.405254   0.3660629 
2441.000000759959 220.1496   2.36258    0.372     
2441.200000762939 225.5073   2.327272   0.3696252 
2441.40000076592 226.8203   2.326952   0.3494389 
2441.6000007689 231.9753   2.315182   0.3375646 
2441.80000077188 233.9404   2.319746   0.3292526 
2442.00000077486 234.7071   2.343285   0.3126287 
2442.200000777841 231.4731   2.32503    0.3126287 
2442.400000780821 224.4411   2.334958   0.3411269 
2442.600000783801 216.9509   2.356655   0.3458766 
2442.800000786781 207.1078   2.336639   0.3280652 
2443.000000789762 199.1241   2.405494   0.3328149 
2443.200000792742 190.5148   2.409497   0.3423143 
2443.400000795722 179.6936   2.452731   0.3102538 
2443.600000798702 167.8856   2.480353   0.2876927 
2443.800000801682 165.8147   2.465141   0.299567  
2444.000000804663 169.1545   2.455934   0.3245029 
2444.200000807643 176.8826   2.440722   0.3351898 
2444.400000810623 190.2857   2.455053   0.3411269 
2444.600000813603 213.3732   2.430554   0.3399395 
2444.800000816584 227.8513   2.363941   0.3209406 
2445.000000819564 238.884    2.333597   0.3292526 
2445.200000822544 252.0491   2.336159   0.3340023 
2445.400000825524 264.6944   2.317264   0.3363772 
2445.600000828505 290.1523   2.321267   0.3375646 
2445.800000831485 318.6239   2.29925    0.3351898 
2446.000000834465 351.1667   2.269466   0.3435017 
2446.200000837445 384.899    2.244647   0.3494389 
2446.400000840425 411.1501   2.254735   0.3625006 
2446.600000843406 454.7343   2.253854   0.3672503 
2446.800000846386 483.8668   2.277313   0.3435017 
2447.000000849366 457.0518   2.294526   0.3506263 
2447.200000852346 381.4976   2.31214    0.3755623 
2447.400000855327 360.8951   2.252973   0.3767497 
2447.600000858307 338.0808   2.216784   0.3743749 
2447.800000861287 327.7972   2.203494   0.3767497 
2448.000000864267 328.7841   2.242004   0.3921863 
2448.200000867248 329.0926   2.217985   0.4088102 
2448.400000870228 323.0123   2.178514   0.4135599 
2448.600000873208 311.6183   2.194527   0.4147474 
2448.800000876188 297.2372   2.220628   0.4123725 
2449.000000879169 274.6784   2.247929   0.4218719 
2449.200000882149 252.3663   2.291804   0.405248  
2449.400000885129 248.2159   2.271388   0.3601257 
2449.600000888109 253.318    2.243205   0.3375646 
2449.800000891089 259.9976   2.220868   0.3185658 
2450.00000089407 267.7874   2.230395   0.3268778 
2450.20000089705 271.9554   2.234719   0.3518137 
2450.40000090003 269.1268   2.231436   0.3613132 
2450.60000090301 265.2936   2.219907   0.3601257 
2450.800000905991 271.1095   2.205576   0.3530012 
2451.000000908971 273.383    2.21142    0.3423143 
2451.200000911951 263.4783   2.218466   0.3375646 
2451.400000914931 254.6839   2.207978   0.3482515 
2451.600000917912 248.5507   2.215343   0.3435017 
2451.800000920892 246.4975   2.21062    0.3482515 
2452.000000923872 243.9156   2.207337   0.3767497 
2452.200000926852 237.6591   2.192445   0.3933737 
2452.400000929832 233.9668   2.187001   0.3767497 
2452.600000932813 231.3232   2.204855   0.3731874 
2452.800000935793 226.8996   2.204695   0.3791246 
2453.000000938773 216.4133   2.191484   0.388624  
