~Version
 VERS              .         2.0                           : CWLS LOG ASCII STANDARD - VERSION 2.0
 WRAP              .         NO                            : ONE LINE PER DEPTH STEP
 DLM               .         SPACE                         : DELIMITING CHARACTER(SPACE TAB OR COMMA)
~Well Information
#_______________________________________________________________________________
#
#PARAMETER_NAME    .UNIT     VALUE                         : DESCRIPTION
#_______________________________________________________________________________
STRT               .m        2390                          : First reference value
STOP               .m        2561.80000256002              : Last reference value
STEP               .m        0.2                           : Step increment
NULL               .         -9999                         : Missing value
COMP               .                                       : Company
WELL               .         600                           : Well name
FLD                .                                       : Field
LOC                .                                       : Location
CNTY               .                                       : County
STAT               .                                       : State
CTRY               .                                       : Country
SRVC               .                                       : Service Company
DATE               .                                       : Date
API                .                                       : API number
Cartographic_reference_system .         GCS_WGS_1984                  : GEOGCS["GCS_WGS_1984",DATUM["D_WGS_1984",SPHEROID["WGS_1984",6378137.0,298.257223563]],PRIMEM["Greenwich",0.0],UNIT["Degree",0.0174532925199433],AUTHORITY["EPSG",4326]]
EREF               .m        134                           : 
HZCS               .GCS_WGS_1984 World_Mercator                : PROJCS["World_Mercator",GEOGCS["GCS_WGS_1984",DATUM["D_WGS_1984",SPHEROID["WGS_1984",6378137.0,298.257223563]],PRIMEM["Greenwich",0.0],UNIT["Degree",0.0174532925199433]],PROJECTION["Mercator"],PARAMETER["False_Easting",0.0],PARAMETER["False_Northing",0.0],PARAMETER["Central_Meridian",0.0],PARAMETER["Standard_Parallel_1",0.0],UNIT["Meter",1.0],AUTHORITY["ESRI",54004]]
LATI               .dega     2.1305856004                  : GCS_WGS_1984
LONG               .dega     2.0279108213                  : GCS_WGS_1984
PROJECT_UPGRADE_TIME .         2014-05-27T11_38_46           : 
Pad                .         Pad6                          : 
X                  .m        225746                        : 
Y                  .m        235643                        : 
group              .         Pad6                          : 
Интер-р            .         Ярышев                        : 
Куст               .         6                             : 
Статус             .         Не проверено                  : 
Тип                .         Разобраться                   : 
~Parameter Information Block
#_______________________________________________________________________________
#
#PARAMETER_NAME    .UNIT     VALUE                         : DESCRIPTION
#_______________________________________________________________________________
SET                .         LQC                           : 
PROJECT_UPGRADE_TIME .         2014-05-27T11_38_46           : 
TLFamily_GR_NORM   .         Gamma Ray                     : 
TLFamily_MD        .         Measured Depth                : 
TLFamily_RHOB_NORM .         Bulk Density                  : 
TLFamily_TNPH_NORM .         Neutron Porosity              : 
~Curve Information
#_______________________________________________________________________________
#
#LOGNAME           .UNIT     LOG_ID                        : DESCRIPTION
#_______________________________________________________________________________
MD                 .m                                      :  
GR_NORM            .gAPI                                   : Normalised By Techlog 
RHOB_NORM          .g/cm3                                  : Normalized By Techlog 
TNPH_NORM          .v/v                                    : Normalised By Techlog 
~Ascii
# ...
2484.80000141263 127.4384   2.472107   0.3245029 
2485.00000141561 127.9583   2.502211   0.3340023 
2485.200001418591 126.6277   2.523668   0.3304401 
2485.400001421571 128.5399   2.464981   0.3256904 
2485.600001424551 127.5089   2.482915   0.3197532 
2485.800001427531 123.3761   2.481074   0.3173784 
2486.000001430511 119.7279   2.51438    0.3150035 
2486.200001433492 113.0924   2.528712   0.3161909 
2486.400001436472 112.3522   2.497647   0.3197532 
2486.600001439452 113.1717   2.51374    0.3197532 
2486.800001442432 109.9289   2.536157   0.3256904 
2487.000001445413 108.8539   2.518384   0.3292526 
2487.200001448393 105.4612   2.52647    0.3221281 
2487.400001451373 103.1789   2.494365   0.3138161 
2487.600001454353 101.3989   2.504933   0.3173784 
2487.800001457334 103.2142   2.521826   0.3043167 
2488.000001460314 105.6639   2.497487   0.2960047 
2488.200001463294 107.7435   2.510217   0.2971921 
2488.400001466274 109.0213   2.537759   0.2948173 
2488.600001469254 110.2902   2.52639    0.3019418 
2488.800001472235 111.9204   2.4894     0.3221281 
2489.000001475215 111.9733   2.545044   0.3387521 
2489.200001478195 113.9472   2.530153   0.3292526 
2489.400001481175 120.5386   2.532394   0.3280652 
2489.600001484156 121.737    2.533836   0.347064  
2489.800001487136 118.2387   2.470105   0.347064  
2490.000001490116 114.2468   2.453692   0.355376  
2490.200001493096 114.2292   2.41238    0.3530012 
2490.400001496077 120.1861   2.43864    0.3541886 
2490.600001499057 122.865    2.403172   0.3767497 
2490.800001502037 121.5432   2.424869   0.3814994 
2491.000001505017 119.4459   2.482835   0.372     
2491.200001507998 117.7892   2.489321   0.3660629 
2491.400001510978 117.3839   2.481314   0.3625006 
2491.600001513958 118.6264   2.499408   0.3458766 
2491.800001516938 118.8467   2.464581   0.3126287 
2492.000001519918 117.8774   2.496446   0.3245029 
2492.200001522899 118.0184   2.495085   0.3446892 
2492.400001525879 118.7057   2.523107   0.3399395 
2492.600001528859 118.7938   2.512459   0.3363772 
2492.800001531839 119.393    2.469545   0.3625006 
2493.00000153482 118.8907   2.421427   0.3921863 
2493.2000015378 116.1326   2.466182   0.4028731 
2493.40000154078 117.7187   2.519424   0.4147474 
2493.60000154376 118.362    2.552971   0.3945611 
2493.800001546741 118.4501   2.52623    0.3494389 
2494.000001549721 118.3797   2.519584   0.3363772 
2494.200001552701 117.3222   2.502851   0.3625006 
2494.400001555681 116.6437   2.50141    0.380312  
2494.600001558661 117.5249   2.521666   0.3613132 
2494.800001561642 121.8692   2.5396     0.3363772 
2495.000001564622 127.5882   2.581393   0.299567  
2495.200001567602 135.2987   2.642322   0.2627567 
2495.400001570582 129.7912   2.574188   0.2390082 
2495.600001573563 103.0996   2.528071   0.2200094 
2495.800001576543 73.05945   2.484356   0.1998231 
2496.000001579523 63.77159   2.43888    0.185574  
2496.200001582503 60.53757   2.51398    0.1867614 
2496.400001585484 59.42726   2.521986   0.1950734 
2496.600001588464 59.65638   2.531754   0.1915111 
2496.800001591444 60.56401   2.561698   0.1784494 
2497.000001594424 58.96022   2.607574   0.16895   
2497.200001597404 54.73046   2.623106   0.1558883 
2497.400001600385 51.12634   2.664739   0.1499512 
2497.600001603365 50.57119   2.680432   0.1475763 
2497.800001606345 52.28072   2.610216   0.1547009 
2498.000001609325 54.59827   2.576669   0.1713248 
2498.200001612306 56.27256   2.519184   0.1796368 
2498.400001615286 53.17073   2.560256   0.1760746 
2498.600001618266 51.03822   2.669863   0.16895   
2498.800001621246 53.54965   2.7159     0.1677626 
2499.000001624227 57.75298   2.585557   0.1796368 
2499.200001627207 62.9785    2.468344   0.1915111 
2499.400001630187 60.22034   2.427671   0.202198  
2499.600001633167 53.17073   2.410218   0.2081351 
2499.800001636147 46.95826   2.338001   0.1974482 
2500.000001639128 44.67595   2.368985   0.1926985 
2500.200001642108 44.94912   2.37475    0.2010105 
2500.400001645088 44.00623   2.409177   0.2069477 
2500.600001648068 44.31466   2.41294    0.2033854 
2500.800001651049 46.26211   2.398528   0.1974482 
2501.000001654029 45.38972   2.403332   0.1974482 
2501.200001657009 44.05029   2.391963   0.1998231 
2501.400001659989 46.67628   2.389561   0.2081351 
2501.60000166297 47.88352   2.420466   0.2140722 
2501.80000166595 46.95826   2.454413   0.2140722 
2502.00000166893 46.46479   2.431114   0.2152596 
2502.20000167191 47.86589   2.380914   0.2176345 
2502.400001674891 49.15245   2.379393   0.2140722 
2502.600001677871 50.82674   2.422067   0.1974482 
2502.800001680851 51.85774   2.469224   0.1926985 
2503.000001683831 48.87928   2.415982   0.1891363 
2503.200001686811 45.61002   2.424389   0.1915111 
2503.400001689792 44.67595   2.465942   0.1915111 
2503.600001692772 44.72882   2.534716   0.1820117 
2503.800001695752 45.02843   2.627029   0.1713248 
2504.000001698732 45.70695   2.688838   0.1653877 
2504.200001701713 46.52647   2.699487   0.1582632 
2504.400001704693 47.25786   2.613819   0.1570757 
2504.600001707673 45.16061   2.578911   0.1630129 
2504.800001710653 42.75493   2.599167   0.1570757 
2505.000001713634 41.64462   2.644964   0.1428266 
2505.200001716614 43.19553   2.609175   0.1404517 
2505.400001719594 49.408     2.567782   0.1511386 
2505.600001722574 50.66811   2.500129   0.1713248 
2505.800001725554 51.22328   2.478912   0.1962608 
2506.000001728535 52.38646   2.512138   0.2033854 
2506.200001731515 53.02092   2.523748   0.1998231 
2506.400001734495 53.17073   2.509656   0.202198  
2506.600001737475 52.22784   2.50173    0.2105099 
2506.800001740456 53.50559   2.509576   0.2069477 
2507.000001743436 54.94195   2.512779   0.2105099 
2507.200001746416 55.52354   2.512378   0.2176345 
2507.400001749396 54.06074   2.472907   0.2211968 
2507.600001752377 52.37765   2.47587    0.2188219 
2507.800001755357 50.58881   2.493964   0.2081351 
2508.000001758337 51.10872   2.504933   0.1926985 
2508.200001761317 50.76505   2.513259   0.1879488 
2508.400001764297 50.24514   2.51454    0.1926985 
2508.600001767278 49.27582   2.503091   0.1950734 
2508.800001770258 46.94063   2.453932   0.1915111 
2509.000001773238 43.83881   2.510297   0.1725123 
2509.200001776218 38.58684   2.550169   0.1594506 
2509.400001779199 33.4935    2.61558    0.1380769 
2509.600001782179 31.43149   2.625508   0.1155158 
2509.800001785159 31.50198   2.708934   0.09532952
2510.000001788139 30.01275   2.84264    0.0810804 
2510.20000179112 25.9416    2.841679   0.0680187 
2510.4000017941 25.15733   2.800687   0.05733187
2510.60000179708 26.33814   2.754891   0.04783245
2510.80000180006 28.54996   2.714619   0.04427017
2511.000001803041 31.56367   2.618222   0.04901988
2511.200001806021 33.02646   2.595885   0.06445643
2511.400001809001 35.14135   2.545845   0.08820496
2511.600001811981 34.58619   2.518384   0.1131409 
2511.800001814961 31.81921   2.446967   0.1463889 
2512.000001817942 31.52842   2.397968   0.1760746 
2512.200001820922 32.31269   2.366983   0.193886  
2512.400001823902 30.05681   2.36202    0.202198  
2512.600001826882 28.52352   2.385958   0.193886  
2512.800001829863 28.10936   2.395967   0.1820117 
2513.000001832843 28.2151    2.468424   0.1677626 
2513.200001835823 29.28136   2.526309   0.1535134 
2513.400001838803 35.31759   2.532875   0.160638  
2513.600001841784 38.18149   2.504132   0.177262  
2513.800001844764 39.92627   2.427832   0.1974482 
2514.000001847744 40.39331   2.410378   0.2057602 
2514.200001850724 38.1903    2.399169   0.2010105 
2514.400001853704 31.46673   2.370826   0.1974482 
2514.600001856685 31.15831   2.334238   0.1891363 
2514.800001859665 32.11883   2.350891   0.1843866 
2515.000001862645 31.94258   2.406935   0.1725123 
2515.200001865625 31.30812   2.437599   0.1511386 
2515.400001868606 30.76177   2.446086   0.1428266 
2515.600001871586 32.79735   2.401571   0.1642003 
2515.800001874566 37.87307   2.3629     0.1950734 
2516.000001877546 45.16061   2.393645   0.2069477 
2516.200001880527 54.82739   2.475229   0.2033854 
