~Version
 VERS              .         2.0                           : CWLS LOG ASCII STANDARD - VERSION 2.0
 WRAP              .         NO                            : ONE LINE PER DEPTH STEP
 DLM               .         SPACE                         : DELIMITING CHARACTER(SPACE TAB OR COMMA)
~Well Information
#_______________________________________________________________________________
#
#PARAMETER_NAME    .UNIT     VALUE                         : DESCRIPTION
#_______________________________________________________________________________
STRT               .m        2390                          : First reference value
STOP               .m        2561.80000256002              : Last reference value
STEP               .m        0.2                           : Step increment
NULL               .         -9999                         : Missing value
COMP               .                                       : Company
WELL               .         600                           : Well name
FLD                .                                       : Field
LOC                .                                       : Location
CNTY               .                                       : County
STAT               .                                       : State
CTRY               .                                       : Country
SRVC               .                                       : Service Company
DATE               .                                       : Date
API                .                                       : API number
Cartographic_reference_system .         GCS_WGS_1984                  : GEOGCS["GCS_WGS_1984",DATUM["D_WGS_1984",SPHEROID["WGS_1984",6378137.0,298.257223563]],PRIMEM["Greenwich",0.0],UNIT["Degree",0.0174532925199433],AUTHORITY["EPSG",4326]]
EREF               .m        134                           : 
HZCS               .GCS_WGS_1984 World_Mercator                : PROJCS["World_Mercator",GEOGCS["GCS_WGS_1984",DATUM["D_WGS_1984",SPHEROID["WGS_1984",6378137.0,298.257223563]],PRIMEM["Greenwich",0.0],UNIT["Degree",0.0174532925199433]],PROJECTION["Mercator"],PARAMETER["False_Easting",0.0],PARAMETER["False_Northing",0.0],PARAMETER["Central_Meridian",0.0],PARAMETER["Standard_Parallel_1",0.0],UNIT["Meter",1.0],AUTHORITY["ESRI",54004]]
LATI               .dega     2.1305856004                  : GCS_WGS_1984
LONG               .dega     2.0279108213                  : GCS_WGS_1984
PROJECT_UPGRADE_TIME .         2014-05-27T11_38_46           : 
Pad                .         Pad6                          : 
X                  .m        225746                        : 
Y                  .m        235643                        : 
group              .         Pad6                          : 
Интер-р            .         Ярышев                        : 
Куст               .         6                             : 
Статус             .         Не проверено                  : 
Тип                .         Разобраться                   : 
~Parameter Information Block
#_______________________________________________________________________________
#
#PARAMETER_NAME    .UNIT     VALUE                         : DESCRIPTION
#_______________________________________________________________________________
SET                .         LQC                           : 
PROJECT_UPGRADE_TIME .         2014-05-27T11_38_46           : 
TLFamily_GR_NORM   .         Gamma Ray                     : 
TLFamily_MD        .         Measured Depth                : 
TLFamily_RHOB_NORM .         Bulk Density                  : 
TLFamily_TNPH_NORM .         Neutron Porosity              : 
~Curve Information
#_______________________________________________________________________________
#
#LOGNAME           .UNIT     LOG_ID                        : DESCRIPTION
#_______________________________________________________________________________
MD                 .m                                      :  
GR_NORM            .gAPI                                   : Normalised By Techlog 
RHOB_NORM          .g/cm3                                  : Normalized By Techlog 
TNPH_NORM          .v/v                                    : Normalised By Techlog 
~Ascii
2390.0     76.20535   -9999      0.3019418 
2390.20000000298 79.56271   -9999      0.2865053 
2390.40000000596 84.18021   -9999      0.2841304 
2390.600000008941 84.92042   -9999      0.2793807 
2390.800000011921 85.1936    -9999      0.2698813 
2391.000000014901 84.12733   -9999      0.2734436 
2391.200000017881 84.55914   -9999      0.2734436 
2391.400000020862 85.75756   -9999      0.2603819 
2391.600000023842 85.02616   -9999      0.2651316 
2391.800000026822 85.13191   -9999      0.2710687 
2392.000000029802 89.85516   -9999      0.2698813 
2392.200000032783 91.74974   -9999      0.2591944 
2392.400000035763 91.53825   -9999      0.2686939 
2392.600000038743 90.72754   -9999      0.2770059 
2392.800000041723 89.39693   -9999      0.2710687 
2393.000000044703 89.00919   -9999      0.2710687 
2393.200000047684 89.20306   2.537759   0.274631  
2393.400000050664 86.6652    2.515741   0.2793807 
2393.600000053644 85.22003   2.512779   0.282943  
2393.800000056624 85.43152   2.588038   0.291255  
2394.000000059605 86.87669   2.576669   0.3102538 
2394.200000062585 88.06631   2.579792   0.3019418 
2394.400000065565 92.71906   2.563779   0.2793807 
2394.600000068545 94.99256   2.550409   0.2675064 
2394.800000071526 97.41586   2.540801   0.2698813 
2395.000000074506 97.27487   2.505974   0.2758184 
2395.200000077486 96.37605   2.493724   0.2865053 
2395.400000080466 95.97069   2.474989   0.2865053 
2395.600000083447 95.94425   2.484437   0.299567  
2395.800000086427 95.81207   2.520625   0.3031293 
2396.000000089407 93.45926   2.559456   0.2793807 
2396.200000092387 92.25201   2.563299   0.2734436 
2396.400000095367 88.35711   2.580593   0.2722561 
2396.600000098348 87.74908   2.552811   0.2686939 
2396.800000101328 88.81533   2.569704   0.2639441 
2397.000000104308 89.44099   2.518223   0.2556322 
2397.200000107288 87.84601   2.518944   0.2473202 
2397.400000110269 87.8372    2.556894   0.2449453 
2397.600000113249 91.45013   2.535757   0.2508824 
2397.800000116229 97.54804   2.529512   0.2651316 
2398.000000119209 99.99778   2.507575   0.2698813 
2398.20000012219 100.13     2.527591   0.2758184 
2398.40000012517 99.68936   2.543123   0.274631  
2398.60000012815 100.6675   2.554412   0.2781933 
2398.80000013113 100.5441   2.557615   0.2853178 
2399.00000013411 97.38062   2.53968    0.2817556 
2399.200000137091 91.18577   2.484837   0.2781933 
2399.400000140071 81.51898   2.487799   0.2615693 
2399.600000143051 72.98014   2.490441   0.2449453 
2399.800000146031 65.49874   2.493724   0.2318836 
2400.000000149012 60.56401   2.52655    0.2128848 
2400.200000151992 55.68216   2.535997   0.1903237 
2400.400000154972 55.11818   2.533675   0.1725123 
2400.600000157952 55.61166   2.521106   0.1642003 
2400.800000160933 58.80161   2.487239   0.177262  
2401.000000163913 59.87667   2.437599   0.1926985 
2401.200000166893 58.75755   2.448728   0.2057602 
2401.400000169873 60.64331   2.485718   0.2164471 
2401.600000172853 61.97393   2.479312   0.2188219 
2401.800000175834 62.8992    2.504132   0.2140722 
2402.000000178814 63.21643   2.524068   0.2247591 
2402.200000181794 65.45468   2.509416   0.2378208 
2402.400000184774 72.25755   2.529272   0.2473202 
2402.600000187755 75.72948   2.550169   0.249695  
2402.800000190735 78.22329   2.588439   0.2425705 
2403.000000193715 78.34666   2.523427   0.2342585 
2403.200000196695 71.10318   2.453852   0.2390082 
2403.400000199676 60.87243   2.427752   0.241383  
2403.600000202656 57.5503    2.415422   0.2306962 
2403.800000205636 56.06988   2.458015   0.2152596 
2404.000000208616 52.59795   2.495245   0.2010105 
2404.200000211596 45.54834   2.568423   0.1843866 
2404.400000214577 41.53006   2.608375   0.1665751 
2404.600000217557 41.17758   2.686196   0.1499512 
2404.800000220537 43.60088   2.633515   0.152326  
2405.000000223517 49.68998   2.536318   0.1808243 
2405.200000226498 57.09208   2.462819   0.2010105 
2405.400000229478 63.60416   2.409817   0.2081351 
2405.600000232458 67.90442   2.495405   0.2152596 
2405.800000235438 74.09927   2.507495   0.2354459 
2406.000000238419 80.6554    2.462179   0.2520699 
2406.200000241399 89.92564   2.570585   0.258007  
2406.400000244379 93.69719   2.624227   0.2698813 
2406.600000247359 84.86755   2.574508   0.2556322 
2406.80000025034 67.39333   2.516062   0.2271339 
2407.00000025332 57.69129   2.505573   0.2081351 
2407.2000002563 54.18411   2.483956   0.1986357 
2407.40000025928 55.06532   2.443044   0.1986357 
2407.60000026226 59.34795   2.421507   0.2069477 
2407.800000265241 64.3003    2.435838   0.2259465 
2408.000000268221 69.26147   2.467223   0.2354459 
2408.200000271201 73.07707   2.531514   0.233071  
2408.400000274181 72.83034   2.515261   0.2306962 
2408.600000277162 73.98471   2.482675   0.2342585 
2408.800000280142 75.57969   2.523347   0.2342585 
2409.000000283122 77.63289   2.517823   0.233071  
2409.200000286102 78.14398   2.479873   0.2390082 
2409.400000289083 71.52616   2.472107   0.2390082 
2409.600000292063 63.21643   2.46362    0.2295088 
2409.800000295043 55.70859   2.523988   0.2116974 
2410.000000298023 49.25819   2.634155   0.1986357 
2410.200000301003 44.16485   2.694923   0.185574  
2410.400000303984 39.83815   2.608054   0.1736997 
2410.600000306964 38.64853   2.600368   0.1630129 
2410.800000309944 40.89559   2.566501   0.1582632 
2411.000000312924 46.3238    2.46394    0.1653877 
2411.200000315905 54.97719   2.393965   0.193886  
2411.400000318885 62.91682   2.388681   0.2128848 
2411.600000321865 66.8646    2.433596   0.2223842 
2411.800000324845 68.94424   2.456254   0.2235716 
2412.000000327826 69.2086    2.457535   0.233071  
2412.200000330806 62.92562   2.415021   0.233071  
2412.400000333786 56.21968   2.429593   0.2223842 
2412.600000336766 56.58098   2.449208   0.2057602 
2412.800000339746 58.46675   2.445365   0.1986357 
2413.000000342727 56.88058   2.500609   0.1986357 
2413.200000345707 53.93737   2.480674   0.202198  
2413.400000348687 54.73046   2.511978   0.2010105 
2413.600000351667 57.41812   2.53928    0.1962608 
2413.800000354648 60.24678   2.503171   0.2057602 
2414.000000357628 63.82446   2.481074   0.2081351 
2414.200000360608 70.86525   2.454333   0.2176345 
2414.400000363588 74.21382   2.538319   0.2425705 
2414.600000366569 71.29705   2.472187   0.2615693 
2414.800000369549 67.41975   2.439601   0.2461327 
2415.000000372529 67.19946   2.452892   0.2247591 
2415.200000375509 68.92661   2.478031   0.2188219 
2415.400000378489 73.53529   2.559456   0.2211968 
2415.60000038147 73.47361   2.553211   0.2200094 
2415.80000038445 70.46872   2.514941   0.2164471 
2416.00000038743 62.48503   2.549848   0.2128848 
2416.20000039041 62.37929   2.548647   0.2188219 
2416.400000393391 65.60448   2.491642   0.2188219 
2416.600000396371 66.09795   2.461218   0.2116974 
2416.800000399351 68.57413   2.479312   0.2188219 
2417.000000402331 75.12146   2.460818   0.2354459 
2417.200000405312 80.065     2.45121    0.2390082 
2417.400000408292 80.54966   2.508615   0.241383  
2417.600000411272 77.10416   2.508296   0.2401956 
2417.800000414252 75.1479    2.508776   0.2461327 
2418.000000417233 78.91944   2.51334    0.2390082 
2418.200000420213 85.24647   2.535837   0.2366333 
2418.400000423193 86.83263   2.484677   0.2401956 
2418.600000426173 85.86331   2.505253   0.249695  
2418.800000429153 83.20208   2.495005   0.2544447 
2419.000000432134 78.17923   2.446406   0.258007  
2419.200000435114 74.76017   2.447447   0.2532573 
2419.400000438094 77.17466   2.45057    0.2485076 
2419.600000441074 79.24548   2.466502   0.2425705 
2419.800000444055 76.0291    2.46418    0.2342585 
2420.000000447035 70.07218   2.490521   0.2259465 
2420.200000450015 66.9351    2.51438    0.2200094 
2420.400000452995 70.48634   2.567703   0.2152596 
2420.600000455976 80.92857   2.573547   0.2306962 
2420.800000458956 88.16324   2.581073   0.2532573 
2421.000000461936 90.18119   2.555533   0.2508824 
2421.200000464916 90.36625   2.547206   0.2473202 
2421.400000467896 93.54739   2.55193    0.2485076 
