~Version
 VERS              .         2.0                           : CWLS LOG ASCII STANDARD - VERSION 2.0
 WRAP              .         NO                            : ONE LINE PER DEPTH STEP
 DLM               .         SPACE                         : DELIMITING CHARACTER(SPACE TAB OR COMMA)
~Well Information
#_______________________________________________________________________________
#
#PARAMETER_NAME    .UNIT     VALUE                         : DESCRIPTION
#_______________________________________________________________________________
STRT               .m        2390                          : First reference value
STOP               .m        2561.80000256002              : Last reference value
STEP               .m        0.2                           : Step increment
NULL               .         -9999                         : Missing value
COMP               .                                       : Company
WELL               .         600                           : Well name
FLD                .                                       : Field
LOC                .                                       : Location
CNTY               .                                       : County
STAT               .                                       : State
CTRY               .                                       : Country
SRVC               .                                       : Service Company
DATE               .                                       : Date
API                .                                       : API number
Cartographic_reference_system .         GCS_WGS_1984                  : GEOGCS["GCS_WGS_1984",DATUM["D_WGS_1984",SPHEROID["WGS_1984",6378137.0,298.257223563]],PRIMEM["Greenwich",0.0],UNIT["Degree",0.0174532925199433],AUTHORITY["EPSG",4326]]
EREF               .m        134                           : 
HZCS               .GCS_WGS_1984 World_Mercator                : PROJCS["World_Mercator",GEOGCS["GCS_WGS_1984",DATUM["D_WGS_1984",SPHEROID["WGS_1984",6378137.0,298.257223563]],PRIMEM["Greenwich",0.0],UNIT["Degree",0.0174532925199433]],PROJECTION["Mercator"],PARAMETER["False_Easting",0.0],PARAMETER["False_Northing",0.0],PARAMETER["Central_Meridian",0.0],PARAMETER["Standard_Parallel_1",0.0],UNIT["Meter",1.0],AUTHORITY["ESRI",54004]]
LATI               .dega     2.1305856004                  : GCS_WGS_1984
LONG               .dega     2.0279108213                  : GCS_WGS_1984
PROJECT_UPGRADE_TIME .         2014-05-27T11_38_46           : 
Pad                .         Pad6                          : 
X                  .m        225746                        : 
Y                  .m        235643                        : 
group              .         Pad6                          : 
Интер-р            .         Ярышев                        : 
Куст               .         6                             : 
Статус             .         Не проверено                  : 
Тип                .         Разобраться                   : 
~Parameter Information Block
#_______________________________________________________________________________
#
#PARAMETER_NAME    .UNIT     VALUE                         : DESCRIPTION
#_______________________________________________________________________________
SET                .         LQC                           : 
PROJECT_UPGRADE_TIME .         2014-05-27T11_38_46           : 
TLFamily_GR_NORM   .         Gamma Ray                     : 
TLFamily_MD        .         Measured Depth                : 
TLFamily_RHOB_NORM .         Bulk Density                  : 
TLFamily_TNPH_NORM .         Neutron Porosity              : 
~Curve Information
#_______________________________________________________________________________
#
#LOGNAME           .UNIT     LOG_ID                        : DESCRIPTION
#_______________________________________________________________________________
MD                 .m                                      :  
GR_NORM            .gAPI                                   : Normalised By Techlog 
RHOB_NORM          .g/cm3                                  : Normalized By Techlog 
TNPH_NORM          .v/v                                    : Normalised By Techlog 
~Ascii
# ...
2453.200000941753 197.2824   2.203094   0.3625006 
2453.400000944734 181.0507   2.222389   0.3399395 
2453.600000947714 164.5194   2.234238   0.347064  
2453.800000950694 158.2099   2.244406   0.3530012 
2454.000000953674 162.2987   2.255455   0.3541886 
2454.200000956655 169.9211   2.266264   0.3423143 
2454.400000959635 172.6264   2.252733   0.3363772 
2454.600000962615 173.8865   2.268345   0.3328149 
2454.800000965595 171.6835   2.255935   0.3280652 
2455.000000968575 167.8327   2.24897    0.3280652 
2455.200000971556 162.3604   2.246888   0.3268778 
2455.400000974536 156.6855   2.238642   0.3280652 
2455.600000977516 147.4417   2.239763   0.3233155 
2455.800000980496 137.9335   2.259939   0.3126287 
2456.000000983477 126.7422   2.272509   0.3185658 
2456.200000986457 124.3542   2.282997   0.3375646 
2456.400000989437 124.786    2.316383   0.3399395 
2456.600000992417 124.8829   2.344165   0.3387521 
2456.800000995398 127.8085   2.36266    0.3280652 
2457.000000998378 130.1878   2.351531   0.3387521 
2457.200001001358 132.7256   2.36218    0.3423143 
2457.400001004338 133.7302   2.34937    0.3209406 
2457.600001007318 138.0745   2.353613   0.3233155 
2457.800001010299 145.5207   2.342564   0.3316275 
2458.000001013279 154.879    2.327832   0.3316275 
2458.200001016259 151.9534   2.32431    0.3233155 
2458.400001019239 133.1838   2.338561   0.3197532 
2458.60000102222 117.2517   2.305495   0.3268778 
2458.8000010252 116.1502   2.317904   0.3233155 
2459.00000102818 114.7491   2.351131   0.3090664 
2459.20000103116 110.1052   2.35001    0.3031293 
2459.400001034141 109.8937   2.340883   0.291255  
2459.600001037121 106.6509   2.364982   0.2817556 
2459.800001040101 102.5533   2.370586   0.2841304 
2460.000001043081 102.1655   2.343605   0.2781933 
2460.200001046062 101.6456   2.349289   0.2805681 
2460.400001049042 103.2142   2.339041   0.2876927 
2460.600001052022 105.8225   2.33744    0.2865053 
2460.800001055002 107.5409   2.345446   0.282943  
2461.000001057982 109.0742   2.349289   0.2924424 
2461.200001060963 107.2413   2.357776   0.3090664 
2461.400001063943 109.9377   2.347448   0.3150035 
2461.600001066923 112.3787   2.316864   0.3173784 
2461.800001069903 108.9949   2.320707   0.3256904 
2462.000001072884 104.9413   2.331996   0.3506263 
2462.200001075864 107.0298   2.31238    0.3648754 
2462.400001078844 116.3881   2.336559   0.3613132 
2462.600001081824 122.8033   2.313101   0.347064  
2462.800001084805 121.5872   2.303173   0.3387521 
2463.000001087785 118.3003   2.304614   0.347064  
2463.200001090765 113.1717   2.291804   0.3482515 
2463.400001093745 107.2324   2.320467   0.3506263 
2463.600001096725 99.69817   2.348729   0.3304401 
2463.800001099706 97.51279   2.351531   0.3256904 
2464.000001102686 100.6058   2.338801   0.3446892 
2464.200001105666 106.9593   2.344486   0.3672503 
2464.400001108646 104.0689   2.320146   0.3506263 
2464.600001111627 97.27487   2.320547   0.3245029 
2464.800001114607 92.29607   2.377552   0.3126287 
2465.000001117587 88.38354   2.371787   0.3126287 
2465.200001120567 92.05816   2.368104   0.3233155 
2465.400001123548 97.34536   2.332476   0.3138161 
2465.600001126528 105.2321   2.328313   0.3019418 
2465.800001129508 117.5954   2.307736   0.3019418 
2466.000001132488 120.1597   2.307657   0.3090664 
2466.200001135468 116.4762   2.315743   0.3245029 
2466.400001138449 111.8852   2.29965    0.3387521 
2466.600001141429 107.673    2.334558   0.3423143 
2466.800001144409 101.2755   2.364501   0.3256904 
2467.000001147389 99.91847   2.359377   0.3090664 
2467.20000115037 102.7648   2.352092   0.2936298 
2467.40000115335 109.1094   2.298369   0.3031293 
2467.60000115633 119.4547   2.291323   0.3280652 
2467.80000115931 132.0206   2.281316   0.3268778 
2468.000001162291 133.2014   2.266904   0.3399395 
2468.200001165271 129.377    2.250571   0.3601257 
2468.400001168251 129.0598   2.258578   0.3518137 
2468.600001171231 134.206    2.256576   0.3482515 
2468.800001174212 141.4407   2.232877   0.3482515 
2469.000001177192 147.0892   2.234719   0.3482515 
2469.200001180172 150.7462   2.218306   0.3541886 
2469.400001183152 149.4068   2.197729   0.3541886 
2469.600001186132 144.19     2.178274   0.372     
2469.800001189113 139.1848   2.208378   0.388624  
2470.000001192093 138.8235   2.226873   0.3898114 
2470.200001195073 139.9867   2.224471   0.3838743 
2470.400001198053 144.5601   2.237601   0.3814994 
2470.600001201034 147.6884   2.23624    0.3767497 
2470.800001204014 152.4205   2.230075   0.372     
2471.000001206994 159.6375   2.220868   0.3755623 
2471.200001209974 158.7827   2.21166    0.355376  
2471.400001212955 139.5549   2.250011   0.3221281 
2471.600001215935 126.6894   2.317744   0.3138161 
2471.800001218915 125.068    2.351932   0.3102538 
2472.000001221895 126.6894   2.335598   0.3043167 
2472.200001224875 125.6584   2.36282    0.291255  
2472.400001227856 120.3359   2.43832    0.2817556 
2472.600001230836 121.6577   2.485237   0.2841304 
2472.800001233816 127.3767   2.55241    0.2853178 
2473.000001236796 133.6949   2.574988   0.2924424 
2473.200001239777 133.5539   2.53928    0.2948173 
2473.400001242757 123.0148   2.478672   0.2983795 
2473.600001245737 118.0888   2.432555   0.3138161 
2473.800001248717 114.8813   2.436639   0.3161909 
2474.000001251698 110.5193   2.444725   0.3304401 
2474.200001254678 112.3258   2.456574   0.3363772 
2474.400001257658 115.7537   2.485077   0.3256904 
2474.600001260638 115.6127   2.480273   0.3138161 
2474.800001263618 114.2468   2.459697   0.2948173 
2475.000001266599 111.1274   2.474268   0.2853178 
2475.200001269579 112.2994   2.499408   0.2924424 
2475.400001272559 115.269    2.456174   0.3197532 
2475.600001275539 118.8202   2.459617   0.3375646 
2475.80000127852 121.5608   2.435998   0.3506263 
2476.0000012815 121.3493   2.458015   0.3482515 
2476.20000128448 115.6303   2.479312   0.3423143 
2476.40000128746 110.9247   2.454012   0.3446892 
2476.600001290441 111.6385   2.453132   0.347064  
2476.800001293421 110.4665   2.452091   0.3340023 
2477.000001296401 106.6244   2.495646   0.3233155 
2477.200001299381 107.6995   2.518624   0.3102538 
2477.400001302361 110.581    2.51382    0.3055041 
2477.600001305342 112.2729   2.491162   0.291255  
2477.800001308322 112.458    2.465542   0.3055041 
2478.000001311302 108.5014   2.471786   0.3387521 
2478.200001314282 105.7432   2.447207   0.3399395 
2478.400001317263 95.81207   2.52671    0.3138161 
2478.600001320243 82.3385    2.591001   0.3031293 
2478.800001323223 78.33784   2.560176   0.2900676 
2479.000001326203 86.55946   2.50157    0.282943  
2479.200001329184 113.2775   2.448168   0.2936298 
2479.400001332164 119.6133   2.455934   0.3138161 
2479.600001335144 116.1414   2.492843   0.3173784 
2479.800001338124 111.8147   2.527751   0.3102538 
2480.000001341105 111.0304   2.521266   0.3066915 
2480.200001344085 110.4841   2.472747   0.3114412 
2480.400001347065 107.0738   2.469305   0.3221281 
2480.600001350045 104.6946   2.493644   0.3256904 
2480.800001353025 107.8581   2.480113   0.3256904 
2481.000001356006 110.5193   2.53952    0.3423143 
2481.200001358986 111.0657   2.548487   0.3446892 
2481.400001361966 110.4224   2.562979   0.3363772 
2481.600001364946 107.2501   2.521426   0.3280652 
2481.800001367927 105.8578   2.510537   0.3102538 
2482.000001370907 105.5229   2.518463   0.3031293 
2482.200001373887 108.4661   2.507495   0.3031293 
2482.400001376867 110.9775   2.502771   0.2900676 
2482.600001379848 113.5242   2.490121   0.2924424 
2482.800001382828 113.2246   2.498768   0.3185658 
2483.000001385808 111.8411   2.526069   0.3256904 
2483.200001388788 114.4319   2.53936    0.3161909 
2483.400001391768 119.5252   2.5392     0.3245029 
2483.600001394749 119.7984   2.493243   0.3351898 
2483.800001397729 123.6316   2.43784    0.3399395 
2484.000001400709 127.0859   2.448968   0.3518137 
2484.200001403689 126.5924   2.446807   0.3613132 
2484.40000140667 124.6097   2.45073    0.3482515 
2484.60000140965 125.7112   2.454012   0.3292526 
