~Version
 VERS              .         2.0                           : CWLS LOG ASCII STANDARD - VERSION 2.0
 WRAP              .         NO                            : ONE LINE PER DEPTH STEP
 DLM               .         SPACE                         : DELIMITING CHARACTER(SPACE TAB OR COMMA)
~Well Information
#_______________________________________________________________________________
#
#PARAMETER_NAME    .UNIT     VALUE                         : DESCRIPTION
#_______________________________________________________________________________
STRT               .m        2779                          : First reference value
STOP               .m        3001.8                        : Last reference value
STEP               .m        0.2                           : Step increment
NULL               .         -9999                         : Missing value
COMP               .                                       : Company
WELL               .         601                           : Well name
FLD                .                                       : Field
LOC                .                                       : Location
PROV               .                                       : Province
SRVC               .                                       : Service Company
DATE               .         2021-05-13 14_16_42           : Date
UWI                .                                       : Unique Well ID
API                .                                       : API NUMBER
CNTY               .                                       : COUNTY
Cartographic_reference_system .         GCS_WGS_1984                  : GEOGCS["GCS_WGS_1984",DATUM["D_WGS_1984",SPHEROID["WGS_1984",6378137.0,298.257223563]],PRIMEM["Greenwich",0.0],UNIT["Degree",0.0174532925199433],AUTHORITY["EPSG",4326]]
CTRY               .                                       : COUNTRY
EREF               .m        134                           : 
HZCS               .GCS_WGS_1984 World_Mercator                : PROJCS["World_Mercator",GEOGCS["GCS_WGS_1984",DATUM["D_WGS_1984",SPHEROID["WGS_1984",6378137.0,298.257223563]],PRIMEM["Greenwich",0.0],UNIT["Degree",0.0174532925199433]],PROJECTION["Mercator"],PARAMETER["False_Easting",0.0],PARAMETER["False_Northing",0.0],PARAMETER["Central_Meridian",0.0],PARAMETER["Standard_Parallel_1",0.0],UNIT["Meter",1.0],AUTHORITY["ESRI",54004]]
LATI               .dega     2.1305856004                  : GCS_WGS_1984
LONG               .dega     2.0279108213                  : GCS_WGS_1984
ORIGINALWELLNAME   .         601                           : 
PROJECT_UPGRADE_TIME .         2014-05-27T11_38_46           : 
Pad                .         Pad6                          : 
STAT               .                                       : STATE
X                  .m        225746                        : 
Y                  .m        235643                        : 
group              .         Pad6                          : 
Интер-р            .         Ярышев                        : 
Куст               .         6                             : 
Статус             .         Не проверено                  : 
Тип                .         Разведка                      : 
~Parameter Information Block
#_______________________________________________________________________________
#
#PARAMETER_NAME    .UNIT     VALUE                         : DESCRIPTION
#_______________________________________________________________________________
SET                .         Gam                           : 
TLFamily_DEPT      .         Measured Depth                : 
TLFamily_GR_NORM   .         Gamma Ray                     : 
TLFamily_RHOB_NORM .         Bulk Density                  : 
TLFamily_RHOB_TL1  .         Bulk Density                  : 
TLFamily_SYNTH_Bulk_Density .         Bulk Density                  : 
TLFamily_SYNTH_Bulk_Density_MISFIT .                                       : 
TLFamily_TNPH_NORM .         Neutron Porosity              : 
~Curve Information
#_______________________________________________________________________________
#
#LOGNAME           .UNIT     LOG_ID                        : DESCRIPTION
#_______________________________________________________________________________
DEPT               .m                                      :  
GR_NORM            .gAPI                                   : Gamma Ray 
RHOB_NORM          .g/cm3                                  : Bulk Density 
RHOB_TL1           .g/cm3                                  :  
SYNTH_Bulk_Density .G/C3                                   : Bulk Density 
SYNTH_Bulk_Density_MISFIT .                                       : Synthetic Bulk Density Misfit 
TNPH_NORM          .v/v                                    : Thermal Neutron Porosity 
~Ascii
# ...
2857.2     85.13394   2.51854    2.488762   2.49845    -0.02009   0.26908   
2857.4     87.15358999999999 2.55232    2.514126   2.50105    -0.05126   0.25333   
2857.6     83.43275   2.56396    2.509593   2.50088    -0.06309   0.25333   
2857.8     77.31515   2.54542    2.500759   2.49825    -0.04717   0.25228   
2858       71.91824   2.53037    2.500726   2.4893     -0.04107   0.24493   
2858.2     63.44578   2.52383    2.495703   2.47675    -0.04708   0.23443   
2858.4     51.68825   2.58833    2.47153    2.4646     -0.12373   0.22498   
2858.6     45.6377    2.6558     2.471226   2.45948    -0.19632   0.21237   
2858.8     44.30523   2.69405    2.48456    2.45899    -0.23507   0.20292   
2859       42.98953   2.62937    2.463407   2.4583     -0.17107   0.21027   
2859.2     50.74128   2.62874    2.473959   2.46304    -0.1657    0.22183   
2859.4     57.78072   2.57095    2.470506   2.4706     -0.10036   0.23758   
2859.6     62.7586    2.49704    2.47818    2.47634    -0.0207    0.24283   
2859.8     67.07445   2.48235    2.491606   2.4804     -0.00195   0.24283   
2860       73.40993   2.47625    2.486748   2.49166    0.01541    0.25543   
2860.2     76.20057   2.47661    2.467902   2.49336    0.01675    0.27013   
2860.4     84.53894   2.48888    2.499005   2.49898    0.01009    0.26173   
2860.6     93.57288   2.50456    2.493416   2.49472    -0.00985   0.27328   
2860.8     98.37478   2.54542    2.487165   2.48244    -0.06298   0.28064   
2861       100.9475   2.5172     2.477366   2.46996    -0.04724   0.28904   
2861.2     102.0286   2.52884    2.491608   2.4821     -0.04674   0.27854   
2861.4     104.2242   2.49749    2.483022   2.47111    -0.02638   0.28589   
2861.6     107.4171   2.52705    2.487145   2.47335    -0.05371   0.28274   
2861.8     106.9981   2.55115    2.511303   2.48807    -0.06308   0.25963   
2862       105.1125   2.50322    2.4957     2.4827     -0.02052   0.27538   
2862.2     106.6126   2.54578    2.476924   2.46467    -0.0811    0.29114   
2862.4     111.7497   2.55321    2.481534   2.46564    -0.08757   0.28694   
2862.6     116.8114   2.52311    2.484908   2.47181    -0.0513    0.28064   
2862.8     113.7191   2.5525     2.472689   2.45715    -0.09535   0.29429   
2863       108.2384   2.5559     2.453341   2.44633    -0.10957   0.30899   
2863.2     107.283    2.53189    2.44973    2.44348    -0.08841   0.31109   
2863.4     110.6351   2.57696    2.461354   2.45073    -0.12623   0.30374   
2863.6     114.4817   2.57382    2.447878   2.43722    -0.1366    0.31424   
2863.8     118.1355   2.5266     2.430919   2.4236     -0.103     0.32684   
2864       117.1969   2.50707    2.435224   2.42806    -0.07902   0.32369   
2864.2     112.462    2.55536    2.418833   2.41249    -0.14287   0.33314   
2864.4     109.8222   2.52813    2.405513   2.39824    -0.12988   0.33944   
2864.6     106.4869   2.51738    2.450778   2.44624    -0.07114   0.31004   
2864.8     105.4561   2.49749    2.466805   2.45755    -0.03993   0.29849   
2865       105.7075   2.52768    2.448627   2.44393    -0.08375   0.31109   
2865.2     104.2494   2.50483    2.426636   2.43481    -0.07002   0.32369   
2865.4     106.2355   2.55716    2.449022   2.44348    -0.11367   0.31109   
2865.6     111.4229   2.60885    2.476887   2.4622     -0.14665   0.29114   
2865.8     116.6522   2.6188     2.488853   2.47531    -0.14348   0.27643   
2866       121.3535   2.54076    2.482033   2.46728    -0.07348   0.27854   
2866.2     127.8315   2.57839    2.461078   2.43874    -0.13965   0.29429   
2866.4     131.3009   2.55124    2.43413    2.40507    -0.14617   0.31949   
2866.6     130.0774   2.52311    2.427304   2.40086    -0.12225   0.32684   
2866.8     130.7981   2.53646    2.44377    2.415      -0.12146   0.31004   
2867       134.2843   2.55017    2.434903   2.40065    -0.14952   0.31529   
2867.2     136.2117   2.50403    2.414341   2.36962    -0.13441   0.33419   
2867.4     136.4045   2.46452    2.417452   2.37722    -0.08729   0.33104   
2867.6     135.952    2.43818    2.434584   2.40377    -0.0344    0.31319   
2867.8     132.7423   2.45914    2.449282   2.42099    -0.03815   0.30059   
2868       128.1667   2.45484    2.458024   2.43547    -0.01937   0.29744   
2868.2     123.6078   2.50671    2.461051   2.44183    -0.06489   0.29954   
2868.4     113.5263   2.52168    2.472748   2.45715    -0.06453   0.29429   
2868.6     107.2746   2.53028    2.483451   2.46934    -0.06094   0.28589   
2868.8     105.7243   2.58869    2.464015   2.45539    -0.1333    0.30059   
2869       103.9644   2.57015    2.455243   2.45045    -0.1197    0.30584   
2869.2     106.8305   2.57731    2.487174   2.47335    -0.10397   0.28274   
2869.4     116.4343   2.56818    2.485223   2.47257    -0.09561   0.28064   
2869.6     131.8288   2.53673    2.448014   2.42241    -0.11432   0.30374   
2869.8     153.3997   2.48037    2.395503   2.3806     -0.09978   0.32894   
2870       177.6522   2.47957    2.347437   2.37519    -0.10438   0.32999   
2870.2     188.0102   2.4535     2.326161   2.38378    -0.06971   0.32579   
2870.4     174.0906   2.4018     2.357632   2.40451    0.00271    0.30899   
2870.6     163.9924   2.34572    2.384289   2.41864    0.07293    0.29639   
2870.8     170.3446   2.37035    2.36763    2.41982    0.04947    0.29429   
2871       185.3872   2.37295    2.328786   2.4126     0.03965    0.29954   
2871.2     192.9797   2.37994    2.315435   2.38778    0.00784    0.32159   
2871.4     197.4297   2.37528    2.308113   2.37209    -0.00319   0.32999   
2871.6     199.089    2.38128    2.305809   2.36124    -0.02004   0.33419   
2871.8     200.0275   2.38379    2.301077   2.38764    0.00385    0.32054   
2872       198.4604   2.38747    2.299374   2.4029     0.01544    0.30479   
2872.2     196.114    2.35297    2.308365   2.39082    0.03785    0.31844   
2872.4     191.9574   2.39911    2.317393   2.38872    -0.0104    0.32054   
2872.6     184.2978   2.40019    2.333299   2.39672    -0.00346   0.31214   
2872.8     176.2024   2.41076    2.351903   2.39195    -0.01881   0.31949   
2873       177.0321   2.38478    2.349616   2.38727    0.00249    0.32369   
2873.2     186.1331   2.42366    2.329976   2.36349    -0.06017   0.33419   
2873.4     193.4407   2.42733    2.316426   2.34186    -0.08547   0.3426    
2873.6     198.1588   2.3941     2.30894    2.32676    -0.06733   0.35205   
2873.8     204.3769   2.36032    2.300105   2.29425    -0.06607   0.3783    
2874       213.7042   2.33156    2.291398   2.29446    -0.0371    0.37515   
2874.2     219.4949   2.35046    2.28373    2.30575    -0.04472   0.3615    
2874.4     225.2438   2.34303    2.272141   2.3327     -0.01032   0.3447    
2874.6     231.4368   2.28085    2.26512    2.33492    0.05407    0.3426    
2874.8     232.1156   2.26427    2.271875   2.31054    0.04627    0.35835   
2875       227.2718   2.31436    2.277542   2.29791    -0.01645   0.3636    
2875.2     224.2214   2.33702    2.281219   2.29557    -0.04145   0.3678    
2875.4     224.6823   2.32215    2.278645   2.30292    -0.01923   0.36045   
2875.6     220.5592   2.36112    2.282133   2.3162     -0.04493   0.3594    
2875.8     209.4721   2.36238    2.29195    2.33492    -0.02746   0.3468    
2876       197.1783   2.32869    2.30782    2.38271    0.05401    0.32579   
2876.2     184.4319   2.3329     2.333176   2.39528    0.06238    0.31424   
2876.4     173.0682   2.34383    2.360344   2.40796    0.06412    0.30479   
2876.6     168.4926   2.36659    2.371381   2.40587    0.03928    0.30794   
2876.8     166.5232   2.40207    2.370561   2.37933    -0.02274   0.32894   
2877       166.5735   2.42447    2.37083    2.38337    -0.0411    0.32789   
2877.2     169.7161   2.41667    2.359147   2.34447    -0.0722    0.3426    
2877.4     178.9009   2.44857    2.331224   2.30009    -0.14848   0.372     
2877.6     196.2229   2.38872    2.307057   2.29475    -0.09397   0.38355   
2877.8     211.8773   2.36139    2.292787   2.29888    -0.06251   0.37095   
