~Version
 VERS              .         2.0                           : CWLS LOG ASCII STANDARD - VERSION 2.0
 WRAP              .         NO                            : ONE LINE PER DEPTH STEP
 DLM               .         SPACE                         : DELIMITING CHARACTER(SPACE TAB OR COMMA)
~Well Information
#_______________________________________________________________________________
#
#PARAMETER_NAME    .UNIT     VALUE                         : DESCRIPTION
#_______________________________________________________________________________
STRT               .m        2779                          : First reference value
STOP               .m        3001.8                        : Last reference value
STEP               .m        0.2                           : Step increment
NULL               .         -9999                         : Missing value
COMP               .                                       : Company
WELL               .         601                           : Well name
FLD                .                                       : Field
LOC                .                                       : Location
PROV               .                                       : Province
SRVC               .                                       : Service Company
DATE               .         2021-05-13 14_16_42           : Date
UWI                .                                       : Unique Well ID
API                .                                       : API NUMBER
CNTY               .                                       : COUNTY
Cartographic_reference_system .         GCS_WGS_1984                  : GEOGCS["GCS_WGS_1984",DATUM["D_WGS_1984",SPHEROID["WGS_1984",6378137.0,298.257223563]],PRIMEM["Greenwich",0.0],UNIT["Degree",0.0174532925199433],AUTHORITY["EPSG",4326]]
CTRY               .                                       : COUNTRY
EREF               .m        134                           : 
HZCS               .GCS_WGS_1984 World_Mercator                : PROJCS["World_Mercator",GEOGCS["GCS_WGS_1984",DATUM["D_WGS_1984",SPHEROID["WGS_1984",6378137.0,298.257223563]],PRIMEM["Greenwich",0.0],UNIT["Degree",0.0174532925199433]],PROJECTION["Mercator"],PARAMETER["False_Easting",0.0],PARAMETER["False_Northing",0.0],PARAMETER["Central_Meridian",0.0],PARAMETER["Standard_Parallel_1",0.0],UNIT["Meter",1.0],AUTHORITY["ESRI",54004]]
LATI               .dega     2.1305856004                  : GCS_WGS_1984
LONG               .dega     2.0279108213                  : GCS_WGS_1984
ORIGINALWELLNAME   .         601                           : 
PROJECT_UPGRADE_TIME .         2014-05-27T11_38_46           : 
Pad                .         Pad6                          : 
STAT               .                                       : STATE
X                  .m        225746                        : 
Y                  .m        235643                        : 
group              .         Pad6                          : 
Интер-р            .         Ярышев                        : 
Куст               .         6                             : 
Статус             .         Не проверено                  : 
Тип                .         Разведка                      : 
~Parameter Information Block
#_______________________________________________________________________________
#
#PARAMETER_NAME    .UNIT     VALUE                         : DESCRIPTION
#_______________________________________________________________________________
SET                .         Gam                           : 
TLFamily_DEPT      .         Measured Depth                : 
TLFamily_GR_NORM   .         Gamma Ray                     : 
TLFamily_RHOB_NORM .         Bulk Density                  : 
TLFamily_RHOB_TL1  .         Bulk Density                  : 
TLFamily_SYNTH_Bulk_Density .         Bulk Density                  : 
TLFamily_SYNTH_Bulk_Density_MISFIT .                                       : 
TLFamily_TNPH_NORM .         Neutron Porosity              : 
~Curve Information
#_______________________________________________________________________________
#
#LOGNAME           .UNIT     LOG_ID                        : DESCRIPTION
#_______________________________________________________________________________
DEPT               .m                                      :  
GR_NORM            .gAPI                                   : Gamma Ray 
RHOB_NORM          .g/cm3                                  : Bulk Density 
RHOB_TL1           .g/cm3                                  :  
SYNTH_Bulk_Density .G/C3                                   : Bulk Density 
SYNTH_Bulk_Density_MISFIT .                                       : Synthetic Bulk Density Misfit 
TNPH_NORM          .v/v                                    : Thermal Neutron Porosity 
~Ascii
# ...
2817.4     86.3909912109375 2.50555    2.426366   2.46108    -0.04447   0.30584   
2817.6     86.91895294189453 2.52159    2.408453   2.44882    -0.07277   0.31529   
2817.8     85.77922821044922 2.53162    2.3797     2.43717    -0.09445   0.32684   
2818       80.94380187988281 2.49471    2.372889   2.43723    -0.05748   0.32264   
2818.2     79.33479309082031 2.49399    2.39628    2.45196    -0.04203   0.31004   
2818.4     80.81810760498047 2.54398    2.41493    2.46214    -0.08185   0.30374   
2818.6     82.23436737060547 2.56101    2.434159   2.47101    -0.09      0.29639   
2818.8     82.89640808105469 2.56629    2.465281   2.48964    -0.07666   0.28064   
2819       86.52507019042969 2.5284     2.456337   2.47763    -0.05077   0.29009   
2819.2     91.92196655273438 2.53628    2.448261   2.4667     -0.06958   0.30059   
2819.4     94.151123046875 2.53906    2.44294    2.45924    -0.07982   0.30584   
2819.6     94.86344909667969 2.59819    2.447797   2.46303    -0.13516   0.30374   
2819.8     92.94435882568359 2.62758    2.462474   2.47409    -0.15348   0.29324   
2820       87.79049682617188 2.56235    2.476507   2.49049    -0.07187   0.27959   
2820.2     84.01937103271484 2.63403    2.48852    2.49843    -0.1356    0.26803   
2820.4     81.89914703369141 2.62587    2.481148   2.49711    -0.12877   0.27013   
2820.6     79.20909118652344 2.62426    2.464157   2.49014    -0.13412   0.27643   
2820.8     80.07225036621094 2.63465    2.442683   2.47707    -0.15759   0.28904   
2821       85.51943969726563 2.58556    2.438546   2.46925    -0.11631   0.29849   
2821.2     91.34372711181641 2.56504    2.439606   2.4616     -0.10344   0.30479   
2821.4     94.86344909667969 2.52983    2.436682   2.45628    -0.07355   0.31004   
2821.6     94.42767333984375 2.50125    2.416081   2.44458    -0.05667   0.32054   
2821.8     91.14260101318359 2.57113    2.419156   2.44921    -0.12192   0.31529   
2822       87.91619110107422 2.62121    2.434182   2.46475    -0.15646   0.30374   
2822.2     87.25415802001953 2.54425    2.432621   2.46491    -0.07934   0.30374   
2822.4     87.76535034179688 2.54318    2.404147   2.44826    -0.09492   0.31844   
2822.6     88.77098083496094 2.61127    2.42186    2.45497    -0.1563    0.31109   
2822.8     90.14536285400391 2.64119    2.425115   2.45497    -0.18622   0.31109   
2823       91.88007354736328 2.60751    2.401719   2.44068    -0.16683   0.32474   
2823.2     94.26844787597656 2.58457    2.417797   2.44568    -0.13889   0.31949   
2823.4     96.31324005126953 2.59254    2.423854   2.44444    -0.14811   0.31844   
2823.6     99.30499267578125 2.59013    2.441814   2.4472     -0.14293   0.31109   
2823.8     98.80217742919922 2.58009    2.44819    2.45284    -0.12725   0.30689   
2824       93.29633331298828 2.57122    2.448841   2.46608    -0.10515   0.30164   
2824.2     89.61739349365234 2.58753    2.456888   2.47478    -0.11275   0.29324   
2824.4     87.26252746582031 2.6256     2.468673   2.48394    -0.14166   0.28379   
2824.6     85.15908813476563 2.60455    2.490432   2.49872    -0.10583   0.26803   
2824.8     83.55007171630859 2.60249    2.484333   2.49758    -0.10491   0.27013   
2825       84.37970733642578 2.56316    2.472019   2.49149    -0.07167   0.27854   
2825.2     83.67577362060547 2.58412    2.477696   2.49503    -0.08909   0.27433   
2825.4     82.12541961669922 2.55617    2.47986    2.4969     -0.05927   0.27118   
2825.6     84.84062957763672 2.56065    2.486624   2.49787    -0.06278   0.27013   
2825.8     87.64803314208984 2.51747    2.476269   2.49049    -0.02698   0.27959   
2826       89.08943176269531 2.54327    2.47858    2.49049    -0.05278   0.27959   
2826.2     90.02803039550781 2.49892    2.475023   2.48568    -0.01324   0.28274   
2826.4     85.95522308349609 2.49632    2.466188   2.48414    -0.01218   0.28379   
2826.6     83.49978637695313 2.52365    2.461034   2.48389    -0.03975   0.28379   
2826.8     84.14507293701172 2.53064    2.447164   2.47617    -0.05447   0.29219   
2827       83.80986022949219 2.54336    2.442369   2.47329    -0.07007   0.29429   
2827.2     84.39647674560547 2.53915    2.47734    2.49364    -0.04551   0.27538   
2827.4     86.65915679931641 2.50206    2.46396    2.48212    -0.01993   0.28589   
2827.6     87.78211212158203 2.5284     2.431846   2.46172    -0.06667   0.30479   
2827.8     91.7711181640625 2.55223    2.424675   2.45307    -0.09916   0.31319   
2828       94.91372680664063 2.57991    2.412984   2.44236    -0.13755   0.32264   
2828.2     93.53936004638672 2.57794    2.412075   2.44392    -0.13403   0.32159   
2828.4     91.84654998779297 2.59443    2.428866   2.45451    -0.13991   0.31109   
2828.6     93.47232055664063 2.57203    2.441741   2.45984    -0.11219   0.30584   
2828.8     92.77675628662109 2.57239    2.440463   2.46013    -0.11226   0.30584   
2829       91.62027740478516 2.52177    2.445841   2.46693    -0.05484   0.30164   
2829.2     90.10344696044922 2.53449    2.44479    2.46716    -0.06733   0.30059   
2829.4     87.89942932128906 2.56361    2.466302   2.48186    -0.08175   0.28589   
2829.6     86.65915679931641 2.55635    2.472828   2.48979    -0.06656   0.28064   
2829.8     84.72331237792969 2.53744    2.463683   2.48411    -0.05334   0.28379   
2830       86.12281799316406 2.50636    2.464714   2.483      -0.02336   0.28484   
2830.2     92.43316650390625 2.52634    2.479987   2.48697    -0.03936   0.28169   
2830.4     94.33548736572266 2.54515    2.462788   2.47151    -0.07364   0.29429   
2830.6     92.72647094726563 2.58027    2.468954   2.4783     -0.10197   0.28904   
2830.8     90.59789276123047 2.57006    2.455041   2.472      -0.09805   0.29534   
2831       91.13421630859375 2.58027    2.443022   2.46485    -0.11542   0.30269   
2831.2     91.29344940185547 2.55026    2.443331   2.46485    -0.08541   0.30269   
2831.4     89.18998718261719 2.50887    2.429039   2.4598     -0.04907   0.30794   
2831.6     89.64253234863281 2.56414    2.423947   2.45497    -0.10917   0.31109   
2831.8     92.03090667724609 2.52428    2.459295   2.47272    -0.05155   0.29429   
2832       92.83541870117188 2.53162    2.475689   2.48196    -0.04966   0.28484   
2832.2     89.04753112792969 2.52804    2.473483   2.48568    -0.04235   0.28274   
2832.4     88.07541656494141 2.51962    2.480335   2.49121    -0.0284    0.27748   
2832.6     87.58097839355469 2.5688     2.47445    2.48953    -0.07928   0.28064   
2832.8     86.08928680419922 2.51863    2.451628   2.47625    -0.04238   0.29219   
2833       89.65928649902344 2.50098    2.45514    2.47318    -0.0278    0.29429   
2833.2     90.44703674316406 2.56244    2.46891    2.48082    -0.08163   0.28694   
2833.4     88.74584197998047 2.57749    2.455237   2.47478    -0.10271   0.29324   
2833.6     92.12310028076172 2.57516    2.446771   2.46659    -0.10857   0.30164   
2833.8     93.51422119140625 2.56853    2.452821   2.46671    -0.10183   0.29954   
2834       92.89408111572266 2.58099    2.449978   2.46647    -0.11452   0.30059   
2834.2     89.44140625 2.57454    2.437603   2.46476    -0.10978   0.30374   
2834.4     88.19274139404297 2.56387    2.457842   2.47723    -0.08664   0.29114   
2834.6     85.85465240478516 2.53709    2.476582   2.49153    -0.04556   0.27748   
2834.8     83.65062713623047 2.61665    2.492806   2.49843    -0.11822   0.26488   
2835       86.29042053222656 2.61315    2.488992   2.49787    -0.11528   0.27013   
2835.2     90.13697052001953 2.62596    2.475188   2.48568    -0.14028   0.28274   
2835.4     93.06168365478516 2.64442    2.427405   2.45222    -0.1922    0.31319   
2835.6     95.97802734375 2.56155    2.4291     2.44557    -0.11598   0.31529   
2835.8     97.58704376220703 2.56629    2.399746   2.41941    -0.14688   0.33209   
2836       98.91111755371094 2.56477    2.387451   2.40159    -0.16318   0.33944   
2836.2     100.2352   2.54085    2.407032   2.4213     -0.11955   0.33104   
2836.4     97.99767   2.50232    2.428763   2.44348    -0.05884   0.31739   
