~Version
 VERS              .         2.0                           : CWLS LOG ASCII STANDARD - VERSION 2.0
 WRAP              .         NO                            : ONE LINE PER DEPTH STEP
 DLM               .         SPACE                         : DELIMITING CHARACTER(SPACE TAB OR COMMA)
~Well Information
#_______________________________________________________________________________
#
#PARAMETER_NAME    .UNIT     VALUE                         : DESCRIPTION
#_______________________________________________________________________________
STRT               .m        2779                          : First reference value
STOP               .m        3001.8                        : Last reference value
STEP               .m        0.2                           : Step increment
NULL               .         -9999                         : Missing value
COMP               .                                       : Company
WELL               .         601                           : Well name
FLD                .                                       : Field
LOC                .                                       : Location
PROV               .                                       : Province
SRVC               .                                       : Service Company
DATE               .         2021-05-13 14_16_42           : Date
UWI                .                                       : Unique Well ID
API                .                                       : API NUMBER
CNTY               .                                       : COUNTY
Cartographic_reference_system .         GCS_WGS_1984                  : GEOGCS["GCS_WGS_1984",DATUM["D_WGS_1984",SPHEROID["WGS_1984",6378137.0,298.257223563]],PRIMEM["Greenwich",0.0],UNIT["Degree",0.0174532925199433],AUTHORITY["EPSG",4326]]
CTRY               .                                       : COUNTRY
EREF               .m        134                           : 
HZCS               .GCS_WGS_1984 World_Mercator                : PROJCS["World_Mercator",GEOGCS["GCS_WGS_1984",DATUM["D_WGS_1984",SPHEROID["WGS_1984",6378137.0,298.257223563]],PRIMEM["Greenwich",0.0],UNIT["Degree",0.0174532925199433]],PROJECTION["Mercator"],PARAMETER["False_Easting",0.0],PARAMETER["False_Northing",0.0],PARAMETER["Central_Meridian",0.0],PARAMETER["Standard_Parallel_1",0.0],UNIT["Meter",1.0],AUTHORITY["ESRI",54004]]
LATI               .dega     2.1305856004                  : GCS_WGS_1984
LONG               .dega     2.0279108213                  : GCS_WGS_1984
ORIGINALWELLNAME   .         601                           : 
PROJECT_UPGRADE_TIME .         2014-05-27T11_38_46           : 
Pad                .         Pad6                          : 
STAT               .                                       : STATE
X                  .m        225746                        : 
Y                  .m        235643                        : 
group              .         Pad6                          : 
Интер-р            .         Ярышев                        : 
Куст               .         6                             : 
Статус             .         Не проверено                  : 
Тип                .         Разведка                      : 
~Parameter Information Block
#_______________________________________________________________________________
#
#PARAMETER_NAME    .UNIT     VALUE                         : DESCRIPTION
#_______________________________________________________________________________
SET                .         Gam                           : 
TLFamily_DEPT      .         Measured Depth                : 
TLFamily_GR_NORM   .         Gamma Ray                     : 
TLFamily_RHOB_NORM .         Bulk Density                  : 
TLFamily_RHOB_TL1  .         Bulk Density                  : 
TLFamily_SYNTH_Bulk_Density .         Bulk Density                  : 
TLFamily_SYNTH_Bulk_Density_MISFIT .                                       : 
TLFamily_TNPH_NORM .         Neutron Porosity              : 
~Curve Information
#_______________________________________________________________________________
#
#LOGNAME           .UNIT     LOG_ID                        : DESCRIPTION
#_______________________________________________________________________________
DEPT               .m                                      :  
GR_NORM            .gAPI                                   : Gamma Ray 
RHOB_NORM          .g/cm3                                  : Bulk Density 
RHOB_TL1           .g/cm3                                  :  
SYNTH_Bulk_Density .G/C3                                   : Bulk Density 
SYNTH_Bulk_Density_MISFIT .                                       : Synthetic Bulk Density Misfit 
TNPH_NORM          .v/v                                    : Thermal Neutron Porosity 
~Ascii
# ...
2981.4     54.77219   2.61629    2.57744    2.49479    -0.1215    0.16512   
2981.6     61.74459   2.5843     2.557598   2.48073    -0.10357   0.19137   
2981.8     73.30936   2.53924    2.50393    2.49224    -0.047     0.24493   
2982       81.64775   2.61494    2.458639   2.48502    -0.12993   0.28274   
2982.2     82.28465   2.54327    2.414971   2.46021    -0.08306   0.30584   
2982.4     80.18958000000001 2.46568    2.434709   2.47247    0.00679    0.29324   
2982.6     70.25895   2.419      2.46054    2.48192    0.06291    0.26488   
2982.8     60.4624    2.40323    2.411828   2.46639    0.06316    0.27013   
2983       56.28903   2.42581    2.401991   2.44395    0.01814    0.26593   
2983.2     55.54318   2.46783    2.38017    2.43573    -0.0321    0.27328   
2983.4     55.66889   2.49596    2.411411   2.45088    -0.04509   0.26068   
2983.6     52.07375   2.46057    2.418399   2.45603    -0.00454   0.25018   
2983.8     53.08776   2.42223    2.425756   2.4568     0.03458    0.24913   
2984       59.84227   2.47186    2.435068   2.47092    -0.00094   0.25858   
2984.2     67.59402   2.44266    2.4559     2.47678    0.03412    0.26278   
2984.4     69.32874   2.45385    2.457547   2.48078    0.02692    0.26488   
2984.6     67.67782   2.43513    2.443412   2.47651    0.04138    0.26908   
2984.8     67.74487000000001 2.44561    2.441476   2.47593    0.03032    0.27013   
2985       69.37063999999999 2.48736    2.418283   2.46127    -0.02609   0.28379   
2985.2     71.34838999999999 2.42536    2.402421   2.4549     0.02954    0.29429   
2985.4     75.40443   2.42151    2.415128   2.46213    0.04062    0.29534   
2985.6     76.70338   2.39033    2.426214   2.4706     0.08027    0.29219   
2985.8     76.59444000000001 2.41604    2.381424   2.43844    0.02239    0.31214   
2986       78.65599   2.38209    2.379335   2.43816    0.05607    0.31634   
2986.2     80.60859000000001 2.47589    2.412034   2.4587     -0.01719   0.30479   
2986.4     84.79873000000001 2.53574    2.415694   2.45793    -0.07781   0.30899   
2986.6     90.49732   2.62444    2.435925   2.46082    -0.16362   0.30584   
2986.8     90.38      2.8082     2.441518   2.46498    -0.34322   0.30269   
2987       88.06704000000001 2.73348    2.428441   2.46081    -0.27266   0.30689   
2987.2     81.87402   2.6162     2.411494   2.45965    -0.15655   0.30689   
2987.4     84.70654999999999 2.49525    2.397497   2.44802    -0.04722   0.31739   
2987.6     96.925     2.43074    2.41299    2.43733    0.00659    0.32474   
2987.8     101.5258   2.38505    2.421023   2.43446    0.04942    0.32474   
2988       103.8722   2.36372    2.375739   2.38236    0.01863    0.34995   
2988.2     100.8805   2.44812    2.434973   2.4419     -0.00622   0.31634   
2988.4     97.42780999999999 2.53816    2.433504   2.44649    -0.09167   0.31424   
2988.6     92.86893999999999 2.53135    2.4189     2.44887    -0.08249   0.31739   
2988.8     86.99436   2.5525     2.415201   2.45334    -0.09916   0.31214   
2989       83.1143    2.51872    2.428179   2.46726    -0.05146   0.30059   
2989.2     76.14191   2.49641    2.426585   2.47135    -0.02506   0.29114   
2989.4     69.65557   2.49319    2.421676   2.46653    -0.02666   0.28274   
2989.6     67.51022   2.53977    2.436211   2.4746     -0.06518   0.27223   
2989.8     63.77262   2.51854    2.419109   2.46525    -0.05329   0.27328   
2990       59.08804   2.50689    2.400512   2.45948    -0.04741   0.27223   
2990.2     59.6998    2.49686    2.400917   2.45758    -0.03928   0.27328   
2990.4     62.44015   2.48476    2.367827   2.41659    -0.06817   0.29219   
2990.6     64.77825   2.43173    2.338864   2.37325    -0.05848   0.30794   
2990.8     74.44909   2.48091    2.39035    2.44505    -0.03587   0.30479   
2991       83.34894   2.48611    2.388512   2.4451     -0.041     0.31949   
2991.2     87.72345   2.44122    2.399551   2.44562    0.0044     0.32054   
2991.4     90.59789000000001 2.4233     2.400651   2.44199    0.01869    0.32369   
2991.6     86.75134   2.4457     2.353217   2.40263    -0.04307   0.33944   
2991.8     84.56408999999999 2.39562    2.360801   2.41934    0.02372    0.33314   
2992       84.20372999999999 2.46774    2.381772   2.43967    -0.02807   0.32369   
2992.2     85.80437000000001 2.48279    2.396232   2.44599    -0.0368    0.31949   
2992.4     87.39662   2.51245    2.36047    2.40906    -0.10339   0.33734   
2992.6     87.09492   2.5258     2.371836   2.42126    -0.10454   0.33209   
2992.8     86.39936   2.49829    2.424293   2.46108    -0.03721   0.30689   
2993       84.09479   2.44615    2.420225   2.46053    0.01438    0.30584   
2993.2     80.61696999999999 2.4905     2.369184   2.43216    -0.05834   0.32369   
2993.4     78.41296   2.48799    2.360718   2.42653    -0.06146   0.32369   
2993.6     79.67838   2.46084    2.350134   2.41469    -0.04616   0.32999   
2993.8     79.22584999999999 2.40924    2.29846    2.35831    -0.05092   0.3489    
2994       80.09739999999999 2.32995    2.322132   2.37974    0.04979    0.34155   
2994.2     78.03583999999999 2.25648    2.338025   2.4017     0.14522    0.33209   
2994.4     74.21445   2.14915    2.345724   2.40601    0.25686    0.32264   
2994.6     68.46558   1.99469    2.252393   2.25405    0.25936    0.34575   
2994.8     58.44276   1.88063    2.166625   2.08679    0.20615    0.3531    
2995       48.45347   1.76398    2.079887   1.91773    0.15374    0.3573    
2995.2     40.22404   1.72546    1.973256   1.81741    0.09195    0.3699    
2995.4     44.66558   1.862      2.077709   1.946      0.084      0.3489    
2995.6     59.44001   2.36381    2.251648   2.26732    -0.0965    0.32789   
2995.8     73.22557   2.5559     2.383023   2.44021    -0.1157    0.30584   
2996       75.48824   2.51962    2.424421   2.46926    -0.05036   0.29114   
2996.2     73.52725   2.53592    2.441875   2.48133    -0.05459   0.27959   
2996.4     69.99916   2.51119    2.445092   2.47981    -0.03139   0.27223   
2996.6     66.44592   2.58394    2.445459   2.4742     -0.10975   0.26593   
2996.8     67.52697999999999 2.5826     2.477827   2.48037    -0.10223   0.25123   
2997       70.76176   2.54318    2.485291   2.48537    -0.05781   0.25228   
2997.2     73.78704999999999 2.57015    2.461205   2.48865    -0.0815    0.27013   
2997.4     74.19768000000001 2.61199    2.426723   2.47128    -0.14071   0.28799   
2997.6     79.85436   2.5352     2.422993   2.46609    -0.06911   0.29849   
2997.8     89.27379999999999 2.55438    2.443091   2.46716    -0.08722   0.30059   
2998       94.20140000000001 2.53995    2.437391   2.45727    -0.08268   0.30899   
2998.2     96.89986   2.58278    2.424929   2.44417    -0.13861   0.31844   
2998.4     95.2238    2.59183    2.419756   2.4454     -0.14643   0.31949   
2998.6     95.15675   2.60186    2.392104   2.42182    -0.18004   0.33314   
2998.8     96.79091   2.60276    2.378026   2.39823    -0.20453   0.34155   
2999       96.64845   2.58269    2.351509   2.37889    -0.2038    0.3531    
2999.2     96.11211   2.57588    2.342492   2.37051    -0.20537   0.35625   
2999.4     93.82429   2.56513    2.300571   2.32212    -0.24301   0.3699    
2999.6     91.61189   2.53664    2.263381   2.30138    -0.23526   0.3804    
2999.8     93.08683000000001 2.57499    2.319908   2.34358    -0.2314    0.3615    
3000       94.15951   2.59523    2.344245   2.37897    -0.21626   0.3531    
3000.2     95.35787999999999 2.60222    2.342791   2.37868    -0.22354   0.3552    
3000.4     94.98077000000001 2.52105    2.359078   2.39036    -0.13069   0.34785   
3000.6     93.59802000000001 2.52419    2.362437   2.39327    -0.13092   0.3447    
3000.8     95.50035   2.53951    2.309068   2.3309     -0.2086    0.36885   
3001       97.41943000000001 2.57875    2.287779   2.32882    -0.24993   0.37935   
3001.2     95.56738   2.57964    2.298278   2.32786    -0.25179   0.37305   
3001.4     95.32436   2.58332    2.337595   2.37047    -0.21285   0.3573    
3001.6     94.27683   2.63403    2.369153   2.39562    -0.23841   0.3426    
