~Version
 VERS              .         2.0                           : CWLS LOG ASCII STANDARD - VERSION 2.0
 WRAP              .         NO                            : ONE LINE PER DEPTH STEP
 DLM               .         SPACE                         : DELIMITING CHARACTER(SPACE TAB OR COMMA)
~Well Information
#_______________________________________________________________________________
#
#PARAMETER_NAME    .UNIT     VALUE                         : DESCRIPTION
#_______________________________________________________________________________
STRT               .m        2779                          : First reference value
STOP               .m        3001.8                        : Last reference value
STEP               .m        0.2                           : Step increment
NULL               .         -9999                         : Missing value
COMP               .                                       : Company
WELL               .         601                           : Well name
FLD                .                                       : Field
LOC                .                                       : Location
PROV               .                                       : Province
SRVC               .                                       : Service Company
DATE               .         2021-05-13 14_16_42           : Date
UWI                .                                       : Unique Well ID
API                .                                       : API NUMBER
CNTY               .                                       : COUNTY
Cartographic_reference_system .         GCS_WGS_1984                  : GEOGCS["GCS_WGS_1984",DATUM["D_WGS_1984",SPHEROID["WGS_1984",6378137.0,298.257223563]],PRIMEM["Greenwich",0.0],UNIT["Degree",0.0174532925199433],AUTHORITY["EPSG",4326]]
CTRY               .                                       : COUNTRY
EREF               .m        134                           : 
HZCS               .GCS_WGS_1984 World_Mercator                : PROJCS["World_Mercator",GEOGCS["GCS_WGS_1984",DATUM["D_WGS_1984",SPHEROID["WGS_1984",6378137.0,298.257223563]],PRIMEM["Greenwich",0.0],UNIT["Degree",0.0174532925199433]],PROJECTION["Mercator"],PARAMETER["False_Easting",0.0],PARAMETER["False_Northing",0.0],PARAMETER["Central_Meridian",0.0],PARAMETER["Standard_Parallel_1",0.0],UNIT["Meter",1.0],AUTHORITY["ESRI",54004]]
LATI               .dega     2.1305856004                  : GCS_WGS_1984
LONG               .dega     2.0279108213                  : GCS_WGS_1984
ORIGINALWELLNAME   .         601                           : 
PROJECT_UPGRADE_TIME .         2014-05-27T11_38_46           : 
Pad                .         Pad6                          : 
STAT               .                                       : STATE
X                  .m        225746                        : 
Y                  .m        235643                        : 
group              .         Pad6                          : 
Интер-р            .         Ярышев                        : 
Куст               .         6                             : 
Статус             .         Не проверено                  : 
Тип                .         Разведка                      : 
~Parameter Information Block
#_______________________________________________________________________________
#
#PARAMETER_NAME    .UNIT     VALUE                         : DESCRIPTION
#_______________________________________________________________________________
SET                .         Gam                           : 
TLFamily_DEPT      .         Measured Depth                : 
TLFamily_GR_NORM   .         Gamma Ray                     : 
TLFamily_RHOB_NORM .         Bulk Density                  : 
TLFamily_RHOB_TL1  .         Bulk Density                  : 
TLFamily_SYNTH_Bulk_Density .         Bulk Density                  : 
TLFamily_SYNTH_Bulk_Density_MISFIT .                                       : 
TLFamily_TNPH_NORM .         Neutron Porosity              : 
~Curve Information
#_______________________________________________________________________________
#
#LOGNAME           .UNIT     LOG_ID                        : DESCRIPTION
#_______________________________________________________________________________
DEPT               .m                                      :  
GR_NORM            .gAPI                                   : Gamma Ray 
RHOB_NORM          .g/cm3                                  : Bulk Density 
RHOB_TL1           .g/cm3                                  :  
SYNTH_Bulk_Density .G/C3                                   : Bulk Density 
SYNTH_Bulk_Density_MISFIT .                                       : Synthetic Bulk Density Misfit 
TNPH_NORM          .v/v                                    : Thermal Neutron Porosity 
~Ascii
# ...
2898.8     94.77126   2.3493     2.451245   2.46532    0.11603    0.30164   
2899       101.2325   2.30549    2.437238   2.44193    0.13644    0.31529   
2899.2     109.8139   2.3037     2.421856   2.42064    0.11694    0.32999   
2899.4     115.3951   2.31104    2.430268   2.42622    0.11518    0.32684   
2899.6     117.6159   2.29482    2.445125   2.43335    0.13853    0.31634   
2899.8     112.3112   2.3467     2.453238   2.44326    0.09656    0.31004   
2900       104.308    2.34016    2.430311   2.437      0.09684    0.32159   
2900.2     99.31338   2.42044    2.432731   2.44241    0.02197    0.31634   
2900.4     97.00879999999999 2.43737    2.428997   2.44492    0.00755    0.31634   
2900.6     102.0621   2.40574    2.431111   2.4398     0.03406    0.31949   
2900.8     108.4898   2.35512    2.424134   2.42748    0.07236    0.32789   
2901       112.1603   2.29913    2.404273   2.39302    0.09389    0.34155   
2901.2     117.5321   2.28658    2.40843    2.38946    0.10288    0.34155   
2901.4     126.9683   2.26329    2.380127   2.33478    0.07149    0.3615    
2901.6     132.206    2.25182    2.367944   2.31456    0.06274    0.3699    
2901.8     131.0076   2.26499    2.390485   2.33946    0.07447    0.3552    
2902       130.4796   2.26427    2.414668   2.37263    0.10836    0.33734   
2902.2     131.9546   2.2735     2.388881   2.33501    0.0615     0.35625   
2902.4     138.5498   2.24591    2.368214   2.30647    0.06057    0.3699    
2902.6     146.6787   2.22718    2.385712   2.33197    0.10478    0.35205   
2902.8     153.3829   2.20953    2.389157   2.35388    0.14434    0.33839   
2903       153.5505   2.19788    2.391831   2.36713    0.16925    0.33419   
2903.2     150.7012   2.21598    2.396358   2.36713    0.15115    0.33419   
2903.4     143.7205   2.2227     2.400337   2.3524     0.1297     0.3405    
2903.6     133.8904   2.2107     2.381054   2.31856    0.10786    0.3615    
2903.8     133.22     2.2434     2.361305   2.30676    0.06336    0.3741    
2904       138.9856   2.22458    2.353827   2.30059    0.07601    0.37935   
2904.2     144.9859   2.24412    2.372843   2.30721    0.06309    0.36465   
2904.4     150.3576   2.26526    2.364276   2.30462    0.03936    0.36885   
2904.6     161.3023   2.25809    2.344342   2.2988     0.0407     0.37935   
2904.8     159.9698   2.26535    2.356668   2.30391    0.03856    0.3678    
2905       138.9269   2.27852    2.375589   2.30721    0.02869    0.36465   
2905.2     120.1467   2.31767    2.387165   2.36433    0.04666    0.3552    
2905.4     120.5406   2.35297    2.391034   2.36552    0.01255    0.3531    
2905.6     120.6579   2.36274    2.419221   2.39837    0.03563    0.33524   
2905.8     115.5125   2.44955    2.428748   2.42429    -0.02527   0.32789   
2906       117.0125   2.50053    2.449234   2.43654    -0.06399   0.31319   
2906.2     123.6413   2.57848    2.450276   2.43167    -0.14681   0.31004   
2906.4     129.6165   2.6205     2.439953   2.41063    -0.20987   0.31529   
2906.6     135.424    2.54864    2.42577    2.39414    -0.15451   0.32369   
2906.8     131.0244   2.444      2.441569   2.41069    -0.03331   0.31214   
2907       119.8367   2.42438    2.439416   2.4282     0.00383    0.32054   
2907.2     117.7332   2.45305    2.413574   2.393      -0.06005   0.33839   
2907.4     116.6941   2.43764    2.404462   2.38755    -0.05008   0.34365   
2907.6     116.3421   2.4147     2.398862   2.38242    -0.03228   0.3468    
2907.8     114.842    2.41157    2.404867   2.38793    -0.02364   0.3426    
2908       108.892    2.46004    2.380356   2.37713    -0.08291   0.35205   
2908.2     111.3558   2.47984    2.379877   2.37499    -0.10485   0.35415   
2908.4     116.6689   2.45815    2.424444   2.41464    -0.04352   0.33104   
2908.6     119.5098   2.41954    2.429571   2.41975    0.00021    0.32789   
2908.8     117.6997   2.43083    2.447808   2.43544    0.00462    0.31424   
2909       116.6605   2.43862    2.479001   2.46366    0.02504    0.28694   
2909.2     116.9371   2.43352    2.461989   2.44746    0.01395    0.30269   
2909.4     115.261    2.43647    2.439325   2.43246    -0.00401   0.32054   
2909.6     111.9006   2.42787    2.40771    2.3969     -0.03097   0.33944   
2909.8     108.7077   2.407      2.382158   2.37984    -0.02716   0.351     
2910       108.0205   2.41004    2.381063   2.37993    -0.03012   0.351     
2910.2     107.392    2.45072    2.404401   2.39938    -0.05134   0.33839   
2910.4     99.53127000000001 2.4767     2.415823   2.43499    -0.04171   0.32579   
2910.6     90.28780999999999 2.48665    2.386229   2.42886    -0.05778   0.32999   
2910.8     86.49155   2.45457    2.38434    2.43969    -0.01488   0.32579   
2911       94.36063   2.41954    2.405465   2.43987    0.02033    0.32579   
2911.2     111.1715   2.35261    2.422995   2.41947    0.06686    0.32999   
2911.4     115.1856   2.48243    2.423835   2.41501    -0.06742   0.33104   
2911.6     114.5571   2.46021    2.409976   2.39531    -0.0649    0.33944   
2911.8     118.3366   2.41515    2.420255   2.40485    -0.0103    0.33419   
2912       119.5266   2.42035    2.40096    2.3778     -0.04255   0.3468    
2912.2     114.4146   2.47186    2.418466   2.40793    -0.06394   0.33419   
2912.4     111.9676   2.4638     2.426942   2.42587    -0.03793   0.32789   
2912.6     107.0651   2.49892    2.443202   2.43928    -0.05964   0.31529   
2912.8     98.30774   2.52329    2.443997   2.45241    -0.07087   0.30899   
2913       94.57850999999999 2.47348    2.471414   2.47729    0.00382    0.28904   
2913.2     109.9479   2.4896     2.468062   2.45525    -0.03435   0.29849   
2913.4     127.0521   2.43119    2.432851   2.41087    -0.02031   0.32369   
2913.6     127.2867   2.43997    2.433915   2.41186    -0.02811   0.32264   
2913.8     122.091    2.48942    2.44522    2.42628    -0.06314   0.31529   
2914       117.222    2.47598    2.459449   2.44442    -0.03157   0.30479   
2914.2     110.1826   2.45045    2.462661   2.45132    0.00087    0.30269   
2914.4     104.5929   2.45923    2.439355   2.44054    -0.01869   0.31634   
2914.6     104.9952   2.4182     2.46062    2.45427    0.03608    0.30269   
2914.8     107.5344   2.4474     2.487135   2.47335    0.02594    0.28274   
2915       110.2245   2.47061    2.457044   2.44754    -0.02307   0.30689   
2915.2     112.8391   2.42169    2.447597   2.43822    0.01653    0.31424   
2915.4     114.3811   2.42841    2.449278   2.43773    0.00932    0.31319   
2915.6     113.7777   2.49489    2.453411   2.44241    -0.05248   0.31004   
2915.8     111.5486   2.49507    2.455927   2.44552    -0.04955   0.30794   
2916       109.596    2.49749    2.428567   2.43104    -0.06645   0.32579   
2916.2     103.2353   2.50206    2.387535   2.39329    -0.10877   0.34365   
2916.4     107.1741   2.47975    2.404107   2.39938    -0.08037   0.33839   
2916.6     113.6688   2.45609    2.427939   2.42467    -0.03142   0.32789   
2916.8     115.1018   2.44095    2.436304   2.43008    -0.01087   0.32264   
2917       117.0628   2.50582    2.429216   2.4231     -0.08272   0.32789   
2917.2     117.574    2.50044    2.429328   2.42243    -0.07801   0.32789   
2917.4     113.6353   2.49883    2.438895   2.43285    -0.06598   0.32054   
2917.6     115.2862   2.4939     2.446536   2.43513    -0.05877   0.31529   
2917.8     120.0378   2.46917    2.444687   2.42878    -0.04039   0.31634   
2918       123.415    2.45036    2.425062   2.40296    -0.0474    0.33104   
2918.2     125.6023   2.47321    2.424546   2.39857    -0.07464   0.33104   
2918.4     124.1693   2.46487    2.429005   2.41288    -0.05199   0.32789   
2918.6     124.7308   2.45959    2.41193    2.37763    -0.08196   0.34049   
2918.8     124.9989   2.44113    2.397957   2.36181    -0.07932   0.34995   
2919       126.256    2.39938    2.393345   2.35173    -0.04765   0.3531    
2919.2     127.9739   2.376      2.38046    2.33198    -0.04402   0.3615    
2919.4     126.1973   2.44212    2.376293   2.33327    -0.10884   0.3636    
