~Version
 VERS              .         2.0                           : CWLS LOG ASCII STANDARD - VERSION 2.0
 WRAP              .         NO                            : ONE LINE PER DEPTH STEP
 DLM               .         SPACE                         : DELIMITING CHARACTER(SPACE TAB OR COMMA)
~Well Information
#_______________________________________________________________________________
#
#PARAMETER_NAME    .UNIT     VALUE                         : DESCRIPTION
#_______________________________________________________________________________
STRT               .m        2779                          : First reference value
STOP               .m        3001.8                        : Last reference value
STEP               .m        0.2                           : Step increment
NULL               .         -9999                         : Missing value
COMP               .                                       : Company
WELL               .         601                           : Well name
FLD                .                                       : Field
LOC                .                                       : Location
PROV               .                                       : Province
SRVC               .                                       : Service Company
DATE               .         2021-05-13 14_16_42           : Date
UWI                .                                       : Unique Well ID
API                .                                       : API NUMBER
CNTY               .                                       : COUNTY
Cartographic_reference_system .         GCS_WGS_1984                  : GEOGCS["GCS_WGS_1984",DATUM["D_WGS_1984",SPHEROID["WGS_1984",6378137.0,298.257223563]],PRIMEM["Greenwich",0.0],UNIT["Degree",0.0174532925199433],AUTHORITY["EPSG",4326]]
CTRY               .                                       : COUNTRY
EREF               .m        134                           : 
HZCS               .GCS_WGS_1984 World_Mercator                : PROJCS["World_Mercator",GEOGCS["GCS_WGS_1984",DATUM["D_WGS_1984",SPHEROID["WGS_1984",6378137.0,298.257223563]],PRIMEM["Greenwich",0.0],UNIT["Degree",0.0174532925199433]],PROJECTION["Mercator"],PARAMETER["False_Easting",0.0],PARAMETER["False_Northing",0.0],PARAMETER["Central_Meridian",0.0],PARAMETER["Standard_Parallel_1",0.0],UNIT["Meter",1.0],AUTHORITY["ESRI",54004]]
LATI               .dega     2.1305856004                  : GCS_WGS_1984
LONG               .dega     2.0279108213                  : GCS_WGS_1984
ORIGINALWELLNAME   .         601                           : 
PROJECT_UPGRADE_TIME .         2014-05-27T11_38_46           : 
Pad                .         Pad6                          : 
STAT               .                                       : STATE
X                  .m        225746                        : 
Y                  .m        235643                        : 
group              .         Pad6                          : 
Интер-р            .         Ярышев                        : 
Куст               .         6                             : 
Статус             .         Не проверено                  : 
Тип                .         Разведка                      : 
~Parameter Information Block
#_______________________________________________________________________________
#
#PARAMETER_NAME    .UNIT     VALUE                         : DESCRIPTION
#_______________________________________________________________________________
SET                .         Gam                           : 
TLFamily_DEPT      .         Measured Depth                : 
TLFamily_GR_NORM   .         Gamma Ray                     : 
TLFamily_RHOB_NORM .         Bulk Density                  : 
TLFamily_RHOB_TL1  .         Bulk Density                  : 
TLFamily_SYNTH_Bulk_Density .         Bulk Density                  : 
TLFamily_SYNTH_Bulk_Density_MISFIT .                                       : 
TLFamily_TNPH_NORM .         Neutron Porosity              : 
~Curve Information
#_______________________________________________________________________________
#
#LOGNAME           .UNIT     LOG_ID                        : DESCRIPTION
#_______________________________________________________________________________
DEPT               .m                                      :  
GR_NORM            .gAPI                                   : Gamma Ray 
RHOB_NORM          .g/cm3                                  : Bulk Density 
RHOB_TL1           .g/cm3                                  :  
SYNTH_Bulk_Density .G/C3                                   : Bulk Density 
SYNTH_Bulk_Density_MISFIT .                                       : Synthetic Bulk Density Misfit 
TNPH_NORM          .v/v                                    : Thermal Neutron Porosity 
~Ascii
# ...
2878       224.984    2.36614    2.284511   2.28932    -0.07683   0.38565   
2878.2     237.8142   2.38299    2.280659   2.28738    -0.09561   0.39195   
2878.4     244.8201   2.34195    2.271591   2.2919     -0.05005   0.37305   
2878.6     247.8705   2.32851    2.266936   2.29492    -0.03359   0.3657    
2878.8     258.7901   2.32797    2.26035    2.3081     -0.01987   0.3594    
2879       282.0453   2.30423    2.253841   2.31811    0.01387    0.351     
2879.2     315.8095   2.29258    2.284807   2.28902    -0.00356   0.3762    
2879.4     343.9253   2.25379    2.300945   2.28804    0.03425    0.37725   
2879.6     353.4788   2.25092    2.266147   2.35965    0.10873    0.32894   
2879.8     350.6714   2.24349    2.265323   2.35704    0.11355    0.32999   
2880       352.9257   2.25621    2.283337   2.32033    0.06412    0.3489    
2880.2     365.4961   2.2184     2.293911   2.3146     0.09619    0.35205   
2880.4     383.7484   2.27941    2.304866   2.31811    0.03869    0.351     
2880.6     404.3555   2.23766    2.322413   2.30902    0.07135    0.35625   
2880.8     407.8752   2.21912    2.319802   2.31811    0.09899    0.34995   
2881       380.4717   2.21858    2.303584   2.3146     0.09601    0.35205   
2881.2     351.0318   2.18758    2.273981   2.3357     0.14812    0.33944   
2881.4     333.0645   2.21437    2.267049   2.32893    0.11456    0.34365   
2881.6     313.7144   2.21392    2.266232   2.31415    0.10023    0.35415   
2881.8     292.4034   2.23507    2.258426   2.31415    0.07909    0.35415   
2882       275.1735   2.23578    2.256391   2.31342    0.07764    0.3552    
2882.2     256.938    2.27234    2.262031   2.29991    0.02757    0.3615    
2882.4     238.6858   2.29178    2.273592   2.29242    0.00064    0.372     
2882.6     236.222    2.27843    2.277413   2.28912    0.01069    0.37935   
2882.8     251.692    2.26616    2.278429   2.28676    0.02061    0.39195   
2883       264.9412   2.24331    2.260211   2.29913    0.05582    0.36045   
2883.2     270.0615   2.22897    2.248561   2.3274     0.09843    0.3447    
2883.4     270.7822   2.18687    2.267757   2.29063    0.10377    0.372     
2883.6     267.8156   2.20998    2.283473   2.28324    0.07326    0.40035   
2883.8     265.2596   2.21786    2.27992    2.28558    0.06771    0.39405   
2884       274.2265   2.21132    2.281544   2.28558    0.07425    0.39405   
2884.2     278.1653   2.18677    2.290015   2.28324    0.09646    0.40771   
2884.4     267.9916   2.18418    2.286497   2.28324    0.09906    0.40666   
2884.6     259.6951   2.17405    2.278885   2.28678    0.11272    0.393     
2884.8     262.0835   2.18489    2.270142   2.28949    0.1046     0.3762    
2885       266.0474   2.16276    2.260133   2.29913    0.13637    0.36045   
2885.2     260.1896   2.17074    2.255953   2.31522    0.14448    0.3531    
2885.4     251.5244   2.18382    2.259066   2.31562    0.1318     0.35415   
2885.6     239.0042   2.16859    2.269322   2.29628    0.1277     0.36255   
2885.8     229.9619   2.16492    2.273925   2.31302    0.14811    0.3594    
2886       227.9171   2.16671    2.278088   2.29557    0.12886    0.36675   
2886.2     225.6293   2.16509    2.281271   2.29405    0.12896    0.372     
2886.4     215.221    2.18534    2.290604   2.29206    0.10672    0.38355   
2886.6     193.1054   2.20711    2.313319   2.29935    0.09224    0.37305   
2886.8     172.2553   2.24429    2.348601   2.3233     0.079      0.35625   
2887       164.1013   2.27431    2.355374   2.30625    0.03194    0.3636    
2887.2     165.2578   2.28407    2.349057   2.30282    0.01874    0.3699    
2887.4     167.026    2.26275    2.355798   2.32355    0.0608     0.3573    
2887.6     166.9841   2.22369    2.357786   2.32902    0.10533    0.35415   
2887.8     163.2381   2.22673    2.362612   2.32821    0.10148    0.3552    
2888       161.4867   2.28757    2.361105   2.31173    0.02417    0.36045   
2888.2     155.4612   2.32941    2.371129   2.32417    -0.00524   0.3573    
2888.4     145.5306   2.27852    2.387913   2.33613    0.05761    0.351     
2888.6     143.2428   2.27843    2.386461   2.33168    0.05325    0.35415   
2888.8     144.3741   2.277      2.391215   2.33836    0.06136    0.3489    
2889       139.0694   2.26481    2.39437    2.33613    0.07132    0.34995   
2889.2     131.0914   2.29509    2.407751   2.35656    0.06147    0.3426    
2889.4     122.7446   2.30352    2.425153   2.40349    0.09997    0.33104   
2889.6     115.8896   2.30208    2.433486   2.42789    0.12581    0.32474   
2889.8     111.2469   2.34509    2.391801   2.38445    0.03937    0.34785   
2890       112.5626   2.34554    2.371203   2.36761    0.02207    0.3594    
2890.2     119.8115   2.3321     2.373702   2.34718    0.01509    0.36255   
2890.4     128.4181   2.32484    2.399765   2.35593    0.03109    0.3489    
2890.6     135.5665   2.29106    2.39903    2.3449     0.05384    0.34785   
2890.8     140.2762   2.27332    2.399433   2.34522    0.0719     0.3447    
2891       141.0388   2.26965    2.39053    2.33262    0.06297    0.35205   
2891.2     149.4107   2.25057    2.386833   2.34094    0.09037    0.34785   
2891.4     159.1569   2.26535    2.379797   2.35317    0.08782    0.33839   
2891.6     139.4549   2.29715    2.394108   2.33613    0.03898    0.34995   
2891.8     122.3172   2.32045    2.397147   2.36503    0.04458    0.34995   
2892       120.6496   2.32448    2.391101   2.36552    0.04104    0.3531    
2892.2     121.9988   2.32896    2.406933   2.37809    0.04913    0.34365   
2892.4     115.2108   2.32574    2.425457   2.41771    0.09197    0.32999   
2892.6     106.8472   2.32878    2.439744   2.43928    0.1105     0.31739   
2892.8     99.38879   2.34258    2.441928   2.4472     0.10462    0.31109   
2893       97.55351   2.3312     2.442909   2.45303    0.12183    0.30899   
2893.2     99.02844   2.37313    2.446741   2.45197    0.07884    0.30794   
2893.4     98.13176   2.35951    2.485572   2.48109    0.12158    0.28169   
2893.6     95.31598   2.35091    2.489152   2.48888    0.13797    0.27748   
2893.8     97.39429   2.34392    2.458378   2.46241    0.11848    0.29954   
2894       102.0453   2.36068    2.456801   2.45546    0.09478    0.30374   
2894.2     103.3778   2.37707    2.432776   2.43917    0.0621     0.31949   
2894.4     103.6879   2.38971    2.427755   2.43632    0.04661    0.32264   
2894.6     105.4896   2.36041    2.40367    2.40415    0.04374    0.33734   
2894.8     106.7299   2.37259    2.372393   2.37715    0.00455    0.35415   
2895       106.8891   2.36283    2.399763   2.39672    0.03389    0.3405    
2895.2     103.6124   2.33649    2.39245    2.39728    0.06079    0.34155   
2895.4     99.76591000000001 2.32099    2.36443    2.38301    0.06202    0.351     
2895.6     103.3191   2.27529    2.332031   2.35286    0.07757    0.36885   
2895.8     107.3249   2.27726    2.360147   2.36173    0.08447    0.36045   
2896       111.3223   2.26033    2.405287   2.39442    0.13409    0.34049   
2896.2     115.0431   2.24438    2.420494   2.41125    0.16687    0.33314   
2896.4     114.666    2.24591    2.420286   2.41125    0.16534    0.33314   
2896.6     111.6575   2.30701    2.431682   2.42984    0.12283    0.32474   
2896.8     106.1517   2.35432    2.432317   2.43574    0.08142    0.32159   
2897       98.02281000000001 2.33864    2.419088   2.43807    0.09943    0.32264   
2897.2     97.15965   2.29088    2.411407   2.43631    0.14542    0.32579   
2897.4     105.7829   2.32197    2.415639   2.41953    0.09755    0.33104   
2897.6     112.2693   2.31221    2.396877   2.38541    0.0732     0.34575   
2897.8     108.23     2.30647    2.405492   2.3986     0.09213    0.33839   
2898       100.0844   2.3295     2.441081   2.44619    0.11669    0.31214   
2898.2     93.17901000000001 2.33676    2.455845   2.46891    0.13216    0.29744   
2898.4     91.15936000000001 2.37429    2.454229   2.47093    0.09663    0.29639   
2898.6     92.26555999999999 2.36749    2.441398   2.46127    0.09378    0.30479   
