~Version
 VERS              .         2.0                           : CWLS LOG ASCII STANDARD - VERSION 2.0
 WRAP              .         NO                            : ONE LINE PER DEPTH STEP
 DLM               .         SPACE                         : DELIMITING CHARACTER(SPACE TAB OR COMMA)
~Well Information
#_______________________________________________________________________________
#
#PARAMETER_NAME    .UNIT     VALUE                         : DESCRIPTION
#_______________________________________________________________________________
STRT               .m        2779                          : First reference value
STOP               .m        3001.8                        : Last reference value
STEP               .m        0.2                           : Step increment
NULL               .         -9999                         : Missing value
COMP               .                                       : Company
WELL               .         601                           : Well name
FLD                .                                       : Field
LOC                .                                       : Location
PROV               .                                       : Province
SRVC               .                                       : Service Company
DATE               .         2021-05-13 14_16_42           : Date
UWI                .                                       : Unique Well ID
API                .                                       : API NUMBER
CNTY               .                                       : COUNTY
Cartographic_reference_system .         GCS_WGS_1984                  : GEOGCS["GCS_WGS_1984",DATUM["D_WGS_1984",SPHEROID["WGS_1984",6378137.0,298.257223563]],PRIMEM["Greenwich",0.0],UNIT["Degree",0.0174532925199433],AUTHORITY["EPSG",4326]]
CTRY               .                                       : COUNTRY
EREF               .m        134                           : 
HZCS               .GCS_WGS_1984 World_Mercator                : PROJCS["World_Mercator",GEOGCS["GCS_WGS_1984",DATUM["D_WGS_1984",SPHEROID["WGS_1984",6378137.0,298.257223563]],PRIMEM["Greenwich",0.0],UNIT["Degree",0.0174532925199433]],PROJECTION["Mercator"],PARAMETER["False_Easting",0.0],PARAMETER["False_Northing",0.0],PARAMETER["Central_Meridian",0.0],PARAMETER["Standard_Parallel_1",0.0],UNIT["Meter",1.0],AUTHORITY["ESRI",54004]]
LATI               .dega     2.1305856004                  : GCS_WGS_1984
LONG               .dega     2.0279108213                  : GCS_WGS_1984
ORIGINALWELLNAME   .         601                           : 
PROJECT_UPGRADE_TIME .         2014-05-27T11_38_46           : 
Pad                .         Pad6                          : 
STAT               .                                       : STATE
X                  .m        225746                        : 
Y                  .m        235643                        : 
group              .         Pad6                          : 
Интер-р            .         Ярышев                        : 
Куст               .         6                             : 
Статус             .         Не проверено                  : 
Тип                .         Разведка                      : 
~Parameter Information Block
#_______________________________________________________________________________
#
#PARAMETER_NAME    .UNIT     VALUE                         : DESCRIPTION
#_______________________________________________________________________________
SET                .         Gam                           : 
TLFamily_DEPT      .         Measured Depth                : 
TLFamily_GR_NORM   .         Gamma Ray                     : 
TLFamily_RHOB_NORM .         Bulk Density                  : 
TLFamily_RHOB_TL1  .         Bulk Density                  : 
TLFamily_SYNTH_Bulk_Density .         Bulk Density                  : 
TLFamily_SYNTH_Bulk_Density_MISFIT .                                       : 
TLFamily_TNPH_NORM .         Neutron Porosity              : 
~Curve Information
#_______________________________________________________________________________
#
#LOGNAME           .UNIT     LOG_ID                        : DESCRIPTION
#_______________________________________________________________________________
DEPT               .m                                      :  
GR_NORM            .gAPI                                   : Gamma Ray 
RHOB_NORM          .g/cm3                                  : Bulk Density 
RHOB_TL1           .g/cm3                                  :  
SYNTH_Bulk_Density .G/C3                                   : Bulk Density 
SYNTH_Bulk_Density_MISFIT .                                       : Synthetic Bulk Density Misfit 
TNPH_NORM          .v/v                                    : Thermal Neutron Porosity 
~Ascii
# ...
2836.6     95.86069000000001 2.55017    2.459781   2.46591    -0.08426   0.29744   
2836.8     93.67345   2.57346    2.481467   2.48603    -0.08743   0.28169   
2837       91.64542   2.61064    2.480574   2.48941    -0.12124   0.28064   
2837.2     90.9331    2.5628     2.477996   2.4873     -0.0755    0.28169   
2837.4     90.9331    2.55447    2.498105   2.49833    -0.05614   0.26803   
2837.6     91.2264    2.53718    2.476773   2.48556    -0.05162   0.28274   
2837.8     93.95      2.53664    2.465632   2.4743     -0.06234   0.29219   
2838       96.17077   2.52221    2.477941   2.47786    -0.04436   0.28589   
2838.2     96.25458   2.49605    2.48258    2.48133    -0.01472   0.28274   
2838.4     95.40816   2.48503    2.49212    2.49122    0.00618    0.27538   
2838.6     96.25458   2.48835    2.501001   2.494      0.00565    0.26908   
2838.8     97.62894   2.48082    2.504278   2.49304    0.01221    0.26698   
2839       97.69598000000001 2.48261    2.51053    2.49348    0.01086    0.26173   
2839.2     94.94725   2.47383    2.518161   2.49912    0.02529    0.25438   
2839.4     83.56683   2.4784     2.524026   2.50158    0.02317    0.24283   
2839.6     69.15276   2.54228    2.493723   2.48382    -0.05846   0.24493   
2839.8     62.1636    2.56083    2.497346   2.47769    -0.08314   0.23128   
2840       57.93156   2.50931    2.508011   2.47307    -0.03624   0.21763   
2840.2     54.92305   2.53691    2.482258   2.46764    -0.06926   0.22603   
2840.4     58.31705   2.51102    2.466278   2.47089    -0.04013   0.24073   
2840.6     67.63592   2.52033    2.46019    2.4781     -0.04223   0.26068   
2840.8     67.45994   2.52938    2.4596     2.47683    -0.05256   0.26068   
2841       67.47669999999999 2.52177    2.467803   2.47936    -0.04241   0.25648   
2841.2     67.0912    2.50519    2.497119   2.48058    -0.02461   0.23968   
2841.4     64.30895   2.49704    2.505453   2.47835    -0.01869   0.23023   
2841.6     66.00176999999999 2.46586    2.494041   2.4788     0.01294    0.23968   
2841.8     66.56325   2.48073    2.486384   2.47887    -0.00186   0.24493   
2842       65.32297   2.44409    2.497566   2.47805    0.03396    0.23653   
2842.2     68.66669   2.475      2.523015   2.48459    0.00959    0.22603   
2842.4     70.32599   2.53377    2.531059   2.48681    -0.04696   0.22288   
2842.6     67.05768999999999 2.6136     2.542443   2.48196    -0.13164   0.21027   
2842.8     59.49867   2.65042    2.574667   2.48911    -0.16131   0.17457   
2843       50.93403   2.67058    2.569136   2.49169    -0.17889   0.16512   
2843.2     46.55953   2.59595    2.566836   2.5017     -0.09425   0.15882   
2843.4     45.336     2.56719    2.567994   2.50947    -0.05772   0.15567   
2843.6     44.31361   2.67408    2.559088   2.50095    -0.17312   0.15987   
2843.8     43.40016   2.6179     2.557954   2.50072    -0.11718   0.15882   
2844       43.26608   2.67757    2.547891   2.48778    -0.18979   0.16512   
2844.2     41.39727   2.70472    2.531225   2.47641    -0.22831   0.17142   
2844.4     40.60115   2.68931    2.547495   2.50072    -0.18859   0.15987   
2844.6     41.69897   2.66422    2.565324   2.51807    -0.14615   0.15041   
2844.8     41.5146    2.69173    2.575208   2.54782    -0.1439    0.14306   
2845       41.02016   2.73312    2.575308   2.54782    -0.1853    0.14201   
2845.2     41.52298   2.68268    2.566334   2.51807    -0.16461   0.14936   
2845.4     44.36389   2.63483    2.539737   2.47664    -0.15819   0.17247   
2845.6     48.62108   2.63197    2.50591    2.46292    -0.16905   0.20082   
2845.8     56.07114   2.49014    2.48849    2.46817    -0.02197   0.22498   
2846       61.55184   2.43253    2.506429   2.47772    0.04519    0.22498   
2846.2     64.05755000000001 2.42653    2.506517   2.47835    0.05182    0.22918   
2846.4     64.34247999999999 2.46935    2.492841   2.47728    0.00792    0.23758   
2846.6     64.97938000000001 2.49274    2.471655   2.4772     -0.01554   0.25018   
2846.8     72.70599   2.47276    2.481262   2.49067    0.01791    0.25753   
2847       81.82374   2.5086     2.516186   2.50058    -0.00802   0.24703   
2847.2     84.10316   2.58036    2.516297   2.50116    -0.0792    0.24913   
2847.4     77.60007   2.60885    2.491236   2.49769    -0.11116   0.25858   
2847.6     72.11938000000001 2.5559     2.460243   2.48651    -0.06939   0.26803   
2847.8     75.22008   2.52239    2.434487   2.47457    -0.04782   0.28589   
2848       80.91029   2.5146     2.456838   2.48448    -0.03012   0.28274   
2848.2     81.26224999999999 2.51962    2.470869   2.49256    -0.02706   0.27538   
2848.4     72.73951   2.48145    2.460106   2.4882     0.00675    0.26908   
2848.6     63.85642   2.47733    2.469876   2.47607    -0.00126   0.24913   
2848.8     60.83952   2.4603     2.458971   2.47449    0.01418    0.24913   
2849       61.17472   2.46371    2.466532   2.47449    0.01078    0.24598   
2849.2     64.37599   2.49569    2.479581   2.47678    -0.01891   0.24493   
2849.4     67.0912    2.49686    2.449929   2.4755     -0.02136   0.26488   
2849.6     70.13325   2.49955    2.460141   2.48192    -0.01763   0.26488   
2849.8     73.58591   2.48718    2.49429    2.49189    0.00471    0.25123   
2850       74.70887999999999 2.4741     2.496891   2.49334    0.01924    0.25123   
2850.2     73.15852   2.47742    2.48792    2.49133    0.01391    0.25438   
2850.4     77.77605   2.45269    2.500028   2.49825    0.04556    0.25333   
2850.6     79.51078   2.49623    2.518676   2.49971    0.00348    0.24283   
2850.8     74.8262    2.48315    2.512024   2.49409    0.01094    0.24178   
2851       65.19727   2.46228    2.493535   2.47805    0.01577    0.23863   
2851.2     53.67438   2.45484    2.491586   2.46681    0.01197    0.21868   
2851.4     44.84157   2.56387    2.520145   2.46261    -0.10127   0.18507   
2851.6     41.38052   2.62516    2.532947   2.48189    -0.14326   0.17037   
2851.8     43.29121   2.65678    2.544652   2.48778    -0.169     0.16722   
2852       48.1015    2.62838    2.538242   2.47023    -0.15815   0.18087   
2852.2     50.42283   2.66673    2.512408   2.46516    -0.20157   0.20082   
2852.4     53.68276   2.58753    2.46049    2.46367    -0.12385   0.23443   
2852.6     61.12445   2.5352     2.457921   2.47449    -0.06072   0.25018   
2852.8     70.85395   2.49847    2.468373   2.48422    -0.01425   0.26173   
2853       75.13627   2.50206    2.487396   2.49353    -0.00853   0.25753   
2853.2     70.12487   2.45161    2.462143   2.48192    0.0303     0.26383   
2853.4     67.10796000000001 2.40261    2.466604   2.47878    0.07617    0.25648   
2853.6     66.68895000000001 2.42644    2.486758   2.47887    0.05244    0.24493   
2853.8     69.83994   2.44203    2.484603   2.48405    0.04202    0.25123   
2854       71.87634   2.49471    2.467474   2.48631    -0.0084    0.26383   
2854.2     78.78169   2.56002    2.455279   2.48714    -0.07288   0.28064   
2854.4     89.30732   2.59756    2.468768   2.48186    -0.1157    0.28589   
2854.6     90.3381    2.50653    2.47549    2.48568    -0.02085   0.28274   
2854.8     81.50529   2.51245    2.467736   2.49055    -0.0219    0.27748   
2855       73.54402   2.48467    2.456472   2.48765    0.00297    0.27223   
2855.2     72.45458000000001 2.50241    2.48974    2.48983    -0.01259   0.25228   
2855.4     71.74226   2.52481    2.502024   2.48898    -0.03583   0.24388   
2855.6     69.97402   2.54434    2.499423   2.48466    -0.05968   0.24283   
2855.8     71.96015   2.57669    2.49207    2.489      -0.08769   0.25018   
2856       73.44346   2.5542     2.481352   2.49119    -0.06301   0.25858   
2856.2     79.41858999999999 2.50922    2.49828    2.4987     -0.01052   0.25648   
2856.4     89.17324000000001 2.48727    2.496116   2.49846    0.01118    0.26803   
2856.6     94.05894000000001 2.52186    2.480345   2.48408    -0.03777   0.28274   
2856.8     92.07281   2.48709    2.462861   2.47544    -0.01166   0.29219   
2857       87.00275000000001 2.50976    2.464625   2.48206    -0.0277    0.28589   
