~Version
 VERS              .         2.0                           : CWLS LOG ASCII STANDARD - VERSION 2.0
 WRAP              .         NO                            : ONE LINE PER DEPTH STEP
 DLM               .         SPACE                         : DELIMITING CHARACTER(SPACE TAB OR COMMA)
~Well Information
#_______________________________________________________________________________
#
#PARAMETER_NAME    .UNIT     VALUE                         : DESCRIPTION
#_______________________________________________________________________________
STRT               .m        2779                          : First reference value
STOP               .m        3001.8                        : Last reference value
STEP               .m        0.2                           : Step increment
NULL               .         -9999                         : Missing value
COMP               .                                       : Company
WELL               .         601                           : Well name
FLD                .                                       : Field
LOC                .                                       : Location
PROV               .                                       : Province
SRVC               .                                       : Service Company
DATE               .         2021-05-13 14_16_42           : Date
UWI                .                                       : Unique Well ID
API                .                                       : API NUMBER
CNTY               .                                       : COUNTY
Cartographic_reference_system .         GCS_WGS_1984                  : GEOGCS["GCS_WGS_1984",DATUM["D_WGS_1984",SPHEROID["WGS_1984",6378137.0,298.257223563]],PRIMEM["Greenwich",0.0],UNIT["Degree",0.0174532925199433],AUTHORITY["EPSG",4326]]
CTRY               .                                       : COUNTRY
EREF               .m        134                           : 
HZCS               .GCS_WGS_1984 World_Mercator                : PROJCS["World_Mercator",GEOGCS["GCS_WGS_1984",DATUM["D_WGS_1984",SPHEROID["WGS_1984",6378137.0,298.257223563]],PRIMEM["Greenwich",0.0],UNIT["Degree",0.0174532925199433]],PROJECTION["Mercator"],PARAMETER["False_Easting",0.0],PARAMETER["False_Northing",0.0],PARAMETER["Central_Meridian",0.0],PARAMETER["Standard_Parallel_1",0.0],UNIT["Meter",1.0],AUTHORITY["ESRI",54004]]
LATI               .dega     2.1305856004                  : GCS_WGS_1984
LONG               .dega     2.0279108213                  : GCS_WGS_1984
ORIGINALWELLNAME   .         601                           : 
PROJECT_UPGRADE_TIME .         2014-05-27T11_38_46           : 
Pad                .         Pad6                          : 
STAT               .                                       : STATE
X                  .m        225746                        : 
Y                  .m        235643                        : 
group              .         Pad6                          : 
Интер-р            .         Ярышев                        : 
Куст               .         6                             : 
Статус             .         Не проверено                  : 
Тип                .         Разведка                      : 
~Parameter Information Block
#_______________________________________________________________________________
#
#PARAMETER_NAME    .UNIT     VALUE                         : DESCRIPTION
#_______________________________________________________________________________
SET                .         Gam                           : 
TLFamily_DEPT      .         Measured Depth                : 
TLFamily_GR_NORM   .         Gamma Ray                     : 
TLFamily_RHOB_NORM .         Bulk Density                  : 
TLFamily_RHOB_TL1  .         Bulk Density                  : 
TLFamily_SYNTH_Bulk_Density .         Bulk Density                  : 
TLFamily_SYNTH_Bulk_Density_MISFIT .                                       : 
TLFamily_TNPH_NORM .         Neutron Porosity              : 
~Curve Information
#_______________________________________________________________________________
#
#LOGNAME           .UNIT     LOG_ID                        : DESCRIPTION
#_______________________________________________________________________________
DEPT               .m                                      :  
GR_NORM            .gAPI                                   : Gamma Ray 
RHOB_NORM          .g/cm3                                  : Bulk Density 
RHOB_TL1           .g/cm3                                  :  
SYNTH_Bulk_Density .G/C3                                   : Bulk Density 
SYNTH_Bulk_Density_MISFIT .                                       : Synthetic Bulk Density Misfit 
TNPH_NORM          .v/v                                    : Thermal Neutron Porosity 
~Ascii
# ...
2798.2     83.95231628417969 2.48046    2.454479   2.48058    0.00012    0.28799   
2798.4     82.67014312744141 2.51782    2.482671   2.49758    -0.02024   0.27013   
2798.6     83.17295837402344 2.52248    2.480195   2.49695    -0.02554   0.27223   
2798.8     83.73444366455078 2.50385    2.486353   2.49816    -0.00569   0.26908   
2799       81.43824005126953 2.5154     2.492167   2.49775    -0.01765   0.26278   
2799.2     79.06661987304688 2.49077    2.489182   2.49671    0.00594    0.26173   
2799.4     78.49677276611328 2.5507     2.469953   2.49427    -0.05644   0.27223   
2799.6     78.18669891357422 2.55286    2.443535   2.47918    -0.07368   0.28589   
2799.8     78.84873199462891 2.5697     2.396953   2.45092    -0.11877   0.30899   
2800       79.55268096923828 2.51863    2.377714   2.44006    -0.07857   0.31844   
2800.2     80.00521850585938 2.52159    2.407828   2.45755    -0.06404   0.30584   
2800.4     79.07499694824219 2.49937    2.441947   2.47811    -0.02125   0.28799   
2800.6     77.80959320068359 2.54587    2.456624   2.48864    -0.05723   0.27854   
2800.8     77.60006713867188 2.51164    2.45206    2.48699    -0.02465   0.28064   
2801       76.84586334228516 2.5352     2.461895   2.49121    -0.044     0.27433   
2801.2     75.57203674316406 2.48611    2.48306    2.4929     0.00679    0.26068   
2801.4     75.22007751464844 2.56486    2.471031   2.49145    -0.07341   0.26698   
2801.6     73.79543304443359 2.58081    2.449042   2.48315    -0.09766   0.27643   
2801.8     76.82070922851563 2.59398    2.441594   2.47878    -0.1152    0.28484   
2802       78.605712890625 2.5344     2.416847   2.46321    -0.07119   0.29954   
2802.2     77.29000091552734 2.55375    2.396165   2.45484    -0.09891   0.30689   
2802.4     77.27324676513672 2.5525     2.400842   2.45575    -0.09675   0.30479   
2802.6     76.12513732910156 2.49811    2.394293   2.44961    -0.0485    0.30584   
2802.8     77.95204925537109 2.52544    2.412438   2.46227    -0.06317   0.30059   
2803       83.54168701171875 2.49767    2.461127   2.48389    -0.01377   0.28379   
2803.2     84.37970733642578 2.51092    2.475564   2.49236    -0.01856   0.27643   
2803.4     81.31253814697266 2.51908    2.478182   2.49635    -0.02273   0.27118   
2803.6     77.91853332519531 2.53216    2.464715   2.49235    -0.03981   0.27433   
2803.8     74.34014129638672 2.54748    2.45682    2.48776    -0.05972   0.27328   
2804       75.35415649414063 2.52884    2.432757   2.47286    -0.05598   0.28694   
2804.2     79.67838287353516 2.54838    2.395104   2.44789    -0.10049   0.31109   
2804.4     81.26225280761719 2.574      2.378974   2.44177    -0.13223   0.32054   
2804.6     82.30140686035156 2.57346    2.362778   2.4274     -0.14606   0.32894   
2804.8     85.06690216064453 2.57248    2.382197   2.43944    -0.13303   0.32474   
2805       86.3909912109375 2.58681    2.430513   2.46502    -0.12179   0.30374   
2805.2     87.94133758544922 2.59245    2.455504   2.47589    -0.11656   0.29219   
2805.4     85.72055816650391 2.58188    2.424633   2.46057    -0.12132   0.30584   
2805.6     83.20648193359375 2.56549    2.430537   2.46821    -0.09728   0.29954   
2805.8     85.39373016357422 2.59201    2.427977   2.46465    -0.12736   0.30374   
2806       87.4468994140625 2.58887    2.401022   2.44663    -0.14224   0.31949   
2806.2     86.52507019042969 2.60939    2.386803   2.43982    -0.16957   0.32474   
2806.4     86.02224731445313 2.62121    2.403692   2.44897    -0.17225   0.31634   
2806.6     86.29879760742188 2.65499    2.44825    2.47344    -0.18155   0.29429   
2806.8     86.09767150878906 2.63241    2.466468   2.48414    -0.14827   0.28379   
2807       83.38246917724609 2.61244    2.451209   2.47909    -0.13335   0.28904   
2807.2     82.3768310546875 2.58717    2.456546   2.4826     -0.10457   0.28484   
2807.4     82.55281829833984 2.57436    2.477215   2.49609    -0.07827   0.27328   
2807.6     84.11992645263672 2.55949    2.478549   2.4952     -0.06429   0.27433   
2807.8     84.89090728759766 2.55097    2.485048   2.49745    -0.05352   0.27118   
2808       83.93556213378906 2.53252    2.49649    2.49843    -0.03409   0.26278   
2808.2     81.17006683349609 2.58753    2.472487   2.49412    -0.09341   0.27433   
2808.4     80.86000061035156 2.59926    2.468113   2.4908     -0.10846   0.27643   
2808.6     80.76780700683594 2.56289    2.464139   2.48993    -0.07296   0.27854   
2808.8     78.94093322753906 2.58367    2.424547   2.46817    -0.11551   0.29639   
2809       76.43521118164063 2.56002    2.425341   2.47009    -0.08993   0.29219   
2809.2     76.90451049804688 2.51487    2.448051   2.48356    -0.03131   0.28169   
2809.4     80.20633697509766 2.49955    2.447112   2.47903    -0.02052   0.28694   
2809.6     82.56120300292969 2.49462    2.443224   2.476      -0.01862   0.29219   
2809.8     81.73992919921875 2.51245    2.42212    2.46645    -0.046     0.30164   
2810       80.59184265136719 2.53296    2.456042   2.48415    -0.04882   0.28274   
2810.2     79.06661987304688 2.56818    2.483968   2.49633    -0.07185   0.26488   
2810.4     78.99120330810547 2.54407    2.483804   2.49633    -0.04775   0.26488   
2810.6     79.99683380126953 2.54049    2.462274   2.48954    -0.05095   0.27854   
2810.8     79.98845672607422 2.54488    2.460336   2.48886    -0.05602   0.27959   
2811       75.94915771484375 2.56316    2.467235   2.4928     -0.07036   0.27013   
2811.2     78.42971801757813 2.57812    2.458279   2.48864    -0.08948   0.27854   
2811.4     79.67001342773438 2.60491    2.428936   2.46942    -0.13549   0.29534   
2811.6     78.66436767578125 2.56656    2.389134   2.44269    -0.12388   0.31214   
2811.8     78.88226318359375 2.57919    2.401765   2.45551    -0.12368   0.30689   
2812       79.23423004150391 2.57839    2.431916   2.47206    -0.10633   0.29324   
2812.2     80.31527709960938 2.57794    2.435069   2.47247    -0.10547   0.29324   
2812.4     83.08077239990234 2.60482    2.430195   2.46821    -0.13661   0.29954   
2812.6     83.20648193359375 2.63394    2.432627   2.46904    -0.1649    0.29849   
2812.8     81.22873687744141 2.60473    2.465223   2.49041    -0.11432   0.27854   
2813       78.78169250488281 2.58529    2.464995   2.49094    -0.09435   0.27538   
2813.2     78.3878173828125 2.5843     2.450222   2.483      -0.1013    0.28274   
2813.4     79.21746826171875 2.55662    2.45048    2.48173    -0.07489   0.28379   
2813.6     80.78457641601563 2.60419    2.46979    2.49208    -0.11211   0.27538   
2813.8     80.11415863037109 2.6291     2.446865   2.4789     -0.1502    0.28694   
2814       78.79006958007813 2.55545    2.417441   2.46336    -0.09209   0.29954   
2814.2     79.82923126220703 2.57203    2.397979   2.45259    -0.11944   0.31004   
2814.4     82.41034698486328 2.59228    2.382974   2.4441     -0.14818   0.32054   
2814.6     87.8323974609375 2.60688    2.366867   2.41606    -0.19082   0.33524   
2814.8     90.64816284179688 2.56889    2.389532   2.43194    -0.13695   0.32894   
2815       91.36887359619141 2.54918    2.413394   2.44846    -0.10072   0.31844   
2815.2     92.08956909179688 2.61647    2.410858   2.44549    -0.17098   0.32054   
2815.4     90.80738830566406 2.58681    2.387678   2.42874    -0.15808   0.32999   
2815.6     89.32408142089844 2.52831    2.390423   2.43877    -0.08953   0.32684   
2815.8     87.91619110107422 2.52517    2.397837   2.44469    -0.08048   0.32159   
2816       86.88542175292969 2.57615    2.417065   2.45445    -0.1217    0.31109   
2816.2     90.06154632568359 2.55608    2.422863   2.45386    -0.10222   0.31214   
2816.4     94.95562744140625 2.58412    2.447944   2.46303    -0.1211    0.30374   
2816.6     93.26280975341797 2.54515    2.464658   2.47492    -0.07023   0.29219   
2816.8     92.06443786621094 2.55402    2.41918    2.44888    -0.10514   0.31634   
2817       91.44429016113281 2.55931    2.423956   2.45307    -0.10623   0.31319   
2817.2     87.68154907226563 2.55626    2.429565   2.46081    -0.09545   0.30584   
