~Version
 VERS              .         2.0                           : CWLS LOG ASCII STANDARD - VERSION 2.0
 WRAP              .         NO                            : ONE LINE PER DEPTH STEP
 DLM               .         SPACE                         : DELIMITING CHARACTER(SPACE TAB OR COMMA)
~Well Information
#_______________________________________________________________________________
#
#PARAMETER_NAME    .UNIT     VALUE                         : DESCRIPTION
#_______________________________________________________________________________
STRT               .m        2779                          : First reference value
STOP               .m        3001.8                        : Last reference value
STEP               .m        0.2                           : Step increment
NULL               .         -9999                         : Missing value
COMP               .                                       : Company
WELL               .         601                           : Well name
FLD                .                                       : Field
LOC                .                                       : Location
PROV               .                                       : Province
SRVC               .                                       : Service Company
DATE               .         2021-05-13 14_16_42           : Date
UWI                .                                       : Unique Well ID
API                .                                       : API NUMBER
CNTY               .                                       : COUNTY
Cartographic_reference_system .         GCS_WGS_1984                  : GEOGCS["GCS_WGS_1984",DATUM["D_WGS_1984",SPHEROID["WGS_1984",6378137.0,298.257223563]],PRIMEM["Greenwich",0.0],UNIT["Degree",0.0174532925199433],AUTHORITY["EPSG",4326]]
CTRY               .                                       : COUNTRY
EREF               .m        134                           : 
HZCS               .GCS_WGS_1984 World_Mercator                : PROJCS["World_Mercator",GEOGCS["GCS_WGS_1984",DATUM["D_WGS_1984",SPHEROID["WGS_1984",6378137.0,298.257223563]],PRIMEM["Greenwich",0.0],UNIT["Degree",0.0174532925199433]],PROJECTION["Mercator"],PARAMETER["False_Easting",0.0],PARAMETER["False_Northing",0.0],PARAMETER["Central_Meridian",0.0],PARAMETER["Standard_Parallel_1",0.0],UNIT["Meter",1.0],AUTHORITY["ESRI",54004]]
LATI               .dega     2.1305856004                  : GCS_WGS_1984
LONG               .dega     2.0279108213                  : GCS_WGS_1984
ORIGINALWELLNAME   .         601                           : 
PROJECT_UPGRADE_TIME .         2014-05-27T11_38_46           : 
Pad                .         Pad6                          : 
STAT               .                                       : STATE
X                  .m        225746                        : 
Y                  .m        235643                        : 
group              .         Pad6                          : 
Интер-р            .         Ярышев                        : 
Куст               .         6                             : 
Статус             .         Не проверено                  : 
Тип                .         Разведка                      : 
~Parameter Information Block
#_______________________________________________________________________________
#
#PARAMETER_NAME    .UNIT     VALUE                         : DESCRIPTION
#_______________________________________________________________________________
SET                .         Gam                           : 
TLFamily_DEPT      .         Measured Depth                : 
TLFamily_GR_NORM   .         Gamma Ray                     : 
TLFamily_RHOB_NORM .         Bulk Density                  : 
TLFamily_RHOB_TL1  .         Bulk Density                  : 
TLFamily_SYNTH_Bulk_Density .         Bulk Density                  : 
TLFamily_SYNTH_Bulk_Density_MISFIT .                                       : 
TLFamily_TNPH_NORM .         Neutron Porosity              : 
~Curve Information
#_______________________________________________________________________________
#
#LOGNAME           .UNIT     LOG_ID                        : DESCRIPTION
#_______________________________________________________________________________
DEPT               .m                                      :  
GR_NORM            .gAPI                                   : Gamma Ray 
RHOB_NORM          .g/cm3                                  : Bulk Density 
RHOB_TL1           .g/cm3                                  :  
SYNTH_Bulk_Density .G/C3                                   : Bulk Density 
SYNTH_Bulk_Density_MISFIT .                                       : Synthetic Bulk Density Misfit 
TNPH_NORM          .v/v                                    : Thermal Neutron Porosity 
~Ascii
# ...
2961       83.57521   2.52642    2.42092    2.46127    -0.06516   0.30479   
2961.2     90.01965   2.48611    2.416497   2.44934    -0.03677   0.31529   
2961.4     95.71823999999999 2.49802    2.414657   2.44111    -0.05692   0.32264   
2961.6     99.56478   2.49838    2.423684   2.43876    -0.05963   0.32159   
2961.8     101.1487   2.49381    2.426136   2.43839    -0.05543   0.32159   
2962       101.6599   2.47446    2.417385   2.43245    -0.04202   0.32684   
2962.2     102.5649   2.4354     2.392667   2.39835    -0.03705   0.34049   
2962.4     102.8163   2.48799    2.362197   2.37694    -0.11105   0.3552    
2962.6     99.54801999999999 2.5017     2.351961   2.3728     -0.12889   0.35625   
2962.8     93.34662   2.4595     2.378412   2.40981    -0.04969   0.33734   
2963       87.00275000000001 2.47598    2.434048   2.46517    -0.01081   0.30269   
2963.2     79.09177   2.4621     2.446095   2.47964    0.01754    0.28589   
2963.4     70.36789   2.48548    2.450569   2.48107    -0.00441   0.27013   
2963.6     70.99641   2.51532    2.450542   2.48255    -0.03277   0.27118   
2963.8     68.85944000000001 2.54336    2.413957   2.45914    -0.08422   0.28484   
2964       63.46255   2.48844    2.415421   2.46291    -0.02553   0.27433   
2964.2     58.95396   2.49363    2.433577   2.46959    -0.02404   0.25753   
2964.4     55.32529   2.54049    2.465102   2.46632    -0.07417   0.23548   
2964.6     55.3672    2.54219    2.460972   2.46632    -0.07588   0.23758   
2964.8     58.05727   2.46039    2.438908   2.46708    0.00669    0.25333   
2965       63.99888   2.38863    2.427046   2.46878    0.08015    0.27013   
2965.2     69.66395   2.31507    2.410064   2.45849    0.14342    0.28799   
2965.4     74.20605999999999 2.15524    2.318084   2.37263    0.21739    0.33314   
2965.6     74.90163   2.0127     2.185959   2.21867    0.20597    0.37935   
2965.8     71.39028999999999 1.8491     2.072958   2.15725    0.30815    0.40771   
2966       59.3562    1.74302    2.073848   1.98883    0.24581    0.38355   
2966.2     35.07854   1.69168    1.864321   1.76339    0.07171    0.39195   
2966.4     12.56912   1.65755    1.677117   1.75301    0.09546    0.39825   
2966.6     5.3118     1.66498    1.599327   1.75301    0.08803    0.41401   
2966.8     5.91518    1.65728    1.604811   1.75301    0.09574    0.41296   
2967       9.33433    1.6614     1.626914   1.75301    0.09162    0.41296   
2967.2     14.73123   1.68048    1.679524   1.74717    0.06669    0.40456   
2967.4     23.62271   1.71963    1.788528   1.75818    0.03855    0.3867    
2967.6     35.69869   1.81281    1.946005   1.78412    -0.02869   0.36675   
2967.8     51.05973   2.34132    2.15795    2.0379     -0.30342   0.33944   
2968       65.55762   2.60213    2.390318   2.43618    -0.16596   0.28904   
2968.2     69.33712   2.60267    2.463693   2.48116    -0.12151   0.26173   
2968.4     63.96536   2.52965    2.476264   2.47607    -0.05358   0.24598   
2968.6     59.25564   2.45108    2.45929    2.47087    0.01979    0.24598   
2968.8     55.81136   2.42214    2.424219   2.45819    0.03605    0.25543   
2969       55.76945   2.45376    2.411896   2.45088    -0.00289   0.26068   
2969.2     54.26938   2.43558    2.407028   2.44884    0.01326    0.25963   
2969.4     49.60995   2.43826    2.403263   2.45119    0.01292    0.25123   
2969.6     46.63495   2.44821    2.412764   2.45405    0.00584    0.24073   
2969.8     45.86396   2.43379    2.398303   2.44905    0.01526    0.24493   
2970       46.15727   2.38325    2.365083   2.4421     0.05885    0.25858   
2970.2     49.13227   2.33102    2.346616   2.42471    0.09369    0.27223   
2970.4     54.52079   2.22154    2.318653   2.33218    0.11064    0.29429   
2970.6     60.98198   2.18248    2.352277   2.39799    0.21552    0.29534   
2970.8     68.90973   2.38603    2.29145    2.3194     -0.06663   0.33314   
2971       72.06071   2.52983    2.378213   2.43433    -0.0955    0.30584   
2971.2     73.00767999999999 2.57436    2.454844   2.48732    -0.08704   0.27223   
2971.4     79.27612999999999 2.57615    2.499648   2.49879    -0.07736   0.25543   
2971.6     83.55844999999999 2.56271    2.505253   2.50056    -0.06215   0.25648   
2971.8     83.7093    2.57597    2.489632   2.49843    -0.07754   0.26698   
2972       84.66464999999999 2.59631    2.46721    2.48775    -0.10856   0.28169   
2972.2     90.18725000000001 2.60052    2.443048   2.46705    -0.13347   0.30164   
2972.4     91.29345000000001 2.60016    2.411089   2.44683    -0.15333   0.31949   
2972.6     88.48605999999999 2.56692    2.427389   2.45947    -0.10745   0.30794   
2972.8     86.59211000000001 2.58663    2.456476   2.47763    -0.109     0.29009   
2973       83.31542   2.62534    2.439092   2.47211    -0.15323   0.29534   
2973.2     74.19768000000001 2.66547    2.376939   2.43606    -0.22942   0.31004   
2973.4     66.52972   2.6162     2.342206   2.37899    -0.23721   0.31004   
2973.6     63.83128   2.61862    2.379815   2.42508    -0.19354   0.29009   
2973.8     67.09959000000001 2.58099    2.384597   2.42771    -0.15328   0.29429   
2974       75.53014   2.52732    2.410981   2.45927    -0.06805   0.29744   
2974.2     84.06126   2.56163    2.448926   2.47734    -0.08429   0.29114   
2974.4     89.00563   2.55286    2.49439    2.49819    -0.05467   0.26908   
2974.6     87.12007   2.55617    2.491837   2.49838    -0.05779   0.26908   
2974.8     84.06126   2.5249     2.473178   2.49132    -0.03358   0.27748   
2975       78.90739000000001 2.53189    2.445581   2.47964    -0.05225   0.28589   
2975.2     72.21993999999999 2.49336    2.437554   2.47793    -0.01544   0.27959   
2975.4     65.11346   2.46487    2.461915   2.47638    0.0115     0.25543   
2975.6     56.60748   2.48745    2.427871   2.45986    -0.0276    0.25543   
2975.8     52.30001   2.52831    2.412127   2.45425    -0.07406   0.25333   
2976       53.37269   2.5232     2.394858   2.44121    -0.08199   0.26278   
2976.2     57.08515   2.47106    2.40587    2.45142    -0.01963   0.26593   
2976.4     63.89832   2.54139    2.407666   2.45498    -0.0864    0.27854   
2976.6     74.36529   2.52114    2.43169    2.47333    -0.04781   0.28589   
2976.8     86.57535   2.41148    2.443028   2.47015    0.05867    0.29744   
2977       96.25458   2.32179    2.431517   2.44779    0.12599    0.31424   
2977.2     96.57302   2.35718    2.439571   2.45361    0.09642    0.31004   
2977.4     87.27091   2.3613     2.438692   2.46731    0.10601    0.30059   
2977.6     79.04986   2.35593    2.420491   2.46529    0.10937    0.29849   
2977.8     79.87951   2.3312     2.45813    2.48775    0.15655    0.28064   
2978       91.55323   2.2503     2.41383    2.44846    0.19816    0.31844   
2978.2     97.44456   2.31104    2.356131   2.38043    0.06939    0.35205   
2978.4     97.55351   2.48763    2.384395   2.40222    -0.08541   0.33944   
2978.6     94.27683   2.53126    2.439418   2.45822    -0.07304   0.30794   
2978.8     88.55309   2.55044    2.463939   2.48047    -0.06996   0.28799   
2979       84.02775   2.53252    2.462197   2.48389    -0.04862   0.28379   
2979.2     83.55844999999999 2.51908    2.484348   2.49758    -0.0215    0.27013   
2979.4     84.51381000000001 2.55823    2.484387   2.49727    -0.06096   0.27118   
2979.6     80.83486000000001 2.61933    2.469905   2.49208    -0.12726   0.27538   
2979.8     78.22020999999999 2.60697    2.47668    2.49586    -0.11111   0.26803   
2980       71.24782999999999 2.6541     2.4956     2.48787    -0.16622   0.24703   
2980.2     59.77522   2.77953    2.535352   2.47591    -0.30362   0.20397   
2980.4     51.63797   2.73061    2.587894   2.51998    -0.21063   0.15146   
2980.6     47.96741   2.67667    2.59556    2.54792    -0.12875   0.13886   
2980.8     46.11537   2.71771    2.591777   2.54808    -0.16963   0.13886   
2981       45.91425   2.65723    2.590066   2.54807    -0.10916   0.13991   
2981.2     49.89487   2.60231    2.576424   2.51088    -0.09143   0.15777   
