~Version
 VERS              .         2.0                           : CWLS LOG ASCII STANDARD - VERSION 2.0
 WRAP              .         NO                            : ONE LINE PER DEPTH STEP
 DLM               .         SPACE                         : DELIMITING CHARACTER(SPACE TAB OR COMMA)
~Well Information
#_______________________________________________________________________________
#
#PARAMETER_NAME    .UNIT     VALUE                         : DESCRIPTION
#_______________________________________________________________________________
STRT               .m        2779                          : First reference value
STOP               .m        3001.8                        : Last reference value
STEP               .m        0.2                           : Step increment
NULL               .         -9999                         : Missing value
COMP               .                                       : Company
WELL               .         601                           : Well name
FLD                .                                       : Field
LOC                .                                       : Location
PROV               .                                       : Province
SRVC               .                                       : Service Company
DATE               .         2021-05-13 14_16_42           : Date
UWI                .                                       : Unique Well ID
API                .                                       : API NUMBER
CNTY               .                                       : COUNTY
Cartographic_reference_system .         GCS_WGS_1984                  : GEOGCS["GCS_WGS_1984",DATUM["D_WGS_1984",SPHEROID["WGS_1984",6378137.0,298.257223563]],PRIMEM["Greenwich",0.0],UNIT["Degree",0.0174532925199433],AUTHORITY["EPSG",4326]]
CTRY               .                                       : COUNTRY
EREF               .m        134                           : 
HZCS               .GCS_WGS_1984 World_Mercator                : PROJCS["World_Mercator",GEOGCS["GCS_WGS_1984",DATUM["D_WGS_1984",SPHEROID["WGS_1984",6378137.0,298.257223563]],PRIMEM["Greenwich",0.0],UNIT["Degree",0.0174532925199433]],PROJECTION["Mercator"],PARAMETER["False_Easting",0.0],PARAMETER["False_Northing",0.0],PARAMETER["Central_Meridian",0.0],PARAMETER["Standard_Parallel_1",0.0],UNIT["Meter",1.0],AUTHORITY["ESRI",54004]]
LATI               .dega     2.1305856004                  : GCS_WGS_1984
LONG               .dega     2.0279108213                  : GCS_WGS_1984
ORIGINALWELLNAME   .         601                           : 
PROJECT_UPGRADE_TIME .         2014-05-27T11_38_46           : 
Pad                .         Pad6                          : 
STAT               .                                       : STATE
X                  .m        225746                        : 
Y                  .m        235643                        : 
group              .         Pad6                          : 
Интер-р            .         Ярышев                        : 
Куст               .         6                             : 
Статус             .         Не проверено                  : 
Тип                .         Разведка                      : 
~Parameter Information Block
#_______________________________________________________________________________
#
#PARAMETER_NAME    .UNIT     VALUE                         : DESCRIPTION
#_______________________________________________________________________________
SET                .         Gam                           : 
TLFamily_DEPT      .         Measured Depth                : 
TLFamily_GR_NORM   .         Gamma Ray                     : 
TLFamily_RHOB_NORM .         Bulk Density                  : 
TLFamily_RHOB_TL1  .         Bulk Density                  : 
TLFamily_SYNTH_Bulk_Density .         Bulk Density                  : 
TLFamily_SYNTH_Bulk_Density_MISFIT .                                       : 
TLFamily_TNPH_NORM .         Neutron Porosity              : 
~Curve Information
#_______________________________________________________________________________
#
#LOGNAME           .UNIT     LOG_ID                        : DESCRIPTION
#_______________________________________________________________________________
DEPT               .m                                      :  
GR_NORM            .gAPI                                   : Gamma Ray 
RHOB_NORM          .g/cm3                                  : Bulk Density 
RHOB_TL1           .g/cm3                                  :  
SYNTH_Bulk_Density .G/C3                                   : Bulk Density 
SYNTH_Bulk_Density_MISFIT .                                       : Synthetic Bulk Density Misfit 
TNPH_NORM          .v/v                                    : Thermal Neutron Porosity 
~Ascii
2779.0     78.24535369873047 -9999      2.424558   2.46814    -9999      0.29534   
2779.2     77.03859710693359 -9999      2.42289    2.46819    -9999      0.29429   
2779.4     73.58590698242188 -9999      2.420113   2.46637    -9999      0.29009   
2779.6     70.59416198730469 -9999      2.401831   2.45453    -9999      0.29324   
2779.8     73.40155792236328 -9999      2.428435   2.47236    -9999      0.28589   
2780       77.49949645996094 -9999      2.426576   2.47091    -9999      0.29324   
2780.2     79.28450775146484 -9999      2.423425   2.46691    -9999      0.29744   
2780.4     81.70641326904297 -9999      2.422021   2.46645    -9999      0.30164   
2780.6     81.02761077880859 -9999      2.441201   2.47589    -9999      0.29114   
2780.8     81.17845153808594 -9999      2.472506   2.49412    -9999      0.27433   
2781       79.83760833740234 -9999      2.463805   2.4894     -9999      0.27748   
2781.2     79.34317016601563 -9999      2.436469   2.47504    -9999      0.29114   
2781.4     77.80120086669922 -9999      2.438235   2.47713    -9999      0.28799   
2781.6     76.753662109375 -9999      2.394213   2.45097    -9999      0.30689   
2781.8     75.73964691162109 -9999      2.347025   2.41129    -9999      0.32474   
2782       74.4239501953125 -9999      2.387802   2.44343    -9999      0.30584   
2782.2     74.82620239257813 -9999      2.415387   2.46231    -9999      0.29429   
2782.4     76.54415893554688 -9999      2.421263   2.46728    -9999      0.29429   
2782.6     80.23986053466797 -9999      2.430622   2.46969    -9999      0.29534   
2782.8     79.14203643798828 -9999      2.418566   2.46419    -9999      0.29954   
2783       76.20056915283203 -9999      2.424571   2.47009    -9999      0.29219   
2783.2     75.52175903320313 -9999      2.450137   2.48447    -9999      0.27854   
2783.4     75.8402099609375 -9999      2.442811   2.47954    -9999      0.28274   
2783.6     75.60556793212891 -9999      2.424813   2.46926    -9999      0.29114   
2783.8     75.94077301025391 -9999      2.453417   2.48642    -9999      0.27748   
2784       76.69499969482422 -9999      2.449488   2.48581    -9999      0.28064   
2784.2     76.48549652099609 -9999      2.432053   2.47408    -9999      0.28904   
2784.4     77.18943786621094 -9999      2.412145   2.4616     -9999      0.29954   
2784.6     75.49662780761719 -9999      2.366973   2.42521    -9999      0.31634   
2784.8     73.57755279541016 -9999      2.320758   2.3737     -9999      0.33104   
2785       74.90162658691406 -9999      2.326929   2.38127    -9999      0.33104   
2785.2     77.29839324951172 -9999      2.396196   2.45484    -9999      0.30689   
2785.4     77.91014862060547 -9999      2.430038   2.47226    -9999      0.29219   
2785.6     78.88226318359375 -9999      2.426544   2.46829    -9999      0.29534   
2785.8     80.92704010009766 2.59577    2.406248   2.45699    -0.13878   0.30794   
2786       82.91316986083984 2.60885    2.394162   2.44748    -0.16137   0.31634   
2786.2     82.66175842285156 2.605      2.411663   2.45867    -0.14633   0.30794   
2786.4     78.7481689453125 2.60679    2.410536   2.45967    -0.14712   0.30269   
2786.6     77.12239837646484 2.57669    2.404993   2.45738    -0.1193    0.30269   
2786.8     76.56929779052734 2.51711    2.386253   2.44516    -0.07195   0.31004   
2787       80.28176879882813 2.51299    2.375439   2.43795    -0.07503   0.32054   
2787.2     85.29316711425781 2.5387     2.380532   2.43932    -0.09938   0.32579   
2787.4     85.75408172607422 2.49955    2.391452   2.44405    -0.0555    0.32159   
2787.6     83.64225769042969 2.51576    2.377468   2.43842    -0.07734   0.32474   
2787.8     82.12541961669922 2.52105    2.391575   2.44712    -0.07393   0.31634   
2788       83.02210998535156 2.56056    2.392169   2.44748    -0.11308   0.31739   
2788.2     83.72605133056641 2.55966    2.365392   2.42554    -0.13412   0.32999   
2788.4     84.20372772216797 2.59496    2.351838   2.40965    -0.18531   0.33629   
2788.6     81.12816619873047 2.61351    2.360957   2.42715    -0.18636   0.32789   
2788.8     83.36570739746094 2.56119    2.404808   2.452      -0.10918   0.31214   
2789       86.26528167724609 2.58036    2.442313   2.47015    -0.11021   0.29744   
2789.2     85.66190338134766 2.549      2.456384   2.4793     -0.0697    0.28904   
2789.4     84.64788818359375 2.64128    2.454151   2.4793     -0.16198   0.28904   
2789.6     82.72881317138672 2.6058     2.424974   2.46716    -0.13865   0.30164   
2789.8     82.96346282958984 2.58162    2.448229   2.47747    -0.10414   0.29009   
2790       83.04725646972656 2.57794    2.478208   2.49609    -0.08185   0.27328   
2790.2     80.97733306884766 2.5284     2.470228   2.49231    -0.03609   0.27538   
2790.4     80.13929748535156 2.48871    2.440813   2.47558    -0.01313   0.29009   
2790.6     79.47724914550781 2.53592    2.438946   2.47531    -0.06062   0.29009   
2790.8     78.26212310791016 2.51433    2.441683   2.47747    -0.03686   0.28694   
2791       76.54415893554688 2.60751    2.427892   2.47233    -0.13518   0.29114   
2791.2     74.29824066162109 2.60831    2.382357   2.44106    -0.16726   0.30794   
2791.4     74.59156036376953 2.52804    2.363215   2.42174    -0.1063    0.31634   
2791.6     76.25084686279297 2.55079    2.367478   2.43311    -0.11769   0.31739   
2791.8     78.07775115966797 2.62462    2.379642   2.43816    -0.18645   0.31529   
2792       80.39070129394531 2.60966    2.420252   2.46469    -0.14496   0.30059   
2792.2     80.97733306884766 2.56602    2.449148   2.47947    -0.08655   0.28694   
2792.4     78.22859954833984 2.49166    2.453792   2.48699    -0.00467   0.28064   
2792.6     77.18106079101563 2.4784     2.460843   2.49014    0.01174    0.27538   
2792.8     77.96042633056641 2.49498    2.483284   2.49586    0.00089    0.26383   
2793       77.45761108398438 2.51738    2.496045   2.49816    -0.01921   0.25543   
2793.2     75.17817687988281 2.53243    2.470919   2.49145    -0.04097   0.26698   
2793.4     73.86245727539063 2.5981     2.434378   2.47468    -0.12342   0.28379   
2793.6     72.09423065185547 2.59102    2.412377   2.46246    -0.12856   0.29114   
2793.8     70.82042694091797 2.5921     2.409865   2.45812    -0.13398   0.29009   
2794       71.99366760253906 2.54631    2.427974   2.47043    -0.07588   0.28379   
2794.2     74.66697692871094 2.51809    2.449648   2.48347    -0.03463   0.27748   
2794.4     76.18380737304688 2.48853    2.445931   2.48305    -0.00548   0.28169   
2794.6     77.85148620605469 2.51666    2.436275   2.47564    -0.04102   0.28904   
2794.8     80.39070129394531 2.53001    2.443556   2.47731    -0.0527    0.28904   
2795       80.91029357910156 2.52463    2.430442   2.46948    -0.05516   0.29639   
2795.2     80.25662231445313 2.55357    2.426382   2.46758    -0.086     0.29744   
2795.4     79.35993194580078 2.53332    2.423658   2.46691    -0.06641   0.29744   
2795.6     80.45774841308594 2.55599    2.413803   2.46173    -0.09426   0.30374   
2795.8     80.70915985107422 2.611      2.414591   2.46214    -0.14886   0.30374   
2796       78.33753967285156 2.59532    2.409165   2.459      -0.13633   0.30269   
2796.2     80.37394714355469 2.50116    2.409024   2.45779    -0.04337   0.30584   
2796.4     81.2957763671875 2.47993    2.398219   2.44968    -0.03025   0.31214   
2796.6     80.86000061035156 2.4931     2.406032   2.45651    -0.03659   0.30794   
2796.8     81.31253814697266 2.54649    2.402907   2.45512    -0.09137   0.31004   
2797       79.31802368164063 2.57185    2.407856   2.45742    -0.11443   0.30479   
2797.2     78.07775115966797 2.5757     2.419603   2.46576    -0.10994   0.29744   
2797.4     80.03034973144531 2.54309    2.427862   2.46861    -0.07448   0.29639   
2797.6     83.33217620849609 2.57552    2.428778   2.46726    -0.10826   0.30059   
2797.8     83.47464752197266 2.54479    2.420635   2.46127    -0.08352   0.30479   
2798       82.35169219970703 2.51558    2.426044   2.46711    -0.04847   0.30059   
