~Version
 VERS              .         2.0                           : CWLS LOG ASCII STANDARD - VERSION 2.0
 WRAP              .         NO                            : ONE LINE PER DEPTH STEP
 DLM               .         SPACE                         : DELIMITING CHARACTER(SPACE TAB OR COMMA)
~Well Information
#_______________________________________________________________________________
#
#PARAMETER_NAME    .UNIT     VALUE                         : DESCRIPTION
#_______________________________________________________________________________
STRT               .m        2779                          : First reference value
STOP               .m        3001.8                        : Last reference value
STEP               .m        0.2                           : Step increment
NULL               .         -9999                         : Missing value
COMP               .                                       : Company
WELL               .         601                           : Well name
FLD                .                                       : Field
LOC                .                                       : Location
PROV               .                                       : Province
SRVC               .                                       : Service Company
DATE               .         2021-05-13 14_16_42           : Date
UWI                .                                       : Unique Well ID
API                .                                       : API NUMBER
CNTY               .                                       : COUNTY
Cartographic_reference_system .         GCS_WGS_1984                  : GEOGCS["GCS_WGS_1984",DATUM["D_WGS_1984",SPHEROID["WGS_1984",6378137.0,298.257223563]],PRIMEM["Greenwich",0.0],UNIT["Degree",0.0174532925199433],AUTHORITY["EPSG",4326]]
CTRY               .                                       : COUNTRY
EREF               .m        134                           : 
HZCS               .GCS_WGS_1984 World_Mercator                : PROJCS["World_Mercator",GEOGCS["GCS_WGS_1984",DATUM["D_WGS_1984",SPHEROID["WGS_1984",6378137.0,298.257223563]],PRIMEM["Greenwich",0.0],UNIT["Degree",0.0174532925199433]],PROJECTION["Mercator"],PARAMETER["False_Easting",0.0],PARAMETER["False_Northing",0.0],PARAMETER["Central_Meridian",0.0],PARAMETER["Standard_Parallel_1",0.0],UNIT["Meter",1.0],AUTHORITY["ESRI",54004]]
LATI               .dega     2.1305856004                  : GCS_WGS_1984
LONG               .dega     2.0279108213                  : GCS_WGS_1984
ORIGINALWELLNAME   .         601                           : 
PROJECT_UPGRADE_TIME .         2014-05-27T11_38_46           : 
Pad                .         Pad6                          : 
STAT               .                                       : STATE
X                  .m        225746                        : 
Y                  .m        235643                        : 
group              .         Pad6                          : 
Интер-р            .         Ярышев                        : 
Куст               .         6                             : 
Статус             .         Не проверено                  : 
Тип                .         Разведка                      : 
~Parameter Information Block
#_______________________________________________________________________________
#
#PARAMETER_NAME    .UNIT     VALUE                         : DESCRIPTION
#_______________________________________________________________________________
SET                .         Gam                           : 
TLFamily_DEPT      .         Measured Depth                : 
TLFamily_GR_NORM   .         Gamma Ray                     : 
TLFamily_RHOB_NORM .         Bulk Density                  : 
TLFamily_RHOB_TL1  .         Bulk Density                  : 
TLFamily_SYNTH_Bulk_Density .         Bulk Density                  : 
TLFamily_SYNTH_Bulk_Density_MISFIT .                                       : 
TLFamily_TNPH_NORM .         Neutron Porosity              : 
~Curve Information
#_______________________________________________________________________________
#
#LOGNAME           .UNIT     LOG_ID                        : DESCRIPTION
#_______________________________________________________________________________
DEPT               .m                                      :  
GR_NORM            .gAPI                                   : Gamma Ray 
RHOB_NORM          .g/cm3                                  : Bulk Density 
RHOB_TL1           .g/cm3                                  :  
SYNTH_Bulk_Density .G/C3                                   : Bulk Density 
SYNTH_Bulk_Density_MISFIT .                                       : Synthetic Bulk Density Misfit 
TNPH_NORM          .v/v                                    : Thermal Neutron Porosity 
~Ascii
# ...
2919.6     122.5184   2.4371     2.383274   2.3539     -0.0832    0.35835   
2919.8     121.5295   2.47563    2.396808   2.36699    -0.10863   0.34995   
2920       121.2948   2.51764    2.413138   2.38639    -0.13126   0.33944   
2920.2     117.155    2.46263    2.430754   2.42503    -0.0376    0.32684   
2920.4     115.0515   2.47867    2.445098   2.43513    -0.04354   0.31634   
2920.6     114.4565   2.50197    2.434585   2.42925    -0.07272   0.32369   
2920.8     112.9313   2.52866    2.420877   2.41337    -0.1153    0.33209   
2921       109.4032   2.55241    2.399249   2.39086    -0.16155   0.3426    
2921.2     106.3528   2.52535    2.400985   2.39938    -0.12597   0.33944   
2921.4     103.1348   2.45233    2.430683   2.43833    -0.014     0.32054   
2921.6     106.3696   2.45251    2.441002   2.43928    -0.01323   0.31634   
2921.8     109.3781   2.47034    2.431768   2.43225    -0.03809   0.32369   
2922       111.0625   2.47733    2.442469   2.4369     -0.04043   0.31739   
2922.2     108.8837   2.4612     2.453642   2.44616    -0.01504   0.30899   
2922.4     111.9592   2.43827    2.477959   2.46215    0.02389    0.29009   
2922.6     117.3645   2.45672    2.447853   2.43604    -0.02069   0.31424   
2922.8     115.7052   2.43486    2.428817   2.42392    -0.01094   0.32789   
2923       116.87     2.42232    2.435179   2.42806    0.00574    0.32369   
2923.2     120.7669   2.4337     2.420756   2.39905    -0.03465   0.33419   
2923.4     121.4122   2.4354     2.430936   2.41791    -0.01749   0.32684   
2923.6     121.5546   2.40341    2.403539   2.37443    -0.02898   0.34575   
2923.8     123.4234   2.43154    2.332118   2.32894    -0.1026    0.38565   
2924       119.5937   2.44409    2.365571   2.34519    -0.09889   0.36675   
2924.2     114.4984   2.43074    2.411679   2.39531    -0.03542   0.33839   
2924.4     112.7386   2.45072    2.425776   2.42099    -0.02973   0.32894   
2924.6     116.5935   2.44427    2.406142   2.38755    -0.05671   0.3426    
2924.8     120.5574   2.45448    2.403153   2.37698    -0.0775    0.34575   
2925       120.9931   2.39866    2.393069   2.36479    -0.03387   0.35205   
2925.2     118.1187   2.37698    2.396585   2.37593    -0.00105   0.3489    
2925.4     118.6383   2.41712    2.395154   2.37272    -0.0444    0.34995   
2925.6     118.7556   2.44937    2.380447   2.36234    -0.08704   0.35835   
2925.8     118.2109   2.46604    2.387524   2.37033    -0.09571   0.35415   
2926       118.236    2.46864    2.378036   2.36373    -0.10491   0.3594    
2926.2     118.9316   2.46254    2.362812   2.34607    -0.11647   0.3678    
2926.4     120.1719   2.38764    2.374031   2.34423    -0.04341   0.36255   
2926.6     124.2531   2.37492    2.397784   2.36181    -0.01311   0.34995   
2926.8     124.1944   2.44731    2.430331   2.41224    -0.03507   0.32684   
2927       118.4204   2.50197    2.421847   2.40817    -0.09379   0.33314   
2927.2     112.8224   2.49417    2.379826   2.37302    -0.12115   0.3552    
2927.4     112.1352   2.4965     2.392876   2.38393    -0.11257   0.34785   
2927.6     115.5879   2.46425    2.425618   2.41771    -0.04654   0.32999   
2927.8     118.3785   2.45869    2.423389   2.4093     -0.04939   0.33209   
2928       121.211    2.46317    2.401747   2.37387    -0.0893    0.3468    
2928.2     121.8396   2.44167    2.403635   2.37443    -0.06724   0.34575   
2928.4     121.739    2.42823    2.429498   2.41495    -0.01328   0.32789   
2928.6     121.8479   2.47455    2.438956   2.42361    -0.05094   0.32054   
2928.8     123.8592   2.4552     2.446682   2.42714    -0.02806   0.31319   
2929       128.3343   2.48512    2.468404   2.44941    -0.03571   0.28379   
2929.2     137.7537   2.46129    2.462865   2.45479    -0.0065    0.25543   
2929.4     143.6367   2.42026    2.447975   2.45411    0.03385    0.24913   
2929.6     125.0324   2.38075    2.49107    2.47359    0.09284    0.25648   
2929.8     81.71478999999999 2.33676    2.518934   2.50088    0.16413    0.24493   
2930       54.95656   2.36148    2.441401   2.46067    0.09918    0.24598   
2930.2     46.28298   2.34482    2.365838   2.4421     0.09728    0.25858   
2930.4     39.56199   2.31893    2.313451   2.42911    0.11019    0.26173   
2930.6     39.53685   2.30611    2.351641   2.44479    0.13867    0.24808   
2930.8     39.22678   2.31248    2.372231   2.44954    0.13706    0.23968   
2931       37.8608    2.33738    2.377439   2.44941    0.11202    0.23443   
2931.2     38.50608   2.36507    2.418429   2.45409    0.08902    0.21973   
2931.4     38.95023   2.33846    2.430954   2.45581    0.11735    0.21552   
2931.6     37.93622   2.36919    2.412587   2.45279    0.0836     0.22078   
2931.8     36.29368   2.4009     2.41845    2.45081    0.04991    0.21447   
2932       36.96411   2.43585    2.467787   2.45356    0.01771    0.19452   
2932.2     37.29932   2.51639    2.473911   2.45545    -0.06094   0.19242   
2932.4     39.03403   2.53592    2.459947   2.45626    -0.07966   0.20292   
2932.6     42.1934    2.43325    2.479453   2.45875    0.02551    0.20082   
2932.8     42.69622   2.32403    2.42658    2.45645    0.13241    0.22603   
2933       44.41418   2.32717    2.423394   2.45533    0.12816    0.23128   
2933.2     47.18805   2.29232    2.446988   2.45976    0.16744    0.22708   
2933.4     45.7634    2.31696    2.462982   2.45948    0.14253    0.21658   
2933.6     43.68509   2.34123    2.450798   2.45764    0.11641    0.21763   
2933.8     39.34411   2.41748    2.466028   2.45733    0.03985    0.20082   
2934       34.14833   2.54578    2.487087   2.46326    -0.08252   0.17877   
2934.2     32.84939   2.56083    2.441252   2.45126    -0.10957   0.19662   
2934.4     34.42488   2.43029    2.40203    2.45063    0.02033    0.21658   
2934.6     35.22101   2.35709    2.398948   2.44926    0.09217    0.21973   
2934.8     37.45016   2.37304    2.366449   2.44813    0.07509    0.23758   
2935       43.18227   2.38352    2.396143   2.45203    0.06851    0.23968   
2935.2     49.24121   2.4052     2.449776   2.46021    0.05501    0.23023   
2935.4     51.01783   2.40314    2.466569   2.46294    0.0598     0.22603   
2935.6     46.63495   2.40959    2.466955   2.46032    0.05073    0.21658   
2935.8     41.62354   2.43065    2.470293   2.45875    0.0281     0.20397   
2936       39.96424   2.44866    2.482153   2.45938    0.01072    0.19452   
2936.2     36.78812   2.44794    2.48883    2.4564     0.00846    0.18402   
2936.4     33.91368   2.55465    2.506853   2.47818    -0.07646   0.16827   
2936.6     31.62587   2.6661     2.508755   2.48902    -0.17708   0.16197   
2936.8     35.58974   2.67963    2.538384   2.50597    -0.17366   0.15462   
2937       37.57587   2.62776    2.547318   2.51696    -0.1108    0.15356   
2937.2     36.49481   2.65544    2.553668   2.52851    -0.12693   0.14726   
2937.4     37.02277   2.61521    2.538386   2.50735    -0.10787   0.15777   
2937.6     41.70734   2.60581    2.53587    2.48189    -0.12391   0.16932   
2937.8     48.84734   2.42832    2.484959   2.46247    0.03415    0.21237   
2938       56.02924   2.3458     2.457175   2.46581    0.12001    0.24073   
2938.2     62.2055    2.40843    2.459848   2.47573    0.0673     0.25123   
2938.4     64.37599   2.43746    2.457213   2.47538    0.03793    0.25648   
2938.6     62.98487   2.44113    2.472951   2.47577    0.03464    0.24598   
2938.8     60.7641    2.44427    2.496696   2.47704    0.03277    0.22918   
2939       60.97361   2.4819     2.501057   2.47762    -0.00427   0.22708   
2939.2     62.28931   2.48539    2.482519   2.47652    -0.00887   0.23968   
2939.4     58.8953    2.51773    2.474665   2.47263    -0.0451    0.23758   
2939.6     52.71903   2.4784     2.477814   2.46534    -0.01306   0.22393   
2939.8     49.17418   2.4905     2.496337   2.46342    -0.02708   0.20712   
2940       50.06248   2.5938     2.530835   2.46758    -0.12622   0.18927   
2940.2     52.64361   2.64066    2.53368    2.46862    -0.17204   0.19242   
