~Version
 VERS              .         2.0                           : CWLS LOG ASCII STANDARD - VERSION 2.0
 WRAP              .         NO                            : ONE LINE PER DEPTH STEP
 DLM               .         SPACE                         : DELIMITING CHARACTER(SPACE TAB OR COMMA)
~Well Information
#_______________________________________________________________________________
#
#PARAMETER_NAME    .UNIT     VALUE                         : DESCRIPTION
#_______________________________________________________________________________
STRT               .m        2779                          : First reference value
STOP               .m        3001.8                        : Last reference value
STEP               .m        0.2                           : Step increment
NULL               .         -9999                         : Missing value
COMP               .                                       : Company
WELL               .         601                           : Well name
FLD                .                                       : Field
LOC                .                                       : Location
PROV               .                                       : Province
SRVC               .                                       : Service Company
DATE               .         2021-05-13 14_16_42           : Date
UWI                .                                       : Unique Well ID
API                .                                       : API NUMBER
CNTY               .                                       : COUNTY
Cartographic_reference_system .         GCS_WGS_1984                  : GEOGCS["GCS_WGS_1984",DATUM["D_WGS_1984",SPHEROID["WGS_1984",6378137.0,298.257223563]],PRIMEM["Greenwich",0.0],UNIT["Degree",0.0174532925199433],AUTHORITY["EPSG",4326]]
CTRY               .                                       : COUNTRY
EREF               .m        134                           : 
HZCS               .GCS_WGS_1984 World_Mercator                : PROJCS["World_Mercator",GEOGCS["GCS_WGS_1984",DATUM["D_WGS_1984",SPHEROID["WGS_1984",6378137.0,298.257223563]],PRIMEM["Greenwich",0.0],UNIT["Degree",0.0174532925199433]],PROJECTION["Mercator"],PARAMETER["False_Easting",0.0],PARAMETER["False_Northing",0.0],PARAMETER["Central_Meridian",0.0],PARAMETER["Standard_Parallel_1",0.0],UNIT["Meter",1.0],AUTHORITY["ESRI",54004]]
LATI               .dega     2.1305856004                  : GCS_WGS_1984
LONG               .dega     2.0279108213                  : GCS_WGS_1984
ORIGINALWELLNAME   .         601                           : 
PROJECT_UPGRADE_TIME .         2014-05-27T11_38_46           : 
Pad                .         Pad6                          : 
STAT               .                                       : STATE
X                  .m        225746                        : 
Y                  .m        235643                        : 
group              .         Pad6                          : 
Интер-р            .         Ярышев                        : 
Куст               .         6                             : 
Статус             .         Не проверено                  : 
Тип                .         Разведка                      : 
~Parameter Information Block
#_______________________________________________________________________________
#
#PARAMETER_NAME    .UNIT     VALUE                         : DESCRIPTION
#_______________________________________________________________________________
SET                .         Gam                           : 
TLFamily_DEPT      .         Measured Depth                : 
TLFamily_GR_NORM   .         Gamma Ray                     : 
TLFamily_RHOB_NORM .         Bulk Density                  : 
TLFamily_RHOB_TL1  .         Bulk Density                  : 
TLFamily_SYNTH_Bulk_Density .         Bulk Density                  : 
TLFamily_SYNTH_Bulk_Density_MISFIT .                                       : 
TLFamily_TNPH_NORM .         Neutron Porosity              : 
~Curve Information
#_______________________________________________________________________________
#
#LOGNAME           .UNIT     LOG_ID                        : DESCRIPTION
#_______________________________________________________________________________
DEPT               .m                                      :  
GR_NORM            .gAPI                                   : Gamma Ray 
RHOB_NORM          .g/cm3                                  : Bulk Density 
RHOB_TL1           .g/cm3                                  :  
SYNTH_Bulk_Density .G/C3                                   : Bulk Density 
SYNTH_Bulk_Density_MISFIT .                                       : Synthetic Bulk Density Misfit 
TNPH_NORM          .v/v                                    : Thermal Neutron Porosity 
~Ascii
# ...
2940.4     52.97043   2.60007    2.5428     2.46964    -0.13043   0.18717   
2940.6     47.33051   2.56988    2.545792   2.47646    -0.09342   0.17457   
2940.8     42.82192   2.68554    2.565527   2.51807    -0.16747   0.15251   
2941       40.50058   2.71054    2.586605   2.55414    -0.1564    0.13256   
2941.2     42.4029    2.68312    2.584542   2.54782    -0.1353    0.13781   
2941.4     44.89185   2.64057    2.57121    2.51832    -0.12225   0.15251   
2941.6     47.38918   2.6231     2.563117   2.49543    -0.12767   0.16302   
2941.8     50.0541    2.61665    2.564126   2.4916     -0.12504   0.16722   
2942       52.32515   2.60706    2.55506    2.47745    -0.12961   0.17772   
2942.2     57.32818   2.60392    2.522084   2.47302    -0.1309    0.20817   
2942.4     58.30867   2.49408    2.482632   2.47251    -0.02157   0.23233   
2942.6     57.68854   2.40637    2.494154   2.47164    0.06527    0.22498   
2942.8     60.18585   2.4242     2.511296   2.47656    0.05237    0.21973   
2943       61.32558   2.46201    2.511092   2.47772    0.01571    0.22183   
2943.2     58.87015   2.46577    2.499966   2.47439    0.00862    0.22393   
2943.4     56.89241   2.45806    2.485512   2.46917    0.0111     0.22813   
2943.6     54.67163   2.48091    2.473059   2.46643    -0.01448   0.23023   
2943.8     51.87262   2.45905    2.463709   2.46418    0.00513    0.22918   
2944       50.64072   2.52194    2.447096   2.46063    -0.06131   0.23443   
2944.2     48.70487   2.42151    2.416148   2.45328    0.03177    0.24388   
2944.4     47.98417   2.44122    2.419854   2.45535    0.01413    0.24073   
2944.6     49.61832   2.40673    2.432911   2.45918    0.05245    0.23863   
2944.8     50.33065   2.48915    2.436351   2.45977    -0.02938   0.23863   
2945       48.08474   2.55142    2.453511   2.45976    -0.09166   0.22603   
2945.2     43.84431   2.57364    2.467425   2.4583     -0.11534   0.21027   
2945.4     38.20439   2.62256    2.486871   2.45835    -0.16421   0.18822   
2945.6     34.36622   2.64944    2.514789   2.48257    -0.16687   0.16512   
2945.8     32.63988   2.55097    2.511262   2.48871    -0.06227   0.16302   
2946       33.29354   2.51299    2.485126   2.46326    -0.04973   0.17772   
2946.2     35.32158   2.52723    2.498864   2.46507    -0.06216   0.17562   
2946.4     38.15411   2.5043     2.549311   2.51704    0.01274    0.15356   
2946.6     39.84692   2.53198    2.565974   2.52911    -0.00287   0.14621   
2946.8     38.38875   2.56441    2.563071   2.52901    -0.0354    0.14516   
2947       36.54509   2.54587    2.557127   2.52851    -0.01736   0.14516   
2947.2     33.81312   2.54623    2.545873   2.53051    -0.01571   0.14621   
2947.4     32.32143   2.58591    2.525481   2.50722    -0.07869   0.15462   
2947.6     35.75735   2.56862    2.520598   2.48276    -0.08587   0.16512   
2947.8     39.34411   2.49345    2.459209   2.45733    -0.03613   0.20397   
2948       41.66544   2.43083    2.379104   2.44987    0.01904    0.24283   
2948.2     43.74376   2.50367    2.380752   2.44622    -0.05745   0.24703   
2948.4     45.34439   2.49668    2.382098   2.4474     -0.04928   0.25018   
2948.6     42.53699   2.44489    2.318877   2.42805    -0.01685   0.26698   
2948.8     39.37762   2.34401    2.271765   2.39884    0.05483    0.27538   
2949       38.61502   2.34858    2.306764   2.42748    0.0789     0.26173   
2949.2     36.34396   2.35575    2.314943   2.43646    0.08071    0.25333   
2949.4     36.63728   2.37922    2.317038   2.43761    0.05838    0.25333   
2949.6     38.1122    2.35512    2.309294   2.4327     0.07758    0.25963   
2949.8     38.13735   2.32986    2.284699   2.42409    0.09423    0.26803   
2950       37.17361   2.29232    2.274361   2.42109    0.12877    0.26908   
2950.2     38.39714   2.30074    2.292854   2.42499    0.12425    0.26593   
2950.4     42.33587   2.30083    2.299316   2.41307    0.11224    0.27328   
2950.6     43.64319   2.30576    2.289943   2.38491    0.07916    0.27959   
2950.8     42.88058   2.36775    2.330082   2.42805    0.06029    0.26383   
2951       43.46721   2.35046    2.389858   2.44987    0.09941    0.24283   
2951.2     44.73263   2.38039    2.412593   2.4536     0.07321    0.23653   
2951.4     46.81093   2.42062    2.426089   2.45539    0.03477    0.23548   
2951.6     49.25797   2.44642    2.393631   2.44842    0.00201    0.25438   
2951.8     54.0934    2.49838    2.425742   2.45755    -0.04083   0.25123   
2952       61.57698   2.506      2.480123   2.47588    -0.03012   0.23968   
2952.2     72.15289   2.52454    2.506359   2.48991    -0.03464   0.24178   
2952.4     87.29606   2.60634    2.510061   2.50074    -0.1056    0.25648   
2952.6     98.48372999999999 2.61217    2.515409   2.49391    -0.11825   0.25753   
2952.8     100.2855   2.60867    2.45996    2.45895    -0.14972   0.30059   
2953       98.79379   2.58341    2.418485   2.4363     -0.14711   0.32369   
2953.2     97.83844000000001 2.58251    2.420731   2.43992    -0.14259   0.32159   
2953.4     95.60091   2.57328    2.388721   2.41534    -0.15795   0.33524   
2953.6     95.14837   2.52168    2.407219   2.43969    -0.08199   0.32579   
2953.8     94.82154   2.54219    2.410707   2.4414     -0.1008    0.32369   
2954       88.60338   2.5645     2.421449   2.45465    -0.10986   0.31109   
2954.2     80.63374   2.61485    2.412113   2.4587     -0.15615   0.30479   
2954.4     80.04712000000001 2.58654    2.414745   2.4617     -0.12484   0.30269   
2954.6     84.3462    2.55913    2.437658   2.47016    -0.08897   0.29744   
2954.8     88.22626   2.55053    2.428821   2.46081    -0.08971   0.30689   
2955       88.94696999999999 2.52033    2.442403   2.46716    -0.05317   0.30059   
2955.2     89.59225000000001 2.49578    2.433972   2.46082    -0.03497   0.30584   
2955.4     90.38      2.45878    2.423601   2.45386    -0.00492   0.31214   
2955.6     85.05014   2.37546    2.393933   2.44613    0.07067    0.31949   
2955.8     82.02486   2.31785    2.348853   2.41287    0.09501    0.33419   
2956       84.01099000000001 2.19735    2.191437   2.28228    0.08493    0.393     
2956.2     87.16197   2.08822    2.080767   2.27509    0.18687    0.43186   
2956.4     90.66492   1.97811    2.177095   2.29097    0.31286    0.40771   
2956.6     93.41365999999999 2.0127     2.208923   2.29888    0.28619    0.4014    
2956.8     93.23766999999999 2.31651    2.328396   2.36532    0.04881    0.35835   
2957       91.20126   2.53691    2.408723   2.44583    -0.09108   0.32054   
2957.2     90.35486   2.55707    2.410933   2.44859    -0.10848   0.31844   
2957.4     89.86879999999999 2.57033    2.446221   2.4681     -0.10222   0.29954   
2957.6     87.18711   2.51236    2.438499   2.46731    -0.04505   0.30059   
2957.8     85.01662   2.4629     2.449216   2.47635    0.01345    0.29219   
2958       83.82661   2.41354    2.44441    2.47488    0.06135    0.29324   
2958.2     86.08091   2.35817    2.447762   2.47353    0.11537    0.29429   
2958.4     88.17598   2.23238    2.405272   2.44826    0.21588    0.31844   
2958.6     87.67317   2.15022    2.36881    2.41846    0.26824    0.33419   
2958.8     83.08077   2.06215    2.34503    2.40547    0.34332    0.33734   
2959       73.02444   2.16868    2.392095   2.44966    0.28099    0.30164   
2959.2     66.00176999999999 2.32618    2.402176   2.44559    0.11941    0.28484   
2959.4     67.6024    2.42124    2.418339   2.46436    0.04312    0.28064   
2959.6     73.92950999999999 2.45341    2.430232   2.47307    0.01966    0.28589   
2959.8     79.91302   2.52938    2.431792   2.47074    -0.05864   0.29429   
2960       80.49965   2.55384    2.395554   2.44712    -0.10672   0.31214   
2960.2     70.8372    2.58887    2.375548   2.42775    -0.16112   0.30479   
2960.4     65.98501   2.61539    2.409365   2.45663    -0.15876   0.28169   
2960.6     72.82332   2.52409    2.435249   2.47682    -0.04727   0.28169   
2960.8     77.58331   2.55554    2.435462   2.47564    -0.0799    0.28904   
