~Version
 VERS              .         2.0                           : CWLS LOG ASCII STANDARD - VERSION 2.0
 WRAP              .         NO                            : ONE LINE PER DEPTH STEP
 DLM               .         SPACE                         : DELIMITING CHARACTER(SPACE TAB OR COMMA)
~Well Information
#_______________________________________________________________________________
#
#PARAMETER_NAME    .UNIT     VALUE                         : DESCRIPTION
#_______________________________________________________________________________
STRT               .m        2582                          : First reference value
STOP               .m        2759.80000264943              : Last reference value
STEP               .m        0.2                           : Step increment
NULL               .         -9999                         : Missing value
COMP               .                                       : Company
WELL               .         602                           : Well name
FLD                .                                       : Field
LOC                .                                       : Location
CNTY               .                                       : County
STAT               .                                       : State
CTRY               .                                       : Country
SRVC               .                                       : Service Company
DATE               .                                       : Date
API                .                                       : API number
Cartographic_reference_system .         GCS_WGS_1984                  : GEOGCS["GCS_WGS_1984",DATUM["D_WGS_1984",SPHEROID["WGS_1984",6378137.0,298.257223563]],PRIMEM["Greenwich",0.0],UNIT["Degree",0.0174532925199433],AUTHORITY["EPSG",4326]]
EREF               .m        134                           : 
HZCS               .GCS_WGS_1984 World_Mercator                : PROJCS["World_Mercator",GEOGCS["GCS_WGS_1984",DATUM["D_WGS_1984",SPHEROID["WGS_1984",6378137.0,298.257223563]],PRIMEM["Greenwich",0.0],UNIT["Degree",0.0174532925199433]],PROJECTION["Mercator"],PARAMETER["False_Easting",0.0],PARAMETER["False_Northing",0.0],PARAMETER["Central_Meridian",0.0],PARAMETER["Standard_Parallel_1",0.0],UNIT["Meter",1.0],AUTHORITY["ESRI",54004]]
LATI               .dega     2.1305856004                  : GCS_WGS_1984
LONG               .dega     2.0279108213                  : GCS_WGS_1984
PROJECT_UPGRADE_TIME .         2014-05-27T11_38_46           : 
Pad                .         Pad6                          : 
X                  .m        225746                        : 
Y                  .m        235643                        : 
group              .         Pad6                          : 
Интер-р            .         Ярышев                        : 
Куст               .         6                             : 
Статус             .         Не проверено                  : 
Тип                .         Разобраться                   : 
~Parameter Information Block
#_______________________________________________________________________________
#
#PARAMETER_NAME    .UNIT     VALUE                         : DESCRIPTION
#_______________________________________________________________________________
SET                .         LQC                           : 
PROJECT_UPGRADE_TIME .         2014-05-27T11_38_46           : 
TLFamily_GR_NORM   .         Gamma Ray                     : 
TLFamily_MD        .         Measured Depth                : 
TLFamily_RHOB_NORM .         Bulk Density                  : 
TLFamily_TNPH_NORM .         Neutron Porosity              : 
~Curve Information
#_______________________________________________________________________________
#
#LOGNAME           .UNIT     LOG_ID                        : DESCRIPTION
#_______________________________________________________________________________
MD                 .m                                      :  
GR_NORM            .gAPI                                   : Normalised By Techlog 
RHOB_NORM          .g/cm3                                  : Normalized By Techlog 
TNPH_NORM          .v/v                                    : Normalised By Techlog 
~Ascii
# ...
2708.400001883507 96.75303   2.504025   0.2904571 
2708.600001886487 89.96375   2.506507   0.27777   
2708.800001889467 84.85008   2.509167   0.2696965 
2709.000001892447 82.8706    2.532839   0.2696965 
2709.200001895428 83.91243   2.494273   0.2754633 
2709.400001898408 83.85165   2.495957   0.27777   
2709.600001901388 81.25576   2.487003   0.2766167 
2709.800001904368 77.20996   2.476541   0.2708499 
2710.000001907349 72.12234   2.425829   0.2604696 
2710.200001910329 66.4704    2.413151   0.2547027 
2710.400001913309 66.618     2.324759   0.2627763 
2710.600001916289 71.02842   2.264738   0.2835369 
2710.80000191927 76.01186   2.203653   0.3019907 
2711.00000192225 80.66538   2.110474   0.3273648 
2711.20000192523 84.64171   2.049921   0.3227513 
2711.40000192821 86.29128   2.010823   0.3031441 
2711.60000193119 82.48859   2.235038   0.2708499 
2711.800001934171 78.86822   2.468296   0.265083  
2712.000001937151 76.05527   2.455795   0.2604696 
2712.200001940131 75.45621   2.460937   0.2639297 
2712.400001943111 78.73799   2.53869    0.2754633 
2712.600001946092 84.13816   2.555712   0.2962239 
2712.800001949072 88.12317   2.556333   0.3042974 
2713.000001952052 89.52966   2.476896   0.3181378 
2713.200001955032 89.95507   2.463863   0.3400518 
2713.400001958013 90.15475   2.367226   0.3585056 
2713.600001960993 89.33865   2.350381   0.3769595 
2713.800001963973 86.58648   2.392316   0.3711927 
2714.000001966953 82.20209   2.426715   0.3619657 
2714.200001969934 78.58171   2.450564   0.359659  
2714.400001972914 76.92346   2.435936   0.3296715 
2714.600001975894 76.57618   2.402689   0.299684  
2714.800001978874 72.66063   2.433808   0.2881503 
2715.000001981854 64.56905   2.468828   0.2616229 
2715.200001984835 56.95499   2.46404    0.2570094 
2715.400001987815 54.48063   2.430439   0.265083  
2715.600001990795 58.6306    2.45154    0.2789234 
2715.800001993775 66.38358   2.453047   0.2800768 
2716.000001996756 72.65195   2.485939   0.2858436 
2716.200001999736 75.66458   2.500745   0.2800768 
2716.400002002716 77.53988   2.52415    0.27777   
2716.600002005696 80.51779   2.542857   0.27777   
2716.800002008677 84.57226   2.539133   0.2835369 
2717.000002011657 88.38364   2.472552   0.3066042 
2717.200002014637 90.49335   2.480797   0.3354383 
2717.400002017617 90.43258   2.468119   0.3550455 
2717.600002020597 90.00716   2.456682   0.3608124 
2717.800002023578 90.60621   2.452869   0.3538921 
2718.000002026558 92.21238   2.518476   0.3331316 
2718.200002029538 93.70567   2.549861   0.3054508 
2718.400002032518 92.98507   2.608907   0.2846902 
2718.600002035499 90.94481   2.584526   0.2731566 
2718.800002038479 85.0845    2.571759   0.2616229 
2719.000002041459 77.27943   2.538956   0.2477825 
2719.200002044439 72.77349   2.506153   0.2385556 
2719.40000204742 68.93607   2.497996   0.2374022 
2719.6000020504 64.16968   2.481063   0.2431691 
2719.80000205338 62.60693   2.489751   0.2489359 
2720.00000205636 63.8745    2.487269   0.2535494 
2720.20000205934 64.68192   2.476718   0.252396  
2720.400002062321 64.99447   2.415811   0.2581628 
2720.600002065301 66.46172   2.400295   0.2743099 
2720.800002068281 68.80585   2.35641    0.2823835 
2721.000002071261 69.89109   2.330433   0.2800768 
2721.200002074242 68.54539   2.300024   0.2858436 
2721.400002077222 66.58326   2.192305   0.3158311 
2721.600002080202 64.12627   2.087866   0.337745  
2721.800002083182 58.54378   2.009315   0.3446652 
2722.000002086163 47.31802   1.9086     0.3515854 
2722.200002089143 30.26668   1.862676   0.3688859 
2722.400002092123 14.92567   1.751676   0.4380879 
2722.600002095103 8.631263   1.724015   0.4611552 
2722.800002098083 9.916191   1.687843   0.4911427 
2723.000002101064 14.50894   1.67286    0.4830691 
2723.200002104044 20.43003   1.677204   0.4588484 
2723.400002107024 28.07883   1.70584    0.4277076 
2723.600002110004 38.92258   1.7296     0.4046402 
2723.800002112985 52.56192   1.765595   0.3573523 
2724.000002115965 65.09866   1.910019   0.3239047 
2724.200002118945 72.07025   2.181134   0.3192912 
2724.400002121925 72.89504   2.372102   0.3008374 
2724.600002124906 69.5004    2.360134   0.3100643 
2724.800002127886 62.93684   2.270944   0.3435119 
2725.000002130866 57.84054   2.214114   0.3758061 
2725.200002133846 59.91553   2.123861   0.3781129 
2725.400002136827 68.88398   2.12856    0.3527388 
2725.600002139807 75.49094   2.314564   0.3262114 
2725.800002142787 79.9361    2.482836   0.3042974 
2726.000002145767 79.46727   2.628944   0.2973772 
2726.200002148747 76.40255   2.601371   0.2950705 
2726.400002151728 76.09868   2.619369   0.2858436 
2726.600002154708 80.07501   2.670258   0.2708499 
2726.800002157688 83.86902   2.638253   0.2547027 
2727.000002160668 83.58252   2.529824   0.2477825 
2727.200002163649 79.66695   2.515196   0.2443224 
2727.400002166629 71.60143   2.493918   0.2350955 
2727.600002169609 60.09785   2.529913   0.2327888 
2727.800002172589 50.77344   2.523796   0.2304821 
2728.00000217557 45.85077   2.505355   0.2281753 
2728.20000217855 43.46324   2.46803    0.2281753 
2728.40000218153 42.62109   2.476187   0.217795  
2728.60000218451 42.3259    2.495514   0.2085681 
2728.80000218749 41.05834   2.517323   0.2028013 
2729.000002190471 39.50427   2.524239   0.205108  
2729.200002193451 39.69527   2.497198   0.2120282 
2729.400002196431 41.71816   2.489574   0.2235619 
2729.600002199411 44.14911   2.452692   0.2385556 
2729.800002202392 46.39774   2.448614   0.2512426 
2730.000002205372 48.20358   2.436379   0.252396  
2730.200002208352 49.37564   2.390986   0.252396  
2730.400002211332 50.02679   2.372368   0.2570094 
2730.600002214313 51.05994   2.375471   0.2570094 
2730.800002217293 53.20438   2.360399   0.2616229 
2731.000002220273 56.35593   2.333891   0.2662364 
2731.200002223253 61.4696    2.335043   0.2673897 
2731.400002226233 68.91871   2.326798   0.2766167 
2731.600002229214 76.24627   2.356765   0.2800768 
2731.800002232194 79.86665   2.31944    0.3077575 
2732.000002235174 78.52962   2.239293   0.3412051 
2732.200002238154 74.89189   2.165264   0.3400518 
2732.400002241135 72.35676   2.308624   0.3019907 
2732.600002244115 72.8169    2.641001   0.286997  
2732.800002247095 74.77035   2.662811   0.27777   
2733.000002250075 73.14682   2.664673   0.2708499 
2733.200002253056 68.81452   2.636923   0.2616229 
2733.400002256036 67.14759   2.745706   0.2535494 
2733.600002259016 69.56985   2.689674   0.2420157 
2733.800002261996 71.93134   2.620521   0.2339421 
2734.000002264977 71.2802    2.535144   0.2316354 
2734.200002267957 67.74665   2.524505   0.2201018 
2734.400002270937 61.57378   2.534169   0.2074147 
2734.600002273917 54.0639    2.583994   0.1981878 
2734.800002276897 47.99521   2.629121   0.1785806 
2735.000002279878 45.44272   2.651728   0.1682003 
2735.200002282858 46.00705   2.635238   0.170507  
2735.400002285838 49.47115   2.542502   0.192421  
2735.600002288818 54.87132   2.498262   0.205108  
2735.800002291799 59.8808    2.474945   0.2154883 
2736.000002294779 64.07418   2.463154   0.2281753 
2736.200002297759 69.35281   2.420775   0.2374022 
2736.400002300739 76.04659   2.446131   0.2535494 
2736.60000230372 81.55094   2.51094    0.265083  
2736.8000023067 83.66065   2.535498   0.2720032 
2737.00000230968 80.32678   2.534435   0.2639297 
2737.20000231266 71.83585   2.544896   0.2570094 
2737.40000231564 60.89659   2.482215   0.2420157 
2737.600002318621 52.42301   2.421573   0.2385556 
2737.800002321601 51.12939   2.389125   0.2350955 
2738.000002324581 53.32593   2.412973   0.239709  
2738.200002327561 53.21306   2.391784   0.2420157 
2738.400002330542 50.55639   2.403044   0.2385556 
2738.600002333522 47.94312   2.377156   0.2374022 
2738.800002336502 47.23988   2.386199   0.2408623 
2739.000002339482 49.09782   2.418293   0.2477825 
2739.200002342463 52.67479   2.443117   0.2489359 
2739.400002345443 55.87842   2.41652    0.2454758 
2739.600002348423 57.69296   2.416963   0.239709  
2739.800002351403 59.29911   2.409693   0.2362489 
