~Version
 VERS              .         2.0                           : CWLS LOG ASCII STANDARD - VERSION 2.0
 WRAP              .         NO                            : ONE LINE PER DEPTH STEP
 DLM               .         SPACE                         : DELIMITING CHARACTER(SPACE TAB OR COMMA)
~Well Information
#_______________________________________________________________________________
#
#PARAMETER_NAME    .UNIT     VALUE                         : DESCRIPTION
#_______________________________________________________________________________
STRT               .m        2582                          : First reference value
STOP               .m        2759.80000264943              : Last reference value
STEP               .m        0.2                           : Step increment
NULL               .         -9999                         : Missing value
COMP               .                                       : Company
WELL               .         602                           : Well name
FLD                .                                       : Field
LOC                .                                       : Location
CNTY               .                                       : County
STAT               .                                       : State
CTRY               .                                       : Country
SRVC               .                                       : Service Company
DATE               .                                       : Date
API                .                                       : API number
Cartographic_reference_system .         GCS_WGS_1984                  : GEOGCS["GCS_WGS_1984",DATUM["D_WGS_1984",SPHEROID["WGS_1984",6378137.0,298.257223563]],PRIMEM["Greenwich",0.0],UNIT["Degree",0.0174532925199433],AUTHORITY["EPSG",4326]]
EREF               .m        134                           : 
HZCS               .GCS_WGS_1984 World_Mercator                : PROJCS["World_Mercator",GEOGCS["GCS_WGS_1984",DATUM["D_WGS_1984",SPHEROID["WGS_1984",6378137.0,298.257223563]],PRIMEM["Greenwich",0.0],UNIT["Degree",0.0174532925199433]],PROJECTION["Mercator"],PARAMETER["False_Easting",0.0],PARAMETER["False_Northing",0.0],PARAMETER["Central_Meridian",0.0],PARAMETER["Standard_Parallel_1",0.0],UNIT["Meter",1.0],AUTHORITY["ESRI",54004]]
LATI               .dega     2.1305856004                  : GCS_WGS_1984
LONG               .dega     2.0279108213                  : GCS_WGS_1984
PROJECT_UPGRADE_TIME .         2014-05-27T11_38_46           : 
Pad                .         Pad6                          : 
X                  .m        225746                        : 
Y                  .m        235643                        : 
group              .         Pad6                          : 
Интер-р            .         Ярышев                        : 
Куст               .         6                             : 
Статус             .         Не проверено                  : 
Тип                .         Разобраться                   : 
~Parameter Information Block
#_______________________________________________________________________________
#
#PARAMETER_NAME    .UNIT     VALUE                         : DESCRIPTION
#_______________________________________________________________________________
SET                .         LQC                           : 
PROJECT_UPGRADE_TIME .         2014-05-27T11_38_46           : 
TLFamily_GR_NORM   .         Gamma Ray                     : 
TLFamily_MD        .         Measured Depth                : 
TLFamily_RHOB_NORM .         Bulk Density                  : 
TLFamily_TNPH_NORM .         Neutron Porosity              : 
~Curve Information
#_______________________________________________________________________________
#
#LOGNAME           .UNIT     LOG_ID                        : DESCRIPTION
#_______________________________________________________________________________
MD                 .m                                      :  
GR_NORM            .gAPI                                   : Normalised By Techlog 
RHOB_NORM          .g/cm3                                  : Normalized By Techlog 
TNPH_NORM          .v/v                                    : Normalised By Techlog 
~Ascii
2582.0     57.0418    -9999      0.3066042 
2582.20000000298 69.49171   -9999      0.2973772 
2582.40000000596 76.62828   -9999      0.2754633 
2582.600000008941 79.55409   -9999      0.2720032 
2582.800000011921 82.78378   -9999      0.2731566 
2583.000000014901 86.69065   -9999      0.2823835 
2583.200000017881 90.32839   -9999      0.27777   
2583.400000020862 93.18475   -9999      0.2708499 
2583.600000023842 94.19186   -9999      0.2696965 
2583.800000026822 94.62595   -9999      0.2662364 
2584.000000029802 94.96455   -9999      0.2662364 
2584.200000032783 93.72303   -9999      0.265083  
2584.400000035763 92.10819   -9999      0.2616229 
2584.600000038743 91.1879    -9999      0.2604696 
2584.800000041723 87.65435   -9999      0.2512426 
2585.000000044703 80.04028   -9999      0.239709  
2585.200000047684 71.0892    -9999      0.2235619 
2585.400000050664 64.94238   -9999      0.2166417 
2585.600000053644 61.67796   -9999      0.2201018 
2585.800000056624 59.05602   -9999      0.2247152 
2586.000000059605 57.41513   -9999      0.2385556 
2586.200000062585 58.79556   -9999      0.2547027 
2586.400000065565 63.25808   -9999      0.2593162 
2586.600000068545 65.55011   -9999      0.2512426 
2586.800000071526 63.48381   -9999      0.2500893 
2587.000000074506 61.00946   -9999      0.2547027 
2587.200000077486 60.47985   -9999      0.2500893 
2587.400000080466 59.93289   -9999      0.2385556 
2587.600000083447 57.4759    -9999      0.2304821 
2587.800000086427 53.76003   -9999      0.217795  
2588.000000089407 50.66926   -9999      0.2166417 
2588.200000092387 50.0702    -9999      0.2224085 
2588.400000095367 51.01654   -9999      0.2304821 
2588.600000098348 51.11203   -9999      0.2327888 
2588.800000101328 50.86894   -9999      0.2374022 
2589.000000104308 51.63295   -9999      0.2374022 
2589.200000107288 51.91077   -9999      0.2339421 
2589.400000110269 50.47825   -9999      0.2258686 
2589.600000113249 48.31644   -9999      0.2189484 
2589.800000116229 47.80421   -9999      0.2189484 
2590.000000119209 48.86341   -9999      0.2293287 
2590.20000012219 48.99363   -9999      0.2443224 
2590.40000012517 48.86341   -9999      0.2547027 
2590.60000012815 50.71266   -9999      0.2604696 
2590.80000013113 53.28252   -9999      0.265083  
2591.00000013411 54.05521   -9999      0.2593162 
2591.200000137091 53.66452   -9999      0.2500893 
2591.400000140071 53.08284   -9999      0.2500893 
2591.600000143051 52.07573   -9999      0.2535494 
2591.800000146031 52.01496   2.524062   0.2558561 
2592.000000149012 53.73398   2.502784   0.2558561 
2592.200000151992 55.56587   2.434517   0.2558561 
2592.400000154972 57.34568   2.447018   0.2500893 
2592.600000157952 59.49879   2.445777   0.2500893 
2592.800000160933 62.52011   2.472906   0.2512426 
2593.000000163913 66.7569    2.50305    0.2547027 
2593.200000166893 71.1847    2.499415   0.265083  
2593.400000169873 75.24785   2.47796    0.2812302 
2593.600000172853 76.33309   2.532307   0.2881503 
2593.800000175834 73.25968   2.493386   0.2973772 
2594.000000178814 69.49171   2.4667     0.3031441 
2594.200000181794 66.34016   2.49507    0.2985306 
2594.400000184774 61.9992    2.439216   0.2858436 
2594.600000187755 58.14441   2.398345   0.27777   
2594.800000190735 57.25885   2.408452   0.2731566 
2595.000000193715 58.16178   2.388149   0.2800768 
2595.200000196695 59.90684   2.443295   0.2927638 
2595.400000199676 62.65902   2.432035   0.299684  
2595.600000202656 65.77584   2.462711   0.2962239 
2595.800000205636 69.46568   2.454643   0.2812302 
2596.000000208616 73.52014   2.486382   0.2593162 
2596.200000211596 74.37097   2.464572   0.2466292 
2596.400000214577 68.6843    2.445068   0.2420157 
2596.600000217557 60.05444   2.446752   0.2454758 
2596.800000220537 55.09705   2.42441    0.2431691 
2597.000000223517 54.66295   2.481861   0.2420157 
2597.200000226498 56.77267   2.448791   0.2350955 
2597.400000229478 59.52484   2.469892   0.2270219 
2597.600000232458 61.51301   2.49906    0.2224085 
2597.800000235438 63.1539    2.50961    0.2339421 
2598.000000238419 64.16968   2.575749   0.2500893 
2598.200000241399 64.2565    2.591441   0.2593162 
2598.400000244379 64.51696   2.598357   0.252396  
2598.600000247359 66.1318    2.514575   0.2477825 
2598.80000025034 70.93292   2.473438   0.2500893 
2599.00000025332 78.65117   2.492588   0.2558561 
2599.2000002563 84.77194   2.535853   0.2616229 
2599.40000025928 84.91954   2.520338   0.2604696 
2599.60000026226 79.24154   2.538601   0.2570094 
2599.800000265241 72.18312   2.546403   0.2477825 
2600.000000268221 66.66141   2.507394   0.2431691 
2600.200000271201 61.29596   2.502252   0.239709  
2600.400000274181 55.65269   2.514664   0.2362489 
2600.600000277162 52.63137   2.52415    0.2293287 
2600.800000280142 53.9163    2.514752   0.2235619 
2601.000000283122 58.26596   2.537538   0.2212551 
2601.200000286102 63.81372   2.476896   0.2201018 
2601.400000289083 67.55564   2.512891   0.2143349 
2601.600000292063 66.34885   2.557308   0.2016479 
2601.800000295043 60.34963   2.57238    0.1855008 
2602.000000298023 53.11756   2.498883   0.1762739 
2602.200000301003 49.23674   2.596406   0.1693537 
2602.400000303984 49.89656   2.551723   0.1728138 
2602.600000306964 52.77029   2.535942   0.1785806 
2602.800000309944 57.95341   2.501897   0.1958811 
2603.000000312924 63.02366   2.488333   0.2074147 
2603.200000315905 67.02605   2.473438   0.2212551 
2603.400000318885 70.55959   2.479821   0.2316354 
2603.600000321865 73.6851    2.570518   0.2327888 
2603.800000324845 75.88163   2.59153    0.2316354 
2604.000000327826 75.49094   2.576901   0.2270219 
2604.200000330806 70.62037   2.604917   0.217795  
2604.400000333786 62.84134   2.533371   0.217795  
2604.600000336766 57.76241   2.473083   0.2224085 
2604.800000339746 57.08521   2.459253   0.2293287 
2605.000000342727 58.12704   2.441699   0.2443224 
2605.200000345707 57.91      2.479023   0.2604696 
2605.400000348687 56.31252   2.442142   0.252396  
2605.600000351667 56.81607   2.421662   0.2316354 
2605.800000354648 59.69848   2.463774   0.2201018 
2606.000000357628 63.21467   2.513245   0.2235619 
2606.200000360608 67.47751   2.492499   0.2431691 
2606.400000363588 72.16576   2.510851   0.2673897 
2606.600000366569 77.14051   2.529381   0.2835369 
2606.800000369549 81.67249   2.542325   0.2904571 
2607.000000372529 83.8343    2.587186   0.2823835 
2607.200000375509 82.88796   2.558993   0.2731566 
2607.400000378489 80.74352   2.530445   0.2685431 
2607.60000038147 79.60619   2.560323   0.2627763 
2607.80000038445 78.4949    2.565908   0.2593162 
2608.00000038743 75.60381   2.491081   0.2547027 
2608.20000039041 69.34412   2.468296   0.2443224 
2608.400000393391 62.0426    2.441876   0.2350955 
2608.600000396371 58.28333   2.462799   0.2350955 
2608.800000399351 57.55404   2.440812   0.2316354 
2609.000000402331 58.44828   2.434872   0.2293287 
2609.200000405312 59.55957   2.450742   0.2201018 
2609.400000408292 59.72452   2.52353    0.2120282 
2609.600000411272 59.5422    2.535676   0.2120282 
2609.800000414252 59.31647   2.557929   0.2154883 
2610.000000417233 59.23833   2.605804   0.217795  
2610.200000420213 59.62902   2.607577   0.217795  
2610.400000423193 59.71585   2.488598   0.2235619 
2610.600000426173 58.79556   2.420066   0.2385556 
2610.800000429153 57.44985   2.496755   0.2477825 
2611.000000432134 55.071     2.480353   0.239709  
2611.200000435114 52.58797   2.521224   0.217795  
2611.400000438094 53.30857   2.522554   0.2062614 
2611.600000441074 57.55404   2.519097   0.2039547 
2611.800000444055 62.91948   2.544985   0.2166417 
2612.000000447035 68.95344   2.560323   0.2374022 
2612.200000450015 77.80902   2.540641   0.2627763 
2612.400000452995 87.22894   2.594899   0.2754633 
2612.600000455976 93.47125   2.531597   0.2835369 
2612.800000458956 97.38682   2.553141   0.2835369 
2613.000000461936 98.79329   2.553407   0.2673897 
2613.200000464916 98.99298   2.565553   0.2570094 
2613.400000467896 99.48784   2.574331   0.2639297 
