~Version
 VERS              .         2.0                           : CWLS LOG ASCII STANDARD - VERSION 2.0
 WRAP              .         NO                            : ONE LINE PER DEPTH STEP
 DLM               .         SPACE                         : DELIMITING CHARACTER(SPACE TAB OR COMMA)
~Well Information
#_______________________________________________________________________________
#
#PARAMETER_NAME    .UNIT     VALUE                         : DESCRIPTION
#_______________________________________________________________________________
STRT               .m        2582                          : First reference value
STOP               .m        2759.80000264943              : Last reference value
STEP               .m        0.2                           : Step increment
NULL               .         -9999                         : Missing value
COMP               .                                       : Company
WELL               .         602                           : Well name
FLD                .                                       : Field
LOC                .                                       : Location
CNTY               .                                       : County
STAT               .                                       : State
CTRY               .                                       : Country
SRVC               .                                       : Service Company
DATE               .                                       : Date
API                .                                       : API number
Cartographic_reference_system .         GCS_WGS_1984                  : GEOGCS["GCS_WGS_1984",DATUM["D_WGS_1984",SPHEROID["WGS_1984",6378137.0,298.257223563]],PRIMEM["Greenwich",0.0],UNIT["Degree",0.0174532925199433],AUTHORITY["EPSG",4326]]
EREF               .m        134                           : 
HZCS               .GCS_WGS_1984 World_Mercator                : PROJCS["World_Mercator",GEOGCS["GCS_WGS_1984",DATUM["D_WGS_1984",SPHEROID["WGS_1984",6378137.0,298.257223563]],PRIMEM["Greenwich",0.0],UNIT["Degree",0.0174532925199433]],PROJECTION["Mercator"],PARAMETER["False_Easting",0.0],PARAMETER["False_Northing",0.0],PARAMETER["Central_Meridian",0.0],PARAMETER["Standard_Parallel_1",0.0],UNIT["Meter",1.0],AUTHORITY["ESRI",54004]]
LATI               .dega     2.1305856004                  : GCS_WGS_1984
LONG               .dega     2.0279108213                  : GCS_WGS_1984
PROJECT_UPGRADE_TIME .         2014-05-27T11_38_46           : 
Pad                .         Pad6                          : 
X                  .m        225746                        : 
Y                  .m        235643                        : 
group              .         Pad6                          : 
Интер-р            .         Ярышев                        : 
Куст               .         6                             : 
Статус             .         Не проверено                  : 
Тип                .         Разобраться                   : 
~Parameter Information Block
#_______________________________________________________________________________
#
#PARAMETER_NAME    .UNIT     VALUE                         : DESCRIPTION
#_______________________________________________________________________________
SET                .         LQC                           : 
PROJECT_UPGRADE_TIME .         2014-05-27T11_38_46           : 
TLFamily_GR_NORM   .         Gamma Ray                     : 
TLFamily_MD        .         Measured Depth                : 
TLFamily_RHOB_NORM .         Bulk Density                  : 
TLFamily_TNPH_NORM .         Neutron Porosity              : 
~Curve Information
#_______________________________________________________________________________
#
#LOGNAME           .UNIT     LOG_ID                        : DESCRIPTION
#_______________________________________________________________________________
MD                 .m                                      :  
GR_NORM            .gAPI                                   : Normalised By Techlog 
RHOB_NORM          .g/cm3                                  : Normalized By Techlog 
TNPH_NORM          .v/v                                    : Normalised By Techlog 
~Ascii
# ...
2740.000002354383 61.78215   2.427425   0.2339421 
2740.200002357364 68.11996   2.422105   0.2385556 
2740.400002360344 70.04736   2.432123   0.2454758 
2740.600002363324 69.65667   2.446575   0.2512426 
2740.800002366304 71.26283   2.426361   0.2558561 
2741.000002369285 74.6922    2.436113   0.2547027 
2741.200002372265 76.78455   2.480974   0.2593162 
2741.400002375245 77.10579   2.537449   0.265083  
2741.600002378225 77.6267    2.581423   0.2731566 
2741.800002381206 79.15472   2.518299   0.2823835 
2742.000002384186 80.76089   2.499681   0.2858436 
2742.200002387166 81.85481   2.514398   0.2858436 
2742.400002390146 82.25418   2.475211   0.286997  
2742.600002393126 81.88954   2.440723   0.2881503 
2742.800002396107 81.56831   2.451362   0.2927638 
2743.000002399087 81.12553   2.468739   0.299684  
2743.200002402067 80.95189   2.430173   0.299684  
2743.400002405047 82.7751    2.41785    0.2893037 
2743.600002408028 84.78063   2.408807   0.2766167 
2743.800002411008 82.22813   2.443383   0.2570094 
2744.000002413988 77.43569   2.422371   0.2477825 
2744.200002416968 75.10025   2.423169   0.252396  
2744.400002419949 75.86427   2.430616   0.2593162 
2744.600002422929 75.72536   2.416786   0.2604696 
2744.800002425909 71.02842   2.408186   0.252396  
2745.000002428889 62.58089   2.438507   0.2454758 
2745.20000243187 55.68742   2.477428   0.2454758 
2745.40000243485 54.34172   2.477428   0.2512426 
2745.60000243783 57.19808   2.456061   0.2662364 
2745.80000244081 63.32753   2.417318   0.2893037 
2746.00000244379 71.16734   2.439127   0.2985306 
2746.200002446771 75.97713   2.40925    0.3008374 
2746.400002449751 77.57462   2.41386    0.3031441 
2746.600002452731 78.09553   2.476807   0.3031441 
2746.800002455711 76.58487   2.520072   0.2916104 
2747.000002458692 73.85873   2.514841   0.2881503 
2747.200002461672 72.56512   2.515285   0.2846902 
2747.400002464652 73.78928   2.458987   0.2893037 
2747.600002467632 75.60381   2.401005   0.2893037 
2747.800002470613 76.82796   2.36102    0.2835369 
2748.000002473593 77.01897   2.377688   0.2766167 
2748.200002476573 76.94951   2.449234   0.2743099 
2748.400002479553 77.03633   2.488155   0.2743099 
2748.600002482533 76.63696   2.487091   0.2789234 
2748.800002485514 74.99608   2.446309   0.2858436 
2749.000002488494 72.66063   2.44028    0.2939171 
2749.200002491474 70.42937   2.478048   0.3008374 
2749.400002494454 68.67561   2.43966    0.3042974 
2749.600002497435 67.77269   2.467853   0.3008374 
2749.800002500415 68.01579   2.363591   0.2927638 
2750.000002503395 68.25888   2.314918   0.2893037 
2750.200002506375 68.21547   2.245765   0.2916104 
2750.400002509356 66.05367   2.141061   0.299684  
2750.600002512336 61.02682   2.057811   0.3158311 
2750.800002515316 54.3504    1.987417   0.3262114 
2751.000002518296 47.89103   1.868793   0.3319782 
2751.200002521276 42.62977   1.77588    0.3550455 
2751.400002524257 40.71974   1.744584   0.3677326 
2751.600002527237 44.05361   1.704776   0.3642724 
2751.800002530217 53.49089   1.704776   0.3365917 
2752.000002533197 66.60063   1.776944   0.312371  
2752.200002536178 67.57301   2.082546   0.2881503 
2752.400002539158 65.43724   2.493918   0.2812302 
2752.600002542138 59.55089   2.504291   0.2662364 
2752.800002545118 60.34094   2.486471   0.2662364 
2753.000002548099 66.07971   2.476364   0.2743099 
2753.200002551079 71.45384   2.588072   0.2835369 
2753.400002554059 79.21549   2.62522    0.2962239 
2753.600002557039 82.21077   2.537715   0.3042974 
2753.800002560019 81.83744   2.496666   0.2939171 
2754.000002563 81.09948   2.557042   0.2881503 
2754.20000256598 81.21235   2.584615   0.2950705 
2754.40000256896 83.90376   2.600218   0.3008374 
2754.60000257194 88.07108   2.634972   0.3019907 
2754.800002574921 91.76092   2.596849   0.3008374 
2755.000002577901 94.66936   2.622205   0.3054508 
2755.200002580881 95.91088   2.586122   0.3066042 
2755.400002583861 95.59833   2.583285   0.3100643 
2755.600002586842 94.30473   2.640203   0.3158311 
2755.800002589822 91.90851   2.588427   0.3227513 
2756.000002592802 87.85404   2.603499   0.325058  
2756.200002595782 84.23366   2.591707   0.3215979 
2756.400002598763 83.76484   2.589491   0.3192912 
2756.600002601743 83.13106   2.563869   0.3112177 
2756.800002604723 79.52805   2.539931   0.3054508 
2757.000002607703 76.95819   2.576901   0.2962239 
2757.200002610683 80.71748   2.64437    0.2927638 
2757.400002613664 86.35206   2.665736   0.2973772 
2757.600002616644 87.44599   2.718576   0.3066042 
2757.800002619624 88.19263   2.619546   0.3054508 
2758.000002622604 90.05057   2.562982   0.3112177 
2758.200002625585 90.44125   2.577611   0.3227513 
2758.400002628565 89.6512    2.547999   0.3319782 
2758.600002631545 90.32839   2.551457   0.3354383 
2758.800002634525 89.57307   2.515107   0.337745  
2759.000002637506 86.95979   2.530977   0.334285  
2759.200002640486 86.14369   2.534966   0.3308249 
2759.400002643466 86.95979   2.553585   0.3262114 
2759.600002646446 90.2763    2.576636   0.2973772 
2759.800002649426 93.3063    2.620876   0.3019907 
