~Version
 VERS              .         2.0                           : CWLS LOG ASCII STANDARD - VERSION 2.0
 WRAP              .         NO                            : ONE LINE PER DEPTH STEP
 DLM               .         SPACE                         : DELIMITING CHARACTER(SPACE TAB OR COMMA)
~Well Information
#_______________________________________________________________________________
#
#PARAMETER_NAME    .UNIT     VALUE                         : DESCRIPTION
#_______________________________________________________________________________
STRT               .m        2582                          : First reference value
STOP               .m        2759.80000264943              : Last reference value
STEP               .m        0.2                           : Step increment
NULL               .         -9999                         : Missing value
COMP               .                                       : Company
WELL               .         602                           : Well name
FLD                .                                       : Field
LOC                .                                       : Location
CNTY               .                                       : County
STAT               .                                       : State
CTRY               .                                       : Country
SRVC               .                                       : Service Company
DATE               .                                       : Date
API                .                                       : API number
Cartographic_reference_system .         GCS_WGS_1984                  : GEOGCS["GCS_WGS_1984",DATUM["D_WGS_1984",SPHEROID["WGS_1984",6378137.0,298.257223563]],PRIMEM["Greenwich",0.0],UNIT["Degree",0.0174532925199433],AUTHORITY["EPSG",4326]]
EREF               .m        134                           : 
HZCS               .GCS_WGS_1984 World_Mercator                : PROJCS["World_Mercator",GEOGCS["GCS_WGS_1984",DATUM["D_WGS_1984",SPHEROID["WGS_1984",6378137.0,298.257223563]],PRIMEM["Greenwich",0.0],UNIT["Degree",0.0174532925199433]],PROJECTION["Mercator"],PARAMETER["False_Easting",0.0],PARAMETER["False_Northing",0.0],PARAMETER["Central_Meridian",0.0],PARAMETER["Standard_Parallel_1",0.0],UNIT["Meter",1.0],AUTHORITY["ESRI",54004]]
LATI               .dega     2.1305856004                  : GCS_WGS_1984
LONG               .dega     2.0279108213                  : GCS_WGS_1984
PROJECT_UPGRADE_TIME .         2014-05-27T11_38_46           : 
Pad                .         Pad6                          : 
X                  .m        225746                        : 
Y                  .m        235643                        : 
group              .         Pad6                          : 
Интер-р            .         Ярышев                        : 
Куст               .         6                             : 
Статус             .         Не проверено                  : 
Тип                .         Разобраться                   : 
~Parameter Information Block
#_______________________________________________________________________________
#
#PARAMETER_NAME    .UNIT     VALUE                         : DESCRIPTION
#_______________________________________________________________________________
SET                .         LQC                           : 
PROJECT_UPGRADE_TIME .         2014-05-27T11_38_46           : 
TLFamily_GR_NORM   .         Gamma Ray                     : 
TLFamily_MD        .         Measured Depth                : 
TLFamily_RHOB_NORM .         Bulk Density                  : 
TLFamily_TNPH_NORM .         Neutron Porosity              : 
~Curve Information
#_______________________________________________________________________________
#
#LOGNAME           .UNIT     LOG_ID                        : DESCRIPTION
#_______________________________________________________________________________
MD                 .m                                      :  
GR_NORM            .gAPI                                   : Normalised By Techlog 
RHOB_NORM          .g/cm3                                  : Normalized By Techlog 
TNPH_NORM          .v/v                                    : Normalised By Techlog 
~Ascii
# ...
2676.80000141263 101.5889   2.450476   0.3112177 
2677.00000141561 100.4515   2.485318   0.3158311 
2677.200001418591 101.4326   2.502252   0.325058  
2677.400001421571 105.2527   2.492854   0.3412051 
2677.600001424551 110.5921   2.47592    0.3527388 
2677.800001427531 114.8028   2.449766   0.3585056 
2678.000001430511 116.4176   2.455352   0.3700393 
2678.200001433492 116.9646   2.445688   0.3746527 
2678.400001436472 116.7389   2.456505   0.3711927 
2678.600001439452 115.0893   2.50172    0.3665792 
2678.800001442432 113.952    2.511561   0.3538921 
2679.000001445413 113.7783   2.535233   0.3504321 
2679.200001448393 114.6726   2.524328   0.3538921 
2679.400001451373 116.5045   2.45482    0.3619657 
2679.600001454353 117.555    2.42574    0.3677326 
2679.800001457334 117.8415   2.410225   0.3631191 
2680.000001460314 118.1367   2.457303   0.3573523 
2680.200001463294 119.3174   2.438507   0.3619657 
2680.400001466274 121.7223   2.501543   0.3608124 
2680.600001469254 124.5526   2.540109   0.3504321 
2680.800001472235 126.2717   2.500301   0.3400518 
2681.000001475215 125.499    2.531066   0.3412051 
2681.200001478195 123.3893   2.495425   0.3400518 
2681.400001481175 121.6615   2.4581     0.334285  
2681.600001484156 120.611    2.482392   0.3285181 
2681.800001487136 120.585    2.52087    0.3319782 
2682.000001490116 120.4808   2.460228   0.3365917 
2682.200001493096 119.7689   2.458366   0.3412051 
2682.400001496077 119.0483   2.499149   0.3388984 
2682.600001499057 118.51     2.513245   0.334285  
2682.800001502037 118.4666   2.509344   0.3204446 
2683.000001505017 118.2322   2.506419   0.3054508 
2683.200001507998 116.3829   2.518653   0.2939171 
2683.400001510978 115.8446   2.557663   0.2812302 
2683.600001513958 118.7704   2.581335   0.2662364 
2683.800001516938 121.0364   2.60279    0.2570094 
2684.000001519918 120.7152   2.517146   0.2327888 
2684.200001522899 116.0617   2.519717   0.2247152 
2684.400001525879 99.37498   2.456061   0.2085681 
2684.600001528859 71.0892    2.469803   0.1935744 
2684.800001531839 47.43089   2.533193   0.1808873 
2685.00000153482 38.20198   2.546049   0.1635868 
2685.2000015378 36.30931   2.608464   0.1555133 
2685.40000154078 35.23275   2.682404   0.1405195 
2685.60000154376 33.27063   2.784892   0.1209123 
2685.800001546741 31.18696   2.83064    0.1070719 
2686.000001549721 30.70078   2.795443   0.08515798
2686.200001552701 31.20432   2.659265   0.07823779
2686.400001555681 32.72367   2.540197   0.08977144
2686.600001558661 36.34404   2.504557   0.1220657 
2686.800001561642 39.23513   2.404728   0.1647402 
2687.000001564622 41.5098    2.388061   0.2016479 
2687.200001567602 43.26355   2.36696    0.2143349 
2687.400001570582 44.54848   2.372546   0.2258686 
2687.600001573563 44.94785   2.382741   0.2258686 
2687.800001576543 43.68897   2.386554   0.2247152 
2688.000001579523 41.11043   2.379816   0.2189484 
2688.200001582503 38.80103   2.375471   0.2166417 
2688.400001585484 37.21224   2.400916   0.217795  
2688.600001588464 36.4135    2.404285   0.2201018 
2688.800001591444 36.64791   2.394444   0.2224085 
2689.000001594424 37.71579   2.402689   0.2293287 
2689.200001597404 38.36694   2.404374   0.2327888 
2689.400001600385 38.15857   2.416786   0.2316354 
2689.600001603365 38.34957   2.441255   0.2270219 
2689.800001606345 40.41587   2.470778   0.2235619 
2690.000001609325 42.71659   2.429641   0.2154883 
2690.200001612306 43.10728   2.369088   0.2108748 
2690.400001615286 43.45456   2.387617   0.2028013 
2690.600001618266 45.61636   2.393203   0.1947277 
2690.800001621246 48.60295   2.487801   0.1912676 
2691.000001624227 49.80106   2.554914   0.1970344 
2691.200001627207 45.23436   2.592594   0.1866542 
2691.400001630187 40.83261   2.583019   0.1808873 
2691.600001633167 38.09779   2.601194   0.1693537 
2691.800001636147 36.78682   2.607932   0.1555133 
2692.000001639128 35.86653   2.589491   0.1382128 
2692.200001642108 35.43243   2.670169   0.1266792 
2692.400001645088 36.06622   2.614404   0.1266792 
2692.600001648068 37.02123   2.508635   0.1520532 
2692.800001651049 37.96756   2.401182   0.192421  
2693.000001654029 39.92968   2.387617   0.2120282 
2693.200001657009 43.41114   2.467853   0.217795  
2693.400001659989 47.96917   2.517767   0.2131816 
2693.60000166297 51.81527   2.480265   0.2085681 
2693.80000166595 53.65585   2.486382   0.2062614 
2694.00000166893 53.57771   2.492056   0.2074147 
2694.20000167191 52.44905   2.525569   0.2028013 
2694.400001674891 50.52166   2.607843   0.1970344 
2694.600001677871 47.86499   2.522998   0.1912676 
2694.800001680851 47.04888   2.4456     0.1912676 
2695.000001683831 49.88788   2.433187   0.1935744 
2695.200001686811 50.84289   2.425031   0.1889609 
2695.400001689792 50.00943   2.449412   0.1831941 
2695.600001692772 48.79395   2.531332   0.170507  
2695.800001695752 47.71739   2.553673   0.1566667 
2696.000001698732 46.71897   2.676198   0.1393662 
2696.200001701713 46.51928   2.668662   0.1255258 
2696.400001704693 46.78842   2.660328   0.1209123 
2696.600001707673 45.52086   2.716449   0.1070719 
2696.800001710653 42.45613   2.766186   0.1047652 
2697.000001713634 40.59819   2.768491   0.1059186 
2697.200001716614 41.5098    2.740386   0.1139921 
2697.400001719594 43.78447   2.655186   0.123219  
2697.600001722574 46.21541   2.646941   0.1428263 
2697.800001725554 49.5406    2.574242   0.15782   
2698.000001728535 53.40407   2.482304   0.1762739 
2698.200001731515 55.3141    2.524594   0.1820407 
2698.400001734495 53.37802   2.555446   0.1774272 
2698.600001737475 49.64479   2.596229   0.1624335 
2698.800001740456 48.37722   2.55057    0.1485931 
2699.000001743436 50.20042   2.537626   0.1474397 
2699.200001746416 48.81131   2.600396   0.1462864 
2699.400001749396 43.90602   2.635416   0.1370594 
2699.600001752377 39.70395   2.67407    0.1359061 
2699.800001755357 38.99203   2.643838   0.1416729 
2700.000001758337 40.72842   2.642774   0.1439796 
2700.200001761317 42.83814   2.558017   0.1485931 
2700.400001764297 43.50665   2.50571    0.1485931 
2700.600001767278 40.84129   2.532573   0.132446  
2700.800001770258 35.86653   2.633199   0.1162989 
2701.000001773238 31.82943   2.663786   0.1001517 
2701.200001776218 30.85705   2.670524   0.09553827
2701.400001779199 33.41822   2.587452   0.09899837
2701.600001782179 38.06306   2.513777   0.1151455 
2701.800001785159 42.62109   2.425386   0.1382128 
2702.000001788139 45.46877   2.440546   0.1831941 
2702.20000179112 44.78289   2.396838   0.2212551 
2702.4000017941 41.87444   2.374408   0.2431691 
2702.60000179708 40.30301   2.362793   0.2512426 
2702.80000180006 42.34327   2.383539   0.2547027 
2703.000001803041 43.40247   2.401625   0.2547027 
2703.200001806021 41.50112   2.375471   0.2500893 
2703.400001809001 37.55083   2.344087   0.2454758 
2703.600001811981 33.861     2.315095   0.2258686 
2703.800001814961 32.49794   2.28114    0.2120282 
2704.000001817942 33.3835    2.280519   0.2201018 
2704.200001820922 34.69447   2.258532   0.2408623 
2704.400001823902 36.84759   2.282292   0.2443224 
2704.600001826882 37.0386    2.273072   0.2420157 
2704.800001829863 35.59739   2.321745   0.239709  
2705.000001832843 33.85232   2.311727   0.2350955 
2705.200001835823 33.12304   2.318819   0.2293287 
2705.400001838803 33.70473   2.299403   0.2235619 
2705.600001841784 35.6408    2.342225   0.2235619 
2705.800001844764 38.55794   2.310485   0.217795  
2706.000001847744 40.75447   2.317667   0.2097215 
2706.200001850724 41.7008    2.329369   0.1970344 
2706.400001853704 43.26355   2.377333   0.1866542 
2706.600001856685 48.15149   2.375826   0.1820407 
2706.800001859665 54.52404   2.462178   0.1970344 
2707.000001862645 64.80346   2.536828   0.2201018 
2707.200001865625 75.88163   2.590821   0.2454758 
2707.400001868606 85.50991   2.622915   0.2547027 
2707.600001871586 93.65357   2.574153   0.2696965 
2707.800001874566 100.3387   2.510231   0.2916104 
2708.000001877546 103.0561   2.461558   0.3077575 
2708.200001880527 100.6078   2.471488   0.3054508 
