~Version
 VERS              .         2.0                           : CWLS LOG ASCII STANDARD - VERSION 2.0
 WRAP              .         NO                            : ONE LINE PER DEPTH STEP
 DLM               .         SPACE                         : DELIMITING CHARACTER(SPACE TAB OR COMMA)
~Well Information
#_______________________________________________________________________________
#
#PARAMETER_NAME    .UNIT     VALUE                         : DESCRIPTION
#_______________________________________________________________________________
STRT               .m        2582                          : First reference value
STOP               .m        2759.80000264943              : Last reference value
STEP               .m        0.2                           : Step increment
NULL               .         -9999                         : Missing value
COMP               .                                       : Company
WELL               .         602                           : Well name
FLD                .                                       : Field
LOC                .                                       : Location
CNTY               .                                       : County
STAT               .                                       : State
CTRY               .                                       : Country
SRVC               .                                       : Service Company
DATE               .                                       : Date
API                .                                       : API number
Cartographic_reference_system .         GCS_WGS_1984                  : GEOGCS["GCS_WGS_1984",DATUM["D_WGS_1984",SPHEROID["WGS_1984",6378137.0,298.257223563]],PRIMEM["Greenwich",0.0],UNIT["Degree",0.0174532925199433],AUTHORITY["EPSG",4326]]
EREF               .m        134                           : 
HZCS               .GCS_WGS_1984 World_Mercator                : PROJCS["World_Mercator",GEOGCS["GCS_WGS_1984",DATUM["D_WGS_1984",SPHEROID["WGS_1984",6378137.0,298.257223563]],PRIMEM["Greenwich",0.0],UNIT["Degree",0.0174532925199433]],PROJECTION["Mercator"],PARAMETER["False_Easting",0.0],PARAMETER["False_Northing",0.0],PARAMETER["Central_Meridian",0.0],PARAMETER["Standard_Parallel_1",0.0],UNIT["Meter",1.0],AUTHORITY["ESRI",54004]]
LATI               .dega     2.1305856004                  : GCS_WGS_1984
LONG               .dega     2.0279108213                  : GCS_WGS_1984
PROJECT_UPGRADE_TIME .         2014-05-27T11_38_46           : 
Pad                .         Pad6                          : 
X                  .m        225746                        : 
Y                  .m        235643                        : 
group              .         Pad6                          : 
Интер-р            .         Ярышев                        : 
Куст               .         6                             : 
Статус             .         Не проверено                  : 
Тип                .         Разобраться                   : 
~Parameter Information Block
#_______________________________________________________________________________
#
#PARAMETER_NAME    .UNIT     VALUE                         : DESCRIPTION
#_______________________________________________________________________________
SET                .         LQC                           : 
PROJECT_UPGRADE_TIME .         2014-05-27T11_38_46           : 
TLFamily_GR_NORM   .         Gamma Ray                     : 
TLFamily_MD        .         Measured Depth                : 
TLFamily_RHOB_NORM .         Bulk Density                  : 
TLFamily_TNPH_NORM .         Neutron Porosity              : 
~Curve Information
#_______________________________________________________________________________
#
#LOGNAME           .UNIT     LOG_ID                        : DESCRIPTION
#_______________________________________________________________________________
MD                 .m                                      :  
GR_NORM            .gAPI                                   : Normalised By Techlog 
RHOB_NORM          .g/cm3                                  : Normalized By Techlog 
TNPH_NORM          .v/v                                    : Normalised By Techlog 
~Ascii
# ...
2613.600000470877 100.0001   2.579827   0.2800768 
2613.800000473857 101.8667   2.576192   0.2916104 
2614.000000476837 105.3829   2.538336   0.2962239 
2614.200000479817 108.2219   2.541173   0.2939171 
2614.400000482798 109.8628   2.551457   0.2939171 
2614.600000485778 112.3545   2.552787   0.3077575 
2614.800000488758 115.6189   2.54995    0.3285181 
2615.000000491738 118.0672   2.535144   0.3412051 
2615.200000494719 119.2046   2.547644   0.3481253 
2615.400000497699 119.7081   2.522288   0.3400518 
2615.600000500679 118.6055   2.533991   0.3262114 
2615.800000503659 114.7768   2.532484   0.3169845 
2616.000000506639 109.8107   2.498883   0.3066042 
2616.20000050962 106.0948   2.526899   0.2927638 
2616.4000005126 104.5147   2.561918   0.2846902 
2616.60000051558 104.5928   2.523618   0.2754633 
2616.80000051856 106.5029   2.522111   0.2708499 
2617.000000521541 109.3071   2.504025   0.2731566 
2617.200000524521 110.0104   2.513777   0.2835369 
2617.400000527501 107.9441   2.509522   0.2916104 
2617.600000530481 104.7144   2.489928   0.2950705 
2617.800000533462 102.3703   2.515462   0.2881503 
2618.000000536442 101.667    2.519717   0.2846902 
2618.200000539422 100.4689   2.583285   0.2789234 
2618.400000542402 101.1895   2.620166   0.2720032 
2618.600000545382 105.0877   2.608198   0.265083  
2618.800000548363 109.3853   2.559791   0.265083  
2619.000000551343 113.023    2.589668   0.2731566 
2619.200000554323 116.4437   2.576724   0.2800768 
2619.400000557303 118.7704   2.550127   0.2904571 
2619.600000560284 121.8699   2.532661   0.2973772 
2619.800000563264 126.5234   2.55722    0.299684  
2620.000000566244 129.8052   2.544453   0.3008374 
2620.200000569224 131.4808   2.512447   0.3031441 
2620.400000572205 132.7137   2.456505   0.3054508 
2620.600000575185 133.7815   2.465104   0.3100643 
2620.800000578165 134.6671   2.515373   0.3181378 
2621.000000581145 134.8234   2.519274   0.3215979 
2621.200000584126 132.1927   2.584083   0.3169845 
2621.400000587106 126.7318   2.522909   0.3089109 
2621.600000590086 121.2014   2.507926   0.3100643 
2621.800000593066 117.1556   2.483456   0.3158311 
2622.000000596046 115.5408   2.523264   0.3169845 
2622.200000599027 116.6347   2.564312   0.3169845 
2622.400000602007 117.1035   2.57238    0.312371  
2622.600000604987 114.742    2.578852   0.3031441 
2622.800000607967 113.1011   2.544807   0.2904571 
2623.000000610948 114.2211   2.553407   0.286997  
2623.200000613928 116.7649   2.50766    0.2927638 
2623.400000616908 120.7326   2.512536   0.3089109 
2623.600000619888 127.6521   2.468385   0.3262114 
2623.800000622869 137.0807   2.449234   0.3331316 
2624.000000625849 147.881    2.428045   0.3296715 
2624.200000628829 161.3554   2.399498   0.3204446 
2624.400000631809 174.0658   2.356321   0.3169845 
2624.600000634789 177.1739   2.347367   0.3089109 
2624.80000063777 171.6435   2.406058   0.2985306 
2625.00000064075 169.4904   2.414658   0.2962239 
2625.20000064373 175.1337   2.403133   0.3112177 
2625.40000064671 181.8969   2.433985   0.3319782 
2625.600000649691 186.3073   2.420332   0.3412051 
2625.800000652671 190.848    2.442053   0.337745  
2626.000000655651 195.6578   2.418648   0.325058  
2626.200000658631 196.908    2.405083   0.3204446 
2626.400000661612 193.2182   2.386908   0.3204446 
2626.600000664592 187.1408   2.421396   0.3181378 
2626.800000667572 181.6104   2.412264   0.3158311 
2627.000000670552 178.372    2.460494   0.3112177 
2627.200000673532 178.4762   2.445954   0.3066042 
2627.400000676513 182.9908   2.444979   0.3158311 
2627.600000679493 190.5354   2.426715   0.3262114 
2627.800000682473 199.4431   2.403221   0.3319782 
2628.000000685453 206.4321   2.355435   0.3365917 
2628.200000688434 214.7147   2.327951   0.3561989 
2628.400000691414 220.6531   2.319883   0.3700393 
2628.600000694394 224.2995   2.299048   0.3665792 
2628.800000697374 227.8765   2.314475   0.3631191 
2629.000000700355 231.6097   2.313588   0.3665792 
2629.200000703335 233.1551   2.325469   0.3608124 
2629.400000706315 229.2917   2.345328   0.346972  
2629.600000709295 221.1914   2.349229   0.3412051 
2629.800000712276 212.466    2.343377   0.3423585 
2630.000000715256 203.567    2.364744   0.3458186 
2630.200000718236 194.9719   2.366872   0.346972  
2630.400000721216 187.3318   2.34515    0.3423585 
2630.600000724196 180.7422   2.40198    0.3412051 
2630.800000727177 175.2813   2.425652   0.3400518 
2631.000000730157 171.9734   2.446043   0.334285  
2631.200000733137 172.9545   2.466168   0.3215979 
2631.400000736117 177.4431   2.488244   0.3169845 
2631.600000739098 185.552    2.439837   0.3285181 
2631.800000742078 199.7383   2.429641   0.3423585 
2632.000000745058 217.5276   2.42441    0.3458186 
2632.200000748038 235.4124   2.364035   0.3515854 
2632.400000751019 251.6129   2.327419   0.3711927 
2632.600000753999 262.995    2.322011   0.3873398 
2632.800000756979 271.8853   2.298073   0.3931066 
2633.000000759959 285.9935   2.2963     0.3827263 
2633.200000762939 309.0093   2.283799   0.3711927 
2633.40000076592 339.0922   2.253567   0.3769595 
2633.6000007689 355.1712   2.239116   0.3769595 
2633.80000077188 384.4033   2.239825   0.3654258 
2634.00000077486 405.5872   2.263408   0.346972  
2634.200000777841 419.791    2.321656   0.3458186 
2634.400000780821 430.4697   2.315628   0.3481253 
2634.600000783801 429.1935   2.334689   0.3412051 
2634.800000786781 407.2976   2.295502   0.3354383 
2635.000000789762 380.6701   2.243904   0.334285  
2635.200000792742 363.2107   2.245854   0.334285  
2635.400000795722 349.7016   2.229098   0.3388984 
2635.600000798702 337.8246   2.203121   0.3492787 
2635.800000801682 330.2714   2.203121   0.3550455 
2636.000000804663 323.0654   2.210036   0.3458186 
2636.200000807643 310.5894   2.238672   0.3239047 
2636.400000810623 291.8624   2.221118   0.312371  
2636.600000813603 269.8016   2.222803   0.3192912 
2636.800000816584 250.9705   2.257025   0.3192912 
2637.000000819564 241.2988   2.238407   0.3239047 
2637.200000822544 241.8284   2.226615   0.3262114 
2637.400000825524 248.3485   2.225019   0.3319782 
2637.600000828505 257.4559   2.217661   0.3435119 
2637.800000831485 266.3809   2.219611   0.3481253 
2638.000000834465 269.7842   2.223512   0.3446652 
2638.200000837445 267.7701   2.237077   0.3481253 
2638.400000840425 265.3999   2.23486    0.3573523 
2638.600000843406 264.9658   2.245233   0.3619657 
2638.800000846386 263.3683   2.247627   0.3642724 
2639.000000849366 257.6816   2.245499   0.3711927 
2639.200000852346 251.7518   2.221296   0.3861864 
2639.400000855327 246.4211   2.214912   0.4011801 
2639.600000858307 240.3611   2.224221   0.4092537 
2639.800000861287 235.8812   2.221118   0.4081004 
2640.000000864267 233.2767   2.240091   0.3919532 
2640.200000867248 232.7123   2.193191   0.3884931 
2640.400000870228 233.4069   2.203475   0.4023335 
2640.600000873208 231.7921   2.209504   0.4081004 
2640.800000876188 224.7336   2.232201   0.4034869 
2641.000000879169 208.4637   2.258887   0.4127138 
2641.200000882149 186.0729   2.301797   0.432321  
2641.400000885129 167.9363   2.306319   0.4438547 
2641.600000888109 160.7477   2.270057   0.4473148 
2641.800000891089 163.1265   2.280076   0.432321  
2642.00000089407 165.9742   2.259241   0.4127138 
2642.20000089705 161.5117   2.284863   0.3861864 
2642.40000090003 152.2828   2.321301   0.3608124 
2642.60000090301 145.8147   2.302151   0.3538921 
2642.800000905991 146.9694   2.270146   0.3504321 
2643.000000908971 151.7705   2.232555   0.346972  
2643.200000911951 151.7532   2.25667    0.3435119 
2643.400000914931 147.0823   2.266777   0.3412051 
2643.600000917912 141.1959   2.286282   0.3412051 
2643.800000920892 134.1809   2.295502   0.3527388 
2644.000000923872 127.1051   2.329547   0.3573523 
2644.200000926852 121.9828   2.350204   0.3585056 
2644.400000929832 119.847    2.322365   0.3585056 
2644.600000932813 121.4358   2.322365   0.3585056 
2644.800000935793 124.9086   2.315716   0.3504321 
2645.000000938773 128.1469   2.311017   0.3400518 
