~Version
 VERS              .         2.0                           : CWLS LOG ASCII STANDARD - VERSION 2.0
 WRAP              .         NO                            : ONE LINE PER DEPTH STEP
 DLM               .         SPACE                         : DELIMITING CHARACTER(SPACE TAB OR COMMA)
~Well Information
#_______________________________________________________________________________
#
#PARAMETER_NAME    .UNIT     VALUE                         : DESCRIPTION
#_______________________________________________________________________________
STRT               .m        2582                          : First reference value
STOP               .m        2759.80000264943              : Last reference value
STEP               .m        0.2                           : Step increment
NULL               .         -9999                         : Missing value
COMP               .                                       : Company
WELL               .         602                           : Well name
FLD                .                                       : Field
LOC                .                                       : Location
CNTY               .                                       : County
STAT               .                                       : State
CTRY               .                                       : Country
SRVC               .                                       : Service Company
DATE               .                                       : Date
API                .                                       : API number
Cartographic_reference_system .         GCS_WGS_1984                  : GEOGCS["GCS_WGS_1984",DATUM["D_WGS_1984",SPHEROID["WGS_1984",6378137.0,298.257223563]],PRIMEM["Greenwich",0.0],UNIT["Degree",0.0174532925199433],AUTHORITY["EPSG",4326]]
EREF               .m        134                           : 
HZCS               .GCS_WGS_1984 World_Mercator                : PROJCS["World_Mercator",GEOGCS["GCS_WGS_1984",DATUM["D_WGS_1984",SPHEROID["WGS_1984",6378137.0,298.257223563]],PRIMEM["Greenwich",0.0],UNIT["Degree",0.0174532925199433]],PROJECTION["Mercator"],PARAMETER["False_Easting",0.0],PARAMETER["False_Northing",0.0],PARAMETER["Central_Meridian",0.0],PARAMETER["Standard_Parallel_1",0.0],UNIT["Meter",1.0],AUTHORITY["ESRI",54004]]
LATI               .dega     2.1305856004                  : GCS_WGS_1984
LONG               .dega     2.0279108213                  : GCS_WGS_1984
PROJECT_UPGRADE_TIME .         2014-05-27T11_38_46           : 
Pad                .         Pad6                          : 
X                  .m        225746                        : 
Y                  .m        235643                        : 
group              .         Pad6                          : 
Интер-р            .         Ярышев                        : 
Куст               .         6                             : 
Статус             .         Не проверено                  : 
Тип                .         Разобраться                   : 
~Parameter Information Block
#_______________________________________________________________________________
#
#PARAMETER_NAME    .UNIT     VALUE                         : DESCRIPTION
#_______________________________________________________________________________
SET                .         LQC                           : 
PROJECT_UPGRADE_TIME .         2014-05-27T11_38_46           : 
TLFamily_GR_NORM   .         Gamma Ray                     : 
TLFamily_MD        .         Measured Depth                : 
TLFamily_RHOB_NORM .         Bulk Density                  : 
TLFamily_TNPH_NORM .         Neutron Porosity              : 
~Curve Information
#_______________________________________________________________________________
#
#LOGNAME           .UNIT     LOG_ID                        : DESCRIPTION
#_______________________________________________________________________________
MD                 .m                                      :  
GR_NORM            .gAPI                                   : Normalised By Techlog 
RHOB_NORM          .g/cm3                                  : Normalized By Techlog 
TNPH_NORM          .v/v                                    : Normalised By Techlog 
~Ascii
# ...
2645.200000941753 131.6197   2.294882   0.3296715 
2645.400000944734 136.3253   2.289651   0.3215979 
2645.600000947714 141.7168   2.290449   0.3215979 
2645.800000950694 146.353    2.260305   0.3262114 
2646.000000953674 148.4193   2.277239   0.3262114 
2646.200000956655 143.4879   2.278923   0.3273648 
2646.400000959635 131.0641   2.306762   0.3262114 
2646.600000962615 121.1319   2.321479   0.325058  
2646.800000965595 117.772    2.359779   0.3146777 
2647.000000968575 114.2906   2.342402   0.3031441 
2647.200000971556 107.2148   2.381589   0.2939171 
2647.400000974536 100.1129   2.338324   0.2823835 
2647.600000977516 96.69226   2.354282   0.2754633 
2647.800000980496 97.18713   2.345328   0.2812302 
2648.000000983477 98.87143   2.383362   0.286997  
2648.200000986457 98.76725   2.378308   0.2927638 
2648.400000989437 98.63702   2.375471   0.299684  
2648.600000992417 100.4168   2.37361    0.3089109 
2648.800000995398 103.1256   2.328749   0.3100643 
2649.000000998378 106.2077   2.348963   0.3135244 
2649.200001001358 109.0119   2.348697   0.3215979 
2649.400001004338 111.4342   2.342402   0.3308249 
2649.600001007318 113.1966   2.32999    0.337745  
2649.800001010299 112.476    2.343466   0.3331316 
2650.000001013279 110.0017   2.315273   0.3227513 
2650.200001016259 110.0885   2.302063   0.3192912 
2650.400001019239 112.6757   2.285307   0.3262114 
2650.60000102222 115.0025   2.256759   0.3435119 
2650.8000010252 116.1051   2.256315   0.3642724 
2651.00000102818 115.6276   2.279366   0.3700393 
2651.20000103116 114.0648   2.297364   0.359659  
2651.400001034141 111.2779   2.313943   0.3585056 
2651.600001037121 106.2684   2.316957   0.3608124 
2651.800001040101 100.165    2.30756    0.3573523 
2652.000001043081 98.14214   2.306762   0.3527388 
2652.200001046062 102.1793   2.298517   0.3435119 
2652.400001049042 106.8849   2.312258   0.3296715 
2652.600001052022 108.1611   2.329192   0.3192912 
2652.800001055002 104.6102   2.370861   0.3181378 
2653.000001057982 97.66463   2.380968   0.3215979 
2653.200001060963 94.03558   2.341249   0.3388984 
2653.400001063943 95.63306   2.325557   0.3504321 
2653.600001066923 98.90616   2.313056   0.3400518 
2653.800001069903 102.1098   2.309953   0.3308249 
2654.000001072884 105.5218   2.323163   0.3331316 
2654.200001075864 110.0277   2.344264   0.337745  
2654.400001078844 113.7957   2.360577   0.3388984 
2654.600001081824 113.4658   2.373078   0.3285181 
2654.800001084805 107.8746   2.401271   0.3192912 
2655.000001087785 100.1737   2.389036   0.3239047 
2655.200001090765 96.77908   2.348076   0.3423585 
2655.400001093745 100.5731   2.31279    0.3688859 
2655.600001096725 107.6662   2.310042   0.3861864 
2655.800001099706 115.3584   2.278037   0.3896465 
2656.000001102686 124.596    2.241332   0.3907999 
2656.200001105666 133.469    2.212607   0.385033  
2656.400001108646 137.2543   2.234506   0.3792662 
2656.600001111627 136.907    2.249578   0.3677326 
2656.800001114607 136.1691   2.25472    0.3515854 
2657.000001117587 137.2456   2.251262   0.3388984 
2657.200001120567 142.2378   2.232555   0.3423585 
2657.400001123548 149.0097   2.204717   0.3619657 
2657.600001126528 152.4651   2.195673   0.3734994 
2657.800001129508 150.2425   2.19656    0.3734994 
2658.000001132488 145.424    2.225817   0.3700393 
2658.200001135468 139.6853   2.233087   0.3734994 
2658.400001138449 135.7871   2.242573   0.3746527 
2658.600001141429 139.4769   2.204805   0.3746527 
2658.800001144409 147.4296   2.2111     0.3792662 
2659.000001147389 152.6214   2.227945   0.381573  
2659.20000115037 156.8408   2.214735   0.3711927 
2659.40000115335 160.9734   2.242308   0.3608124 
2659.60000115633 157.5701   2.308712   0.3573523 
2659.80000115931 144.0176   2.337703   0.3631191 
2660.000001162291 129.6663   2.383805   0.3665792 
2660.200001165271 122.9899   2.392848   0.3561989 
2660.400001168251 121.9307   2.49578    0.3319782 
2660.600001171231 119.9599   2.57504    0.3146777 
2660.800001174212 115.9749   2.653679   0.3019907 
2661.000001177192 115.5408   2.699692   0.2823835 
2661.200001180172 121.1059   2.651551   0.2823835 
2661.400001183152 126.3498   2.492677   0.2950705 
2661.600001186132 126.7058   2.436911   0.3031441 
2661.800001189113 124.3877   2.455086   0.3077575 
2662.000001192093 121.8178   2.436557   0.312371  
2662.200001195073 119.1611   2.433985   0.3089109 
2662.400001198053 116.5218   2.440014   0.312371  
2662.600001201034 114.4642   2.460139   0.3169845 
2662.800001204014 112.9622   2.442319   0.3192912 
2663.000001206994 112.6323   2.4753     0.3169845 
2663.200001209974 114.2992   2.478403   0.3158311 
2663.400001212955 117.6852   2.574862   0.3204446 
2663.600001215935 119.3782   2.517146   0.3273648 
2663.800001218915 117.6852   2.508901   0.3239047 
2664.000001221895 114.9851   2.554383   0.3066042 
2664.200001224875 110.6268   2.523618   0.299684  
2664.400001227856 104.1587   2.58692    0.2962239 
2664.600001230836 97.89905   2.584792   0.2881503 
2664.800001233816 91.79564   2.586388   0.2823835 
2665.000001236796 84.56358   2.60802    0.2627763 
2665.200001239777 77.61802   2.557663   0.2593162 
2665.400001242757 77.30547   2.568922   0.265083  
2665.600001245737 86.31734   2.492588   0.2754633 
2665.800001248717 97.31735   2.504557   0.2743099 
2666.000001251698 103.9417   2.537094   0.2962239 
2666.200001254678 107.0845   2.538867   0.2881503 
2666.400001257658 106.9022   2.528051   0.2720032 
2666.600001260638 104.4192   2.517944   0.2685431 
2666.800001263618 101.7886   2.482038   0.2685431 
2667.000001266599 96.91799   2.517678   0.2616229 
2667.200001269579 88.90455   2.53408    0.2662364 
2667.400001272559 83.16579   2.545162   0.2639297 
2667.600001275539 88.3489    2.49578    0.2789234 
2667.80000127852 104.1848   2.478758   0.2985306 
2668.0000012815 117.0254   2.486825   0.337745  
2668.20000128448 117.6852   2.569543   0.334285  
2668.40000128746 112.1635   2.52876    0.3262114 
2668.600001290441 107.0238   2.543566   0.3192912 
2668.800001293421 104.4973   2.566883   0.3204446 
2669.000001296401 104.8012   2.488953   0.3331316 
2669.200001299381 105.4089   2.511472   0.346972  
2669.400001302361 105.9906   2.486914   0.3492787 
2669.600001305342 106.7894   2.456682   0.337745  
2669.800001308322 107.0759   2.461735   0.3296715 
2670.000001311302 108.0048   2.474059   0.3296715 
2670.200001314282 109.0554   2.539754   0.3262114 
2670.400001317263 110.184    2.497642   0.3239047 
2670.600001320243 111.5037   2.482304   0.3285181 
2670.800001323223 111.113    2.454288   0.3319782 
2671.000001326203 111.0522   2.433985   0.337745  
2671.200001329184 113.4397   2.431769   0.334285  
2671.400001332164 115.6363   2.42707    0.325058  
2671.600001335144 114.5163   2.463065   0.3181378 
2671.800001338124 110.8786   2.474945   0.3181378 
2672.000001341105 110.401    2.463686   0.3135244 
2672.200001344085 114.334    2.435404   0.3077575 
2672.400001347065 119.4997   2.491524   0.3054508 
2672.600001350045 123.7105   2.484964   0.3066042 
2672.800001353025 125.4382   2.467764   0.3100643 
2673.000001356006 126.0633   2.525923   0.3135244 
2673.200001358986 126.072    2.520515   0.3146777 
2673.400001361966 124.6568   2.511649   0.3146777 
2673.600001364946 123.6758   2.483811   0.3181378 
2673.800001367927 123.8233   2.479733   0.3273648 
2674.000001370907 122.9638   2.488598   0.3331316 
2674.200001373887 121.3577   2.488421   0.3262114 
2674.400001376867 121.4705   2.503848   0.3239047 
2674.600001379848 122.7381   2.460139   0.3262114 
2674.800001382828 122.0609   2.465725   0.3227513 
2675.000001385808 118.7704   2.497642   0.3215979 
2675.200001388788 115.8186   2.464129   0.3227513 
2675.400001391768 113.8999   2.479999   0.3204446 
2675.600001394749 111.2779   2.489308   0.3146777 
2675.800001397729 108.6039   2.475034   0.3054508 
2676.000001400709 106.4074   2.447461   0.3089109 
2676.200001403689 104.3932   2.477782   0.3192912 
2676.40000140667 103.1169   2.484964   0.3215979 
2676.60000140965 102.5265   2.465725   0.3146777 
