~Version
 VERS              .         2.0                           : CWLS LOG ASCII STANDARD - VERSION 2.0
 WRAP              .         NO                            : ONE LINE PER DEPTH STEP
 DLM               .         SPACE                         : DELIMITING CHARACTER(SPACE TAB OR COMMA)
~Well Information
#_______________________________________________________________________________
#
#PARAMETER_NAME    .UNIT     VALUE                         : DESCRIPTION
#_______________________________________________________________________________
STRT               .m        2491                          : First reference value
STOP               .m        2702.80000315607              : Last reference value
STEP               .m        0.2                           : Step increment
NULL               .         -9999                         : Missing value
COMP               .                                       : Company
WELL               .         603                           : Well name
FLD                .                                       : Field
LOC                .                                       : Location
CNTY               .                                       : County
STAT               .                                       : State
CTRY               .                                       : Country
SRVC               .                                       : Service Company
DATE               .                                       : Date
API                .                                       : API number
Cartographic_reference_system .         GCS_WGS_1984                  : GEOGCS["GCS_WGS_1984",DATUM["D_WGS_1984",SPHEROID["WGS_1984",6378137.0,298.257223563]],PRIMEM["Greenwich",0.0],UNIT["Degree",0.0174532925199433],AUTHORITY["EPSG",4326]]
EREF               .m        134                           : 
HZCS               .GCS_WGS_1984 World_Mercator                : PROJCS["World_Mercator",GEOGCS["GCS_WGS_1984",DATUM["D_WGS_1984",SPHEROID["WGS_1984",6378137.0,298.257223563]],PRIMEM["Greenwich",0.0],UNIT["Degree",0.0174532925199433]],PROJECTION["Mercator"],PARAMETER["False_Easting",0.0],PARAMETER["False_Northing",0.0],PARAMETER["Central_Meridian",0.0],PARAMETER["Standard_Parallel_1",0.0],UNIT["Meter",1.0],AUTHORITY["ESRI",54004]]
LATI               .dega     2.1305856004                  : GCS_WGS_1984
LONG               .dega     2.0279108213                  : GCS_WGS_1984
PROJECT_UPGRADE_TIME .         2014-05-27T11_38_46           : 
Pad                .         Pad6                          : 
X                  .m        225746                        : 
Y                  .m        235643                        : 
group              .         Pad6                          : 
Интер-р            .         Старостина                    : 
Куст               .         6                             : 
Статус             .         Не проверено                  : 
Тип                .         Нагнетательные                : 
~Parameter Information Block
#_______________________________________________________________________________
#
#PARAMETER_NAME    .UNIT     VALUE                         : DESCRIPTION
#_______________________________________________________________________________
SET                .         LQC                           : 
PROJECT_UPGRADE_TIME .         2014-05-27T11_38_46           : 
TLFamily_GR_NORM   .         Gamma Ray                     : 
TLFamily_MD        .         Measured Depth                : 
TLFamily_RHOB_NORM .         Bulk Density                  : 
TLFamily_TNPH_NORM .         Neutron Porosity              : 
~Curve Information
#_______________________________________________________________________________
#
#LOGNAME           .UNIT     LOG_ID                        : DESCRIPTION
#_______________________________________________________________________________
MD                 .m                                      :  
GR_NORM            .gAPI                                   : Normalised By Techlog 
RHOB_NORM          .g/cm3                                  : Normalized By Techlog 
TNPH_NORM          .v/v                                    : Normalised By Techlog 
~Ascii
# ...
2649.000002354383 29.84165   2.41134    0.2244761 
2649.200002357364 35.80971   2.427606   0.2384821 
2649.400002360344 45.40194   2.410483   0.2414029 
2649.600002363324 51.89277   2.396024   0.256902  
2649.800002366304 58.921     2.400305   0.2749435 
2650.000002369285 71.51403   2.428557   0.2664605 
2650.200002372265 90.50761   2.606157   0.2945874 
2650.400002375245 96.66053   2.552031   0.2962683 
2650.600002378225 88.57214   2.575336   0.2909564 
2650.800002381206 82.9119    2.600354   0.2826247 
2651.000002384186 79.22237   2.62404    0.2743702 
2651.200002387166 75.77361   2.646966   0.2965564 
2651.400002390146 76.77875   2.630129   0.2879454 
2651.600002393126 79.27311   2.598832   0.285726  
2651.800002396107 77.7366    2.556692   0.2782457 
2652.000002399087 73.91639   2.542803   0.2663994 
2652.200002402067 74.78137   2.527298   0.267063  
2652.400002405047 84.18616   2.543754   0.2774307 
2652.600002408028 89.76385   2.549367   0.2825039 
2652.800002411008 87.70027   2.589605   0.2917627 
2653.000002413988 83.70466   2.631365   0.2912649 
2653.200002416968 79.71162   2.601496   0.2830016 
2653.400002419949 79.42271   2.586276   0.2851846 
2653.600002422929 79.53707   2.55574    0.3004625 
2653.800002425909 82.35903   2.500377   0.3144845 
2654.000002428889 85.21279   2.463278   0.3224043 
2654.20000243187 88.52914   2.359972   0.3450796 
2654.40000243485 83.23003   2.114262   0.3597346 
2654.60000243783 84.48796   2.000872   0.3592806 
2654.80000244081 79.83974   1.925533   0.3955834 
2655.00000244379 78.08139   1.931811   0.373467  
2655.200002446771 86.42773   2.144132   0.3572329 
2655.400002449751 88.32193   2.488106   0.2953107 
2655.600002452731 78.25507   2.486964   0.3113715 
2655.800002455711 75.56038   2.52159    0.2795249 
2656.000002458692 85.13369   2.518356   0.2518783 
2656.200002461672 97.25811   2.557833   0.2574769 
2656.400002464652 104.3371   2.552791   0.2797927 
2656.600002467632 97.54014   2.450341   0.2820091 
2656.800002470613 84.92561   2.509509   0.2730167 
2657.000002473593 73.66789   2.54423    0.2695735 
2657.200002476573 68.31461   2.537857   0.2533685 
2657.400002479553 70.63615   2.567346   0.2464892 
2657.600002482533 76.20868   2.572007   0.2580066 
2657.800002485514 79.63596   2.537286   0.2705558 
2658.000002488494 80.1209    2.499236   0.2757629 
2658.200002491474 84.89809   2.482684   0.2931641 
2658.400002494454 86.34433   2.531959   0.3144495 
2658.600002497435 85.85164   2.55517    0.3258345 
2658.800002500415 83.98152   2.547845   0.3138165 
2659.000002503395 85.73041   2.492577   0.2849954 
2659.200002506375 88.45692   2.535098   0.3036104 
2659.400002509356 88.38039   2.549367   0.3423581 
2659.600002512336 84.17842   2.481542   0.3368425 
2659.800002515316 82.672     2.533861   0.3285457 
2660.000002518296 82.1157    2.549462   0.3230549 
2660.200002521276 78.68327   2.576858   0.3075834 
2660.400002524257 75.47181   2.613196   0.2953165 
2660.600002527237 70.93365   2.549652   0.2829361 
2660.800002530217 64.43765   2.567631   0.2934115 
2661.000002533197 62.01466   2.583327   0.2787856 
2661.200002536178 68.05666   2.591032   0.2860753 
2661.400002539158 74.5518    2.527203   0.2873821 
2661.600002542138 82.59806   2.544325   0.2960762 
2661.800002545118 88.38211   2.535954   0.2900352 
2662.000002548099 91.49039   2.48316    0.3034837 
2662.200002551079 90.42764   2.473361   0.3273567 
2662.400002554059 92.95983   2.477357   0.3247532 
2662.600002557039 93.03292   2.489438   0.3247474 
2662.800002560019 93.25218   2.496953   0.3712753 
2663.000002563 93.47229   2.556406   0.3738119 
2663.20000256598 95.08791   2.539189   0.3614868 
2663.40000256896 88.6607    2.588559   0.3342957 
2663.60000257194 81.13979   2.543564   0.3075441 
2663.800002574921 77.24047   2.477167   0.2959365 
2664.000002577901 72.52089   2.48706    0.2861771 
2664.200002580881 67.42383   2.48373    0.2564625 
2664.400002583861 61.86161   2.450056   0.2508974 
2664.600002586842 63.44627   2.51788    0.2466595 
2664.800002589822 70.52866   2.598166   0.2533307 
2665.000002592802 69.48398   2.561733   0.2424711 
2665.200002595782 62.21242   2.563731   0.2215917 
2665.400002598763 54.33641   2.528439   0.2280125 
2665.600002601743 52.14385   2.549652   0.2277433 
2665.800002604723 51.4749    2.522827   0.2103014 
2666.000002607703 52.76808   2.532815   0.1992119 
2666.200002610683 53.87296   2.543469   0.1989979 
2666.400002613664 53.0458    2.549367   0.2172869 
2666.600002616644 52.75088   2.567726   0.2270637 
2666.800002619624 58.59512   2.51379    0.2334743 
2667.000002622604 60.04824   2.499331   0.2487683 
2667.200002625585 59.88057   2.466893   0.2725379 
2667.400002628565 64.65433   2.458332   0.2748621 
2667.600002631545 70.32832   2.408201   0.2733602 
2667.800002634525 69.75568   2.377475   0.2678896 
2668.000002637506 65.49438   2.243728   0.2574289 
2668.200002640486 60.83326   2.122348   0.2594255 
2668.400002643466 58.88403   1.999731   0.2765051 
2668.600002646446 59.30878   1.854189   0.3072618 
2668.800002649426 44.88519   1.736328   0.3461114 
2669.000002652407 21.59247   1.666601   0.4255221 
2669.200002655387 8.76041    1.624175   0.4011529 
2669.400002658367 5.413105   1.624745   0.3617008 
2669.600002661347 5.265214   1.616184   0.3899513 
2669.800002664328 10.08884   1.611808   0.3786319 
2670.000002667308 17.25808   1.621701   0.3488576 
2670.200002670288 22.5228    1.659752   0.3238669 
2670.400002673268 31.9852    1.750026   0.3717526 
2670.600002676249 46.77852   2.034642   0.381199  
2670.800002679229 62.4248    2.197687   0.3557107 
2671.000002682209 72.40051   2.372148   0.3261401 
2671.200002685189 72.98949   2.335334   0.3112653 
2671.400002688169 54.9314    2.198163   0.3119814 
2671.60000269115 43.21282   2.079446   0.3488023 
2671.80000269413 49.38466   2.100469   0.3554356 
2672.00000269711 61.52886   2.364443   0.2776403 
2672.20000270009 66.29058   2.475454   0.2570839 
2672.400002703071 63.8994    2.436357   0.2413665 
2672.600002706051 61.99317   2.479164   0.2193942 
2672.800002709031 62.66727   2.537571   0.2080194 
2673.000002712011 72.88287   2.550984   0.223779  
2673.200002714992 84.08643   2.639736   0.2593411 
2673.400002717972 86.39677   2.661615   0.30802   
2673.600002720952 83.30656   2.641353   0.3017927 
2673.800002723932 82.57743   2.600354   0.2966904 
2674.000002726912 78.7254    2.563541   0.328569  
2674.200002729893 74.47183   2.537667   0.3258665 
2674.400002732873 70.76769   2.607584   0.3082427 
2674.600002735853 64.89336   2.681116   0.3259946 
2674.800002738833 65.54769   2.634029   0.3427278 
2675.000002741814 68.77979   2.58599    0.328796  
2675.200002744794 73.1692    2.528344   0.3074582 
2675.400002747774 73.49593   2.526917   0.3107865 
2675.600002750754 78.87759   2.538523   0.3200031 
2675.800002753735 73.58793   2.575431   0.2869659 
2676.000002756715 65.68526   2.54385    0.2769009 
2676.200002759695 61.86935   2.482684   0.2651697 
2676.400002762675 54.56254   2.523303   0.2705092 
2676.600002765656 54.33469   2.523112   0.2749858 
2676.800002768636 63.24077   2.499806   0.285336  
2677.000002771616 76.38753   2.513219   0.3030166 
2677.200002774596 87.33227   2.455002   0.3502416 
2677.400002777576 96.84625   2.368819   0.3747593 
2677.600002780557 93.68639   2.281969   0.3840398 
2677.800002783537 82.59978   2.342944   0.3334036 
2678.000002786517 79.30664   2.472696   0.28812   
2678.200002789497 84.95313   2.486679   0.2692024 
2678.400002792478 85.68312   2.492291   0.2843711 
2678.600002795458 80.15787   2.539093   0.2860374 
2678.800002798438 79.56374   2.501804   0.2760539 
2679.000002801418 82.58946   2.540425   0.280369  
2679.200002804399 83.97034   2.559736   0.2928177 
2679.400002807379 82.57226   2.517976   0.3043613 
2679.600002810359 81.98844   2.552982   0.2742392 
2679.800002813339 71.68083   2.557738   0.2579193 
2680.000002816319 63.84179   2.56668    0.2702487 
2680.2000028193 62.31044   2.556406   0.2927406 
2680.40000282228 59.98547   2.598927   0.3015307 
