~Version
 VERS              .         2.0                           : CWLS LOG ASCII STANDARD - VERSION 2.0
 WRAP              .         NO                            : ONE LINE PER DEPTH STEP
 DLM               .         SPACE                         : DELIMITING CHARACTER(SPACE TAB OR COMMA)
~Well Information
#_______________________________________________________________________________
#
#PARAMETER_NAME    .UNIT     VALUE                         : DESCRIPTION
#_______________________________________________________________________________
STRT               .m        2491                          : First reference value
STOP               .m        2702.80000315607              : Last reference value
STEP               .m        0.2                           : Step increment
NULL               .         -9999                         : Missing value
COMP               .                                       : Company
WELL               .         603                           : Well name
FLD                .                                       : Field
LOC                .                                       : Location
CNTY               .                                       : County
STAT               .                                       : State
CTRY               .                                       : Country
SRVC               .                                       : Service Company
DATE               .                                       : Date
API                .                                       : API number
Cartographic_reference_system .         GCS_WGS_1984                  : GEOGCS["GCS_WGS_1984",DATUM["D_WGS_1984",SPHEROID["WGS_1984",6378137.0,298.257223563]],PRIMEM["Greenwich",0.0],UNIT["Degree",0.0174532925199433],AUTHORITY["EPSG",4326]]
EREF               .m        134                           : 
HZCS               .GCS_WGS_1984 World_Mercator                : PROJCS["World_Mercator",GEOGCS["GCS_WGS_1984",DATUM["D_WGS_1984",SPHEROID["WGS_1984",6378137.0,298.257223563]],PRIMEM["Greenwich",0.0],UNIT["Degree",0.0174532925199433]],PROJECTION["Mercator"],PARAMETER["False_Easting",0.0],PARAMETER["False_Northing",0.0],PARAMETER["Central_Meridian",0.0],PARAMETER["Standard_Parallel_1",0.0],UNIT["Meter",1.0],AUTHORITY["ESRI",54004]]
LATI               .dega     2.1305856004                  : GCS_WGS_1984
LONG               .dega     2.0279108213                  : GCS_WGS_1984
PROJECT_UPGRADE_TIME .         2014-05-27T11_38_46           : 
Pad                .         Pad6                          : 
X                  .m        225746                        : 
Y                  .m        235643                        : 
group              .         Pad6                          : 
Интер-р            .         Старостина                    : 
Куст               .         6                             : 
Статус             .         Не проверено                  : 
Тип                .         Нагнетательные                : 
~Parameter Information Block
#_______________________________________________________________________________
#
#PARAMETER_NAME    .UNIT     VALUE                         : DESCRIPTION
#_______________________________________________________________________________
SET                .         LQC                           : 
PROJECT_UPGRADE_TIME .         2014-05-27T11_38_46           : 
TLFamily_GR_NORM   .         Gamma Ray                     : 
TLFamily_MD        .         Measured Depth                : 
TLFamily_RHOB_NORM .         Bulk Density                  : 
TLFamily_TNPH_NORM .         Neutron Porosity              : 
~Curve Information
#_______________________________________________________________________________
#
#LOGNAME           .UNIT     LOG_ID                        : DESCRIPTION
#_______________________________________________________________________________
MD                 .m                                      :  
GR_NORM            .gAPI                                   : Normalised By Techlog 
RHOB_NORM          .g/cm3                                  : Normalized By Techlog 
TNPH_NORM          .v/v                                    : Normalised By Techlog 
~Ascii
# ...
2585.80000141263 224.9708   2.264085   0.3060888 
2586.00000141561 219.3905   2.263514   0.3108695 
2586.200001418591 208.8035   2.283871   0.3384143 
2586.400001421571 189.0042   2.319068   0.3402159 
2586.600001424551 167.6298   2.31336    0.3290726 
2586.800001427531 152.6645   2.36254    0.3260455 
2587.000001430511 143.9923   2.431506   0.3182756 
2587.200001433492 146.3783   2.459378   0.3000594 
2587.400001436472 149.3559   2.521019   0.2941464 
2587.600001439452 130.3099   2.466608   0.3008453 
2587.800001442432 100.4524   2.360067   0.2962159 
2588.000001445413 85.73471   2.32449    0.3231524 
2588.200001448393 106.6509   2.324395   0.3186627 
2588.400001451373 135.5273   2.34323    0.3182843 
2588.600001454353 142.2606   2.35883    0.3367581 
2588.800001457334 139.8058   2.311743   0.3428093 
2589.000001460314 133.8377   2.311933   0.3336335 
2589.200001463294 131.5841   2.322778   0.3262129 
2589.400001466274 130.9676   2.359877   0.3402436 
2589.600001469254 125.0615   2.331719   0.3555185 
2589.800001472235 118.2026   2.364633   0.3545551 
2590.000001475215 115.2311   2.381375   0.337707  
2590.200001478195 122.9695   2.423896   0.3194238 
2590.400001481175 127.009    2.457761   0.3188999 
2590.600001484156 123.6273   2.49467    0.3015016 
2590.800001487136 110.4771   2.537191   0.2913799 
2591.000001490116 99.95711   2.547274   0.2933868 
2591.200001493096 100.9081   2.545086   0.2956178 
2591.400001496077 114.4538   2.579331   0.2954286 
2591.600001499057 112.8519   2.468415   0.2899755 
2591.800001502037 87.81635   2.369009   0.2717346 
2592.000001505017 84.32373   2.334668   0.2811287 
2592.200001507998 100.062    2.366821   0.2999211 
2592.400001510978 107.3396   2.395168   0.2866123 
2592.600001513958 104.2433   2.416286   0.2756523 
2592.800001516938 98.23745   2.382421   0.2653661 
2593.000001519918 90.18948   2.355311   0.2720999 
2593.200001522899 83.37534   2.388604   0.2715366 
2593.400001525879 84.99439   2.357308   0.2666643 
2593.600001528859 87.63406   2.406203   0.2655641 
2593.800001531839 86.25576   2.422279   0.2796297 
2594.00000153482 87.4578    2.433123   0.3195417 
2594.2000015378 95.38971   2.412671   0.321016  
2594.40000154078 101.0904   2.348747   0.2861626 
2594.60000154376 103.7128   2.308414   0.2691703 
2594.800001546741 106.4969   2.338664   0.2758677 
2595.000001549721 103.9871   2.351886   0.2574725 
2595.200001552701 101.9846   2.380804   0.259149  
2595.400001555681 100.7275   2.329437   0.2732467 
2595.600001558661 97.2478    2.329531   0.2979288 
2595.800001561642 96.3914    2.306511   0.3163371 
2596.000001564622 100.7138   2.289198   0.3241361 
2596.200001567602 106.3233   2.268175   0.3283944 
2596.400001570582 109.3447   2.242111   0.3478519 
2596.600001573563 115.5294   2.27179    0.3416785 
2596.800001576543 118.2284   2.30965    0.317887  
2597.000001579523 112.9457   2.321446   0.280449  
2597.200001582503 102.6767   2.333337   0.2773856 
2597.400001585484 96.24265   2.340947   0.2972419 
2597.600001588464 96.73706   2.347415   0.3226037 
2597.800001591444 99.80148   2.369865   0.3275067 
2598.000001594424 97.22887   2.393646   0.3387664 
2598.200001597404 93.10256   2.397166   0.3446386 
2598.400001600385 86.79058   2.39631    0.3346756 
2598.600001603365 84.62123   2.375572   0.3275387 
2598.800001606345 85.17239   2.353028   0.314403  
2599.000001609325 89.56352   2.358735   0.3103645 
2599.200001612306 97.37247   2.359211   0.3326177 
2599.400001615286 104.687    2.402398   0.3539541 
2599.600001618266 107.6844   2.412481   0.3633904 
2599.800001621246 105.779    2.394883   0.370715  
2600.000001624227 95.713     2.362635   0.3652489 
2600.200001627207 89.24108   2.311077   0.3595774 
2600.400001630187 89.1551    2.281873   0.3559173 
2600.600001633167 90.09145   2.286059   0.3527869 
2600.800001636147 97.12656   2.29424    0.3446619 
2601.000001639128 108.8348   2.279685   0.3414602 
2601.200001642108 122.359    2.259804   0.3333803 
2601.400001645088 122.0976   2.246962   0.3387752 
2601.600001648068 118.1863   2.216427   0.3597826 
2601.800001651049 117.6532   2.201207   0.3995841 
2602.000001654029 121.5422   2.193787   0.4004136 
2602.200001657009 129.3718   2.2111     0.3970562 
2602.400001659989 138.5307   2.229459   0.3880216 
2602.60000166297 143.1875   2.261326   0.3399612 
2602.80000166595 138.6725   2.292813   0.3222777 
2603.00000166893 133.388    2.289864   0.3242235 
2603.20000167191 125.5043   2.221088   0.3252538 
2603.400001674891 124.7133   2.209388   0.3263002 
2603.600001677871 131.2858   2.224798   0.3424731 
2603.800001680851 133.1421   2.251909   0.3632201 
2604.000001683831 132.2238   2.249341   0.3723726 
2604.200001686811 136.1773   2.282444   0.3773497 
2604.400001689792 145.2992   2.332005   0.3628272 
2604.600001692772 147.6483   2.368533   0.3392816 
2604.800001695752 134.4241   2.353789   0.3153519 
2605.000001698732 116.0711   2.339329   0.3025538 
2605.200001701713 111.2793   2.361779   0.3095626 
2605.400001704693 111.7668   2.444919   0.3416363 
2605.600001707673 110.668    2.520829   0.3187937 
2605.800001710653 103.5082   2.544896   0.3011509 
2606.000001713634 97.16782   2.598262   0.2999997 
2606.200001716614 98.50486   2.569914   0.3074466 
2606.400001719594 105.7523   2.537952   0.2985735 
2606.600001722574 116.6859   2.447487   0.2854873 
2606.800001725554 124.0985   2.473647   0.3074699 
2607.000001728535 127.9333   2.471174   0.3258913 
2607.200001731515 121.445    2.461376   0.338666  
2607.400001734495 112.9568   2.495145   0.3284628 
2607.600001737475 112.5699   2.499711   0.3244316 
2607.800001740456 113.1322   2.528534   0.3266349 
2608.000001743436 110.3103   2.471649   0.3219765 
2608.200001746416 106.3886   2.515883   0.3214089 
2608.400001749396 102.614    2.541281   0.3230228 
2608.600001752377 100.7937   2.570675   0.3196567 
2608.800001755357 105.0946   2.471554   0.2995501 
2609.000001758337 107.2226   2.386892   0.2830875 
2609.200001761317 105.9759   2.403634   0.285937  
2609.400001764297 106.2768   2.429033   0.2876004 
2609.600001767278 102.7378   2.413527   0.2806207 
2609.800001770258 103.9553   2.41952    0.282795  
2610.000001773238 105.7308   2.461185   0.2949731 
2610.200001776218 104.2296   2.438355   0.3153082 
2610.400001779199 99.22368   2.448724   0.3074349 
2610.600001782179 98.71896   2.424372   0.277438  
2610.800001785159 102.865    2.385656   0.2686377 
2611.000001788139 106.7755   2.41933    0.2792906 
2611.20000179112 110.4272   2.426369   0.2785047 
2611.4000017941 112.5699   2.435311   0.2836041 
2611.60000179708 114.1142   2.443016   0.2853607 
2611.80000180006 111.717    2.491055   0.2741562 
2612.000001803041 104.2769   2.61624    0.2687687 
2612.200001806021 92.5901    2.613767   0.2566779 
2612.400001809001 77.38407   2.58618    0.2354448 
2612.600001811981 71.93793   2.519688   0.2371345 
2612.800001814961 89.85758   2.532815   0.2672755 
2613.000001817942 113.9293   2.622043   0.2917714 
2613.200001820922 117.7125   2.569248   0.3080098 
2613.400001823902 112.3859   2.530722   0.3041532 
2613.600001826882 107.0404   2.527298   0.288104  
2613.800001829863 107.7643   2.496667   0.2998702 
2614.000001832843 108.0954   2.544991   0.3008365 
2614.200001835823 107.0937   2.571722   0.3140726 
2614.400001838803 106.6311   2.504658   0.3328826 
2614.600001841784 107.5081   2.474313   0.3183949 
2614.800001844764 109.2879   2.524825   0.3119581 
2615.000001847744 108.6508   2.490199   0.3281863 
2615.200001850724 107.1736   2.476976   0.3491254 
2615.400001853704 107.9139   2.507512   0.3660362 
2615.600001856685 108.3198   2.463563   0.3357525 
2615.800001859665 109.9956   2.511602   0.3102219 
2616.000001862645 108.9371   2.547655   0.3003461 
2616.200001865625 108.7136   2.516549   0.3010053 
2616.400001868606 113.0041   2.47964    0.3013823 
2616.600001871586 116.2809   2.510365   0.2949061 
2616.800001874566 116.8372   2.463563   0.291     
2617.000001877546 116.6825   2.432077   0.2893133 
2617.200001880527 117.0737   2.375953   0.3101011 
