~Version
 VERS              .         2.0                           : CWLS LOG ASCII STANDARD - VERSION 2.0
 WRAP              .         NO                            : ONE LINE PER DEPTH STEP
 DLM               .         SPACE                         : DELIMITING CHARACTER(SPACE TAB OR COMMA)
~Well Information
#_______________________________________________________________________________
#
#PARAMETER_NAME    .UNIT     VALUE                         : DESCRIPTION
#_______________________________________________________________________________
STRT               .m        2491                          : First reference value
STOP               .m        2702.80000315607              : Last reference value
STEP               .m        0.2                           : Step increment
NULL               .         -9999                         : Missing value
COMP               .                                       : Company
WELL               .         603                           : Well name
FLD                .                                       : Field
LOC                .                                       : Location
CNTY               .                                       : County
STAT               .                                       : State
CTRY               .                                       : Country
SRVC               .                                       : Service Company
DATE               .                                       : Date
API                .                                       : API number
Cartographic_reference_system .         GCS_WGS_1984                  : GEOGCS["GCS_WGS_1984",DATUM["D_WGS_1984",SPHEROID["WGS_1984",6378137.0,298.257223563]],PRIMEM["Greenwich",0.0],UNIT["Degree",0.0174532925199433],AUTHORITY["EPSG",4326]]
EREF               .m        134                           : 
HZCS               .GCS_WGS_1984 World_Mercator                : PROJCS["World_Mercator",GEOGCS["GCS_WGS_1984",DATUM["D_WGS_1984",SPHEROID["WGS_1984",6378137.0,298.257223563]],PRIMEM["Greenwich",0.0],UNIT["Degree",0.0174532925199433]],PROJECTION["Mercator"],PARAMETER["False_Easting",0.0],PARAMETER["False_Northing",0.0],PARAMETER["Central_Meridian",0.0],PARAMETER["Standard_Parallel_1",0.0],UNIT["Meter",1.0],AUTHORITY["ESRI",54004]]
LATI               .dega     2.1305856004                  : GCS_WGS_1984
LONG               .dega     2.0279108213                  : GCS_WGS_1984
PROJECT_UPGRADE_TIME .         2014-05-27T11_38_46           : 
Pad                .         Pad6                          : 
X                  .m        225746                        : 
Y                  .m        235643                        : 
group              .         Pad6                          : 
Интер-р            .         Старостина                    : 
Куст               .         6                             : 
Статус             .         Не проверено                  : 
Тип                .         Нагнетательные                : 
~Parameter Information Block
#_______________________________________________________________________________
#
#PARAMETER_NAME    .UNIT     VALUE                         : DESCRIPTION
#_______________________________________________________________________________
SET                .         LQC                           : 
PROJECT_UPGRADE_TIME .         2014-05-27T11_38_46           : 
TLFamily_GR_NORM   .         Gamma Ray                     : 
TLFamily_MD        .         Measured Depth                : 
TLFamily_RHOB_NORM .         Bulk Density                  : 
TLFamily_TNPH_NORM .         Neutron Porosity              : 
~Curve Information
#_______________________________________________________________________________
#
#LOGNAME           .UNIT     LOG_ID                        : DESCRIPTION
#_______________________________________________________________________________
MD                 .m                                      :  
GR_NORM            .gAPI                                   : Normalised By Techlog 
RHOB_NORM          .g/cm3                                  : Normalized By Techlog 
TNPH_NORM          .v/v                                    : Normalised By Techlog 
~Ascii
# ...
2522.600000470877 -9999      -9999      -9999     
2522.800000473857 -9999      -9999      -9999     
2523.000000476837 -9999      -9999      -9999     
2523.200000479817 -9999      -9999      -9999     
2523.400000482798 -9999      -9999      -9999     
2523.600000485778 -9999      -9999      -9999     
2523.800000488758 -9999      -9999      -9999     
2524.000000491738 -9999      -9999      -9999     
2524.200000494719 -9999      -9999      -9999     
2524.400000497699 -9999      -9999      -9999     
2524.600000500679 -9999      -9999      -9999     
2524.800000503659 -9999      -9999      -9999     
2525.000000506639 -9999      -9999      -9999     
2525.20000050962 -9999      -9999      -9999     
2525.4000005126 -9999      -9999      -9999     
2525.60000051558 -9999      -9999      -9999     
2525.80000051856 -9999      -9999      -9999     
2526.000000521541 -9999      -9999      -9999     
2526.200000524521 -9999      -9999      -9999     
2526.400000527501 -9999      -9999      -9999     
2526.600000530481 -9999      -9999      -9999     
2526.800000533462 -9999      -9999      -9999     
2527.000000536442 -9999      -9999      -9999     
2527.200000539422 -9999      -9999      -9999     
2527.400000542402 -9999      -9999      -9999     
2527.600000545382 -9999      -9999      -9999     
2527.800000548363 -9999      -9999      -9999     
2528.000000551343 -9999      -9999      -9999     
2528.200000554323 -9999      -9999      -9999     
2528.400000557303 -9999      -9999      -9999     
2528.600000560284 -9999      -9999      -9999     
2528.800000563264 -9999      -9999      -9999     
2529.000000566244 -9999      -9999      -9999     
2529.200000569224 51.75692   -9999      0.224319  
2529.400000572205 47.78624   2.42656    0.2226803 
2529.600000575185 43.88435   2.426655   0.2446643 
2529.800000578165 40.15871   2.42675    0.2708454 
2530.000000581145 40.8973    2.426845   0.2651741 
2530.200000584126 43.21884   2.427035   0.253696  
2530.400000587106 39.86895   2.42713    0.2390831 
2530.600000590086 34.05996   2.427226   0.234007  
2530.800000593066 28.82877   2.42732    0.2534195 
2531.000000596046 30.0695    2.427416   0.2592233 
2531.200000599027 32.6679    2.427606   0.259264  
2531.400000602007 31.42373   2.427701   0.2258587 
2531.600000604987 28.84855   2.427796   0.1932785 
2531.800000607967 27.94831   2.427891   0.1801807 
2532.000000610948 31.95855   2.427986   0.2088228 
2532.200000613928 37.29893   2.428082   0.2490346 
2532.400000616908 38.76838   2.428177   0.2758415 
2532.600000619888 36.99714   2.428367   0.2611151 
2532.800000622869 39.02547   2.428462   0.2458067 
2533.000000625849 41.72704   2.428557   0.2469622 
2533.200000628829 42.445     2.428652   0.2444911 
2533.400000631809 40.08133   2.428748   0.2492281 
2533.600000634789 33.84415   2.428843   0.2634349 
2533.80000063777 29.82102   2.428938   0.2456946 
2534.00000064075 29.64475   2.429033   0.2281406 
2534.20000064373 31.71865   2.429223   0.2360968 
2534.40000064671 31.82527   2.429318   0.2540816 
2534.600000649691 32.44091   2.429414   0.2620102 
2534.800000652671 33.78052   2.429508   0.2769621 
2535.000000655651 32.60084   2.429604   0.2982592 
2535.200000658631 30.42031   2.386322   0.2657008 
2535.400000661612 31.91125   2.061372   0.228241  
2535.600000664592 42.87491   2.056616   0.2041745 
2535.800000667572 59.46441   2.211005   0.2072161 
2536.000000670552 62.60536   2.397832   0.2191671 
2536.200000673532 57.54786   2.419425   0.2109169 
2536.400000676513 53.42068   2.473361   0.2213064 
2536.600000679493 53.95464   2.472886   0.2258601 
2536.800000682473 54.54792   2.508748   0.2084356 
2537.000000685453 50.58154   2.614623   0.2002961 
2537.200000688434 46.69598   2.593505   0.2092623 
2537.400000691414 41.24984   2.548225   0.2103712 
2537.600000694394 40.05898   2.519593   0.2328427 
2537.800000697374 45.07865   2.529391   0.258027  
2538.000000700355 51.38978   2.521876   0.2562064 
2538.200000703335 57.05518   2.517976   0.2472096 
2538.400000706315 62.81344   2.506846   0.2368288 
2538.600000709295 62.47897   2.414003   0.2336068 
2538.800000712276 61.35431   2.428652   0.2391239 
2539.000000715256 61.09723   2.464325   0.241432  
2539.200000718236 57.79549   2.522066   0.2565717 
2539.400000721216 58.41026   2.538903   0.2690321 
2539.600000724196 64.03095   2.507226   0.2623594 
2539.800000727177 65.13239   2.51788    0.2486038 
2540.000000730157 65.41098   2.50599    0.2329941 
2540.200000733137 66.44534   2.5214     0.2212235 
2540.400000736117 61.04219   2.556501   0.2126983 
2540.600000739098 51.48006   2.607394   0.2135118 
2540.800000742078 44.506     2.61215    0.2251063 
2541.000000745058 39.23096   2.60473    0.2413622 
2541.200000748038 38.06762   2.657144   0.2327845 
2541.400000751019 40.46051   2.573529   0.2137344 
2541.600000753999 40.10971   2.561258   0.2022549 
2541.800000756979 38.69443   2.554599   0.205899  
2542.000000759959 38.9584    2.493052   0.2181295 
2542.200000762939 40.17936   2.449199   0.2203983 
2542.40000076592 43.58599   2.424372   0.2356646 
2542.6000007689 47.11901   2.536715   0.2509673 
2542.80000077188 54.26848   2.483254   0.2662117 
2543.00000077486 59.9356    2.474788   0.2672071 
2543.200000777841 60.71718   2.482684   0.26853   
2543.400000780821 62.50476   2.485538   0.2753438 
2543.600000783801 65.47976   2.461185   0.2558105 
2543.800000786781 70.94827   2.425799   0.2357737 
2544.000000789762 73.75474   2.386892   0.2243626 
2544.200000792742 71.19504   2.415335   0.2316392 
2544.400000795722 66.31207   2.481733   0.2533525 
2544.600000798702 60.89774   2.524444   0.2647636 
2544.800000801682 63.69304   2.484111   0.2483535 
2545.000000804663 67.05841   2.5136     0.2299452 
2545.200000807643 65.00342   2.562494   0.2409052 
2545.400000810623 61.33884   2.567726   0.2483084 
2545.600000813603 60.1067    2.559926   0.2359062 
2545.800000816584 62.0138    2.558784   0.2320161 
2546.000000819564 66.95351   2.623089   0.241595  
2546.200000822544 72.35666   2.588844   0.2610817 
2546.400000825524 80.56027   2.561162   0.2624511 
2546.600000828505 90.88679   2.567155   0.2345062 
2546.800000831485 95.09135   2.547655   0.2353925 
2547.000000834465 92.66492   2.530912   0.2569879 
2547.200000837445 87.38902   2.53624    0.2663805 
2547.400000840425 85.05803   2.522542   0.2584228 
2547.600000843406 82.48886   2.549843   0.2474599 
2547.800000846386 76.85613   2.53643    0.2438842 
2548.000000849366 72.54841   2.524729   0.2462913 
2548.200000852346 68.66112   2.580949   0.2463728 
2548.400000855327 70.86744   2.511412   0.2548573 
2548.600000858307 76.92234   2.454432   0.2670877 
2548.800000861287 75.06512   2.491721   0.2585931 
2549.000000864267 62.99916   2.538998   0.223258  
2549.200000867248 56.02081   2.580378   0.1888922 
2549.400000870228 57.71638   2.555074   0.1947571 
2549.600000873208 75.60853   2.55964    0.2280213 
2549.800000876188 86.65903   2.584468   0.2613567 
2550.000000879169 93.89189   2.592744   0.2769417 
2550.200000882149 94.35104   2.53291    0.2591286 
2550.400000885129 88.63404   2.460139   0.2542839 
2550.600000888109 76.69706   2.490199   0.2490433 
2550.800000891089 71.56906   2.54404    0.2482473 
2551.00000089407 78.04872   2.572387   0.2530658 
2551.20000089705 86.94534   2.619189   0.2402954 
2551.40000090003 90.89969   2.603683   0.2377632 
2551.60000090301 87.47844   2.568963   0.2378127 
2551.800000905991 81.72189   2.50618    0.2582846 
2552.000000908971 73.02646   2.477167   0.256349  
2552.200000911951 60.39905   2.502851   0.2308125 
2552.400000914931 52.43618   2.467464   0.2305928 
2552.600000917912 53.02087   2.477452   0.2247177 
2552.800000920892 55.18591   2.452053   0.2266591 
2553.000000923872 57.16953   2.467654   0.2449655 
2553.200000926852 55.21257   2.4609     0.2497171 
2553.400000929832 55.09134   2.46442    0.2318778 
2553.600000932813 56.68717   2.488677   0.2144097 
2553.800000935793 58.83673   2.499616   0.1956536 
2554.000000938773 58.54697   2.543754   0.1938868 
