~Version
 VERS              .         2.0                           : CWLS LOG ASCII STANDARD - VERSION 2.0
 WRAP              .         NO                            : ONE LINE PER DEPTH STEP
 DLM               .         SPACE                         : DELIMITING CHARACTER(SPACE TAB OR COMMA)
~Well Information
#_______________________________________________________________________________
#
#PARAMETER_NAME    .UNIT     VALUE                         : DESCRIPTION
#_______________________________________________________________________________
STRT               .m        2491                          : First reference value
STOP               .m        2702.80000315607              : Last reference value
STEP               .m        0.2                           : Step increment
NULL               .         -9999                         : Missing value
COMP               .                                       : Company
WELL               .         603                           : Well name
FLD                .                                       : Field
LOC                .                                       : Location
CNTY               .                                       : County
STAT               .                                       : State
CTRY               .                                       : Country
SRVC               .                                       : Service Company
DATE               .                                       : Date
API                .                                       : API number
Cartographic_reference_system .         GCS_WGS_1984                  : GEOGCS["GCS_WGS_1984",DATUM["D_WGS_1984",SPHEROID["WGS_1984",6378137.0,298.257223563]],PRIMEM["Greenwich",0.0],UNIT["Degree",0.0174532925199433],AUTHORITY["EPSG",4326]]
EREF               .m        134                           : 
HZCS               .GCS_WGS_1984 World_Mercator                : PROJCS["World_Mercator",GEOGCS["GCS_WGS_1984",DATUM["D_WGS_1984",SPHEROID["WGS_1984",6378137.0,298.257223563]],PRIMEM["Greenwich",0.0],UNIT["Degree",0.0174532925199433]],PROJECTION["Mercator"],PARAMETER["False_Easting",0.0],PARAMETER["False_Northing",0.0],PARAMETER["Central_Meridian",0.0],PARAMETER["Standard_Parallel_1",0.0],UNIT["Meter",1.0],AUTHORITY["ESRI",54004]]
LATI               .dega     2.1305856004                  : GCS_WGS_1984
LONG               .dega     2.0279108213                  : GCS_WGS_1984
PROJECT_UPGRADE_TIME .         2014-05-27T11_38_46           : 
Pad                .         Pad6                          : 
X                  .m        225746                        : 
Y                  .m        235643                        : 
group              .         Pad6                          : 
Интер-р            .         Старостина                    : 
Куст               .         6                             : 
Статус             .         Не проверено                  : 
Тип                .         Нагнетательные                : 
~Parameter Information Block
#_______________________________________________________________________________
#
#PARAMETER_NAME    .UNIT     VALUE                         : DESCRIPTION
#_______________________________________________________________________________
SET                .         LQC                           : 
PROJECT_UPGRADE_TIME .         2014-05-27T11_38_46           : 
TLFamily_GR_NORM   .         Gamma Ray                     : 
TLFamily_MD        .         Measured Depth                : 
TLFamily_RHOB_NORM .         Bulk Density                  : 
TLFamily_TNPH_NORM .         Neutron Porosity              : 
~Curve Information
#_______________________________________________________________________________
#
#LOGNAME           .UNIT     LOG_ID                        : DESCRIPTION
#_______________________________________________________________________________
MD                 .m                                      :  
GR_NORM            .gAPI                                   : Normalised By Techlog 
RHOB_NORM          .g/cm3                                  : Normalized By Techlog 
TNPH_NORM          .v/v                                    : Normalised By Techlog 
~Ascii
# ...
2680.60000282526 55.29167   2.601496   0.2999008 
2680.80000282824 47.94531   2.622519   0.2693959 
2681.000002831221 53.38802   2.618618   0.2507417 
2681.200002834201 55.51867   2.586561   0.2302464 
2681.400002837181 52.61674   2.630319   0.1993603 
2681.600002840161 44.57651   2.615004   0.1808327 
2681.800002843142 42.78291   2.678643   0.1690519 
2682.000002846122 41.42696   2.670747   0.1673608 
2682.200002849102 43.41746   2.622519   0.1651211 
2682.400002852082 51.39666   2.582946   0.1825543 
2682.600002855062 59.55727   2.529771   0.2203852 
2682.800002858043 65.67494   2.526632   0.2690917 
2683.000002861023 73.48734   2.533766   0.2792237 
2683.200002864003 80.57833   2.534718   0.2829507 
2683.400002866983 75.94644   2.477642   0.2766769 
2683.600002869964 71.26897   2.455478   0.2598825 
2683.800002872944 66.28629   2.403159   0.2444823 
2684.000002875924 54.97783   2.37795    0.2310425 
2684.200002878904 51.10861   2.375002   0.2352091 
2684.400002881885 56.62698   2.409152   0.2586178 
2684.600002884865 58.93046   2.400305   0.2634029 
2684.800002887845 57.66308   2.408866   0.2655466 
2685.000002890825 52.64856   2.471649   0.2645657 
2685.200002893806 46.17664   2.459949   0.2476331 
2685.400002896786 44.48709   2.489533   0.2551979 
2685.600002899766 42.82933   2.51008    0.2906871 
2685.800002902746 45.76565   2.526822   0.2913217 
2686.000002905726 54.65626   2.575622   0.2675709 
2686.200002908707 55.04146   2.568107   0.2642572 
2686.400002911687 53.60383   2.458997   0.259881  
2686.600002914667 54.29428   2.486679   0.246709  
2686.800002917647 57.81096   2.446917   0.2429019 
2687.000002920628 60.87023   2.458427   0.2372465 
2687.200002923608 64.12897   2.432743   0.2542941 
2687.400002926588 69.96548   2.446631   0.2857347 
2687.600002929568 78.86383   2.610533   0.3063129 
2687.800002932549 86.21105   2.607203   0.3021885 
2688.000002935529 95.55479   2.624231   0.2948348 
2688.200002938509 91.49297   2.643066   0.2786357 
2688.400002941489 82.05379   2.649059   0.2851366 
2688.600002944469 75.38239   2.697287   0.2971546 
2688.80000294745 75.76072   2.651247   0.3058253 
2689.00000295043 79.82168   2.536049   0.3138223 
2689.20000295341 85.66163   2.538713   0.3181868 
2689.40000295639 85.68398   2.504943   0.3205779 
2689.600002959371 79.25247   2.562399   0.3181999 
2689.800002962351 83.2051    2.452719   0.3474081 
2690.000002965331 91.49641   2.460139   0.3589022 
2690.200002968311 89.52741   2.502565   0.3544969 
2690.400002971292 87.22479   2.579522   0.3469802 
2690.600002974272 83.13889   2.568582   0.3388712 
2690.800002977252 76.08315   2.535003   0.3340599 
2691.000002980232 71.05918   2.546608   0.2976595 
2691.200002983212 65.22095   2.534242   0.2818432 
2691.400002986193 62.6217    2.571531   0.2968693 
2691.600002989173 63.48668   2.678738   0.3157855 
2691.800002992153 67.58376   2.640402   0.3248041 
2692.000002995133 73.11932   2.649534   0.3156895 
2692.200002998114 75.56983   2.514266   0.3644833 
2692.400003001094 75.05566   2.447012   0.3489289 
2692.600003004074 76.92234   2.387653   0.3257283 
2692.800003007054 76.47609   2.404681   0.335051  
2693.000003010035 73.21477   2.481447   0.3222355 
2693.200003013015 71.36786   2.540045   0.3188184 
2693.400003015995 70.99727   2.554694   0.3047586 
2693.600003018975 69.12715   2.557167   0.2916404 
2693.800003021955 67.01025   2.534242   0.2991586 
2694.000003024936 68.61728   2.462232   0.3203217 
2694.200003027916 71.77283   2.403254   0.3498093 
2694.400003030896 72.53637   2.330388   0.3478287 
2694.600003033876 71.76166   2.183038   0.3569535 
2694.800003036857 64.46861   2.039684   0.3697806 
2695.000003039837 52.75174   1.920872   0.3824085 
2695.200003042817 36.52509   1.799016   0.4112164 
2695.400003045797 27.85889   1.720727   0.4837362 
2695.600003048778 28.56567   1.69647    0.4619181 
2695.800003051758 41.37021   1.936853   0.3719025 
2696.000003054738 63.00002   2.19255    0.3284933 
2696.200003057718 79.21034   2.600735   0.3206725 
2696.400003060699 78.47778   2.556216   0.2868422 
2696.600003063679 69.51579   2.514931   0.2714057 
2696.800003066659 64.53395   2.522827   0.2711059 
2697.000003069639 60.85389   2.562209   0.2916084 
2697.200003072619 57.8273    2.621377   0.3122025 
2697.4000030756 62.67672   2.640687   0.3128997 
2697.60000307858 72.8545    2.583422   0.3194864 
2697.80000308156 83.70723   2.611389   0.3182668 
2698.00000308454 90.20409   2.630509   0.3208034 
2698.200003087521 94.89616   2.638785   0.2994758 
2698.400003090501 96.70094   2.614338   0.2954286 
2698.600003093481 94.0157    2.647251   0.3327312 
2698.800003096461 92.91341   2.653815   0.3297143 
2699.000003099442 99.36984   2.635836   0.347363  
2699.200003102422 101.9657   2.691294   0.3462817 
2699.400003105402 101.8556   2.691009   0.3261925 
2699.600003108382 99.25377   2.693007   0.2998804 
2699.800003111362 97.02767   2.7263     0.3024403 
2700.000003114343 93.01486   2.7185     0.3283667 
2700.200003117323 94.54192   2.717549   0.3517304 
2700.400003120303 93.38029   2.715266   0.3447886 
2700.600003123283 96.37506   2.643066   0.3477996 
2700.800003126264 99.42402   2.734481   0.3761942 
2701.000003129244 38.0358    2.892009   0.4314643 
2701.200003132224 -28.09779  2.912271   0.4541919 
2701.400003135204 -28.09779  2.917693   0.4515665 
2701.600003138185 -28.09779  2.970298   0.4602037 
2701.800003141165 -28.09779  2.966588   0.4448589 
2702.000003144145 -28.09779  2.954412   0.43629   
2702.200003147125 -28.09779  2.959358   0.4187069 
2702.400003150105 -28.09779  2.892866   0.4203398 
2702.600003153086 -28.09779  2.909608   0.4376187 
2702.800003156066 -28.09779  2.855767   0.4756214 
