~Version
 VERS              .         2.0                           : CWLS LOG ASCII STANDARD - VERSION 2.0
 WRAP              .         NO                            : ONE LINE PER DEPTH STEP
 DLM               .         SPACE                         : DELIMITING CHARACTER(SPACE TAB OR COMMA)
~Well Information
#_______________________________________________________________________________
#
#PARAMETER_NAME    .UNIT     VALUE                         : DESCRIPTION
#_______________________________________________________________________________
STRT               .m        2491                          : First reference value
STOP               .m        2702.80000315607              : Last reference value
STEP               .m        0.2                           : Step increment
NULL               .         -9999                         : Missing value
COMP               .                                       : Company
WELL               .         603                           : Well name
FLD                .                                       : Field
LOC                .                                       : Location
CNTY               .                                       : County
STAT               .                                       : State
CTRY               .                                       : Country
SRVC               .                                       : Service Company
DATE               .                                       : Date
API                .                                       : API number
Cartographic_reference_system .         GCS_WGS_1984                  : GEOGCS["GCS_WGS_1984",DATUM["D_WGS_1984",SPHEROID["WGS_1984",6378137.0,298.257223563]],PRIMEM["Greenwich",0.0],UNIT["Degree",0.0174532925199433],AUTHORITY["EPSG",4326]]
EREF               .m        134                           : 
HZCS               .GCS_WGS_1984 World_Mercator                : PROJCS["World_Mercator",GEOGCS["GCS_WGS_1984",DATUM["D_WGS_1984",SPHEROID["WGS_1984",6378137.0,298.257223563]],PRIMEM["Greenwich",0.0],UNIT["Degree",0.0174532925199433]],PROJECTION["Mercator"],PARAMETER["False_Easting",0.0],PARAMETER["False_Northing",0.0],PARAMETER["Central_Meridian",0.0],PARAMETER["Standard_Parallel_1",0.0],UNIT["Meter",1.0],AUTHORITY["ESRI",54004]]
LATI               .dega     2.1305856004                  : GCS_WGS_1984
LONG               .dega     2.0279108213                  : GCS_WGS_1984
PROJECT_UPGRADE_TIME .         2014-05-27T11_38_46           : 
Pad                .         Pad6                          : 
X                  .m        225746                        : 
Y                  .m        235643                        : 
group              .         Pad6                          : 
Интер-р            .         Старостина                    : 
Куст               .         6                             : 
Статус             .         Не проверено                  : 
Тип                .         Нагнетательные                : 
~Parameter Information Block
#_______________________________________________________________________________
#
#PARAMETER_NAME    .UNIT     VALUE                         : DESCRIPTION
#_______________________________________________________________________________
SET                .         LQC                           : 
PROJECT_UPGRADE_TIME .         2014-05-27T11_38_46           : 
TLFamily_GR_NORM   .         Gamma Ray                     : 
TLFamily_MD        .         Measured Depth                : 
TLFamily_RHOB_NORM .         Bulk Density                  : 
TLFamily_TNPH_NORM .         Neutron Porosity              : 
~Curve Information
#_______________________________________________________________________________
#
#LOGNAME           .UNIT     LOG_ID                        : DESCRIPTION
#_______________________________________________________________________________
MD                 .m                                      :  
GR_NORM            .gAPI                                   : Normalised By Techlog 
RHOB_NORM          .g/cm3                                  : Normalized By Techlog 
TNPH_NORM          .v/v                                    : Normalised By Techlog 
~Ascii
# ...
2554.200000941753 58.40339   2.50599    0.1973752 
2554.400000944734 56.93136   2.508843   0.1828526 
2554.600000947714 53.26764   2.513505   0.1780283 
2554.800000950694 48.81459   2.534432   0.1912513 
2555.000000953674 47.44317   2.615955   0.2115049 
2555.200000956655 44.25665   2.590081   0.1905586 
2555.400000959635 41.79325   2.568963   0.1601279 
2555.600000962615 41.19997   2.507321   0.1512359 
2555.800000965595 43.12511   2.475835   0.1891469 
2556.000000968575 44.84047   2.448344   0.2088693 
2556.200000971556 47.64781   2.413622   0.2107743 
2556.400000974536 50.27888   2.435787   0.2301417 
2556.600000977516 54.026     2.433599   0.2495905 
2556.800000980496 59.05084   2.477642   0.2700523 
2557.000000983477 63.67241   2.504753   0.2691368 
2557.200000986457 66.54337   2.572673   0.2676117 
2557.400000989437 67.75658   2.577809   0.268316  
2557.600000992417 74.3463    2.615289   0.2762621 
2557.800000995398 84.15693   2.592935   0.2757367 
2558.000000998378 91.59357   2.560402   0.2600717 
2558.200001001358 99.80062   2.581329   0.2578625 
2558.400001004338 100.1626   2.568487   0.2661069 
2558.600001007318 100.8737   2.607964   0.2790723 
2558.800001010299 99.0818    2.64611    0.2948785 
2559.000001013279 96.93826   2.596074   0.2914861 
2559.200001016259 96.79552   2.521685   0.2614062 
2559.400001019239 96.60722   2.535574   0.2478907 
2559.60000102222 97.36301   2.57429    0.2613465 
2559.8000010252 96.3123    2.559546   0.2517939 
2560.00000102818 97.93565   2.528534   0.2498117 
2560.20000103116 103.0155   2.499236   0.2751051 
2560.400001034141 101.4764   2.513124   0.2984557 
2560.600001037121 101.08     2.559165   0.3076911 
2560.800001040101 103.4833   2.581139   0.3189305 
2561.000001043081 109.2897   2.499711   0.3177167 
2561.200001046062 111.1022   2.544706   0.3214613 
2561.400001049042 111.33     2.539379   0.3383124 
2561.600001052022 109.8357   2.542328   0.3376007 
2561.800001055002 102.2735   2.571912   0.3220376 
2562.000001057982 95.59435   2.620711   0.3014012 
2562.200001060963 94.5144    2.584563   0.2949018 
2562.400001063943 94.42583   2.601876   0.2978284 
2562.600001066923 96.75081   2.594932   0.3065603 
2562.800001069903 100.1781   2.589415   0.322643  
2563.000001072884 101.4919   2.57467    0.3202068 
2563.200001075864 101.706    2.526251   0.3060335 
2563.400001078844 103.3096   2.52178    0.3029293 
2563.600001081824 101.9829   2.487155   0.2920159 
2563.800001084805 99.85823   2.494289   0.2824996 
2564.000001087785 95.74739   2.538142   0.3035667 
2564.200001090765 92.01058   2.569248   0.3294859 
2564.400001093745 90.31759   2.575051   0.3296925 
2564.600001096725 89.50247   2.543945   0.3271123 
2564.800001099706 88.48701   2.613386   0.3188199 
2565.000001102686 86.193     2.587132   0.2961126 
2565.200001105666 83.45444   2.522066   0.2771396 
2565.400001108646 84.28504   2.564777   0.2735173 
2565.600001111627 91.78617   2.575146   0.309062  
2565.800001114607 98.58482   2.529391   0.3157244 
2566.000001117587 101.3002   2.485823   0.3086618 
2566.200001120567 106.779    2.450436   0.3076329 
2566.400001123548 125.0331   2.563065   0.3022511 
2566.600001126528 132.9065   2.517595   0.2931655 
2566.800001129508 136.8686   2.477072   0.3096587 
2567.000001132488 136.3536   2.492862   0.3304042 
2567.200001135468 137.915    2.50228    0.3233314 
2567.400001138449 135.3441   2.537476   0.3107094 
2567.600001141429 123.9592   2.602732   0.3060873 
2567.800001144409 123.1896   2.626894   0.2939762 
2568.000001147389 127.3125   2.572578   0.291099  
2568.20000115037 133.6314   2.543754   0.3035041 
2568.40000115335 139.4558   2.549747   0.291067  
2568.60000115633 134.4009   2.540045   0.2996185 
2568.80000115931 118.6197   2.562019   0.3340497 
2569.000001162291 104.0413   2.588559   0.3201137 
2569.200001165271 93.6434    2.618999   0.3012542 
2569.400001168251 91.63226   2.517214   0.3026441 
2569.600001171231 94.42583   2.545847   0.2962086 
2569.800001174212 99.79804   2.539284   0.3107589 
2570.000001177192 106.3671   2.508748   0.3336568 
2570.200001180172 115.6223   2.467654   0.3388406 
2570.400001183152 128.5842   2.499616   0.3465291 
2570.600001186132 146.9888   2.412576   0.3473237 
2570.800001189113 165.0383   2.384419   0.3441336 
2571.000001192093 178.2039   2.454527   0.3488328 
2571.200001195073 170.4492   2.469557   0.3371379 
2571.400001198053 163.2541   2.511697   0.3101491 
2571.600001201034 165.3865   2.432743   0.3098246 
2571.800001204014 169.0244   2.421137   0.3056333 
2572.000001206994 170.4896   2.380899   0.3083926 
2572.200001209974 183.5529   2.360162   0.3237039 
2572.400001212955 189.4187   2.409913   0.3126624 
2572.600001215935 188.3224   2.396405   0.3165379 
2572.800001218915 182.2881   2.387748   0.3372107 
2573.000001221895 177.2633   2.410388   0.3806038 
2573.200001224875 172.5919   2.35845    0.3646434 
2573.400001227856 172.4878   2.367391   0.3676807 
2573.600001230836 180.1033   2.347796   0.362571  
2573.800001233816 187.4273   2.326868   0.3550965 
2574.000001236796 190.3396   2.314216   0.3314928 
2574.200001239777 203.4828   2.331624   0.316586  
2574.400001242757 216.3278   2.358165   0.3142546 
2574.600001245737 217.8213   2.381375   0.3285879 
2574.800001248717 218.6029   2.38518    0.349431  
2575.000001251698 224.0637   2.395644   0.3242555 
2575.200001254678 221.5762   2.408486   0.3435879 
2575.400001257658 214.873    2.384705   0.3378612 
2575.600001260638 203.6866   2.428272   0.3493713 
2575.800001263618 193.7195   2.433409   0.3469162 
2576.000001266599 188.1848   2.459378   0.3442559 
2576.200001269579 178.2598   2.485823   0.3466717 
2576.400001272559 161.2912   2.474503   0.3272651 
2576.600001275539 156.1992   2.495716   0.2965608 
2576.80000127852 157.7848   2.425513   0.3161057 
2577.0000012815 166.8147   2.425418   0.3551285 
2577.20000128448 179.357    2.355786   0.3777602 
2577.40000128746 197.2594   2.323348   0.3960273 
2577.600001290441 231.6783   2.338188   0.3689657 
2577.800001293421 246.2515   2.357879   0.3467634 
2578.000001296401 251.6486   2.337617   0.356335  
2578.200001299381 257.7887   2.273122   0.3620457 
2578.400001302361 280.6661   2.22204    0.3448438 
2578.600001305342 320.5449   2.18437    0.351598  
2578.800001308322 363.3789   2.231838   0.3807537 
2579.000001311302 399.1614   2.258092   0.3999013 
2579.200001314282 427.9785   2.263705   0.3833384 
2579.400001317263 451.2996   2.257521   0.3635767 
2579.600001320243 419.4998   2.230315   0.3729445 
2579.800001323223 357.71     2.198639   0.3744959 
2580.000001326203 344.5461   2.207105   0.3949096 
2580.200001329184 339.3716   2.200256   0.3929129 
2580.400001332164 325.5559   2.201968   0.3931079 
2580.600001335144 319.9464   2.216712   0.400613  
2580.800001338124 318.0436   2.2189     0.3693324 
2581.000001341105 316.3558   2.239257   0.3400573 
2581.200001344085 316.2526   2.300613   0.3306574 
2581.400001347065 311.8967   2.266368   0.3248929 
2581.600001350045 303.8127   2.296523   0.3101971 
2581.800001353025 291.6848   2.293289   0.303216  
2582.000001356006 275.4813   2.27531    0.312923  
2582.200001358986 258.4516   2.24506    0.3158932 
2582.400001361966 253.7036   2.220613   0.3044588 
2582.600001364946 255.1507   2.2111     0.3081291 
2582.800001367927 253.628    2.225559   0.3407908 
2583.000001370907 260.2951   2.212717   0.3911025 
2583.200001373887 277.7908   2.236499   0.4004543 
2583.400001376867 295.7793   2.211956   0.3908463 
2583.600001379848 280.7048   2.200541   0.376334  
2583.800001382828 264.0224   2.19255    0.3738919 
2584.000001385808 269.6904   2.19217    0.3896341 
2584.200001388788 270.7093   2.192741   0.3780628 
2584.400001391768 258.1266   2.19959    0.3708416 
2584.600001394749 244.8526   2.179804   0.4057517 
2584.800001397729 245.3521   2.187604   0.4195335 
2585.000001400709 242.5027   2.240113   0.3998693 
2585.200001403689 238.3506   2.243918   0.3808701 
2585.40000140667 231.6706   2.244014   0.3648646 
2585.60000140965 229.0911   2.255333   0.3400384 
