~Version
 VERS              .         2.0                           : CWLS LOG ASCII STANDARD - VERSION 2.0
 WRAP              .         NO                            : ONE LINE PER DEPTH STEP
 DLM               .         SPACE                         : DELIMITING CHARACTER(SPACE TAB OR COMMA)
~Well Information
#_______________________________________________________________________________
#
#PARAMETER_NAME    .UNIT     VALUE                         : DESCRIPTION
#_______________________________________________________________________________
STRT               .m        2491                          : First reference value
STOP               .m        2702.80000315607              : Last reference value
STEP               .m        0.2                           : Step increment
NULL               .         -9999                         : Missing value
COMP               .                                       : Company
WELL               .         603                           : Well name
FLD                .                                       : Field
LOC                .                                       : Location
CNTY               .                                       : County
STAT               .                                       : State
CTRY               .                                       : Country
SRVC               .                                       : Service Company
DATE               .                                       : Date
API                .                                       : API number
Cartographic_reference_system .         GCS_WGS_1984                  : GEOGCS["GCS_WGS_1984",DATUM["D_WGS_1984",SPHEROID["WGS_1984",6378137.0,298.257223563]],PRIMEM["Greenwich",0.0],UNIT["Degree",0.0174532925199433],AUTHORITY["EPSG",4326]]
EREF               .m        134                           : 
HZCS               .GCS_WGS_1984 World_Mercator                : PROJCS["World_Mercator",GEOGCS["GCS_WGS_1984",DATUM["D_WGS_1984",SPHEROID["WGS_1984",6378137.0,298.257223563]],PRIMEM["Greenwich",0.0],UNIT["Degree",0.0174532925199433]],PROJECTION["Mercator"],PARAMETER["False_Easting",0.0],PARAMETER["False_Northing",0.0],PARAMETER["Central_Meridian",0.0],PARAMETER["Standard_Parallel_1",0.0],UNIT["Meter",1.0],AUTHORITY["ESRI",54004]]
LATI               .dega     2.1305856004                  : GCS_WGS_1984
LONG               .dega     2.0279108213                  : GCS_WGS_1984
PROJECT_UPGRADE_TIME .         2014-05-27T11_38_46           : 
Pad                .         Pad6                          : 
X                  .m        225746                        : 
Y                  .m        235643                        : 
group              .         Pad6                          : 
Интер-р            .         Старостина                    : 
Куст               .         6                             : 
Статус             .         Не проверено                  : 
Тип                .         Нагнетательные                : 
~Parameter Information Block
#_______________________________________________________________________________
#
#PARAMETER_NAME    .UNIT     VALUE                         : DESCRIPTION
#_______________________________________________________________________________
SET                .         LQC                           : 
PROJECT_UPGRADE_TIME .         2014-05-27T11_38_46           : 
TLFamily_GR_NORM   .         Gamma Ray                     : 
TLFamily_MD        .         Measured Depth                : 
TLFamily_RHOB_NORM .         Bulk Density                  : 
TLFamily_TNPH_NORM .         Neutron Porosity              : 
~Curve Information
#_______________________________________________________________________________
#
#LOGNAME           .UNIT     LOG_ID                        : DESCRIPTION
#_______________________________________________________________________________
MD                 .m                                      :  
GR_NORM            .gAPI                                   : Normalised By Techlog 
RHOB_NORM          .g/cm3                                  : Normalized By Techlog 
TNPH_NORM          .v/v                                    : Normalised By Techlog 
~Ascii
# ...
2617.400001883507 117.9129   2.379663   0.3303445 
2617.600001886487 118.4081   2.431696   0.3469569 
2617.800001889467 120.752    2.435026   0.319696  
2618.000001892447 120.4132   2.416096   0.2927741 
2618.200001895428 119.6592   2.43398    0.2887021 
2618.400001898408 120.3849   2.470127   0.3071031 
2618.600001901388 120.9231   2.480686   0.3085701 
2618.800001904368 117.1201   2.476025   0.2873923 
2619.000001907349 114.0591   2.468035   0.2898693 
2619.200001910329 114.643    2.469176   0.2975723 
2619.400001913309 114.4323   2.459568   0.2821576 
2619.600001916289 109.8804   2.477832   0.2872351 
2619.80000191927 109.128    2.468415   0.2999226 
2620.00000192225 107.5743   2.518831   0.3112013 
2620.20000192523 106.3387   2.55184    0.3054513 
2620.40000192821 105.7928   2.546418   0.3057686 
2620.60000193119 104.8332   2.53234    0.3274601 
2620.800001934171 103.344    2.520258   0.3554051 
2621.000001937151 101.9235   2.534527   0.3545929 
2621.200001940131 99.79976   2.56687    0.3460328 
2621.400001943111 101.1884   2.515122   0.3454987 
2621.600001946092 102.4274   2.558975   0.3459775 
2621.800001949072 101.2236   2.514551   0.338014  
2622.000001952052 98.07151   2.477547   0.3045607 
2622.200001955032 97.24693   2.475074   0.2670005 
2622.400001958013 100.6966   2.469747   0.2737225 
2622.600001960993 103.4308   2.428557   0.2864056 
2622.800001963973 101.8255   2.434931   0.2756115 
2623.000001966953 102.8883   2.450056   0.2826975 
2623.200001969934 105.3448   2.495716   0.3034881 
2623.400001972914 105.509    2.523493   0.3174766 
2623.600001975894 106.1788   2.52882    0.3324751 
2623.800001978874 110.0231   2.528059   0.3575517 
2624.000001981854 112.6447   2.508558   0.3525264 
2624.200001984835 115.1958   2.475074   0.3291323 
2624.400001987815 114.1313   2.434741   0.3011844 
2624.600001990795 114.244    2.40373    0.2757789 
2624.800001993775 113.1425   2.426274   0.2835547 
2625.000001996756 110.8107   2.414574   0.302107  
2625.200001999736 111.3189   2.470603   0.3239979 
2625.400002002716 114.9731   2.492482   0.3244389 
2625.600002005696 115.8054   2.470983   0.3266626 
2625.800002008677 117.3205   2.451102   0.3175741 
2626.000002011657 117.3892   2.485823   0.314109  
2626.200002014637 116.7478   2.508368   0.3207467 
2626.400002017617 116.2216   2.488106   0.3412448 
2626.600002020597 114.4564   2.479545   0.3466921 
2626.800002023578 113.5321   2.481257   0.329905  
2627.000002026558 110.2243   2.526917   0.3129462 
2627.200002029538 104.0439   2.490484   0.3189683 
2627.400002032518 105.693    2.468605   0.3263176 
2627.600002035499 116.1167   2.446346   0.3416276 
2627.800002038479 120.7787   2.439497   0.350783  
2628.000002041459 121.494    2.466227   0.3517857 
2628.200002044439 119.5268   2.471269   0.3569317 
2628.40000204742 115.7547   2.483635   0.3559144 
2628.6000020504 113.3489   2.487155   0.3459019 
2628.80000205338 112.3016   2.53643    0.3395945 
2629.00000205636 115.4211   2.565824   0.324027  
2629.20000205934 118.7572   2.588559   0.3080723 
2629.400002062321 116.7753   2.594456   0.2850973 
2629.600002065301 114.0617   2.594552   0.267942  
2629.800002068281 117.9808   2.607013   0.2550887 
2630.000002071261 120.4605   2.618047   0.2386858 
2630.200002074242 104.1582   2.549462   0.2224955 
2630.400002077222 77.90685   2.545372   0.2162347 
2630.600002080202 64.24849   2.569343   0.2128205 
2630.800002083182 56.65707   2.632031   0.2045834 
2631.000002086163 54.16616   2.613862   0.1913284 
2631.200002089143 55.3424    2.550699   0.2088926 
2631.400002092123 58.64672   2.590461   0.2324745 
2631.600002095103 61.46781   2.575622   0.233892  
2631.800002098083 60.87797   2.575431   0.2310236 
2632.000002101064 61.54261   2.578095   0.2308897 
2632.200002104044 63.11266   2.580568   0.2321384 
2632.400002107024 61.58217   2.536905   0.2188222 
2632.600002110004 60.54779   2.481637   0.2024295 
2632.800002112985 60.19871   2.493052   0.1914157 
2633.000002115965 60.31564   2.473932   0.1974203 
2633.200002118945 61.1299    2.540806   0.201194  
2633.400002121925 58.75076   2.579141   0.2007356 
2633.600002124906 55.13002   2.622423   0.1958544 
2633.800002127886 51.93663   2.644968   0.1968892 
2634.000002130866 53.37856   2.59322    0.2095155 
2634.200002133846 55.16098   2.546513   0.2147605 
2634.400002136827 57.13944   2.545467   0.2107423 
2634.600002139807 56.55991   2.537571   0.2193985 
2634.800002142787 58.45498   2.528059   0.2244223 
2635.000002145767 61.30616   2.50989    0.2201975 
2635.200002148747 63.68359   2.49115    0.2164224 
2635.400002151728 58.55471   2.460615   0.2122122 
2635.600002154708 51.68298   2.413147   0.2108282 
2635.800002157688 47.47842   2.444348   0.2077516 
2636.000002160668 47.29528   2.485157   0.2016102 
2636.200002163649 46.66847   2.483064   0.1982499 
2636.400002166629 43.52236   2.462803   0.1854475 
2636.600002169609 43.56793   2.482303   0.1873423 
2636.800002172589 46.60656   2.505324   0.1844026 
2637.00000217557 44.96859   2.505894   0.1906109 
2637.20000217855 42.69692   2.548986   0.1948139 
2637.40000218153 40.11142   2.562019   0.1832267 
2637.60000218451 40.26706   2.611579   0.1760636 
2637.80000218749 40.30059   2.593505   0.160809  
2638.000002190471 36.80109   2.626704   0.1406776 
2638.200002193451 35.26114   2.619094   0.1315673 
2638.400002196431 37.34536   2.443778   0.1260182 
2638.600002199411 41.33238   2.392885   0.1597844 
2638.800002202392 43.95915   2.439402   0.1873379 
2639.000002205372 46.12764   2.4687     0.2140051 
2639.200002208352 45.32198   2.48316    0.2061741 
2639.400002211332 40.50695   2.594361   0.1958166 
2639.600002214313 37.10891   2.601876   0.1740465 
2639.800002217293 38.26624   2.545086   0.1675194 
2640.000002220273 41.14752   2.569914   0.1622948 
2640.200002223253 41.81303   2.623755   0.1676038 
2640.400002226233 40.5336    2.617192   0.1788825 
2640.600002229214 43.30224   2.611008   0.177957  
2640.800002232194 45.36755   2.524444   0.1735386 
2641.000002235174 45.35379   2.509034   0.1768145 
2641.200002238154 43.31171   2.606728   0.1755033 
2641.400002241135 41.35732   2.61272    0.1560181 
2641.600002244115 41.68749   2.566014   0.1472061 
2641.800002247095 46.17321   2.471174   0.1446826 
2642.000002250075 46.04596   2.507892   0.1698087 
2642.200002253056 48.63403   2.512363   0.1829327 
2642.400002256036 49.68388   2.533386   0.1854446 
2642.600002259016 46.7192    2.564777   0.1854082 
2642.800002261996 46.04767   2.587132   0.1687972 
2643.000002264977 44.86025   2.670272   0.1536255 
2643.200002267957 42.18705   2.614433   0.1326661 
2643.400002270937 43.43208   2.610057   0.1220554 
2643.600002273917 47.22477   2.50266    0.1137441 
2643.800002276897 49.39841   2.504467   0.1410109 
2644.000002279878 43.80954   2.555455   0.1981538 
2644.200002282858 36.77874   2.617096   0.194696  
2644.400002285838 30.85453   2.756741   0.1746141 
2644.600002288818 27.2957    2.751033   0.1562858 
2644.800002291799 21.65094   2.651342   0.1330474 
2645.000002294779 17.82213   2.537571   0.1232284 
2645.200002297759 21.84096   2.457666   0.1533651 
2645.400002300739 24.63282   2.373575   0.2322679 
2645.60000230372 23.9398    2.43807    0.225393  
2645.8000023067 20.72749   2.598452   0.1683548 
2646.00000230968 19.08436   2.655813   0.1197181 
2646.20000231266 13.55051   2.806396   0.06383984
2646.40000231564 10.75865   2.826278   0.03676517
2646.600002318621 10.05445   2.784803   0.007765078
2646.800002321601 10.38635   2.791937   -0.0007994509
2647.000002324581 9.124119   2.794696   -0.003155601
2647.200002327561 10.43278   2.776622   -0.005700951
2647.400002330542 12.22723   2.768061   -0.01009456
2647.600002333522 14.67086   2.699666   -0.007418224
2647.800002336502 14.3854    2.734386   0.009390674
2648.000002339482 15.03285   2.662852   0.03520652
2648.200002342463 18.7817    2.578761   0.08256539
2648.400002345443 24.1281    2.474408   0.1582185 
2648.600002348423 29.80984   2.389936   0.2071739 
2648.800002351403 30.35583   2.403254   0.2270782 
