~Version
 VERS              .         2.0                           : CWLS LOG ASCII STANDARD - VERSION 2.0
 WRAP              .         NO                            : ONE LINE PER DEPTH STEP
 DLM               .         SPACE                         : DELIMITING CHARACTER(SPACE TAB OR COMMA)
~Well Information
#_______________________________________________________________________________
#
#PARAMETER_NAME    .UNIT     VALUE                         : DESCRIPTION
#_______________________________________________________________________________
STRT               .m        2657                          : First reference value
STOP               .m        2989.80000495911              : Last reference value
STEP               .m        0.2                           : Step increment
NULL               .         -9999                         : Missing value
COMP               .                                       : Company
WELL               .         604                           : Well name
FLD                .                                       : Field
LOC                .                                       : Location
CNTY               .                                       : County
STAT               .                                       : State
CTRY               .                                       : Country
SRVC               .                                       : Service Company
DATE               .                                       : Date
API                .                                       : API number
Cartographic_reference_system .         GCS_WGS_1984                  : GEOGCS["GCS_WGS_1984",DATUM["D_WGS_1984",SPHEROID["WGS_1984",6378137.0,298.257223563]],PRIMEM["Greenwich",0.0],UNIT["Degree",0.0174532925199433],AUTHORITY["EPSG",4326]]
EREF               .m        134                           : 
HZCS               .GCS_WGS_1984 World_Mercator                : PROJCS["World_Mercator",GEOGCS["GCS_WGS_1984",DATUM["D_WGS_1984",SPHEROID["WGS_1984",6378137.0,298.257223563]],PRIMEM["Greenwich",0.0],UNIT["Degree",0.0174532925199433]],PROJECTION["Mercator"],PARAMETER["False_Easting",0.0],PARAMETER["False_Northing",0.0],PARAMETER["Central_Meridian",0.0],PARAMETER["Standard_Parallel_1",0.0],UNIT["Meter",1.0],AUTHORITY["ESRI",54004]]
LATI               .dega     2.1305856004                  : GCS_WGS_1984
LONG               .dega     2.0279108213                  : GCS_WGS_1984
PROJECT_UPGRADE_TIME .         2014-05-27T11_38_46           : 
Pad                .         Pad6                          : 
X                  .m        225746                        : 
Y                  .m        235643                        : 
group              .         Pad6                          : 
Интер-р            .         Пузин                         : 
Куст               .         6                             : 
Статус             .         Не проверено                  : 
Тип                .         Нагнетательные                : 
~Parameter Information Block
#_______________________________________________________________________________
#
#PARAMETER_NAME    .UNIT     VALUE                         : DESCRIPTION
#_______________________________________________________________________________
SET                .         LQC                           : 
PROJECT_UPGRADE_TIME .         2014-05-27T11_38_46           : 
TLFamily_GR_NORM   .         Gamma Ray                     : 
TLFamily_MD        .         Measured Depth                : 
TLFamily_RHOB_NORM .         Bulk Density                  : 
TLFamily_TNPH_NORM .         Neutron Porosity              : 
~Curve Information
#_______________________________________________________________________________
#
#LOGNAME           .UNIT     LOG_ID                        : DESCRIPTION
#_______________________________________________________________________________
MD                 .m                                      :  
GR_NORM            .gAPI                                   : Normalised By Techlog 
RHOB_NORM          .g/cm3                                  : Normalized By Techlog 
TNPH_NORM          .v/v                                    : Normalised By Techlog 
~Ascii
# ...
2878.200003296137 284.3662   2.187109   0.3668004 
2878.400003299117 304.3633   2.184269   0.3637828 
2878.600003302097 307.3824   2.193537   0.3608813 
2878.800003305078 296.9028   2.181578   0.3632025 
2879.000003308058 282.901    2.172162   0.3598367 
2879.200003311038 275.4916   2.187557   0.3591404 
2879.400003314018 265.7832   2.199067   0.3570513 
2879.600003316998 260.3304   2.236436   0.3633186 
2879.800003319979 262.3076   2.219545   0.3656398 
2880.000003322959 261.3526   2.229859   0.3774781 
2880.200003325939 253.5156   2.221339   0.3850221 
2880.400003328919 249.033    2.188604   0.3832812 
2880.6000033319 246.3752   2.184418   0.3766657 
2880.80000333488 238.2655   2.181429   0.377246  
2881.00000333786 229.4618   2.206242   0.38862   
2881.20000334084 219.956    2.214164   0.3938428 
2881.400003343821 201.1408   2.210278   0.3762014 
2881.600003346801 179.7251   2.240023   0.3534533 
2881.800003349781 169.2383   2.267676   0.3614616 
2882.000003352761 161.0291   2.296973   0.3676129 
2882.200003355742 162.3464   2.291443   0.3916377 
2882.400003358722 163.513    2.301009   0.3999941 
2882.600003361702 159.5352   2.219396   0.4047526 
2882.800003364682 157.6271   2.240771   0.4306344 
2883.000003367662 156.7169   2.214015   0.431911  
2883.200003370643 150.2832   2.210278   0.4064935 
2883.400003373623 145.2348   2.261249   0.3824688 
2883.600003376603 143.6862   2.2466     0.3673807 
2883.800003379583 139.0746   2.251383   0.3636668 
2884.000003382564 135.2116   2.303401   0.3626222 
2884.200003385544 130.8044   2.30355    0.3427756 
2884.400003388524 123.612    2.316405   0.3201436 
2884.600003391504 120.3992   2.300859   0.3025022 
2884.800003394485 123.8846   2.327615   0.2905479 
2885.000003397465 129.3966   2.318199   0.3035468 
2885.200003400445 133.4156   2.277242   0.3023862 
2885.400003403425 133.2156   2.284567   0.2965831 
2885.600003406405 133.5698   2.247945   0.2913603 
2885.800003409386 140.8805   2.2466     0.2845127 
2886.000003412366 149.33     2.278737   0.2949582 
2886.200003415346 151.5897   2.297421   0.3085374 
2886.400003418326 143.8835   2.302503   0.322813  
2886.600003421307 129.6674   2.288453   0.313296  
2886.800003424287 115.0962   2.325971   0.3005292 
2887.000003427267 109.5815   2.333146   0.3012255 
2887.200003430247 107.7012   2.310575   0.304011  
2887.400003433228 103.4724   2.325822   0.3007613 
2887.600003436208 100.8496   2.298318   0.2932173 
2887.800003439188 98.14066   2.301009   0.3041271 
2888.000003442168 95.84065   2.308184   0.3188669 
2888.200003445148 98.24378   2.318497   0.3078411 
2888.400003448129 98.04741   2.381576   0.3064483 
2888.600003451109 95.4479    2.360051   0.3044753 
2888.800003454089 95.17442   2.35766    0.3079571 
2889.000003457069 99.40231   2.358108   0.3184027 
2889.20000346005 106.4772   2.378287   0.3184027 
2889.40000346303 110.7257   2.362294   0.3157333 
2889.60000346601 108.6562   2.337929   0.3030825 
2889.80000346899 104.5098   2.351083   0.2859054 
2890.000003471971 101.9426   2.348691   0.2867178 
2890.200003474951 100.4236   2.30639    0.2904318 
2890.400003477931 101.3194   2.294582   0.2929852 
2890.600003480911 104.1081   2.290246   0.285093  
2890.800003483891 109.3278   2.281577   0.2895033 
2891.000003486872 115.6871   2.269768   0.3119032 
2891.200003489852 119.6424   2.277242   0.3221166 
2891.400003492832 117.4455   2.315807   0.3206078 
2891.600003495812 111.4233   2.354521   0.3374368 
2891.800003498793 105.9194   2.325822   0.3439362 
2892.000003501773 102.7425   2.31491    0.3384814 
2892.200003504753 103.406    2.313266   0.337785  
2892.400003507733 108.779    2.302055   0.336044  
2892.600003510714 111.9909   2.306689   0.3161975 
2892.800003513694 109.3601   2.389348   0.2919406 
2893.000003516674 101.7086   2.395178   0.2934494 
2893.200003519654 94.83995   2.370814   0.2984401 
2893.400003522635 94.42209   2.353026   0.2947261 
2893.600003525615 97.6143    2.276794   0.2878785 
2893.800003528595 104.0176   2.270815   0.29078   
2894.000003531575 112.3559   2.264836   0.3113229 
2894.200003534555 118.4346   2.329857   0.3043592 
2894.400003537536 122.8956   2.369169   0.3030825 
2894.600003540516 118.8417   2.420887   0.2990204 
2894.800003543496 109.9061   2.368721   0.3005292 
2895.000003546476 103.1316   2.298916   0.3250182 
2895.200003549457 103.597    2.278438   0.3394099 
2895.400003552437 108.4616   2.271114   0.3310534 
2895.600003555417 114.9411   2.250187   0.3166617 
2895.800003558397 121.173    2.219545   0.3144566 
2896.000003561378 127.9422   2.190398   0.3404544 
2896.200003564358 134.4324   2.217303   0.3534533 
2896.400003567338 135.712    2.244059   0.341499  
2896.600003570318 132.0992   2.260053   0.3258306 
2896.800003573298 132.1835   2.24092    0.3172421 
2897.000003576279 137.3807   2.208185   0.3304731 
2897.200003579259 144.4484   2.172012   0.3345353 
2897.400003582239 150.0967   2.196377   0.3449808 
2897.600003585219 146.0463   2.202056   0.3576316 
2897.8000035882 133.3116   2.21252    0.3466057 
2898.00000359118 123.2184   2.224777   0.3251343 
2898.20000359416 119.7697   2.222684   0.3349995 
2898.40000359714 125.0423   2.222684   0.3354638 
2898.600003600121 129.836    2.252579   0.3209561 
2898.800003603101 135.4905   2.221488   0.3319819 
2899.000003606081 140.4061   2.183073   0.3478824 
2899.200003609061 145.5845   2.200711   0.3522927 
2899.400003612041 142.5654   2.261547   0.3330265 
2899.600003615022 133.7088   2.3747     0.3137602 
2899.800003618002 120.6781   2.345851   0.3120193 
2900.000003620982 112.4904   2.327018   0.3124835 
2900.200003623962 111.6466   2.355866   0.3045913 
2900.400003626943 111.5722   2.401605   0.302154  
2900.600003629923 108.1388   2.494429   0.2862536 
2900.800003632903 101.5669   2.607432   0.2655946 
2901.000003635883 94.21227   2.676938   0.2349543 
2901.200003638864 96.18678   2.659449   0.2217233 
2901.400003641844 106.4081   2.649285   0.234374  
2901.600003644824 116.2287   2.601603   0.2589791 
2901.800003647804 121.0197   2.550482   0.2882266 
2902.000003650784 121.0708   2.575145   0.3155012 
2902.200003653765 117.6401   2.521932   0.326643  
2902.400003656745 113.3396   2.467374   0.3314016 
2902.600003659725 110.0496   2.42881    0.3291964 
2902.800003662705 106.835    2.376643   0.3343031 
2903.000003665686 107.7828   2.434938   0.3240897 
2903.200003668666 110.4271   2.438376   0.3158493 
2903.400003671646 112.8186   2.47156    0.3330265 
2903.600003674626 113.5727   2.454968   0.3402223 
2903.800003677607 116.5013   2.419094   0.3445166 
2904.000003680587 115.8494   2.393982   0.3532212 
2904.200003683567 113.9125   2.424774   0.3546139 
2904.400003686547 111.2027   2.422681   0.3466057 
2904.600003689528 110.8297   2.429408   0.3274555 
2904.800003692508 111.7677   2.450334   0.3129478 
2905.000003695488 110.1016   2.482471   0.3037789 
2905.200003698468 108.7996   2.431799   0.2897354 
2905.400003701448 111.0817   2.399961   0.2906639 
2905.600003704429 112.0788   2.424624   0.2996007 
2905.800003707409 110.8566   2.452875   0.2877624 
2906.000003710389 109.595    2.510871   0.2730225 
2906.200003713369 107.8177   2.487105   0.2716298 
2906.40000371635 109.2336   2.425073   0.2791738 
2906.60000371933 110.8351   2.503099   0.2932173 
2906.80000372231 109.1538   2.501006   0.3119032 
2907.00000372529 103.0249   2.508031   0.3164296 
2907.200003728271 95.4748    2.522232   0.3121353 
2907.400003731251 92.31757   2.479482   0.3028504 
2907.600003734231 98.24827   2.486956   0.3044753 
2907.800003737211 109.612    2.387555   0.3103944 
2908.000003740191 120.8287   2.410574   0.3108587 
2908.200003743172 125.4296   2.466179   0.3028504 
2908.400003746152 122.6329   2.471859   0.2962349 
2908.600003749132 118.1422   2.446149   0.2921727 
2908.800003752112 115.9059   2.426119   0.3035468 
2909.000003755093 113.2346   2.406687   0.3204918 
2909.200003758073 110.168    2.438526   0.3331425 
2909.400003761053 110.7661   2.457509   0.3143405 
2909.600003764033 113.4812   2.444953   0.3048235 
