~Version
 VERS              .         2.0                           : CWLS LOG ASCII STANDARD - VERSION 2.0
 WRAP              .         NO                            : ONE LINE PER DEPTH STEP
 DLM               .         SPACE                         : DELIMITING CHARACTER(SPACE TAB OR COMMA)
~Well Information
#_______________________________________________________________________________
#
#PARAMETER_NAME    .UNIT     VALUE                         : DESCRIPTION
#_______________________________________________________________________________
STRT               .m        2657                          : First reference value
STOP               .m        2989.80000495911              : Last reference value
STEP               .m        0.2                           : Step increment
NULL               .         -9999                         : Missing value
COMP               .                                       : Company
WELL               .         604                           : Well name
FLD                .                                       : Field
LOC                .                                       : Location
CNTY               .                                       : County
STAT               .                                       : State
CTRY               .                                       : Country
SRVC               .                                       : Service Company
DATE               .                                       : Date
API                .                                       : API number
Cartographic_reference_system .         GCS_WGS_1984                  : GEOGCS["GCS_WGS_1984",DATUM["D_WGS_1984",SPHEROID["WGS_1984",6378137.0,298.257223563]],PRIMEM["Greenwich",0.0],UNIT["Degree",0.0174532925199433],AUTHORITY["EPSG",4326]]
EREF               .m        134                           : 
HZCS               .GCS_WGS_1984 World_Mercator                : PROJCS["World_Mercator",GEOGCS["GCS_WGS_1984",DATUM["D_WGS_1984",SPHEROID["WGS_1984",6378137.0,298.257223563]],PRIMEM["Greenwich",0.0],UNIT["Degree",0.0174532925199433]],PROJECTION["Mercator"],PARAMETER["False_Easting",0.0],PARAMETER["False_Northing",0.0],PARAMETER["Central_Meridian",0.0],PARAMETER["Standard_Parallel_1",0.0],UNIT["Meter",1.0],AUTHORITY["ESRI",54004]]
LATI               .dega     2.1305856004                  : GCS_WGS_1984
LONG               .dega     2.0279108213                  : GCS_WGS_1984
PROJECT_UPGRADE_TIME .         2014-05-27T11_38_46           : 
Pad                .         Pad6                          : 
X                  .m        225746                        : 
Y                  .m        235643                        : 
group              .         Pad6                          : 
Интер-р            .         Пузин                         : 
Куст               .         6                             : 
Статус             .         Не проверено                  : 
Тип                .         Нагнетательные                : 
~Parameter Information Block
#_______________________________________________________________________________
#
#PARAMETER_NAME    .UNIT     VALUE                         : DESCRIPTION
#_______________________________________________________________________________
SET                .         LQC                           : 
PROJECT_UPGRADE_TIME .         2014-05-27T11_38_46           : 
TLFamily_GR_NORM   .         Gamma Ray                     : 
TLFamily_MD        .         Measured Depth                : 
TLFamily_RHOB_NORM .         Bulk Density                  : 
TLFamily_TNPH_NORM .         Neutron Porosity              : 
~Curve Information
#_______________________________________________________________________________
#
#LOGNAME           .UNIT     LOG_ID                        : DESCRIPTION
#_______________________________________________________________________________
MD                 .m                                      :  
GR_NORM            .gAPI                                   : Normalised By Techlog 
RHOB_NORM          .g/cm3                                  : Normalized By Techlog 
TNPH_NORM          .v/v                                    : Normalised By Techlog 
~Ascii
# ...
2941.40000423789 20.96523   2.639121   0.1607909 
2941.60000424087 20.63166   2.559301   0.1843514 
2941.800004243851 21.85296   2.475595   0.1934042 
2942.000004246831 23.89203   2.342264   0.1920115 
2942.200004249811 26.73812   2.334342   0.1913151 
2942.400004252791 31.88512   2.337929   0.1881814 
2942.600004255772 37.45895   2.276196   0.1838872 
2942.800004258752 40.08177   2.344207   0.1860923 
2943.000004261732 42.44724   2.366479   0.1851638 
2943.200004264712 43.32778   2.410873   0.1841193 
2943.400004267693 40.58571   2.418646   0.1920115 
2943.600004270673 35.30869   2.449587   0.2142953 
2943.800004273653 34.23355   2.399662   0.2469087 
2944.000004276633 39.02278   2.302055   0.2708174 
2944.200004279613 52.97079   2.264985   0.2871821 
2944.400004282594 71.42647   2.269768   0.2990204 
2944.600004285574 77.94272   2.303251   0.3093499 
2944.800004288554 69.50755   2.298617   0.3042431 
2945.000004291534 63.20382   2.362294   0.2785935 
2945.200004294515 61.37726   2.457509   0.2690764 
2945.400004297495 64.57935   2.593232   0.2762723 
2945.600004300475 71.65244   2.614159   0.2689604 
2945.800004303455 79.93069   2.651527   0.2594433 
2946.000004306436 87.36694   2.69323    0.2667552 
2946.200004309416 90.50266   2.634786   0.2691925 
2946.400004312396 86.58322   2.644053   0.2610682 
2946.600004315376 77.79297   2.5596     0.2444714 
2946.800004318357 67.72583   2.489197   0.2245087 
2947.000004321337 58.75983   2.426717   0.2171969 
2947.200004324317 52.76276   2.431949   0.2132508 
2947.400004327297 49.72208   2.440917   0.1974664 
2947.600004330277 48.20309   2.427016   0.1902705 
2947.800004333258 47.15307   2.427464   0.1845835 
2948.000004336238 46.91993   2.429258   0.1829586 
2948.200004339218 48.76442   2.429557   0.193056  
2948.400004342198 52.56011   2.451231   0.1852799 
2948.600004345179 55.67252   2.447942   0.1830747 
2948.800004348159 66.06785   2.507135   0.1931721 
2949.000004351139 73.52114   2.485311   0.2062871 
2949.200004354119 82.0406    2.445102   0.2414538 
2949.4000043571 92.55339   2.307137   0.3088856 
2949.60000436008 98.21329   2.173806   0.3623901 
2949.80000436306 100.7106   2.053329   0.3587922 
2950.00000436604 101.0334   1.952284   0.3298928 
2950.20000436902 100.1537   2.07291    0.2971634 
2950.400004372001 95.55103   2.450783   0.2635055 
2950.600004374981 85.1808    2.451829   0.2413377 
2950.800004377961 74.24297   2.452128   0.2460962 
2951.000004380941 68.31406   2.442562   0.2431947 
2951.200004383922 66.0015    2.414161   0.2303118 
2951.400004386902 64.01802   2.414759   0.2319367 
2951.600004389882 60.30482   2.443608   0.2394807 
2951.800004392862 52.7242    2.45706    0.2357667 
2952.000004395843 44.81002   2.429109   0.2225357 
2952.200004398823 42.82206   2.419841   0.2053586 
2952.400004401803 43.71785   2.390544   0.2087243 
2952.600004404783 43.75282   2.34047    0.2218393 
2952.800004407763 43.61563   2.338826   0.2205627 
2953.000004410744 43.15831   2.353325   0.2093047 
2953.200004413724 43.2964    2.353026   0.2091886 
2953.400004416704 43.33496   2.414011   0.2142953 
2953.600004419684 42.52973   2.403698   0.2011804 
2953.800004422665 42.90993   2.441964   0.1824944 
2954.000004425645 44.92659   2.405791   0.1785483 
2954.200004428625 44.71945   2.388601   0.1846996 
2954.400004431605 42.79963   2.392936   0.194913  
2954.600004434586 42.28852   2.392936   0.2070995 
2954.800004437566 41.74154   2.375149   0.2123223 
2955.000004440546 41.35148   2.432995   0.2093047 
2955.200004443526 40.99998   2.477538   0.2032695 
2955.400004446507 40.25304   2.454071   0.1888778 
2955.600004449487 40.15978   2.417449   0.1805214 
2955.800004452467 41.12731   2.416254   0.1848156 
2956.000004455447 40.6978    2.431052   0.1956094 
2956.200004458427 39.88898   2.453174   0.1945648 
2956.400004461408 39.63163   2.397121   0.1878332 
2956.600004464388 38.94835   2.372757   0.1879493 
2956.800004467368 41.32727   2.344058   0.1917793 
2957.000004470348 42.92517   2.415058   0.1918954 
2957.200004473329 44.08369   2.4315     0.1877172 
2957.400004476309 44.0272    2.440768   0.1801732 
2957.600004479289 43.55734   2.425671   0.1750665 
2957.800004482269 41.8348    2.391142   0.1765753 
2958.00000448525 38.70984   2.4173     0.1768074 
2958.20000448823 37.64994   2.451082   0.1777359 
2958.40000449121 39.87105   2.461395   0.1865566 
2958.60000449419 43.56451   2.451082   0.1946809 
2958.80000449717 44.99025   2.492635   0.1908509 
2959.000004500151 43.65149   2.418646   0.1858602 
2959.200004503131 43.01305   2.397719   0.1866726 
2959.400004506111 43.02201   2.375149   0.1874851 
2959.600004509091 42.62299   2.440319   0.1852799 
2959.800004512072 40.34092   2.498914   0.1857441 
2960.000004515052 39.02278   2.464983   0.1866726 
2960.200004518032 39.72309   2.423279   0.1888778 
2960.400004521012 40.23779   2.383967   0.1973503 
2960.600004523993 41.17752   2.351083   0.1894581 
2960.800004526973 41.90115   2.337331   0.1867887 
2961.000004529953 40.81705   2.404744   0.1946809 
2961.200004532933 42.91351   2.424026   0.191199  
2961.400004535913 46.24651   2.493831   0.1829586 
2961.600004538894 49.28899   2.475894   0.1938685 
2961.800004541874 56.18274   2.542112   0.2262497 
2962.000004544854 67.57609   2.626266   0.2603718 
2962.200004547834 81.44967   2.572305   0.2803344 
2962.400004550815 90.80574   2.495775   0.2933334 
2962.600004553795 94.84443   2.462591   0.2937976 
2962.800004556775 88.60885   2.528808   0.2746474 
2963.000004559755 77.45492   2.552425   0.2453998 
2963.200004562736 70.50557   2.469616   0.2339098 
2963.400004565716 65.95397   2.419692   0.2216072 
2963.600004568696 64.77572   2.466627   0.2111617 
2963.800004571676 63.23251   2.496522   0.2120901 
2964.000004574656 62.64339   2.500707   0.2218393 
2964.200004577637 64.20901   2.430304   0.2177772 
2964.400004580617 64.6726    2.547343   0.2123223 
2964.600004583597 65.30746   2.574996   0.2162684 
2964.800004586577 66.40231   2.624472   0.2147596 
2965.000004589558 65.38278   2.59936    0.2040819 
2965.200004592538 64.47353   2.488151   0.2009482 
2965.400004595518 66.99413   2.446298   0.2112777 
2965.600004598498 70.16572   2.371412   0.22683   
2965.800004601479 73.76772   2.310575   0.2455159 
2966.000004604459 76.36992   2.24092    0.2523636 
2966.200004607439 72.98582   2.124629   0.2361149 
2966.400004610419 69.55956   2.022238   0.2276424 
2966.6000046134 66.48392   1.856022   0.2354185 
2966.80000461638 62.99759   1.731659   0.2581666 
2967.00000461936 56.96196   1.662752   0.3196794 
2967.20000462234 43.4336    1.588612   0.4052168 
2967.40000462532 23.11998   1.581587   0.4875046 
2967.600004628301 6.86388    1.595039   0.5224392 
2967.800004631281 1.633487   1.611033   0.5305635 
2968.000004634261 3.880594   1.624038   0.5251086 
2968.200004637241 8.920889   1.648402   0.5183771 
2968.400004640222 14.57363   1.64601    0.5222071 
2968.600004643202 23.47058   1.664097   0.5001553 
2968.800004646182 33.66326   1.855424   0.4474633 
2969.000004649162 44.33208   2.319245   0.3914055 
2969.200004652143 57.94921   2.561095   0.3606491 
2969.400004655123 70.65622   2.509825   0.3438202 
2969.600004658103 78.93356   2.464684   0.3093499 
2969.800004661083 82.87093   2.446      0.2900836 
2970.000004664063 79.14069   2.378586   0.2874142 
2970.200004667044 70.5244    2.342862   0.2835842 
2970.400004670024 61.62833   2.293087   0.2736029 
2970.600004673004 54.61263   2.217303   0.2629252 
2970.800004675984 52.8058    2.148545   0.2579345 
2971.000004678965 53.1869    2.174254   0.2639697 
2971.200004681945 63.96331   2.397868   0.2718619 
2971.400004684925 71.22113   2.433742   0.2726744 
2971.600004687905 71.16643   2.50848    0.2537563 
2971.800004690886 69.48962   2.447644   0.2202145 
2972.000004693866 72.35635   2.460498   0.19294   
2972.200004696846 78.72643   2.494878   0.1866726 
2972.400004699826 83.68423   2.579331   0.1917793 
2972.600004702806 87.97399   2.572156   0.2021088 
2972.800004705787 88.23762   2.576491   0.2317046 
