~Version
 VERS              .         2.0                           : CWLS LOG ASCII STANDARD - VERSION 2.0
 WRAP              .         NO                            : ONE LINE PER DEPTH STEP
 DLM               .         SPACE                         : DELIMITING CHARACTER(SPACE TAB OR COMMA)
~Well Information
#_______________________________________________________________________________
#
#PARAMETER_NAME    .UNIT     VALUE                         : DESCRIPTION
#_______________________________________________________________________________
STRT               .m        2657                          : First reference value
STOP               .m        2989.80000495911              : Last reference value
STEP               .m        0.2                           : Step increment
NULL               .         -9999                         : Missing value
COMP               .                                       : Company
WELL               .         604                           : Well name
FLD                .                                       : Field
LOC                .                                       : Location
CNTY               .                                       : County
STAT               .                                       : State
CTRY               .                                       : Country
SRVC               .                                       : Service Company
DATE               .                                       : Date
API                .                                       : API number
Cartographic_reference_system .         GCS_WGS_1984                  : GEOGCS["GCS_WGS_1984",DATUM["D_WGS_1984",SPHEROID["WGS_1984",6378137.0,298.257223563]],PRIMEM["Greenwich",0.0],UNIT["Degree",0.0174532925199433],AUTHORITY["EPSG",4326]]
EREF               .m        134                           : 
HZCS               .GCS_WGS_1984 World_Mercator                : PROJCS["World_Mercator",GEOGCS["GCS_WGS_1984",DATUM["D_WGS_1984",SPHEROID["WGS_1984",6378137.0,298.257223563]],PRIMEM["Greenwich",0.0],UNIT["Degree",0.0174532925199433]],PROJECTION["Mercator"],PARAMETER["False_Easting",0.0],PARAMETER["False_Northing",0.0],PARAMETER["Central_Meridian",0.0],PARAMETER["Standard_Parallel_1",0.0],UNIT["Meter",1.0],AUTHORITY["ESRI",54004]]
LATI               .dega     2.1305856004                  : GCS_WGS_1984
LONG               .dega     2.0279108213                  : GCS_WGS_1984
PROJECT_UPGRADE_TIME .         2014-05-27T11_38_46           : 
Pad                .         Pad6                          : 
X                  .m        225746                        : 
Y                  .m        235643                        : 
group              .         Pad6                          : 
Интер-р            .         Пузин                         : 
Куст               .         6                             : 
Статус             .         Не проверено                  : 
Тип                .         Нагнетательные                : 
~Parameter Information Block
#_______________________________________________________________________________
#
#PARAMETER_NAME    .UNIT     VALUE                         : DESCRIPTION
#_______________________________________________________________________________
SET                .         LQC                           : 
PROJECT_UPGRADE_TIME .         2014-05-27T11_38_46           : 
TLFamily_GR_NORM   .         Gamma Ray                     : 
TLFamily_MD        .         Measured Depth                : 
TLFamily_RHOB_NORM .         Bulk Density                  : 
TLFamily_TNPH_NORM .         Neutron Porosity              : 
~Curve Information
#_______________________________________________________________________________
#
#LOGNAME           .UNIT     LOG_ID                        : DESCRIPTION
#_______________________________________________________________________________
MD                 .m                                      :  
GR_NORM            .gAPI                                   : Normalised By Techlog 
RHOB_NORM          .g/cm3                                  : Normalized By Techlog 
TNPH_NORM          .v/v                                    : Normalised By Techlog 
~Ascii
# ...
2783.400001883507 -9999      -9999      -9999     
2783.600001886487 -9999      -9999      -9999     
2783.800001889467 -9999      -9999      -9999     
2784.000001892447 -9999      -9999      -9999     
2784.200001895428 -9999      -9999      -9999     
2784.400001898408 -9999      -9999      -9999     
2784.600001901388 -9999      -9999      -9999     
2784.800001904368 -9999      -9999      -9999     
2785.000001907349 -9999      -9999      -9999     
2785.200001910329 -9999      -9999      -9999     
2785.400001913309 -9999      -9999      -9999     
2785.600001916289 -9999      -9999      -9999     
2785.80000191927 -9999      -9999      -9999     
2786.00000192225 -9999      -9999      -9999     
2786.20000192523 -9999      -9999      -9999     
2786.40000192821 -9999      -9999      -9999     
2786.60000193119 -9999      -9999      -9999     
2786.800001934171 -9999      -9999      -9999     
2787.000001937151 -9999      -9999      -9999     
2787.200001940131 -9999      -9999      -9999     
2787.400001943111 -9999      -9999      -9999     
2787.600001946092 -9999      -9999      -9999     
2787.800001949072 -9999      -9999      -9999     
2788.000001952052 -9999      -9999      -9999     
2788.200001955032 -9999      -9999      -9999     
2788.400001958013 -9999      -9999      -9999     
2788.600001960993 -9999      -9999      -9999     
2788.800001963973 -9999      -9999      -9999     
2789.000001966953 -9999      -9999      -9999     
2789.200001969934 -9999      -9999      -9999     
2789.400001972914 -9999      -9999      -9999     
2789.600001975894 -9999      -9999      -9999     
2789.800001978874 -9999      -9999      -9999     
2790.000001981854 -9999      -9999      -9999     
2790.200001984835 -9999      -9999      -9999     
2790.400001987815 -9999      -9999      -9999     
2790.600001990795 -9999      -9999      -9999     
2790.800001993775 -9999      -9999      -9999     
2791.000001996756 -9999      -9999      -9999     
2791.200001999736 -9999      -9999      -9999     
2791.400002002716 -9999      -9999      -9999     
2791.600002005696 -9999      -9999      -9999     
2791.800002008677 -9999      -9999      -9999     
2792.000002011657 -9999      -9999      -9999     
2792.200002014637 -9999      -9999      -9999     
2792.400002017617 -9999      -9999      -9999     
2792.600002020597 -9999      -9999      -9999     
2792.800002023578 -9999      -9999      -9999     
2793.000002026558 -9999      -9999      -9999     
2793.200002029538 -9999      -9999      -9999     
2793.400002032518 -9999      -9999      -9999     
2793.600002035499 -9999      2.564533   -9999     
2793.800002038479 -9999      2.514309   -9999     
2794.000002041459 -9999      2.468271   -9999     
2794.200002044439 -9999      2.47156    -9999     
2794.40000204742 -9999      2.481425   -9999     
2794.6000020504 -9999      2.540766   -9999     
2794.80000205338 -9999      2.606984   -9999     
2795.00000205636 -9999      2.590542   -9999     
2795.20000205934 -9999      2.547493   -9999     
2795.400002062321 -9999      2.521036   -9999     
2795.600002065301 73.6933    2.551827   0.2221875 
2795.800002068281 75.36115   2.512366   0.2285709 
2796.000002071261 74.08426   2.544952   0.2447035 
2796.200002074242 75.1567    2.559899   0.2633894 
2796.400002077222 75.32887   2.58232    0.2867178 
2796.600002080202 76.78151   2.527164   0.3031986 
2796.800002083182 79.25547   2.540617   0.3029665 
2797.000002086163 78.55157   2.572156   0.2935655 
2797.200002089143 75.57815   2.533442   0.2843966 
2797.400002092123 73.4772    2.577089   0.2679158 
2797.600002095103 75.75838   2.611169   0.2666392 
2797.800002098083 78.50494   2.558703   0.275692  
2798.000002101064 79.22229   2.53688    0.2633894 
2798.200002104044 80.30012   2.569166   0.2537563 
2798.400002107024 79.65181   2.611319   0.255149  
2798.600002110004 78.16599   2.637626   0.2599076 
2798.800002112985 80.12527   2.577388   0.2595594 
2799.000002115965 83.64746   2.543158   0.2632734 
2799.200002118945 84.10208   2.479781   0.275808  
2799.400002121925 80.26873   2.543905   0.2881106 
2799.600002124906 78.69862   2.568718   0.2962349 
2799.800002127886 78.98467   2.583367   0.2971634 
2800.000002130866 78.68517   2.535983   0.303895  
2800.200002133846 78.85645   2.476941   0.298324  
2800.400002136827 79.12634   2.517598   0.2876463 
2800.600002139807 78.66096   2.546297   0.2809148 
2800.800002142787 77.8934    2.537478   0.2752277 
2801.000002145767 77.91582   2.569465   0.262577  
2801.200002148747 78.18752   2.532695   0.2535242 
2801.400002151728 79.44019   2.535385   0.2443553 
2801.600002154708 80.75385   2.563188   0.2405253 
2801.800002157688 83.9622    2.509227   0.2455159 
2802.000002160668 83.19015   2.606236   0.2548009 
2802.200002163649 80.34943   2.607432   0.2601397 
2802.400002166629 77.72124   2.560946   0.2608361 
2802.600002169609 77.14198   2.591588   0.2595594 
2802.800002172589 77.2971    2.545101   0.2530599 
2803.00000217557 75.4831    2.510274   0.2507387 
2803.20000217855 72.65763   2.532695   0.2495781 
2803.40000218153 72.01021   2.474399   0.2525957 
2803.60000218451 72.33392   2.460199   0.2586309 
2803.80000218749 71.84971   2.513861   0.2671034 
2804.000002190471 72.0676    2.53987    0.2705853 
2804.200002193451 73.74442   2.492038   0.2687283 
2804.400002196431 74.66711   2.480976   0.2680319 
2804.600002199411 73.991     2.525819   0.2632734 
2804.800002202392 75.98614   2.557956   0.2577024 
2805.000002205372 80.1441    2.608628   0.2622288 
2805.200002208352 83.80349   2.558255   0.2629252 
2805.400002211332 85.54845   2.563935   0.2630412 
2805.600002214313 84.10477   2.592933   0.2690764 
2805.800002217293 81.01479   2.618792   0.272094  
2806.000002220273 77.96244   2.637327   0.2673355 
2806.200002223253 76.51698   2.599061   0.251319  
2806.400002226233 74.14434   2.544204   0.2424983 
2806.600002229214 71.1198    2.47709    0.2404092 
2806.800002232194 70.21505   2.49144    0.2270621 
2807.000002235174 69.01975   2.520737   0.2159202 
2807.200002238154 68.02442   2.528061   0.217429  
2807.400002241135 66.56551   2.547045   0.2151078 
2807.600002244115 67.31784   2.534488   0.2180093 
2807.800002247095 70.67505   2.537926   0.219402  
2808.000002250075 72.68991   2.505042   0.2204466 
2808.200002253056 73.92554   2.564234   0.2277585 
2808.400002256036 76.91063   2.604443   0.2322849 
2808.600002259016 77.44416   2.620885   0.2223036 
2808.800002261996 75.47234   2.589196   0.2146435 
2809.000002264977 75.41136   2.54525    0.2307761 
2809.200002267957 77.13749   2.566028   0.2545687 
2809.400002270937 77.06037   2.561693   0.2754599 
2809.600002273917 76.28653   2.524175   0.2843966 
2809.800002276897 75.82564   2.57096    0.2828878 
2810.000002279878 77.71675   2.55392    0.288923  
2810.200002282858 79.26355   2.558255   0.2956546 
2810.400002285838 81.70523   2.599659   0.2917085 
2810.600002288818 83.65015   2.600855   0.2831199 
2810.800002291799 84.39441   2.612215   0.2877624 
2811.000002294779 86.1833    2.602201   0.3064483 
2811.200002297759 88.06994   2.618194   0.313296  
2811.400002300739 87.56779   2.570064   0.3043592 
2811.60000230372 88.16678   2.565131   0.292753  
2811.8000023067 87.88701   2.514758   0.2857893 
2812.00000230968 84.93153   2.494429   0.2976277 
2812.20000231266 81.2802    2.481873   0.3164296 
2812.40000231564 80.51353   2.525968   0.3042431 
2812.600002318621 81.85408   2.524474   0.2871821 
2812.800002321601 80.90179   2.538076   0.2856733 
2813.000002324581 79.90289   2.552724   0.277665  
2813.200002327561 82.66917   2.540019   0.266407  
2813.400002330542 86.3438    2.503996   0.2564257 
2813.600002333522 85.99141   2.53688    0.2538724 
2813.800002336502 87.74802   2.52552    0.255149  
2814.000002339482 91.38141   2.530901   0.2537563 
2814.200002342463 88.5425    2.486208   0.2536402 
2814.400002345443 86.44783   2.452726   0.2503905 
2814.600002348423 87.09972   2.511469   0.2559615 
2814.800002351403 88.39185   2.544354   0.2628091 
