~Version
 VERS              .         2.0                           : CWLS LOG ASCII STANDARD - VERSION 2.0
 WRAP              .         NO                            : ONE LINE PER DEPTH STEP
 DLM               .         SPACE                         : DELIMITING CHARACTER(SPACE TAB OR COMMA)
~Well Information
#_______________________________________________________________________________
#
#PARAMETER_NAME    .UNIT     VALUE                         : DESCRIPTION
#_______________________________________________________________________________
STRT               .m        2657                          : First reference value
STOP               .m        2989.80000495911              : Last reference value
STEP               .m        0.2                           : Step increment
NULL               .         -9999                         : Missing value
COMP               .                                       : Company
WELL               .         604                           : Well name
FLD                .                                       : Field
LOC                .                                       : Location
CNTY               .                                       : County
STAT               .                                       : State
CTRY               .                                       : Country
SRVC               .                                       : Service Company
DATE               .                                       : Date
API                .                                       : API number
Cartographic_reference_system .         GCS_WGS_1984                  : GEOGCS["GCS_WGS_1984",DATUM["D_WGS_1984",SPHEROID["WGS_1984",6378137.0,298.257223563]],PRIMEM["Greenwich",0.0],UNIT["Degree",0.0174532925199433],AUTHORITY["EPSG",4326]]
EREF               .m        134                           : 
HZCS               .GCS_WGS_1984 World_Mercator                : PROJCS["World_Mercator",GEOGCS["GCS_WGS_1984",DATUM["D_WGS_1984",SPHEROID["WGS_1984",6378137.0,298.257223563]],PRIMEM["Greenwich",0.0],UNIT["Degree",0.0174532925199433]],PROJECTION["Mercator"],PARAMETER["False_Easting",0.0],PARAMETER["False_Northing",0.0],PARAMETER["Central_Meridian",0.0],PARAMETER["Standard_Parallel_1",0.0],UNIT["Meter",1.0],AUTHORITY["ESRI",54004]]
LATI               .dega     2.1305856004                  : GCS_WGS_1984
LONG               .dega     2.0279108213                  : GCS_WGS_1984
PROJECT_UPGRADE_TIME .         2014-05-27T11_38_46           : 
Pad                .         Pad6                          : 
X                  .m        225746                        : 
Y                  .m        235643                        : 
group              .         Pad6                          : 
Интер-р            .         Пузин                         : 
Куст               .         6                             : 
Статус             .         Не проверено                  : 
Тип                .         Нагнетательные                : 
~Parameter Information Block
#_______________________________________________________________________________
#
#PARAMETER_NAME    .UNIT     VALUE                         : DESCRIPTION
#_______________________________________________________________________________
SET                .         LQC                           : 
PROJECT_UPGRADE_TIME .         2014-05-27T11_38_46           : 
TLFamily_GR_NORM   .         Gamma Ray                     : 
TLFamily_MD        .         Measured Depth                : 
TLFamily_RHOB_NORM .         Bulk Density                  : 
TLFamily_TNPH_NORM .         Neutron Porosity              : 
~Curve Information
#_______________________________________________________________________________
#
#LOGNAME           .UNIT     LOG_ID                        : DESCRIPTION
#_______________________________________________________________________________
MD                 .m                                      :  
GR_NORM            .gAPI                                   : Normalised By Techlog 
RHOB_NORM          .g/cm3                                  : Normalized By Techlog 
TNPH_NORM          .v/v                                    : Normalised By Techlog 
~Ascii
# ...
2815.000002354383 91.09268   2.534488   0.2631573 
2815.200002357364 92.60002   2.515954   0.2600236 
2815.400002360344 91.0882    2.521185   0.2525957 
2815.600002363324 92.73721   2.549885   0.2349543 
2815.800002366304 93.11472   2.530303   0.2256694 
2816.000002369285 91.94812   2.518495   0.2378559 
2816.200002372265 91.43163   2.499063   0.2453998 
2816.400002375245 91.18235   2.456612   0.2387843 
2816.600002378225 90.0041    2.42866    0.2238124 
2816.800002381206 86.81995   2.492337   0.2209108 
2817.000002384186 79.1658    2.507583   0.2090725 
2817.200002387166 67.30977   2.508181   0.1906187 
2817.400002390146 54.66734   2.463488   0.1797089 
2817.600002393126 45.12565   2.438526   0.1710043 
2817.800002396107 41.37121   2.461993   0.1700758 
2818.000002399087 42.46606   2.541962   0.1706561 
2818.200002402067 43.47754   2.533442   0.164853  
2818.400002405047 47.00153   2.472755   0.1596302 
2818.600002408028 53.49446   2.49413    0.172281  
2818.800002411008 56.78083   2.487404   0.1997876 
2819.000002413988 58.96337   2.447494   0.2296155 
2819.200002416968 63.14105   2.452726   0.2412216 
2819.400002419949 70.55937   2.487852   0.2465605 
2819.600002422929 79.82577   2.563188   0.255033  
2819.800002425909 85.65157   2.611767   0.2525957 
2820.000002428889 87.35886   2.550482   0.2515511 
2820.20000243187 81.6855    2.453473   0.2566578 
2820.40000243485 74.39272   2.43718    0.2501584 
2820.60000243783 74.02777   2.427166   0.2488817 
2820.80000244081 76.71873   2.47156    0.2462123 
2821.00000244379 79.35143   2.489646   0.2447035 
2821.200002446771 77.56521   2.486806   0.2387843 
2821.400002449751 71.83088   2.435686   0.2335616 
2821.600002452731 67.19141   2.468869   0.2314724 
2821.800002455711 68.24412   2.49981    0.2296155 
2822.000002458692 74.14165   2.563636   0.2275264 
2822.200002461672 82.52481   2.637477   0.2394807 
2822.400002464652 90.83533   2.558105   0.2501584 
2822.600002467632 92.92014   2.526567   0.2527117 
2822.800002470613 88.6761    2.482322   0.2486496 
2823.000002473593 81.67295   2.438376   0.2369274 
2823.200002476573 71.85868   2.402801   0.2307761 
2823.400002479553 65.93513   2.487254   0.2313564 
2823.600002482533 67.35909   2.432696   0.2341419 
2823.800002485514 71.35922   2.420887   0.2319367 
2824.000002488494 71.72686   2.401456   0.2229999 
2824.200002491474 65.14694   2.37201    0.2147596 
2824.400002494454 58.50248   2.368422   0.2180093 
2824.600002497435 55.39814   2.411022   0.2235803 
2824.800002500415 52.44712   2.430902   0.2247409 
2825.000002503395 50.47082   2.469766   0.2176611 
2825.200002506375 49.30333   2.513113   0.2097689 
2825.400002509356 47.76013   2.527762   0.2073316 
2825.600002512336 49.51136   2.571558   0.2088404 
2825.800002515316 48.6066    2.543756   0.209885  
2826.000002518296 46.57201   2.511918   0.2044301 
2826.200002521276 47.17459   2.515206   0.2074477 
2826.400002524257 47.08582   2.495476   0.215688  
2826.600002527237 45.13193   2.442412   0.2181254 
2826.800002530217 44.41726   2.515804   0.2104653 
2827.000002533197 41.35955   2.55407    0.1971182 
2827.200002536178 38.05973   2.586655   0.1877172 
2827.400002539158 40.6691    2.502501   0.1872529 
2827.600002542138 47.48306   2.408033   0.198627  
2827.800002545118 52.74213   2.332996   0.2094207 
2828.000002548099 58.24064   2.352129   0.2165005 
2828.200002551079 60.95313   2.413563   0.2178932 
2828.400002554059 62.05247   2.382323   0.2278745 
2828.600002557039 62.74202   2.423877   0.2375077 
2828.800002560019 60.73344   2.400708   0.2435429 
2829.000002563 56.81042   2.398317   0.2401771 
2829.20000256598 53.65766   2.362294   0.2317046 
2829.40000256896 52.35477   2.357809   0.2202145 
2829.60000257194 50.22602   2.33479    0.224973  
2829.800002574921 49.81176   2.381127   0.2271782 
2830.000002577901 51.05636   2.367077   0.2197502 
2830.200002580881 54.94082   2.383967   0.219286  
2830.400002583861 57.06239   2.381277   0.2181254 
2830.600002586842 56.02582   2.424923   0.2152238 
2830.800002589822 55.71736   2.434789   0.2047783 
2831.000002592802 54.69782   2.441664   0.1840032 
2831.200002595782 53.06136   2.488749   0.1788965 
2831.400002598763 54.83143   2.503996   0.1894581 
2831.600002601743 55.0018    2.395925   0.2038498 
2831.800002604723 55.25556   2.366778   0.2129026 
2832.000002607703 55.29591   2.393832   0.2200984 
2832.200002610683 55.76488   2.47425    0.2311243 
2832.400002613664 59.84123   2.507882   0.2384361 
2832.600002616644 64.1579    2.488749   0.2471408 
2832.800002619624 68.71757   2.547642   0.2390165 
2833.000002622604 74.37659   2.49428    0.2297315 
2833.200002625585 77.96155   2.470962   0.2348382 
2833.400002628565 81.09369   2.51685    0.2453998 
2833.600002631545 82.7158    2.537329   0.2484175 
2833.800002634525 81.64246   2.534638   0.2401771 
2834.000002637506 76.88014   2.546746   0.2395968 
2834.200002640486 66.54131   2.549885   0.2289191 
2834.400002643466 55.99264   2.468421   0.2035016 
2834.600002646446 47.39248   2.527911   0.1866726 
2834.800002649426 44.0308    2.576491   0.1708882 
2835.000002652407 42.16568   2.568867   0.1598624 
2835.200002655387 42.32349   2.498166   0.1555681 
2835.400002658367 46.56036   2.393982   0.1744861 
2835.600002661347 51.68046   2.384565   0.2088404 
2835.800002664328 54.95697   2.317451   0.2278745 
2836.000002667308 57.29105   2.321636   0.2298476 
2836.200002670288 60.13176   2.408033   0.2313564 
2836.400002673268 67.96077   2.450932   0.2450517 
2836.600002676249 78.11309   2.492486   0.239945  
2836.800002679229 84.78536   2.544952   0.2297315 
2837.000002682209 87.94888   2.55691    0.2257854 
2837.200002685189 86.03894   2.523129   0.2159202 
2837.400002688169 83.25919   2.509526   0.204198  
2837.60000269115 78.89232   2.494728   0.1982788 
2837.80000269413 75.71086   2.487254   0.2151078 
2838.00000269711 77.6513    2.505191   0.22683   
2838.20000270009 76.33854   2.500857   0.2228839 
2838.400002703071 75.33066   2.497269   0.2187057 
2838.600002706051 76.12602   2.513861   0.2148756 
2838.800002709031 76.58961   2.544653   0.2148756 
2839.000002712011 81.86036   2.585908   0.2263657 
2839.200002714992 85.84615   2.599211   0.2392486 
2839.400002717972 82.76422   2.634786   0.2373916 
2839.600002720952 78.12474   2.598015   0.2372755 
2839.800002723932 82.25401   2.571708   0.251319  
2840.000002726912 93.20528   2.523129   0.2631573 
2840.200002729893 99.72153   2.568569   0.2618806 
2840.400002732873 101.3042   2.557956   0.2556133 
2840.600002735853 99.34043   2.487254   0.2535242 
2840.800002738833 98.17205   2.523427   0.2580506 
2841.000002741814 97.05567   2.414311   0.2694246 
2841.200002744794 94.61488   2.426269   0.2676837 
2841.400002747774 92.10594   2.421784   0.255149  
2841.600002750754 82.29435   2.476941   0.2351864 
2841.800002753735 69.78822   2.470962   0.2134829 
2842.000002756715 60.13894   2.503099   0.1980467 
2842.200002759695 54.82694   2.528808   0.179825  
2842.400002762675 57.4121    2.472456   0.1772716 
2842.600002765656 61.40237   2.473353   0.1860923 
2842.800002768636 60.23757   2.473054   0.1938685 
2843.000002771616 57.10543   2.448839   0.1979306 
2843.200002774596 57.25877   2.432696   0.2046622 
2843.400002777576 58.79031   2.456463   0.2153399 
2843.600002780557 57.91962   2.49413    0.223116  
2843.800002783537 54.2405    2.493084   0.2228839 
2844.000002786517 47.72515   2.489347   0.211742  
2844.200002789497 42.267     2.494429   0.2000197 
2844.400002792478 43.61114   2.512815   0.1942166 
2844.600002795458 47.52967   2.552276   0.1905027 
2844.800002798438 50.94607   2.47156    0.1968861 
2845.000002801418 54.22167   2.534937   0.2039658 
2845.200002804399 56.13252   2.532246   0.1973503 
2845.400002807379 54.14904   2.548091   0.1909669 
2845.600002810359 48.94197   2.561992   0.1899224 
2845.800002813339 43.48381   2.629554   0.1899224 
2846.000002816319 40.20372   2.648538   0.1860923 
2846.2000028193 39.70426   2.621333   0.1794768 
2846.40000282228 40.75159   2.623725   0.1800571 
