~Version
 VERS              .         2.0                           : CWLS LOG ASCII STANDARD - VERSION 2.0
 WRAP              .         NO                            : ONE LINE PER DEPTH STEP
 DLM               .         SPACE                         : DELIMITING CHARACTER(SPACE TAB OR COMMA)
~Well Information
#_______________________________________________________________________________
#
#PARAMETER_NAME    .UNIT     VALUE                         : DESCRIPTION
#_______________________________________________________________________________
STRT               .m        2657                          : First reference value
STOP               .m        2989.80000495911              : Last reference value
STEP               .m        0.2                           : Step increment
NULL               .         -9999                         : Missing value
COMP               .                                       : Company
WELL               .         604                           : Well name
FLD                .                                       : Field
LOC                .                                       : Location
CNTY               .                                       : County
STAT               .                                       : State
CTRY               .                                       : Country
SRVC               .                                       : Service Company
DATE               .                                       : Date
API                .                                       : API number
Cartographic_reference_system .         GCS_WGS_1984                  : GEOGCS["GCS_WGS_1984",DATUM["D_WGS_1984",SPHEROID["WGS_1984",6378137.0,298.257223563]],PRIMEM["Greenwich",0.0],UNIT["Degree",0.0174532925199433],AUTHORITY["EPSG",4326]]
EREF               .m        134                           : 
HZCS               .GCS_WGS_1984 World_Mercator                : PROJCS["World_Mercator",GEOGCS["GCS_WGS_1984",DATUM["D_WGS_1984",SPHEROID["WGS_1984",6378137.0,298.257223563]],PRIMEM["Greenwich",0.0],UNIT["Degree",0.0174532925199433]],PROJECTION["Mercator"],PARAMETER["False_Easting",0.0],PARAMETER["False_Northing",0.0],PARAMETER["Central_Meridian",0.0],PARAMETER["Standard_Parallel_1",0.0],UNIT["Meter",1.0],AUTHORITY["ESRI",54004]]
LATI               .dega     2.1305856004                  : GCS_WGS_1984
LONG               .dega     2.0279108213                  : GCS_WGS_1984
PROJECT_UPGRADE_TIME .         2014-05-27T11_38_46           : 
Pad                .         Pad6                          : 
X                  .m        225746                        : 
Y                  .m        235643                        : 
group              .         Pad6                          : 
Интер-р            .         Пузин                         : 
Куст               .         6                             : 
Статус             .         Не проверено                  : 
Тип                .         Нагнетательные                : 
~Parameter Information Block
#_______________________________________________________________________________
#
#PARAMETER_NAME    .UNIT     VALUE                         : DESCRIPTION
#_______________________________________________________________________________
SET                .         LQC                           : 
PROJECT_UPGRADE_TIME .         2014-05-27T11_38_46           : 
TLFamily_GR_NORM   .         Gamma Ray                     : 
TLFamily_MD        .         Measured Depth                : 
TLFamily_RHOB_NORM .         Bulk Density                  : 
TLFamily_TNPH_NORM .         Neutron Porosity              : 
~Curve Information
#_______________________________________________________________________________
#
#LOGNAME           .UNIT     LOG_ID                        : DESCRIPTION
#_______________________________________________________________________________
MD                 .m                                      :  
GR_NORM            .gAPI                                   : Normalised By Techlog 
RHOB_NORM          .g/cm3                                  : Normalized By Techlog 
TNPH_NORM          .v/v                                    : Normalised By Techlog 
~Ascii
# ...
2973.000004708767 86.82623   2.623725   0.2559615 
2973.200004711747 83.60084   2.640018   0.2594433 
2973.400004714727 78.75781   2.644053   0.2582827 
2973.600004717708 73.00285   2.695772   0.2572381 
2973.800004720688 70.29395   2.636878   0.2690764 
2974.000004723668 71.21216   2.642858   0.2749956 
2974.200004726648 70.72974   2.591289   0.2712816 
2974.400004729629 71.38253   2.521335   0.2726744 
2974.600004732609 74.07619   2.565429   0.2658267 
2974.800004735589 76.81557   2.567672   0.2677998 
2975.000004738569 78.84838   2.561842   0.2748795 
2975.200004741549 82.13026   2.575145   0.2753438 
2975.40000474453 84.6114    2.566028   0.2816111 
2975.60000474751 84.41055   2.543607   0.275692  
2975.80000475049 80.63368   2.555415   0.2789417 
2976.00000475347 78.07722   2.572903   0.2848608 
2976.200004756451 75.92606   2.539421   0.2631573 
2976.400004759431 72.25322   2.535684   0.2450517 
2976.600004762411 74.16855   2.590691   0.2495781 
2976.800004765391 81.27572   2.544055   0.2681479 
2977.000004768372 84.5567    2.511918   0.2882266 
2977.200004771352 86.9948    2.502501   0.3019219 
2977.400004774332 85.31261   2.45138    0.3013416 
2977.600004777312 79.94054   2.46857    0.2839324 
2977.800004780293 74.19456   2.449138   0.2648982 
2978.000004783273 69.0332    2.396971   0.2428465 
2978.200004786253 69.12736   2.347496   0.2387843 
2978.400004789233 74.46356   2.29772    0.2413377 
2978.600004792213 85.24088   2.251533   0.2448196 
2978.800004795194 93.22411   2.310725   0.2635055 
2979.000004798174 98.71365   2.542261   0.2881106 
2979.200004801154 100.6971   2.634936   0.29078   
2979.400004804134 99.31622   2.639719   0.2709334 
2979.600004807115 95.76085   2.571708   0.2631573 
2979.800004810095 91.25408   2.563038   0.2585149 
2980.000004813075 86.8621    2.523726   0.2500423 
2980.200004816055 84.61589   2.566177   0.2434268 
2980.400004819036 80.29742   2.631647   0.243775  
2980.600004822016 73.42429   2.562291   0.2556133 
2980.800004824996 64.90485   2.562889   0.2590951 
2981.000004827976 61.00603   2.557209   0.2578185 
2981.200004830956 61.01141   2.530901   0.2516672 
2981.400004833937 61.0966    2.519989   0.2348382 
2981.600004836917 64.28522   2.470962   0.2318206 
2981.800004839897 66.57627   2.444206   0.2359989 
2982.000004842877 64.25294   2.433593   0.2296155 
2982.200004845858 59.00283   2.537926   0.2272942 
2982.400004848838 56.23206   2.64779    0.230544  
2982.600004851818 55.17486   2.692483   0.2284548 
2982.800004854798 52.5341    2.685608   0.2226518 
2983.000004857779 56.58356   2.600556   0.2301958 
2983.200004860759 70.93508   2.460947   0.2423822 
2983.400004863739 83.89405   2.495924   0.2594433 
2983.600004866719 84.03931   2.485012   0.273951  
2983.800004869699 75.92068   2.423877   0.2582827 
2984.00000487268 65.44375   2.431052   0.230544  
2984.20000487566 57.84072   2.416254   0.2161523 
2984.40000487864 56.58445   2.385313   0.2070995 
2984.60000488162 52.37988   2.422083   0.198627  
2984.800004884601 45.18035   2.494579   0.1979306 
2985.000004887581 40.08177   2.515804   0.1944488 
2985.200004890561 35.9292    2.491141   0.19677   
2985.400004893541 33.2732    2.455117   0.204198  
2985.600004896522 35.31138   2.470214   0.2047783 
2985.800004899502 38.15926   2.46005    0.1931721 
2986.000004902482 40.48349   2.486059   0.1895742 
2986.200004905462 44.89879   2.526716   0.1973503 
2986.400004908442 52.36552   2.517      0.2089565 
2986.600004911423 58.99924   2.413563   0.2163844 
2986.800004914403 62.3161    2.410723   0.223116  
2987.000004917383 66.66056   2.437629   0.2296155 
2987.200004920363 68.84579   2.49981    0.2377398 
2987.400004923344 69.18206   2.541215   0.2412216 
2987.600004926324 74.56489   2.575444   0.255149  
2987.800004929304 81.89084   2.472905   0.2517833 
2988.000004932284 86.08915   2.590093   0.2365792 
2988.200004935265 88.71914   2.606834   0.2344901 
2988.400004938245 91.19759   2.529406   0.2440071 
2988.600004941225 94.23199   2.498764   0.255149  
2988.800004944205 97.97478   2.517299   0.2633894 
2989.000004947186 98.08597   2.488301   0.2628091 
2989.200004950166 95.27484   2.43718    0.2525957 
2989.400004953146 94.61219   2.4886     0.2385522 
2989.600004956126 97.04311   2.583666   0.2257854 
2989.800004959106 100.0766   2.609824   0.219286  
