~Version
 VERS              .         2.0                           : CWLS LOG ASCII STANDARD - VERSION 2.0
 WRAP              .         NO                            : ONE LINE PER DEPTH STEP
 DLM               .         SPACE                         : DELIMITING CHARACTER(SPACE TAB OR COMMA)
~Well Information
#_______________________________________________________________________________
#
#PARAMETER_NAME    .UNIT     VALUE                         : DESCRIPTION
#_______________________________________________________________________________
STRT               .m        2657                          : First reference value
STOP               .m        2989.80000495911              : Last reference value
STEP               .m        0.2                           : Step increment
NULL               .         -9999                         : Missing value
COMP               .                                       : Company
WELL               .         604                           : Well name
FLD                .                                       : Field
LOC                .                                       : Location
CNTY               .                                       : County
STAT               .                                       : State
CTRY               .                                       : Country
SRVC               .                                       : Service Company
DATE               .                                       : Date
API                .                                       : API number
Cartographic_reference_system .         GCS_WGS_1984                  : GEOGCS["GCS_WGS_1984",DATUM["D_WGS_1984",SPHEROID["WGS_1984",6378137.0,298.257223563]],PRIMEM["Greenwich",0.0],UNIT["Degree",0.0174532925199433],AUTHORITY["EPSG",4326]]
EREF               .m        134                           : 
HZCS               .GCS_WGS_1984 World_Mercator                : PROJCS["World_Mercator",GEOGCS["GCS_WGS_1984",DATUM["D_WGS_1984",SPHEROID["WGS_1984",6378137.0,298.257223563]],PRIMEM["Greenwich",0.0],UNIT["Degree",0.0174532925199433]],PROJECTION["Mercator"],PARAMETER["False_Easting",0.0],PARAMETER["False_Northing",0.0],PARAMETER["Central_Meridian",0.0],PARAMETER["Standard_Parallel_1",0.0],UNIT["Meter",1.0],AUTHORITY["ESRI",54004]]
LATI               .dega     2.1305856004                  : GCS_WGS_1984
LONG               .dega     2.0279108213                  : GCS_WGS_1984
PROJECT_UPGRADE_TIME .         2014-05-27T11_38_46           : 
Pad                .         Pad6                          : 
X                  .m        225746                        : 
Y                  .m        235643                        : 
group              .         Pad6                          : 
Интер-р            .         Пузин                         : 
Куст               .         6                             : 
Статус             .         Не проверено                  : 
Тип                .         Нагнетательные                : 
~Parameter Information Block
#_______________________________________________________________________________
#
#PARAMETER_NAME    .UNIT     VALUE                         : DESCRIPTION
#_______________________________________________________________________________
SET                .         LQC                           : 
PROJECT_UPGRADE_TIME .         2014-05-27T11_38_46           : 
TLFamily_GR_NORM   .         Gamma Ray                     : 
TLFamily_MD        .         Measured Depth                : 
TLFamily_RHOB_NORM .         Bulk Density                  : 
TLFamily_TNPH_NORM .         Neutron Porosity              : 
~Curve Information
#_______________________________________________________________________________
#
#LOGNAME           .UNIT     LOG_ID                        : DESCRIPTION
#_______________________________________________________________________________
MD                 .m                                      :  
GR_NORM            .gAPI                                   : Normalised By Techlog 
RHOB_NORM          .g/cm3                                  : Normalized By Techlog 
TNPH_NORM          .v/v                                    : Normalised By Techlog 
~Ascii
# ...
2846.60000282526 40.28801   2.639719   0.1829586 
2846.80000282824 41.00984   2.619539   0.1849317 
2847.000002831221 42.81847   2.583367   0.1856281 
2847.200002834201 45.36775   2.593082   0.1965379 
2847.400002837181 49.13206   2.505191   0.2028052 
2847.600002840161 51.54416   2.466627   0.1990912 
2847.800002843142 52.54845   2.409079   0.2002519 
2848.000002846122 51.54954   2.407734   0.2062871 
2848.200002849102 52.26958   2.446298   0.2217233 
2848.400002852082 56.57459   2.424923   0.2291512 
2848.600002855062 64.04671   2.477538   0.2284548 
2848.800002858043 75.89019   2.529556   0.2401771 
2849.000002861023 87.23422   2.549585   0.2441232 
2849.200002864003 97.07898   2.560796   0.2392486 
2849.400002866983 101.783    2.549885   0.2327491 
2849.600002869964 100.5142   2.548091   0.2281067 
2849.800002872944 99.35478   2.527911   0.2217233 
2850.000002875924 98.84636   2.50848    0.219402  
2850.200002878904 100.5886   2.530901   0.2190538 
2850.400002881885 98.71006   2.518046   0.2246248 
2850.600002884865 94.34498   2.597866   0.2310082 
2850.800002887845 95.26229   2.62238    0.2377398 
2851.000002890825 98.85981   2.611169   0.2424983 
2851.200002893806 102.4735   2.566177   0.2571221 
2851.400002896786 103.8104   2.526716   0.273951  
2851.600002899766 103.2518   2.490095   0.2898515 
2851.800002902746 103.7217   2.499511   0.2899676 
2852.000002905726 105.6397   2.464235   0.2801023 
2852.200002908707 108.77     2.427913   0.2631573 
2852.400002911687 111.3991   2.43733    0.2659428 
2852.600002914667 113.3494   2.466029   0.2864857 
2852.800002917647 117.632    2.447942   0.3067965 
2853.000002920628 118.3592   2.458555   0.3182866 
2853.200002923608 117.3397   2.483368   0.3261788 
2853.400002926588 115.0576   2.523278   0.3262949 
2853.600002929568 111.0978   2.539421   0.315269  
2853.800002932549 107.3506   2.55392    0.3059841 
2854.000002935529 106.0513   2.516103   0.307725  
2854.200002938509 105.2738   2.486806   0.2971634 
2854.400002941489 103.2814   2.518046   0.29078   
2854.600002944469 99.00956   2.480528   0.2835842 
2854.80000294745 94.69648   2.488301   0.2804505 
2855.00000295043 95.16544   2.524922   0.2845127 
2855.20000295341 95.73305   2.595922   0.2792899 
2855.40000295639 96.75797   2.609973   0.2860215 
2855.600002959371 96.09711   2.513113   0.2982079 
2855.800002962351 97.14803   2.459452   0.3050556 
2856.000002965331 100.1797   2.53703    0.296351  
2856.200002968311 102.0099   2.541364   0.2900836 
2856.400002971292 102.9846   2.51416    0.2917085 
2856.600002974272 99.60317   2.571708   0.2982079 
2856.800002977252 97.19286   2.60803    0.2957707 
2857.000002980232 94.59963   2.557209   0.2924049 
2857.200002983212 91.42715   2.553472   0.2905479 
2857.400002986193 90.91693   2.570213   0.2895033 
2857.600002989173 92.04407   2.541663   0.287066  
2857.800002992153 92.03241   2.45153    0.2785935 
2858.000002995133 91.96426   2.492337   0.2773168 
2858.200002998114 89.2706    2.486059   0.2761562 
2858.400003001094 89.4087    2.557059   0.2698889 
2858.600003004074 92.97393   2.598165   0.270121  
2858.800003007054 95.57972   2.552575   0.2713977 
2859.000003010035 99.39603   2.556013   0.2749956 
2859.200003013015 105.6173   2.498166   0.2708174 
2859.400003015995 111.8277   2.460498   0.2712816 
2859.600003018975 119.2407   2.451082   0.2899676 
2859.800003021955 125.8053   2.40893    0.2985561 
2860.000003024936 131.1972   2.437031   0.3008774 
2860.200003027916 135.8662   2.516253   0.3029665 
2860.400003030896 136.8884   2.546746   0.3103944 
2860.600003033876 137.2399   2.516551   0.3187509 
2860.800003036857 141.5414   2.489048   0.318983  
2861.000003039837 145.3523   2.489945   0.3006452 
2861.200003042817 143.7643   2.517      0.2885748 
2861.400003045797 136.6329   2.509377   0.2918245 
2861.600003048778 133.9733   2.460797   0.3048235 
2861.800003051758 132.6498   2.480827   0.3064483 
2862.000003054738 129.9328   2.462292   0.2847448 
2862.200003057718 123.4838   2.486657   0.2703531 
2862.400003060699 115.3401   2.544204   0.2729065 
2862.600003063679 111.5614   2.588449   0.2744153 
2862.800003066659 108.0885   2.607283   0.2694246 
2863.000003069639 107.8428   2.550931   0.2733707 
2863.200003072619 109.1054   2.521036   0.2691925 
2863.4000030756 110.4522   2.557209   0.2621127 
2863.60000307858 112.4868   2.515804   0.2703531 
2863.80000308156 118.535    2.518943   0.2751116 
2864.00000308454 129.7311   2.505191   0.2821914 
2864.200003087521 144.1489   2.461694   0.3007613 
2864.400003090501 160.2678   2.388751   0.322813  
2864.600003093481 175.8774   2.353923   0.3182866 
2864.800003096461 180.0157   2.348841   0.3091178 
2865.000003099442 173.7307   2.417898   0.3135281 
2865.200003102422 165.57     2.428361   0.3225809 
2865.400003105402 167.1006   2.483219   0.3274555 
2865.600003108382 178.1129   2.449736   0.330241  
2865.800003111362 187.3317   2.392488   0.3269913 
2866.000003114343 192.3855   2.340171   0.3232773 
2866.200003117323 194.6685   2.340919   0.3237415 
2866.400003120303 193.0195   2.379931   0.3259467 
2866.600003123283 184.8112   2.382921   0.3307052 
2866.800003126264 179.4866   2.394281   0.3375529 
2867.000003129244 180.4371   2.373803   0.3259467 
2867.200003132224 180.1501   2.359752   0.3192151 
2867.400003135204 180.6756   2.35467    0.3231612 
2867.600003138185 185.5411   2.307586   0.3329104 
2867.800003141165 197.3774   2.331651   0.3333746 
2868.000003144145 204.5581   2.318199   0.3278037 
2868.200003147125 208.3555   2.310127   0.3237415 
2868.400003150105 212.6274   2.354222   0.3213042 
2868.600003153086 222.933    2.305344   0.3294286 
2868.800003156066 231.4202   2.274253   0.3373207 
2869.000003159046 233.609    2.291293   0.3570513 
2869.200003162026 231.6874   2.311921   0.3720232 
2869.400003165007 227.9841   2.358108   0.3456772 
2869.600003167987 220.998    2.374999   0.3177063 
2869.800003170967 212.8408   2.389797   0.2986722 
2870.000003173947 209.6557   2.350784   0.2973955 
2870.200003176928 203.8237   2.360051   0.307725  
2870.400003179908 192.181    2.373504   0.3218845 
2870.600003182888 181.3903   2.390843   0.3207239 
2870.800003185868 173.4949   2.451082   0.3124835 
2871.000003188848 173.0251   2.49981    0.3233933 
2871.200003191829 177.5749   2.399214   0.3442844 
2871.400003194809 178.9603   2.350485   0.3416151 
2871.600003197789 183.5181   2.348841   0.3312855 
2871.800003200769 199.872    2.355866   0.3315177 
2872.00000320375 218.6397   2.332249   0.3367404 
2872.20000320673 233.7166   2.355717   0.349159  
2872.40000320971 244.971    2.339274   0.3808439 
2872.60000321269 260.282    2.282324   0.4033599 
2872.800003215671 279.4783   2.279933   0.3814242 
2873.000003218651 308.9579   2.253775   0.3732999 
2873.200003221631 346.0863   2.240621   0.3824688 
2873.400003224611 380.685    2.211025   0.3814242 
2873.600003227592 405.0446   2.270516   0.3811921 
2873.800003230572 402.1393   2.317899   0.371559  
2874.000003233552 376.2733   2.29772    0.3529891 
2874.200003236532 344.5189   2.253625   0.3551942 
2874.400003239512 322.0684   2.217303   0.3496233 
2874.600003242493 318.7309   2.165286   0.3486948 
2874.800003245473 315.085    2.158709   0.3670326 
2875.000003248453 313.0988   2.179636   0.3649434 
2875.200003251433 313.1454   2.1753     0.358444  
2875.400003254414 311.6372   2.185315   0.3762014 
2875.600003257394 310.9889   2.23793    0.3888521 
2875.800003260374 313.4898   2.231652   0.3765496 
2876.000003263354 312.8011   2.213417   0.3799154 
2876.200003266335 309.4107   2.215808   0.377362  
2876.400003269315 305.5666   2.242116   0.3822366 
2876.600003272295 298.9616   2.281428   0.3879236 
2876.800003275275 283.1852   2.264836   0.3780584 
2877.000003278255 266.8538   2.262444   0.3779423 
2877.200003281236 262.1597   2.251682   0.3902449 
2877.400003284216 265.6272   2.271114   0.4048687 
2877.600003287196 266.2781   2.291443   0.4019671 
2877.800003290176 264.4848   2.28068    0.3779423 
2878.000003293157 266.6288   2.237781   0.362274  
