~Version
 VERS              .         2.0                           : CWLS LOG ASCII STANDARD - VERSION 2.0
 WRAP              .         NO                            : ONE LINE PER DEPTH STEP
 DLM               .         SPACE                         : DELIMITING CHARACTER(SPACE TAB OR COMMA)
~Well Information
#_______________________________________________________________________________
#
#PARAMETER_NAME    .UNIT     VALUE                         : DESCRIPTION
#_______________________________________________________________________________
STRT               .m        2657                          : First reference value
STOP               .m        2989.80000495911              : Last reference value
STEP               .m        0.2                           : Step increment
NULL               .         -9999                         : Missing value
COMP               .                                       : Company
WELL               .         604                           : Well name
FLD                .                                       : Field
LOC                .                                       : Location
CNTY               .                                       : County
STAT               .                                       : State
CTRY               .                                       : Country
SRVC               .                                       : Service Company
DATE               .                                       : Date
API                .                                       : API number
Cartographic_reference_system .         GCS_WGS_1984                  : GEOGCS["GCS_WGS_1984",DATUM["D_WGS_1984",SPHEROID["WGS_1984",6378137.0,298.257223563]],PRIMEM["Greenwich",0.0],UNIT["Degree",0.0174532925199433],AUTHORITY["EPSG",4326]]
EREF               .m        134                           : 
HZCS               .GCS_WGS_1984 World_Mercator                : PROJCS["World_Mercator",GEOGCS["GCS_WGS_1984",DATUM["D_WGS_1984",SPHEROID["WGS_1984",6378137.0,298.257223563]],PRIMEM["Greenwich",0.0],UNIT["Degree",0.0174532925199433]],PROJECTION["Mercator"],PARAMETER["False_Easting",0.0],PARAMETER["False_Northing",0.0],PARAMETER["Central_Meridian",0.0],PARAMETER["Standard_Parallel_1",0.0],UNIT["Meter",1.0],AUTHORITY["ESRI",54004]]
LATI               .dega     2.1305856004                  : GCS_WGS_1984
LONG               .dega     2.0279108213                  : GCS_WGS_1984
PROJECT_UPGRADE_TIME .         2014-05-27T11_38_46           : 
Pad                .         Pad6                          : 
X                  .m        225746                        : 
Y                  .m        235643                        : 
group              .         Pad6                          : 
Интер-р            .         Пузин                         : 
Куст               .         6                             : 
Статус             .         Не проверено                  : 
Тип                .         Нагнетательные                : 
~Parameter Information Block
#_______________________________________________________________________________
#
#PARAMETER_NAME    .UNIT     VALUE                         : DESCRIPTION
#_______________________________________________________________________________
SET                .         LQC                           : 
PROJECT_UPGRADE_TIME .         2014-05-27T11_38_46           : 
TLFamily_GR_NORM   .         Gamma Ray                     : 
TLFamily_MD        .         Measured Depth                : 
TLFamily_RHOB_NORM .         Bulk Density                  : 
TLFamily_TNPH_NORM .         Neutron Porosity              : 
~Curve Information
#_______________________________________________________________________________
#
#LOGNAME           .UNIT     LOG_ID                        : DESCRIPTION
#_______________________________________________________________________________
MD                 .m                                      :  
GR_NORM            .gAPI                                   : Normalised By Techlog 
RHOB_NORM          .g/cm3                                  : Normalized By Techlog 
TNPH_NORM          .v/v                                    : Normalised By Techlog 
~Ascii
# ...
2909.800003767014 113.0634   2.472456   0.3051716 
2910.000003769994 110.2451   2.504743   0.2997168 
2910.200003772974 110.7248   2.47156    0.3037789 
2910.400003775954 112.9872   2.453623   0.3187509 
2910.600003778934 114.3564   2.475446   0.3202597 
2910.800003781915 113.3369   2.43449    0.3216524 
2911.000003784895 112.9235   2.45138    0.3233933 
2911.200003787875 112.9298   2.482621   0.3184027 
2911.400003790855 112.7173   2.455117   0.3047074 
2911.600003793836 114.6685   2.414909   0.2986722 
2911.800003796816 118.8165   2.391591   0.3163136 
2912.000003799796 123.5206   2.450484   0.3381332 
2912.200003802776 126.2384   2.438675   0.3463736 
2912.400003805757 127.4418   2.458555   0.3420793 
2912.600003808737 128.2273   2.467075   0.3445166 
2912.800003811717 130.1956   2.46289    0.3540336 
2913.000003814697 132.8883   2.452277   0.3505518 
2913.200003817677 132.5718   2.503547   0.3419632 
2913.400003820658 130.2691   2.448241   0.3362762 
2913.600003823638 126.6599   2.409677   0.3329104 
2913.800003826618 124.0111   2.403698   0.3331425 
2914.000003829598 124.1474   2.431052   0.3231612 
2914.200003832579 120.2629   2.407435   0.3035468 
2914.400003835559 120.6117   2.432846   0.3042431 
2914.600003838539 120.3024   2.490543   0.2950743 
2914.800003841519 117.3854   2.497419   0.2992525 
2915.0000038445 115.9785   2.472307   0.3084214 
2915.20000384748 112.3729   2.463189   0.2943779 
2915.40000385046 109.6784   2.47156    0.2835842 
2915.60000385344 108.6068   2.432846   0.3042431 
2915.800003856421 106.3149   2.481724   0.3130639 
2916.000003859401 106.5104   2.555265   0.3103944 
2916.200003862381 109.5035   2.525968   0.2876463 
2916.400003865361 110.4433   2.56812    0.2799863 
2916.600003868341 108.9099   2.429856   0.2854412 
2916.800003871322 110.4558   2.455715   0.2892712 
2917.000003874302 112.442    2.45706    0.2796381 
2917.200003877282 114.3456   2.422681   0.2849769 
2917.400003880262 115.1105   2.452128   0.2921727 
2917.600003883243 115.5087   2.438077   0.2953064 
2917.800003886223 115.6432   2.40011    0.2881106 
2918.000003889203 114.8595   2.373653   0.2697728 
2918.200003892183 110.9866   2.427614   0.2734868 
2918.400003895164 106.5319   2.485012   0.2812629 
2918.600003898144 98.05009   2.54824    0.2638537 
2918.800003901124 82.44051   2.724321   0.2339098 
2919.000003904104 66.18353   2.801899   0.2165005 
2919.200003907084 63.6163    2.6877     0.2171969 
2919.400003910065 78.65649   2.566925   0.2395968 
2919.600003913045 99.54757   2.472307   0.2828878 
2919.800003916025 116.5165   2.432098   0.3185187 
2920.000003919005 125.5193   2.40026    0.3336068 
2920.200003921986 126.8061   2.360799   0.3387135 
2920.400003924966 124.0909   2.359752   0.3352316 
2920.600003927946 121.1399   2.340321   0.3381332 
2920.800003930926 117.8006   2.385462   0.3363923 
2921.000003933907 116.2897   2.393085   0.3240897 
2921.200003936887 117.3639   2.404744   0.3139923 
2921.400003939867 121.8133   2.423279   0.3127156 
2921.600003942847 125.3167   2.420588   0.3336068 
2921.800003945827 123.3879   2.387256   0.3387135 
2922.000003948808 120.4127   2.392936   0.3225809 
2922.200003951788 120.5301   2.415058   0.3174742 
2922.400003954768 122.7736   2.454669   0.3108587 
2922.600003957748 122.8328   2.448391   0.3214203 
2922.800003960729 121.3138   2.458854   0.3391777 
2923.000003963709 119.7401   2.445252   0.343472  
2923.200003966689 118.222    2.438675   0.3500875 
2923.400003969669 119.5366   2.438675   0.3495072 
2923.60000397265 120.3481   2.470364   0.3519445 
2923.80000397563 119.7814   2.475446   0.3539176 
2924.00000397861 116.5407   2.498914   0.3543818 
2924.20000398159 113.8928   2.449437   0.3356959 
2924.400003984571 113.6382   2.425372   0.3062162 
2924.600003987551 114.5582   2.437479   0.2928691 
2924.800003990531 114.3591   2.500408   0.2999488 
2925.000003993511 119.4729   2.533891   0.3107426 
2925.200003996491 122.84     2.514608   0.2730225 
2925.400003999472 125.3095   2.566925   0.2326331 
2925.600004002452 123.3287   2.502052   0.2050104 
2925.800004005432 113.3351   2.444355   0.1820302 
2926.000004008412 97.02876   2.438675   0.1678706 
2926.200004011393 76.44524   2.458555   0.1574251 
2926.400004014373 60.41332   2.549735   0.151622  
2926.600004017353 55.81689   2.596371   0.1489526 
2926.800004020333 57.53046   2.66513    0.1436137 
2927.000004023314 58.76969   2.62507    0.1412925 
2927.200004026294 58.97234   2.621034   0.1437298 
2927.400004029274 60.30393   2.560946   0.1502293 
2927.600004032254 62.76265   2.509975   0.1639245 
2927.800004035234 63.08008   2.474549   0.1820302 
2928.000004038215 61.38086   2.460648   0.1880654 
2928.200004041195 59.9847    2.506686   0.1887617 
2928.400004044175 58.99027   2.530901   0.1902705 
2928.600004047155 60.90291   2.566327   0.1844674 
2928.800004050136 63.45579   2.561992   0.1782001 
2929.000004053116 63.21458   2.585609   0.1751825 
2929.200004056096 63.45399   2.521185   0.1750665 
2929.400004059076 63.44682   2.487852   0.1717007 
2929.600004062057 62.97427   2.498166   0.1696116 
2929.800004065037 61.74221   2.549286   0.1689152 
2930.000004068017 56.71358   2.614308   0.1674064 
2930.200004070997 51.71094   2.631498   0.1672903 
2930.400004073977 49.90143   2.60803    0.1674064 
2930.600004076958 51.66432   2.62522    0.1734416 
2930.800004079938 58.53655   2.58247    0.1905027 
2931.000004082918 66.12524   2.44854    0.2029213 
2931.200004085898 66.05978   2.405193   0.1959576 
2931.400004088879 59.76322   2.494728   0.1961897 
2931.600004091859 53.67201   2.476492   0.2032695 
2931.800004094839 48.42905   2.468869   0.1964218 
2932.000004097819 46.21244   2.425372   0.1885296 
2932.2000041008 44.24151   2.446149   0.1893421 
2932.40000410378 44.11867   2.491888   0.1956094 
2932.60000410676 46.01786   2.490393   0.1975824 
2932.80000410974 47.87849   2.47425    0.1953772 
2933.00000411272 49.66649   2.451082   0.1916633 
2933.200004115701 51.21687   2.497568   0.193056  
2933.400004118681 51.02946   2.493831   0.1916633 
2933.600004121661 49.13475   2.422233   0.1838872 
2933.800004124641 49.20829   2.435686   0.1891099 
2934.000004127622 52.03106   2.429408   0.2006    
2934.200004130602 54.66823   2.466776   0.1963058 
2934.400004133582 52.43816   2.464235   0.1889939 
2934.600004136562 51.34779   2.503547   0.1833068 
2934.800004139543 52.01133   2.506238   0.1771556 
2935.000004142523 51.81227   2.572604   0.1697276 
2935.200004145503 50.28879   2.560497   0.1612551 
2935.400004148483 46.38281   2.543607   0.1499971 
2935.600004151464 44.04963   2.588299   0.147792  
2935.800004154444 44.94362   2.576192   0.1513899 
2936.000004157424 46.00082   2.570064   0.1480241 
2936.200004160404 45.16959   2.566626   0.1437298 
2936.400004163384 44.25228   2.561992   0.1436137 
2936.600004166365 40.16337   2.572006   0.1439619 
2936.800004169345 36.14351   2.634637   0.1468635 
2937.000004172325 35.55079   2.657058   0.1596302 
2937.200004175305 34.39675   2.605638   0.1764592 
2937.400004178286 32.56661   2.647641   0.1807535 
2937.600004181266 31.13011   2.655414   0.1737898 
2937.800004184246 32.24739   2.739568   0.1602106 
2938.000004187226 34.15195   2.693081   0.1428013 
2938.200004190207 32.1622    2.674845   0.1235351 
2938.400004193187 29.35915   2.717446   0.09788541
2938.600004196167 27.02417   2.7161     0.08036009
2938.800004199147 24.42825   2.723424   0.07014666
2939.000004202127 20.80921   2.739867   0.06666481
2939.200004205108 16.11952   2.727759   0.07130728
2939.400004208088 12.02882   2.765876   0.0833777 
2939.600004211068 12.82508   2.743753   0.09347507
2939.800004214048 17.08794   2.725219   0.1012512 
2940.000004217029 22.59183   2.61371    0.1187765 
2940.200004220009 27.44023   2.584861   0.1426852 
2940.400004222989 30.46387   2.542261   0.1443101 
2940.600004225969 32.73249   2.475595   0.1226066 
2940.80000422895 32.99253   2.459751   0.1072864 
2941.00000423193 29.51069   2.515206   0.108331  
2941.20000423491 23.88934   2.562739   0.1288739 
