~Version
 VERS              .         2.0                           : CWLS LOG ASCII STANDARD - VERSION 2.0
 WRAP              .         NO                            : ONE LINE PER DEPTH STEP
 DLM               .         SPACE                         : DELIMITING CHARACTER(SPACE TAB OR COMMA)
~Well Information
#_______________________________________________________________________________
#
#PARAMETER_NAME    .UNIT     VALUE                         : DESCRIPTION
#_______________________________________________________________________________
STRT               .m        2511                          : First reference value
STOP               .m        2676.80000247061              : Last reference value
STEP               .m        0.2                           : Step increment
NULL               .         -9999                         : Missing value
COMP               .                                       : Company
WELL               .         605                           : Well name
FLD                .                                       : Field
LOC                .                                       : Location
CNTY               .                                       : County
STAT               .                                       : State
CTRY               .                                       : Country
SRVC               .                                       : Service Company
DATE               .                                       : Date
API                .                                       : API number
Cartographic_reference_system .         GCS_WGS_1984                  : GEOGCS["GCS_WGS_1984",DATUM["D_WGS_1984",SPHEROID["WGS_1984",6378137.0,298.257223563]],PRIMEM["Greenwich",0.0],UNIT["Degree",0.0174532925199433],AUTHORITY["EPSG",4326]]
EREF               .m        134                           : 
HZCS               .GCS_WGS_1984 World_Mercator                : PROJCS["World_Mercator",GEOGCS["GCS_WGS_1984",DATUM["D_WGS_1984",SPHEROID["WGS_1984",6378137.0,298.257223563]],PRIMEM["Greenwich",0.0],UNIT["Degree",0.0174532925199433]],PROJECTION["Mercator"],PARAMETER["False_Easting",0.0],PARAMETER["False_Northing",0.0],PARAMETER["Central_Meridian",0.0],PARAMETER["Standard_Parallel_1",0.0],UNIT["Meter",1.0],AUTHORITY["ESRI",54004]]
LATI               .dega     2.1305856004                  : GCS_WGS_1984
LONG               .dega     2.0279108213                  : GCS_WGS_1984
PROJECT_UPGRADE_TIME .         2014-05-27T11_38_46           : 
Pad                .         Pad6                          : 
X                  .m        225746                        : 
Y                  .m        235643                        : 
group              .         Pad6                          : 
Интер-р            .         Пузин                         : 
Куст               .         6                             : 
Статус             .         Не проверено                  : 
Тип                .         Эксплуатация                  : 
~Parameter Information Block
#_______________________________________________________________________________
#
#PARAMETER_NAME    .UNIT     VALUE                         : DESCRIPTION
#_______________________________________________________________________________
SET                .         LQC                           : 
PROJECT_UPGRADE_TIME .         2014-05-27T11_38_46           : 
TLFamily_GR_NORM   .         Gamma Ray                     : 
TLFamily_MD        .         Measured Depth                : 
TLFamily_RHOB_NORM .         Bulk Density                  : 
TLFamily_TNPH_NORM .         Neutron Porosity              : 
~Curve Information
#_______________________________________________________________________________
#
#LOGNAME           .UNIT     LOG_ID                        : DESCRIPTION
#_______________________________________________________________________________
MD                 .m                                      :  
GR_NORM            .gAPI                                   : Normalised By Techlog 
RHOB_NORM          .g/cm3                                  : Normalized By Techlog 
TNPH_NORM          .v/v                                    : Normalised By Techlog 
~Ascii
# ...
2574.200000941753 108.5838   2.300361   0.3216106 
2574.400000944734 109.5513   2.306574   0.3284975 
2574.600000947714 111.4713   2.255776   0.3330888 
2574.800000950694 111.8795   2.226358   0.3330888 
2575.000000953674 109.5211   2.22453    0.3353844 
2575.200000956655 103.9879   2.232388   0.3457149 
2575.400000959635 96.17202   2.286109   0.3491583 
2575.600000962615 94.28229   2.31571    0.3548974 
2575.800000965595 97.2983    2.323385   0.3457149 
2576.000000968575 96.52729   2.296616   0.3468627 
2576.200000971556 93.03507   2.303925   0.3365322 
2576.400000974536 87.84965   2.337637   0.3181671 
2576.600000977516 84.41033   2.362214   0.3009497 
2576.800000980496 87.81185   2.34787    0.2952106 
2577.000000983477 95.16668   2.323111   0.3204627 
2577.200000986457 102.2267   2.273135   0.3583409 
2577.400000989437 108.1529   2.271491   0.3617844 
2577.600000992417 111.7887   2.275693   0.36408   
2577.800000995398 111.9475   2.285652   0.3652278 
2578.000000998378 107.775    2.310777   0.3526018 
2578.200001001358 102.3628   2.309315   0.3342366 
2578.400001004338 96.68603   2.309406   0.3227584 
2578.600001007318 90.91101   2.324847   0.3204627 
2578.800001010299 89.33119   2.352712   0.325054  
2579.000001013279 94.82653   2.34321    0.3480105 
2579.200001016259 102.0151   2.367604   0.3767061 
2579.400001019239 109.1582   2.31973    0.3790017 
2579.60000102222 117.3068   2.303011   0.3537496 
2579.8000010252 123.6563   2.277704   0.3376801 
2580.00000102818 125.9542   2.27679    0.3342366 
2580.20000103116 124.7447   2.250934   0.3526018 
2580.400001034141 123.9284   2.23257    0.3571931 
2580.600001037121 126.8386   2.259796   0.3457149 
2580.800001040101 133.0671   2.245635   0.3526018 
2581.000001043081 140.5429   2.218135   0.3744104 
2581.200001046062 147.4215   2.19301    0.370967  
2581.400001049042 147.225    2.196665   0.3778539 
2581.600001052022 143.4758   2.222064   0.3927756 
2581.800001055002 135.7127   2.221059   0.3629322 
2582.000001057982 126.9293   2.262537   0.3617844 
2582.200001060963 125.5384   2.315528   0.3571931 
2582.400001063943 131.4117   2.296981   0.3548974 
2582.600001066923 136.2645   2.226632   0.351454  
2582.800001069903 139.8172   2.245726   0.3571931 
2583.000001072884 147.2628   2.232022   0.3767061 
2583.200001075864 147.5802   2.214115   0.3824452 
2583.400001078844 131.2908   2.185061   0.3606365 
2583.600001081824 116.6113   2.271125   0.3526018 
2583.800001084805 111.7661   2.356367   0.351454  
2584.000001087785 109.8763   2.330328   0.3491583 
2584.200001090765 106.883    2.340927   0.3537496 
2584.400001093745 102.4081   2.383684   0.3342366 
2584.600001096725 102.2645   2.432198   0.3101323 
2584.800001099706 108.546    2.526119   0.312428  
2585.000001102686 115.3188   2.547041   0.3181671 
2585.200001105666 119.5896   2.568603   0.3089845 
2585.400001108646 120.3379   2.514333   0.3066888 
2585.600001111627 116.6189   2.474773   0.3239062 
2585.800001114607 112.5371   2.450745   0.3262018 
2586.000001117587 110.6927   2.436949   0.3330888 
2586.200001120567 107.1627   2.465271   0.3296453 
2586.400001123548 104.4944   2.482173   0.3273497 
2586.600001126528 104.4339   2.474864   0.3284975 
2586.800001129508 105.5526   2.439233   0.3101323 
2587.000001132488 106.2178   2.426077   0.2871759 
2587.200001135468 108.0698   2.433751   0.2791411 
2587.400001138449 108.6669   2.434482   0.2848802 
2587.600001141429 109.5816   2.445628   0.2975062 
2587.800001144409 111.6451   2.437771   0.3009497 
2588.000001147389 111.0858   2.452024   0.3112801 
2588.20000115037 109.385    2.442887   0.3112801 
2588.40000115335 109.4757   2.426168   0.3112801 
2588.60000115633 111.3352   2.440786   0.305541  
2588.80000115931 109.5513   2.452024   0.3032454 
2589.000001162291 105.4771   2.461525   0.2998019 
2589.200001165271 105.409    2.463718   0.305541  
2589.400001168251 106.7167   2.500811   0.3078367 
2589.600001171231 105.855    2.507572   0.3101323 
2589.800001174212 104.1694   2.529042   0.3216106 
2590.000001177192 105.084    2.52886    0.3353844 
2590.200001180172 103.9048   2.503644   0.3376801 
2590.400001183152 100.1707   2.494781   0.3135758 
2590.600001186132 95.41612   2.474316   0.2722541 
2590.800001189113 87.3432    2.461343   0.2412629 
2591.000001192093 73.55573   2.591991   0.2171586 
2591.200001195073 61.72602   2.632374   0.2068282 
2591.400001198053 65.23335   2.641967   0.2137151 
2591.600001201034 86.3681    2.600488   0.2412629 
2591.800001204014 106.3614   2.559375   0.2871759 
2592.000001206994 114.1245   2.531052   0.3043932 
2592.200001209974 114.6611   2.554715   0.3112801 
2592.400001212955 114.1698   2.472854   0.3204627 
2592.600001215935 112.0306   2.466002   0.3216106 
2592.800001218915 109.9444   2.487564   0.3262018 
2593.000001221895 107.843    2.468834   0.3239062 
2593.200001224875 105.9911   2.479158   0.3216106 
2593.400001227856 104.4868   2.484275   0.312428  
2593.600001230836 103.1791   2.519449   0.3020975 
2593.800001233816 104.5927   2.459698   0.3078367 
2594.000001236796 106.2103   2.474773   0.3101323 
2594.200001239777 107.1098   2.491492   0.312428  
2594.400001242757 107.9564   2.502364   0.3365322 
2594.600001245737 108.1605   2.525936   0.3376801 
2594.800001248717 107.0342   2.561385   0.3147236 
2595.000001251698 108.1378   2.609259   0.2940628 
2595.200001254678 112.2196   2.535803   0.2952106 
2595.400001257658 115.6211   2.476691   0.3262018 
2595.600001260638 116.1276   2.468926   0.3663757 
2595.800001263618 113.0133   2.488569   0.3652278 
2596.000001266599 108.9617   2.499898   0.3330888 
2596.200001269579 109.4379   2.524109   0.3170193 
2596.400001272559 113.9506   2.480438   0.3066888 
2596.600001275539 117.3899   2.503278   0.2998019 
2596.80000127852 118.6371   2.435487   0.292915  
2597.0000012815 119.9297   2.422331   0.2952106 
2597.20000128448 120.7007   2.475595   0.3089845 
2597.40000128746 120.4588   2.426077   0.3170193 
2597.600001290441 121.1618   2.382953   0.3147236 
2597.800001293421 121.3735   2.39209    0.3227584 
2598.000001296401 120.1262   2.356823   0.3296453 
2598.200001299381 118.3575   2.389166   0.3307931 
2598.400001302361 118.0551   2.403327   0.3365322 
2598.600001305342 117.7074   2.390262   0.3239062 
2598.800001308322 114.4117   2.403784   0.3158714 
2599.000001311302 110.2543   2.407165   0.312428  
2599.200001314282 106.8755   2.428909   0.3043932 
2599.400001317263 105.8399   2.45915    0.3089845 
2599.600001320243 103.6705   2.482173   0.3227584 
2599.800001323223 100.5184   2.470936   0.3170193 
2600.000001326203 98.92346   2.512871   0.3112801 
2600.200001329184 99.65668   2.506567   0.3135758 
2600.400001332164 100.9493   2.47121    0.3089845 
2600.600001335144 103.4513   2.486741   0.2963584 
2600.800001338124 104.7589   2.493594   0.3020975 
2601.000001341105 101.8639   2.476509   0.312428  
2601.200001344085 98.00884   2.455221   0.3170193 
2601.400001347065 94.21426   2.461343   0.312428  
2601.600001350045 89.79985   2.523104   0.3066888 
2601.800001353025 82.88344   2.547224   0.2952106 
2602.000001356006 81.72692   2.560288   0.2998019 
2602.200001358986 92.8083    2.540554   0.3101323 
2602.400001361966 104.3583   2.529316   0.3032454 
2602.600001364946 110.6247   2.48866    0.3193149 
2602.800001367927 113.7087   2.475504   0.325054  
2603.000001370907 113.1342   2.499167   0.325054  
2603.200001373887 111.562    2.497979   0.3307931 
2603.400001376867 110.5718   2.525845   0.3434192 
2603.600001379848 111.3201   2.500629   0.3376801 
2603.800001382828 111.0253   2.412007   0.3307931 
2604.000001385808 111.9324   2.404972   0.3353844 
2604.200001388788 111.6754   2.381766   0.3399757 
2604.400001391768 110.156    2.412372   0.3353844 
2604.600001394749 111.7056   2.478884   0.3307931 
2604.800001397729 115.9235   2.469108   0.3284975 
2605.000001400709 117.2387   2.473859   0.3227584 
2605.200001403689 116.1276   2.472398   0.3262018 
2605.40000140667 118.1685   2.460338   0.3284975 
2605.60000140965 119.1285   2.454765   0.3262018 
