~Version
 VERS              .         2.0                           : CWLS LOG ASCII STANDARD - VERSION 2.0
 WRAP              .         NO                            : ONE LINE PER DEPTH STEP
 DLM               .         SPACE                         : DELIMITING CHARACTER(SPACE TAB OR COMMA)
~Well Information
#_______________________________________________________________________________
#
#PARAMETER_NAME    .UNIT     VALUE                         : DESCRIPTION
#_______________________________________________________________________________
STRT               .m        2511                          : First reference value
STOP               .m        2676.80000247061              : Last reference value
STEP               .m        0.2                           : Step increment
NULL               .         -9999                         : Missing value
COMP               .                                       : Company
WELL               .         605                           : Well name
FLD                .                                       : Field
LOC                .                                       : Location
CNTY               .                                       : County
STAT               .                                       : State
CTRY               .                                       : Country
SRVC               .                                       : Service Company
DATE               .                                       : Date
API                .                                       : API number
Cartographic_reference_system .         GCS_WGS_1984                  : GEOGCS["GCS_WGS_1984",DATUM["D_WGS_1984",SPHEROID["WGS_1984",6378137.0,298.257223563]],PRIMEM["Greenwich",0.0],UNIT["Degree",0.0174532925199433],AUTHORITY["EPSG",4326]]
EREF               .m        134                           : 
HZCS               .GCS_WGS_1984 World_Mercator                : PROJCS["World_Mercator",GEOGCS["GCS_WGS_1984",DATUM["D_WGS_1984",SPHEROID["WGS_1984",6378137.0,298.257223563]],PRIMEM["Greenwich",0.0],UNIT["Degree",0.0174532925199433]],PROJECTION["Mercator"],PARAMETER["False_Easting",0.0],PARAMETER["False_Northing",0.0],PARAMETER["Central_Meridian",0.0],PARAMETER["Standard_Parallel_1",0.0],UNIT["Meter",1.0],AUTHORITY["ESRI",54004]]
LATI               .dega     2.1305856004                  : GCS_WGS_1984
LONG               .dega     2.0279108213                  : GCS_WGS_1984
PROJECT_UPGRADE_TIME .         2014-05-27T11_38_46           : 
Pad                .         Pad6                          : 
X                  .m        225746                        : 
Y                  .m        235643                        : 
group              .         Pad6                          : 
Интер-р            .         Пузин                         : 
Куст               .         6                             : 
Статус             .         Не проверено                  : 
Тип                .         Эксплуатация                  : 
~Parameter Information Block
#_______________________________________________________________________________
#
#PARAMETER_NAME    .UNIT     VALUE                         : DESCRIPTION
#_______________________________________________________________________________
SET                .         LQC                           : 
PROJECT_UPGRADE_TIME .         2014-05-27T11_38_46           : 
TLFamily_GR_NORM   .         Gamma Ray                     : 
TLFamily_MD        .         Measured Depth                : 
TLFamily_RHOB_NORM .         Bulk Density                  : 
TLFamily_TNPH_NORM .         Neutron Porosity              : 
~Curve Information
#_______________________________________________________________________________
#
#LOGNAME           .UNIT     LOG_ID                        : DESCRIPTION
#_______________________________________________________________________________
MD                 .m                                      :  
GR_NORM            .gAPI                                   : Normalised By Techlog 
RHOB_NORM          .g/cm3                                  : Normalized By Techlog 
TNPH_NORM          .v/v                                    : Normalised By Techlog 
~Ascii
# ...
2605.80000141263 118.2214   2.478976   0.325054  
2606.00000141561 116.9968   2.421874   0.3388279 
2606.200001418591 114.321    2.42361    0.3560453 
2606.400001421571 109.7705   2.458145   0.3480105 
2606.600001424551 108.2134   2.459972   0.3468627 
2606.800001427531 108.3268   2.478884   0.3284975 
2607.000001430511 112.915    2.502639   0.2975062 
2607.200001433492 118.3197   2.497797   0.3032454 
2607.400001436472 120.8443   2.509491   0.3101323 
2607.600001439452 118.4708   2.483361   0.2998019 
2607.800001442432 114.3134   2.480163   0.2917671 
2608.000001445413 114.9257   2.495421   0.2837324 
2608.200001448393 116.0142   2.530504   0.2699585 
2608.400001451373 118.0551   2.557274   0.2458542 
2608.600001454353 119.9146   2.550513   0.2240455 
2608.800001457334 119.0755   2.516252   0.2148629 
2609.000001460314 113.3459   2.504557   0.2114195 
2609.200001463294 90.16268   2.501816   0.2102716 
2609.400001466274 63.63086   2.493868   0.1953499 
2609.600001469254 50.67488   2.457962   0.1792804 
2609.800001472235 44.15152   2.410271   0.1632109 
2610.000001475215 41.85361   2.389257   0.1609152 
2610.200001478195 43.2369    2.334988   0.1643587 
2610.400001481175 45.94299   2.325212   0.1815761 
2610.600001484156 48.0746    2.35052    0.1919065 
2610.800001487136 48.04437   2.394282   0.1976456 
2611.000001490116 49.05727   2.435487   0.1964978 
2611.200001493096 49.8963    2.455039   0.1919065 
2611.400001496077 51.30982   2.443161   0.1896108 
2611.600001499057 53.81183   2.437406   0.1873152 
2611.800001502037 55.437     2.454947   0.1792804 
2612.000001505017 53.26758   2.446816   0.1735413 
2612.200001507998 47.42454   2.498984   0.1528805 
2612.400001510978 44.0079    2.628719   0.1264805 
2612.600001513958 41.82338   2.795365   0.103524  
2612.800001516938 42.78336   2.747217   0.09893275
2613.000001519918 45.24757   2.701444   0.1092632 
2613.200001522899 48.6642    2.668188   0.1218892 
2613.400001525879 54.31072   2.622689   0.1391066 
2613.600001528859 61.63531   2.550604   0.162063  
2613.800001531839 67.22891   2.458145   0.1758369 
2614.00000153482 69.45879   2.462987   0.1815761 
2614.2000015378 70.56239   2.486193   0.1896108 
2614.40000154078 70.46413   2.488386   0.1953499 
2614.60000154376 69.55706   2.49606    0.2033847 
2614.800001546741 68.46857   2.512963   0.2091238 
2615.000001549721 67.7278    2.506659   0.2125673 
2615.200001552701 66.76025   2.52484    0.2056804 
2615.400001555681 63.7896    2.580662   0.1987934 
2615.600001558661 60.36541   2.635937   0.188463  
2615.800001561642 58.38497   2.534981   0.1827239 
2616.000001564622 57.96923   2.439964   0.1919065 
2616.200001567602 57.75758   2.496426   0.2114195 
2616.400001570582 57.50058   2.523652   0.2194542 
2616.600001573563 59.10307   2.529956   0.2160108 
2616.800001576543 57.84073   2.533611   0.2137151 
2617.000001579523 54.26536   2.540097   0.2102716 
2617.200001582503 51.59706   2.569059   0.2056804 
2617.400001585484 51.89186   2.548685   0.2068282 
2617.600001588464 55.64108   2.530322   0.2091238 
2617.800001591444 61.25736   2.515338   0.2114195 
2618.000001594424 65.52816   2.509399   0.2091238 
2618.200001597404 67.87142   2.501451   0.1987934 
2618.400001600385 68.29472   2.460246   0.188463  
2618.600001603365 67.70512   2.464449   0.188463  
2618.800001606345 63.81984   2.427995   0.1953499 
2619.000001609325 57.03193   2.377928   0.1930543 
2619.200001612306 52.82161   2.341201   0.1987934 
2619.400001615286 50.62196   2.344855   0.2056804 
2619.600001618266 47.37162   2.382405   0.2033847 
2619.800001621246 45.08127   2.379025   0.1942021 
2620.000001624227 45.7389    2.35929    0.1873152 
2620.200001627207 46.57794   2.375827   0.1838717 
2620.400001630187 46.88029   2.345312   0.1907586 
2620.600001633167 46.20755   2.371807   0.1987934 
2620.800001636147 45.37607   2.340104   0.2068282 
2621.000001639128 45.16442   2.335719   0.2091238 
2621.200001642108 46.35873   2.3264     0.2091238 
2621.400001645088 48.27869   2.38542    0.2102716 
2621.600001648068 49.97945   2.429366   0.2114195 
2621.800001651049 48.98923   2.416758   0.2125673 
2622.000001654029 46.02614   2.466185   0.2091238 
2622.200001657009 45.36851   2.581667   0.2022369 
2622.400001659989 45.03592   2.653022   0.1850195 
2622.60000166297 43.34272   2.539915   0.1678022 
2622.80000166595 44.66553   2.45513    0.1655065 
2623.00000166893 47.64375   2.440055   0.1735413 
2623.20000167191 50.25157   2.453394   0.1746891 
2623.400001674891 50.15331   2.478884   0.1586196 
2623.600001677871 46.53259   2.556634   0.1402544 
2623.800001680851 40.77269   2.647449   0.1127066 
2624.000001683831 33.98478   2.713321   0.08745452
2624.200001686811 30.69665   2.732964   0.08286322
2624.400001689792 32.48055   2.769418   0.08286322
2624.600001692772 35.05058   2.761195   0.07368063
2624.800001695752 37.20488   2.715697   0.07941975
2625.000001698732 40.35695   2.659052   0.1058197 
2625.200001701713 43.68287   2.585048   0.1276283 
2625.400001704693 46.21511   2.514059   0.1471414 
2625.600001707673 48.46011   2.484823   0.1735413 
2625.800001710653 50.57661   2.480986   0.1861673 
2626.000001713634 49.6771    2.496426   0.1907586 
2626.200001716614 47.92343   2.478519   0.1919065 
2626.400001719594 45.65575   2.499532   0.1781326 
2626.600001722574 40.4023    2.580023   0.1528805 
2626.800001725554 33.73533   2.661975   0.1276283 
2627.000001728535 28.37606   2.745298   0.110411  
2627.200001731515 25.15596   2.791619   0.1023762 
2627.400001734495 25.08793   2.761835   0.1138545 
2627.600001737475 27.32537   2.721452   0.1310718 
2627.800001740456 29.05636   2.640414   0.1551761 
2628.000001743436 31.42986   2.615928   0.1712456 
2628.200001746416 36.01813   2.641693   0.1781326 
2628.400001749396 41.26402   2.602133   0.207976  
2628.600001752377 45.24757   2.566775   0.2114195 
2628.800001755357 44.27247   2.547589   0.1999412 
2629.000001758337 41.98967   2.461525   0.1964978 
2629.200001761317 41.2867    2.41091    0.1942021 
2629.400001764297 40.8256    2.386425   0.2056804 
2629.600001767278 38.69398   2.374639   0.2114195 
2629.800001770258 38.17998   2.380852   0.2125673 
2630.000001773238 39.89585   2.398485   0.2102716 
2630.200001776218 40.65931   2.442339   0.2056804 
2630.400001779199 38.61084   2.41292    0.1999412 
2630.600001782179 37.49968   2.341109   0.1942021 
2630.800001785159 37.21999   2.310777   0.1907586 
2631.000001788139 37.59038   2.323293   0.1873152 
2631.20000179112 38.24801   2.373634   0.1769848 
2631.4000017941 37.78691   2.404241   0.16895   
2631.60000179708 36.76646   2.415478   0.1632109 
2631.80000180006 36.95543   2.476326   0.1563239 
2632.000001803041 38.09683   2.488112   0.1540283 
2632.200001806021 40.65931   2.426625   0.1666543 
2632.400001809001 43.84161   2.328044   0.2010891 
2632.600001811981 47.03903   2.316533   0.2378194 
2632.800001814961 53.71356   2.354722   0.2458542 
2633.000001817942 64.8025    2.429274   0.2527411 
2633.200001820922 77.91723   2.529956   0.2676628 
2633.400001823902 87.28272   2.540828   0.2779932 
2633.600001826882 91.59132   2.567963   0.2963584 
2633.800001829863 92.80074   2.577191   0.2917671 
2634.000001832843 91.55352   2.559923   0.2584803 
2634.200001835823 85.77094   2.543021   0.2320803 
2634.400001838803 74.93145   2.501086   0.2263412 
2634.600001841784 63.42677   2.483087   0.2286368 
2634.800001844764 56.13997   2.450105   0.2320803 
2635.000001847744 52.95767   2.453303   0.2343759 
2635.200001850724 52.49658   2.472123   0.2309325 
2635.400001853704 53.35073   2.503826   0.2286368 
2635.600001856685 55.11952   2.518627   0.2240455 
2635.800001859665 58.0297    2.471027   0.2228977 
2636.000001862645 62.38364   2.409905   0.2389672 
2636.200001865625 68.12843   2.327405   0.2561846 
2636.400001868606 74.7198    2.229281   0.2791411 
2636.600001871586 80.7367    2.098998   0.3181671 
2636.800001874566 84.68246   1.974836   0.3399757 
2637.000001877546 86.91234   1.923581   0.3526018 
2637.200001880527 88.24271   2.059529   0.3307931 
