~Version
 VERS              .         2.0                           : CWLS LOG ASCII STANDARD - VERSION 2.0
 WRAP              .         NO                            : ONE LINE PER DEPTH STEP
 DLM               .         SPACE                         : DELIMITING CHARACTER(SPACE TAB OR COMMA)
~Well Information
#_______________________________________________________________________________
#
#PARAMETER_NAME    .UNIT     VALUE                         : DESCRIPTION
#_______________________________________________________________________________
STRT               .m        2511                          : First reference value
STOP               .m        2676.80000247061              : Last reference value
STEP               .m        0.2                           : Step increment
NULL               .         -9999                         : Missing value
COMP               .                                       : Company
WELL               .         605                           : Well name
FLD                .                                       : Field
LOC                .                                       : Location
CNTY               .                                       : County
STAT               .                                       : State
CTRY               .                                       : Country
SRVC               .                                       : Service Company
DATE               .                                       : Date
API                .                                       : API number
Cartographic_reference_system .         GCS_WGS_1984                  : GEOGCS["GCS_WGS_1984",DATUM["D_WGS_1984",SPHEROID["WGS_1984",6378137.0,298.257223563]],PRIMEM["Greenwich",0.0],UNIT["Degree",0.0174532925199433],AUTHORITY["EPSG",4326]]
EREF               .m        134                           : 
HZCS               .GCS_WGS_1984 World_Mercator                : PROJCS["World_Mercator",GEOGCS["GCS_WGS_1984",DATUM["D_WGS_1984",SPHEROID["WGS_1984",6378137.0,298.257223563]],PRIMEM["Greenwich",0.0],UNIT["Degree",0.0174532925199433]],PROJECTION["Mercator"],PARAMETER["False_Easting",0.0],PARAMETER["False_Northing",0.0],PARAMETER["Central_Meridian",0.0],PARAMETER["Standard_Parallel_1",0.0],UNIT["Meter",1.0],AUTHORITY["ESRI",54004]]
LATI               .dega     2.1305856004                  : GCS_WGS_1984
LONG               .dega     2.0279108213                  : GCS_WGS_1984
PROJECT_UPGRADE_TIME .         2014-05-27T11_38_46           : 
Pad                .         Pad6                          : 
X                  .m        225746                        : 
Y                  .m        235643                        : 
group              .         Pad6                          : 
Интер-р            .         Пузин                         : 
Куст               .         6                             : 
Статус             .         Не проверено                  : 
Тип                .         Эксплуатация                  : 
~Parameter Information Block
#_______________________________________________________________________________
#
#PARAMETER_NAME    .UNIT     VALUE                         : DESCRIPTION
#_______________________________________________________________________________
SET                .         LQC                           : 
PROJECT_UPGRADE_TIME .         2014-05-27T11_38_46           : 
TLFamily_GR_NORM   .         Gamma Ray                     : 
TLFamily_MD        .         Measured Depth                : 
TLFamily_RHOB_NORM .         Bulk Density                  : 
TLFamily_TNPH_NORM .         Neutron Porosity              : 
~Curve Information
#_______________________________________________________________________________
#
#LOGNAME           .UNIT     LOG_ID                        : DESCRIPTION
#_______________________________________________________________________________
MD                 .m                                      :  
GR_NORM            .gAPI                                   : Normalised By Techlog 
RHOB_NORM          .g/cm3                                  : Normalized By Techlog 
TNPH_NORM          .v/v                                    : Normalised By Techlog 
~Ascii
2511.0     74.28139   2.146963   0.2630715 
2511.20000000298 64.90076   2.234306   0.2401151 
2511.40000000596 57.97679   2.382222   0.2183064 
2511.600000008941 58.17332   2.467098   0.2022369 
2511.800000011921 60.84162   2.461251   0.1942021 
2512.000000014901 61.47657   2.425528   0.1942021 
2512.200000017881 61.02303   2.455039   0.1907586 
2512.400000020862 60.56194   2.45312    0.1976456 
2512.600000023842 58.50591   2.4216     0.2033847 
2512.800000026822 55.75447   2.399764   0.2022369 
2513.000000029802 54.60551   2.438045   0.2068282 
2513.200000032783 54.8474    2.469383   0.2045325 
2513.400000035763 54.44677   2.496426   0.2010891 
2513.600000038743 51.73312   2.556634   0.1953499 
2513.800000041723 48.56593   2.596285   0.1838717 
2514.000000044703 46.33605   2.593362   0.16895   
2514.200000047684 43.20666   2.533154   0.1563239 
2514.400000050664 42.39786   2.564491   0.1574718 
2514.600000053644 43.4939    2.562298   0.1655065 
2514.800000056624 46.60062   2.53224    0.1804282 
2515.000000059605 49.94166   2.488934   0.1907586 
2515.200000062585 52.30005   2.445354   0.2033847 
2515.400000065565 55.14976   2.416301   0.2183064 
2515.600000068545 57.40231   2.406434   0.2355238 
2515.800000071526 58.74024   2.395653   0.2447064 
2516.000000074506 60.79627   2.392455   0.247002  
2516.200000077486 63.38898   2.408261   0.2401151 
2516.400000080466 65.21824   2.440695   0.2389672 
2516.600000083447 67.22135   2.461434   0.2332281 
2516.800000086427 70.41878   2.458967   0.2217499 
2517.000000089407 73.30628   2.447273   0.2022369 
2517.200000092387 77.25204   2.46253    0.2022369 
2517.400000095367 81.42457   2.480072   0.2068282 
2517.600000098348 82.99682   2.501451   0.207976  
2517.800000101328 83.58642   2.542473   0.2194542 
2518.000000104308 81.89322   2.508851   0.2297847 
2518.200000107288 80.24537   2.468834   0.2412629 
2518.400000110269 78.39344   2.481991   0.2515933 
2518.600000113249 78.30273   2.495969   0.2584803 
2518.800000116229 80.7367    2.509582   0.2584803 
2519.000000119209 83.75271   2.474773   0.2653672 
2519.20000012219 82.8532    2.415935   0.2630715 
2519.40000012517 77.69045   2.362762   0.2676628 
2519.60000012815 71.39388   2.334988   0.2688107 
2519.80000013113 67.9848    2.405885   0.2538889 
2520.00000013411 66.76025   2.423793   0.2389672 
2520.200000137091 64.97636   2.45851    0.2217499 
2520.400000140071 64.33385   2.454765   0.2148629 
2520.600000143051 67.48592   2.466367   0.2228977 
2520.800000146031 72.77716   2.445446   0.2332281 
2521.000000149012 77.19913   2.466825   0.2297847 
2521.200000151992 77.6829    2.478336   0.2240455 
2521.400000154972 73.65399   2.463718   0.2251934 
2521.600000157952 62.89765   2.482996   0.2148629 
2521.800000160933 52.05816   2.478336   0.1930543 
2522.000000163913 46.96344   2.541833   0.1746891 
2522.200000166893 44.12129   2.586967   0.1746891 
2522.400000169873 41.70243   2.604234   0.1792804 
2522.600000172853 41.59661   2.616659   0.1873152 
2522.800000175834 45.08883   2.619857   0.1873152 
2523.000000178814 50.20622   2.518718   0.188463  
2523.200000181794 56.22313   2.458967   0.1999412 
2523.400000184774 60.25203   2.458054   0.2114195 
2523.600000187755 62.54238   2.45111    0.2125673 
2523.800000190735 65.67178   2.456135   0.2160108 
2524.000000193715 71.21246   2.486833   0.2148629 
2524.200000196695 77.10086   2.50812    0.2228977 
2524.400000199676 77.18401   2.446725   0.2309325 
2524.600000202656 71.22758   2.413103   0.2228977 
2524.800000205636 66.33696   2.379025   0.207976  
2525.000000208616 66.66199   2.358011   0.2114195 
2525.200000211596 71.28049   2.405154   0.2125673 
2525.400000214577 76.48103   2.463901   0.2183064 
2525.600000217557 79.89011   2.480986   0.2309325 
2525.800000220537 82.5584    2.505562   0.2424107 
2526.000000223517 85.15112   2.535346   0.2378194 
2526.200000226498 84.24404   2.525023   0.2309325 
2526.400000229478 76.20135   2.478519   0.2228977 
2526.600000232458 67.23647   2.424249   0.2114195 
2526.800000235438 61.03815   2.424615   0.2125673 
2527.000000238419 57.75758   2.438136   0.2114195 
2527.200000241399 57.20578   2.463535   0.2056804 
2527.400000244379 56.81271   2.495238   0.2125673 
2527.600000247359 58.98969   2.506384   0.2148629 
2527.80000025034 63.10174   2.507846   0.2068282 
2528.00000025332 67.38009   2.467921   0.2102716 
2528.2000002563 70.69846   2.445172   0.2160108 
2528.40000025928 70.35831   2.45577    0.2206021 
2528.60000026226 65.49792   2.451201   0.2320803 
2528.800000265241 62.78426   2.45248    0.2366716 
2529.000000268221 66.48058   2.444897   0.2343759 
2529.200000271201 71.36364   2.477879   0.2343759 
2529.400000274181 75.45302   2.495238   0.2435585 
2529.600000277162 81.05418   2.52886    0.247002  
2529.800000280142 85.24937   2.556268   0.2412629 
2530.000000283122 86.54951   2.528586   0.2424107 
2530.200000286102 88.53751   2.519906   0.2492977 
2530.400000289083 88.46192   2.479798   0.2573324 
2530.600000292063 82.97414   2.479615   0.2515933 
2530.800000295043 73.67667   2.485006   0.2297847 
2531.000000298023 69.97279   2.523378   0.2217499 
2531.200000301003 73.82785   2.493868   0.2228977 
2531.400000303984 83.31429   2.543661   0.2297847 
2531.600000306964 91.76517   2.545762   0.247002  
2531.800000309944 96.2854    2.518901   0.2596281 
2532.000000312924 96.67847   2.527855   0.2653672 
2532.200000315905 94.97771   2.484092   0.2527411 
2532.400000318885 91.6669    2.491949   0.2389672 
2532.600000321865 86.45125   2.503644   0.2355238 
2532.800000324845 78.85453   2.513968   0.2286368 
2533.000000327826 68.37031   2.523561   0.2160108 
2533.200000330806 56.51792   2.570064   0.2022369 
2533.400000333786 47.99902   2.653661   0.1769848 
2533.600000336766 42.28447   2.719443   0.1563239 
2533.800000339746 40.23601   2.717067   0.1471414 
2534.000000342727 40.49301   2.712499   0.1448457 
2534.200000345707 41.55882   2.684359   0.1540283 
2534.400000348687 43.56193   2.713413   0.16895   
2534.600000351667 47.40942   2.673852   0.1769848 
2534.800000354648 53.50947   2.558278   0.188463  
2535.000000357628 58.3245    2.491035   0.2045325 
2535.200000360608 58.07506   2.469657   0.2102716 
2535.400000363588 57.18311   2.469931   0.2137151 
2535.600000366569 57.25869   2.445263   0.2217499 
2535.800000369549 57.95411   2.429457   0.2309325 
2536.000000372529 58.70245   2.440146   0.2343759 
2536.200000375509 62.03593   2.451567   0.2366716 
2536.400000378489 66.85096   2.443801   0.2320803 
2536.60000038147 73.47258   2.480438   0.2263412 
2536.80000038445 81.24315   2.48802    0.2286368 
2537.00000038743 88.00082   2.542564   0.2355238 
2537.20000039041 93.91946   2.517348   0.2492977 
2537.400000393391 97.82742   2.555812   0.2584803 
2537.600000396371 100.3143   2.52484    0.2596281 
2537.800000399351 103.4135   2.497797   0.2504455 
2538.000000402331 102.6122   2.488295   0.247002  
2538.200000405312 102.2116   2.497705   0.2481498 
2538.400000408292 105.9684   2.530687   0.2458542 
2538.600000411272 106.2783   2.529042   0.2492977 
2538.800000414252 100.2841   2.537356   0.2607759 
2539.000000417233 97.61578   2.550695   0.2676628 
2539.200000420213 99.77762   2.51881    0.2871759 
2539.400000423193 102.3552   2.558096   0.292915  
2539.600000426173 104.5397   2.566318   0.2711063 
2539.800000429153 106.2027   2.532149   0.2688107 
2540.000000432134 103.9879   2.497614   0.2940628 
2540.200000435114 99.27118   2.487564   0.3089845 
2540.400000438094 96.51973   2.524748   0.292915  
2540.600000441074 98.37923   2.530961   0.2745498 
2540.800000444055 101.8941   2.523287   0.2802889 
2541.000000447035 104.8875   2.515521   0.2711063 
2541.200000450015 103.1111   2.546401   0.2573324 
2541.400000452995 96.26273   2.603229   0.266515  
2541.600000455976 90.23827   2.670381   0.2745498 
2541.800000458956 88.5753    2.626709   0.2756976 
2542.000000461936 93.08798   2.648453   0.292915  
2542.200000464916 97.10932   2.611086   0.312428  
2542.400000467896 99.42236   2.571343   0.3089845 
