~Version
 VERS              .         2.0                           : CWLS LOG ASCII STANDARD - VERSION 2.0
 WRAP              .         NO                            : ONE LINE PER DEPTH STEP
 DLM               .         SPACE                         : DELIMITING CHARACTER(SPACE TAB OR COMMA)
~Well Information
#_______________________________________________________________________________
#
#PARAMETER_NAME    .UNIT     VALUE                         : DESCRIPTION
#_______________________________________________________________________________
STRT               .m        2511                          : First reference value
STOP               .m        2676.80000247061              : Last reference value
STEP               .m        0.2                           : Step increment
NULL               .         -9999                         : Missing value
COMP               .                                       : Company
WELL               .         605                           : Well name
FLD                .                                       : Field
LOC                .                                       : Location
CNTY               .                                       : County
STAT               .                                       : State
CTRY               .                                       : Country
SRVC               .                                       : Service Company
DATE               .                                       : Date
API                .                                       : API number
Cartographic_reference_system .         GCS_WGS_1984                  : GEOGCS["GCS_WGS_1984",DATUM["D_WGS_1984",SPHEROID["WGS_1984",6378137.0,298.257223563]],PRIMEM["Greenwich",0.0],UNIT["Degree",0.0174532925199433],AUTHORITY["EPSG",4326]]
EREF               .m        134                           : 
HZCS               .GCS_WGS_1984 World_Mercator                : PROJCS["World_Mercator",GEOGCS["GCS_WGS_1984",DATUM["D_WGS_1984",SPHEROID["WGS_1984",6378137.0,298.257223563]],PRIMEM["Greenwich",0.0],UNIT["Degree",0.0174532925199433]],PROJECTION["Mercator"],PARAMETER["False_Easting",0.0],PARAMETER["False_Northing",0.0],PARAMETER["Central_Meridian",0.0],PARAMETER["Standard_Parallel_1",0.0],UNIT["Meter",1.0],AUTHORITY["ESRI",54004]]
LATI               .dega     2.1305856004                  : GCS_WGS_1984
LONG               .dega     2.0279108213                  : GCS_WGS_1984
PROJECT_UPGRADE_TIME .         2014-05-27T11_38_46           : 
Pad                .         Pad6                          : 
X                  .m        225746                        : 
Y                  .m        235643                        : 
group              .         Pad6                          : 
Интер-р            .         Пузин                         : 
Куст               .         6                             : 
Статус             .         Не проверено                  : 
Тип                .         Эксплуатация                  : 
~Parameter Information Block
#_______________________________________________________________________________
#
#PARAMETER_NAME    .UNIT     VALUE                         : DESCRIPTION
#_______________________________________________________________________________
SET                .         LQC                           : 
PROJECT_UPGRADE_TIME .         2014-05-27T11_38_46           : 
TLFamily_GR_NORM   .         Gamma Ray                     : 
TLFamily_MD        .         Measured Depth                : 
TLFamily_RHOB_NORM .         Bulk Density                  : 
TLFamily_TNPH_NORM .         Neutron Porosity              : 
~Curve Information
#_______________________________________________________________________________
#
#LOGNAME           .UNIT     LOG_ID                        : DESCRIPTION
#_______________________________________________________________________________
MD                 .m                                      :  
GR_NORM            .gAPI                                   : Normalised By Techlog 
RHOB_NORM          .g/cm3                                  : Normalized By Techlog 
TNPH_NORM          .v/v                                    : Normalised By Techlog 
~Ascii
# ...
2542.600000470877 101.3877   2.557548   0.2917671 
2542.800000473857 104.0333   2.511318   0.2814367 
2543.000000476837 108.5309   2.515703   0.292915  
2543.200000479817 112.8697   2.545671   0.3089845 
2543.400000482798 117.5108   2.510496   0.312428  
2543.600000485778 123.5429   2.500537   0.3273497 
2543.800000488758 124.8732   2.525936   0.351454  
2544.000000491738 123.5504   2.463444   0.3686713 
2544.200000494719 123.4522   2.498344   0.3606365 
2544.400000497699 122.7567   2.541194   0.3491583 
2544.600000500679 118.486    2.538635   0.3503061 
2544.800000503659 114.0413   2.588246   0.3422714 
2545.000000506639 109.763    2.627166   0.3296453 
2545.20000050962 104.638    2.638404   0.312428  
2545.4000005126 97.84254   2.697515   0.3078367 
2545.60000051558 93.2316    2.638952   0.2940628 
2545.80000051856 98.51528   2.61401    0.2906193 
2546.000000521541 104.2449   2.575546   0.2998019 
2546.200000524521 103.3908   2.586967   0.3009497 
2546.400000527501 103.6402   2.58989    0.2975062 
2546.600000530481 105.4695   2.582947   0.2871759 
2546.800000533462 109.2036   2.595829   0.2791411 
2547.000000536442 116.634    2.513145   0.2848802 
2547.200000539422 127.9119   2.469565   0.2894715 
2547.400000542402 141.0342   2.470845   0.3032454 
2547.600000545382 155.4793   2.431558   0.3158714 
2547.800000548363 173.4166   2.403693   0.3216106 
2548.000000551343 176.992    2.410454   0.3193149 
2548.200000554323 164.482    2.487838   0.3158714 
2548.400000557303 160.2112   2.502273   0.3216106 
2548.600000560284 164.2099   2.449283   0.3239062 
2548.800000563264 167.0142   2.412372   0.3307931 
2549.000000566244 168.5562   2.424432   0.344567  
2549.200000569224 171.6403   2.420686   0.351454  
2549.400000572205 177.1356   2.432837   0.3537496 
2549.600000575185 180.643    2.401043   0.3434192 
2549.800000578165 176.4251   2.417306   0.3480105 
2550.000000581145 170.4762   2.401226   0.3548974 
2550.200000584126 169.5767   2.401043   0.3617844 
2550.400000587106 171.5874   2.410636   0.3686713 
2550.600000590086 172.1921   2.381583   0.36408   
2550.800000593066 173.0311   2.389257   0.3388279 
2551.000000596046 177.3926   2.363676   0.3216106 
2551.200000599027 181.482    2.380578   0.3571931 
2551.400000602007 184.3242   2.363036   0.3778539 
2551.600000604987 190.5829   2.345769   0.3629322 
2551.800000607967 199.8502   2.327679   0.3503061 
2552.000000610948 205.1792   2.345677   0.3548974 
2552.200000613928 209.2081   2.338003   0.3571931 
2552.400000616908 213.9098   2.311051   0.3847408 
2552.600000619888 215.0209   2.294514   0.4042539 
2552.800000622869 212.6474   2.32375    0.3824452 
2553.000000625849 208.3086   2.296341   0.3721148 
2553.200000628829 201.5131   2.298077   0.3698192 
2553.400000631809 194.0903   2.344124   0.3537496 
2553.600000634789 187.4611   2.384963   0.344567  
2553.80000063777 179.1841   2.414656   0.3468627 
2554.00000064075 170.8995   2.426442   0.3388279 
2554.20000064373 160.3926   2.426168   0.3284975 
2554.40000064671 152.1534   2.470753   0.3216106 
2554.600000649691 152.2819   2.479341   0.3227584 
2554.800000652671 154.2245   2.45047    0.3296453 
2555.000000655651 159.2059   2.42626    0.3239062 
2555.200000658631 172.3886   2.448826   0.3170193 
2555.400000661612 189.5096   2.454034   0.3388279 
2555.600000664592 203.2517   2.420869   0.3629322 
2555.800000667572 217.7119   2.384415   0.3973669 
2556.000000670552 233.1321   2.339921   0.403106  
2556.200000673532 234.3642   2.34449    0.3870365 
2556.400000676513 238.1437   2.341018   0.3583409 
2556.600000679493 252.2184   2.318086   0.344567  
2556.800000682473 272.8391   2.309132   0.3526018 
2557.000000685453 299.8094   2.292504   0.3537496 
2557.200000688434 325.6911   2.262172   0.3583409 
2557.400000691414 336.5306   2.273775   0.370967  
2557.600000694394 341.4061   2.272496   0.3652278 
2557.800000697374 354.0673   2.283825   0.3468627 
2558.000000700355 375.8975   2.300818   0.3526018 
2558.200000703335 390.849    2.281723   0.3675235 
2558.400000706315 378.339    2.262629   0.3778539 
2558.600000709295 354.6947   2.24326    0.3698192 
2558.800000712276 334.913    2.209273   0.3617844 
2559.000000715256 322.3198   2.215668   0.383593  
2559.200000718236 318.1322   2.213567   0.4134364 
2559.400000721216 307.5194   2.219506   0.4088451 
2559.600000724196 289.499    2.212196   0.3893321 
2559.800000727177 272.378    2.243077   0.3663757 
2560.000000730157 252.3469   2.26939    0.3365322 
2560.200000733137 236.5714   2.307031   0.3181671 
2560.400000736117 233.5101   2.324024   0.3193149 
2560.600000739098 236.3068   2.281266   0.3388279 
2560.800000742078 238.8618   2.227819   0.3617844 
2561.000000745058 246.9347   2.225444   0.3893321 
2561.200000748038 254.9849   2.218957   0.3801496 
2561.400000751019 252.1655   2.222155   0.3698192 
2561.600000753999 249.7012   2.202603   0.3858887 
2561.800000756979 252.3091   2.202877   0.3893321 
2562.000000759959 256.1414   2.195934   0.3755583 
2562.200000762939 255.4838   2.19904    0.3594887 
2562.40000076592 244.7426   2.21247    0.3526018 
2562.6000007689 235.9894   2.213293   0.351454  
2562.80000077188 234.8555   2.208268   0.3468627 
2563.00000077486 238.1588   2.193467   0.3686713 
2563.200000777841 239.4362   2.185061   0.3870365 
2563.400000780821 239.3153   2.172545   0.3950713 
2563.600000783801 237.3273   2.171631   0.3824452 
2563.800000786781 232.4594   2.186706   0.3824452 
2564.000000789762 224.6057   2.194837   0.409993  
2564.200000792742 217.3113   2.197578   0.4157321 
2564.400000795722 208.5959   2.201233   0.409993  
2564.600000798702 189.4415   2.202147   0.39048   
2564.800000801682 167.7928   2.193832   0.36408   
2565.000000804663 155.5549   2.220602   0.3434192 
2565.200000807643 156.7794   2.255045   0.3284975 
2565.400000810623 162.237    2.260436   0.3434192 
2565.600000813603 161.4131   2.302372   0.3755583 
2565.800000816584 158.8052   2.294697   0.3652278 
2566.000000819564 156.7114   2.265918   0.3571931 
2566.200000822544 155.8346   2.275876   0.3663757 
2566.400000825524 154.6554   2.252213   0.3675235 
2566.600000828505 151.5184   2.22517    0.3675235 
2566.800000831485 142.3646   2.2111     0.3778539 
2567.000000834465 132.0769   2.244447   0.36408   
2567.200000837445 124.5104   2.276973   0.3376801 
2567.400000840425 118.879    2.296067   0.3296453 
2567.600000843406 114.2227   2.297255   0.3262018 
2567.800000846386 111.2369   2.29826    0.3135758 
2568.000000849366 114.2076   2.326948   0.3227584 
2568.200000852346 121.57     2.319365   0.3560453 
2568.400000855327 127.3677   2.336084   0.3663757 
2568.600000858307 129.4539   2.320827   0.3537496 
2568.800000861287 132.7043   2.294971   0.3365322 
2569.000000864267 138.9555   2.340561   0.3296453 
2569.200000867248 144.0729   2.307214   0.3239062 
2569.400000870228 151.8132   2.300727   0.3216106 
2569.600000873208 150.9591   2.318908   0.3273497 
2569.800000876188 132.417    2.30767    0.3342366 
2570.000000879169 117.0649   2.306209   0.3330888 
2570.200000882149 113.7087   2.303194   0.3262018 
2570.400000885129 108.9617   2.302919   0.3066888 
2570.600000888109 101.1609   2.306117   0.2883237 
2570.800000891089 97.76695   2.305021   0.2848802 
2571.00000089407 95.24982   2.324298   0.2883237 
2571.20000089705 94.82653   2.326674   0.2848802 
2571.40000090003 94.94747   2.287845   0.2894715 
2571.60000090301 94.06308   2.28885    0.2825845 
2571.800000905991 92.39256   2.32978    0.2734019 
2572.000000908971 93.11822   2.338186   0.2825845 
2572.200000911951 96.43658   2.351981   0.2871759 
2572.400000914931 98.04663   2.34851    0.2837324 
2572.600000917912 97.08665   2.367239   0.2906193 
2572.800000920892 97.41168   2.345038   0.305541  
2573.000000923872 101.6069   2.363859   0.3181671 
2573.200000926852 104.7212   2.329597   0.3112801 
2573.400000929832 104.57     2.320827   0.3020975 
2573.600000932813 105.3183   2.298352   0.3078367 
2573.800000935793 107.329    2.323202   0.3089845 
2574.000000938773 108.5838   2.314888   0.3101323 
