~Version
 VERS              .         2.0                           : CWLS LOG ASCII STANDARD - VERSION 2.0
 WRAP              .         NO                            : ONE LINE PER DEPTH STEP
 DLM               .         SPACE                         : DELIMITING CHARACTER(SPACE TAB OR COMMA)
~Well Information
#_______________________________________________________________________________
#
#PARAMETER_NAME    .UNIT     VALUE                         : DESCRIPTION
#_______________________________________________________________________________
STRT               .m        2511                          : First reference value
STOP               .m        2676.80000247061              : Last reference value
STEP               .m        0.2                           : Step increment
NULL               .         -9999                         : Missing value
COMP               .                                       : Company
WELL               .         605                           : Well name
FLD                .                                       : Field
LOC                .                                       : Location
CNTY               .                                       : County
STAT               .                                       : State
CTRY               .                                       : Country
SRVC               .                                       : Service Company
DATE               .                                       : Date
API                .                                       : API number
Cartographic_reference_system .         GCS_WGS_1984                  : GEOGCS["GCS_WGS_1984",DATUM["D_WGS_1984",SPHEROID["WGS_1984",6378137.0,298.257223563]],PRIMEM["Greenwich",0.0],UNIT["Degree",0.0174532925199433],AUTHORITY["EPSG",4326]]
EREF               .m        134                           : 
HZCS               .GCS_WGS_1984 World_Mercator                : PROJCS["World_Mercator",GEOGCS["GCS_WGS_1984",DATUM["D_WGS_1984",SPHEROID["WGS_1984",6378137.0,298.257223563]],PRIMEM["Greenwich",0.0],UNIT["Degree",0.0174532925199433]],PROJECTION["Mercator"],PARAMETER["False_Easting",0.0],PARAMETER["False_Northing",0.0],PARAMETER["Central_Meridian",0.0],PARAMETER["Standard_Parallel_1",0.0],UNIT["Meter",1.0],AUTHORITY["ESRI",54004]]
LATI               .dega     2.1305856004                  : GCS_WGS_1984
LONG               .dega     2.0279108213                  : GCS_WGS_1984
PROJECT_UPGRADE_TIME .         2014-05-27T11_38_46           : 
Pad                .         Pad6                          : 
X                  .m        225746                        : 
Y                  .m        235643                        : 
group              .         Pad6                          : 
Интер-р            .         Пузин                         : 
Куст               .         6                             : 
Статус             .         Не проверено                  : 
Тип                .         Эксплуатация                  : 
~Parameter Information Block
#_______________________________________________________________________________
#
#PARAMETER_NAME    .UNIT     VALUE                         : DESCRIPTION
#_______________________________________________________________________________
SET                .         LQC                           : 
PROJECT_UPGRADE_TIME .         2014-05-27T11_38_46           : 
TLFamily_GR_NORM   .         Gamma Ray                     : 
TLFamily_MD        .         Measured Depth                : 
TLFamily_RHOB_NORM .         Bulk Density                  : 
TLFamily_TNPH_NORM .         Neutron Porosity              : 
~Curve Information
#_______________________________________________________________________________
#
#LOGNAME           .UNIT     LOG_ID                        : DESCRIPTION
#_______________________________________________________________________________
MD                 .m                                      :  
GR_NORM            .gAPI                                   : Normalised By Techlog 
RHOB_NORM          .g/cm3                                  : Normalized By Techlog 
TNPH_NORM          .v/v                                    : Normalised By Techlog 
~Ascii
# ...
2637.400001883507 86.08842   2.389988   0.2986541 
2637.600001886487 82.14266   2.557456   0.2734019 
2637.800001889467 81.11465   2.562664   0.2412629 
2638.000001892447 81.0315    2.549234   0.2355238 
2638.200001895428 78.6202    2.600397   0.2332281 
2638.400001898408 78.38587   2.525205   0.2332281 
2638.600001901388 83.67712   2.462987   0.2424107 
2638.800001904368 90.01906   2.412189   0.247002  
2639.000001907349 92.25649   2.391268   0.247002  
2639.200001910329 92.57397   2.449283   0.2573324 
2639.400001913309 90.34409   2.579657   0.2779932 
2639.600001916289 87.81941   2.631277   0.305541  
2639.80000191927 86.56464   2.568785   0.3216106 
2640.00000192225 83.66956   2.516069   0.3353844 
2640.20000192523 83.42768   2.459881   0.3170193 
2640.40000192821 88.54507   2.40689    0.3147236 
2640.60000193119 94.62244   2.306757   0.312428  
2640.800001934171 95.61266   2.354083   0.325054  
2641.000001937151 90.66912   2.486193   0.3342366 
2641.200001940131 84.19113   2.576734   0.3262018 
2641.400001943111 80.07907   2.584134   0.2779932 
2641.600001946092 78.1062    2.506567   0.2492977 
2641.800001949072 76.51127   2.571526   0.2412629 
2642.000001952052 76.54906   2.546219   0.2515933 
2642.200001955032 78.85453   2.51077    0.2711063 
2642.400001958013 82.9817    2.529682   0.2745498 
2642.600001960993 87.18446   2.555995   0.2906193 
2642.800001963973 90.97904   2.518536   0.3043932 
2643.000001966953 92.70247   2.55234    0.3032454 
2643.200001969934 93.57931   2.555629   0.3101323 
2643.400001972914 94.07819   2.561841   0.3284975 
2643.600001975894 95.01551   2.534889   0.3009497 
2643.800001978874 96.3232    2.570247   0.2883237 
2644.000001981854 96.11911   2.593636   0.2745498 
2644.200001984835 94.01773   2.58523    0.2458542 
2644.400001987815 87.48682   2.583403   0.2435585 
2644.600001990795 80.75938   2.527124   0.2355238 
2644.800001993775 75.80829   2.508212   0.2171586 
2645.000001996756 70.67578   2.481351   0.2033847 
2645.200001999736 64.43967   2.463809   0.2033847 
2645.400002002716 60.57706   2.470662   0.2068282 
2645.600002005696 56.60107   2.463535   0.2033847 
2645.800002008677 49.88875   2.462896   0.1964978 
2646.000002011657 43.47123   2.45851    0.1987934 
2646.200002014637 40.51568   2.463718   0.2010891 
2646.400002017617 37.991     2.423427   0.2091238 
2646.600002020597 35.90474   2.433568   0.2217499 
2646.800002023578 34.74067   2.452206   0.2194542 
2647.000002026558 36.49434   2.439507   0.2137151 
2647.200002029538 39.69176   2.380395   0.2160108 
2647.400002032518 37.78691   2.339099   0.2251934 
2647.600002035499 36.03325   2.297895   0.2343759 
2647.800002038479 36.30537   2.256051   0.2401151 
2648.000002041459 36.78913   2.165236   0.2401151 
2648.200002044439 36.66819   2.066838   0.247002  
2648.40000204742 36.12395   1.953183   0.2756976 
2648.6000020504 30.43964   1.834503   0.3262018 
2648.80000205338 22.96387   1.725324   0.3881843 
2649.00000205636 18.27734   1.668496   0.4329494 
2649.20000205934 12.25288   1.636794   0.4696798 
2649.400002062321 13.71931   1.636337   0.4409842 
2649.600002065301 17.53656   1.6399     0.4054017 
2649.800002068281 25.65484   1.656071   0.3652278 
2650.000002071261 30.25067   1.672973   0.3388279 
2650.200002074242 35.88206   1.717741   0.292915  
2650.400002077222 54.40142   1.775848   0.2802889 
2650.600002080202 72.23291   2.347413   0.247002  
2650.800002083182 73.7825    2.40013    0.2515933 
2651.000002086163 70.07862   2.272587   0.2596281 
2651.200002089143 58.42277   2.2111     0.2722541 
2651.400002092123 48.63396   2.165784   0.2825845 
2651.600002095103 46.69888   2.055875   0.2722541 
2651.800002098083 51.06794   2.080543   0.2504455 
2652.000002101064 58.39253   2.290586   0.2320803 
2652.200002104044 66.78294   2.494416   0.2366716 
2652.400002107024 77.84164   2.58989    0.2435585 
2652.600002110004 86.60999   2.598113   0.2538889 
2652.800002112985 92.40768   2.586784   0.2584803 
2653.000002115965 94.29741   2.559557   0.2538889 
2653.200002118945 93.07287   2.540554   0.2355238 
2653.400002121925 88.4846    2.591809   0.2320803 
2653.600002124906 84.02483   2.574176   0.2366716 
2653.800002127886 80.91811   2.493868   0.2538889 
2654.000002130866 78.4917    2.464266   0.2711063 
2654.200002133846 76.31474   2.432837   0.286028  
2654.400002136827 74.77271   2.437406   0.2837324 
2654.600002139807 75.92168   2.423427   0.2745498 
2654.800002142787 73.27605   2.449922   0.2722541 
2655.000002145767 69.36809   2.488477   0.2779932 
2655.200002148747 71.22758   2.491492   0.2883237 
2655.400002151728 76.08797   2.576825   0.2940628 
2655.600002154708 79.33074   2.523469   0.2791411 
2655.800002157688 79.74648   2.478336   0.2676628 
2656.000002160668 76.59441   2.428818   0.2584803 
2656.200002163649 72.89055   2.435122   0.2481498 
2656.400002166629 68.92967   2.448369   0.2504455 
2656.600002169609 66.7527    2.44773    0.2573324 
2656.800002172589 70.32806   2.448186   0.2722541 
2657.00000217557 74.06218   2.464449   0.2791411 
2657.20000217855 76.05773   2.44709    0.2837324 
2657.40000218153 81.0315    2.468286   0.2756976 
2657.60000218451 85.93724   2.460886   0.2756976 
2657.80000218749 83.67712   2.457231   0.3043932 
2658.000002190471 83.44279   2.47459    0.3204627 
2658.200002193451 88.6131    2.43905    0.3043932 
2658.400002196431 90.57841   2.411093   0.2940628 
2658.600002199411 82.18801   2.407165   0.2745498 
2658.800002202392 71.10664   2.402505   0.2642194 
2659.000002205372 66.81317   2.40214    0.2596281 
2659.200002208352 70.01059   2.459972   0.266515  
2659.400002211332 77.99281   2.453029   0.2768454 
2659.600002214313 83.45036   2.526119   0.2825845 
2659.800002217293 85.01505   2.576551   0.2802889 
2660.000002220273 83.2387    2.557365   0.2734019 
2660.200002223253 81.46236   2.546767   0.2596281 
2660.400002226233 79.33074   2.511227   0.2607759 
2660.600002229214 78.1062    2.484001   0.2688107 
2660.800002232194 77.73581   2.471118   0.266515  
2661.000002235174 76.63221   2.475778   0.2619237 
2661.200002238154 73.97903   2.493137   0.2573324 
2661.400002241135 71.08396   2.499806   0.2619237 
2661.600002244115 69.54194   2.539275   0.2642194 
2661.800002247095 63.33607   2.601402   0.2642194 
2662.000002250075 60.0555    2.614192   0.2504455 
2662.200002253056 63.43433   2.633835   0.2447064 
2662.400002256036 63.35119   2.612457   0.2343759 
2662.600002259016 58.63441   2.625247   0.2297847 
2662.800002261996 59.82872   2.613736   0.2183064 
2663.000002264977 64.68156   2.624973   0.2171586 
2663.200002267957 70.89499   2.598935   0.2286368 
2663.400002270937 77.82652   2.526484   0.2435585 
2663.600002273917 81.53039   2.530687   0.2676628 
2663.800002276897 81.04662   2.564765   0.3020975 
2664.000002279878 82.27872   2.61401    0.3066888 
2664.200002282858 84.68246   2.57847    0.3078367 
2664.400002285838 83.76027   2.534981   0.2825845 
2664.600002288818 78.3103    2.469931   0.2401151 
2664.800002291799 69.83674   2.402231   0.2160108 
2665.000002294779 62.8145    2.412738   0.2102716 
2665.200002297759 60.2747    2.437314   0.2102716 
2665.400002300739 60.19912   2.404698   0.2114195 
2665.60000230372 59.32228   2.427356   0.2114195 
2665.8000023067 59.0048    2.452846   0.2114195 
2666.00000230968 61.68822   2.438411   0.2171586 
2666.20000231266 65.33163   2.464632   0.2217499 
2666.40000231564 69.12621   2.437314   0.2183064 
2666.600002318621 72.437     2.418585   0.2125673 
2666.800002321601 70.11642   2.443253   0.2240455 
2667.000002324581 66.82073   2.425802   0.2343759 
2667.200002327561 67.07018   2.429      0.2343759 
2667.400002330542 67.96969   2.46317    0.2401151 
2667.600002333522 70.21468   2.391541   0.2481498 
2667.800002336502 72.14221   2.387248   0.2492977 
2668.000002339482 73.16266   2.426077   0.2504455 
2668.200002342463 75.70246   2.436126   0.2561846 
2668.400002345443 82.31652   2.428543   0.2584803 
2668.600002348423 89.79229   2.41959    0.2653672 
2668.800002351403 93.76073   2.492589   0.2722541 
