~Version
 VERS              .         2.0                           : CWLS LOG ASCII STANDARD - VERSION 2.0
 WRAP              .         NO                            : ONE LINE PER DEPTH STEP
 DLM               .         SPACE                         : DELIMITING CHARACTER(SPACE TAB OR COMMA)
~Well Information
#_______________________________________________________________________________
#
#PARAMETER_NAME    .UNIT     VALUE                         : DESCRIPTION
#_______________________________________________________________________________
STRT               .m        2460                          : First reference value
STOP               .m        2677.80000324547              : Last reference value
STEP               .m        0.2                           : Step increment
NULL               .         -9999                         : Missing value
COMP               .                                       : Company
WELL               .         606                           : Well name
FLD                .                                       : Field
LOC                .                                       : Location
CNTY               .                                       : County
STAT               .                                       : State
CTRY               .                                       : Country
SRVC               .                                       : Service Company
DATE               .                                       : Date
API                .                                       : API number
Cartographic_reference_system .         GCS_WGS_1984                  : GEOGCS["GCS_WGS_1984",DATUM["D_WGS_1984",SPHEROID["WGS_1984",6378137.0,298.257223563]],PRIMEM["Greenwich",0.0],UNIT["Degree",0.0174532925199433],AUTHORITY["EPSG",4326]]
EREF               .m        134                           : 
HZCS               .GCS_WGS_1984 World_Mercator                : PROJCS["World_Mercator",GEOGCS["GCS_WGS_1984",DATUM["D_WGS_1984",SPHEROID["WGS_1984",6378137.0,298.257223563]],PRIMEM["Greenwich",0.0],UNIT["Degree",0.0174532925199433]],PROJECTION["Mercator"],PARAMETER["False_Easting",0.0],PARAMETER["False_Northing",0.0],PARAMETER["Central_Meridian",0.0],PARAMETER["Standard_Parallel_1",0.0],UNIT["Meter",1.0],AUTHORITY["ESRI",54004]]
LATI               .dega     2.1305856004                  : GCS_WGS_1984
LONG               .dega     2.0279108213                  : GCS_WGS_1984
PROJECT_UPGRADE_TIME .         2014-05-27T11_38_46           : 
Pad                .         Pad6                          : 
X                  .m        225746                        : 
Y                  .m        235643                        : 
group              .         Pad6                          : 
Интер-р            .         Пузин                         : 
Куст               .         6                             : 
Статус             .         Не проверено                  : 
Тип                .         Нагнетательные                : 
~Parameter Information Block
#_______________________________________________________________________________
#
#PARAMETER_NAME    .UNIT     VALUE                         : DESCRIPTION
#_______________________________________________________________________________
SET                .         LQC                           : 
PROJECT_UPGRADE_TIME .         2014-05-27T11_38_46           : 
TLFamily_GR_NORM   .         Gamma Ray                     : 
TLFamily_MD        .         Measured Depth                : 
TLFamily_RHOB_NORM .         Bulk Density                  : 
TLFamily_TNPH_NORM .         Neutron Porosity              : 
~Curve Information
#_______________________________________________________________________________
#
#LOGNAME           .UNIT     LOG_ID                        : DESCRIPTION
#_______________________________________________________________________________
MD                 .m                                      :  
GR_NORM            .gAPI                                   : Normalised By Techlog 
RHOB_NORM          .g/cm3                                  : Normalized By Techlog 
TNPH_NORM          .v/v                                    : Normalised By Techlog 
~Ascii
# ...
2649.60000282526 82.83218   2.497469   0.2277276 
2649.80000282824 82.55228   2.503387   0.2508825 
2650.000002831221 84.93138   2.542287   0.2686939 
2650.200002834201 85.49992   2.510468   0.2722561 
2650.400002837181 80.89915   2.55713    0.2686939 
2650.600002840161 72.3886    2.568771   0.2847241 
2650.800002843142 63.37075   2.576823   0.2989733 
2651.000002846122 62.05      2.616402   0.2900676 
2651.200002849102 69.79958   2.609902   0.282943  
2651.400002852082 77.75909   2.647057   0.2740373 
2651.600002855062 80.00699   2.649288   0.2686939 
2651.800002858043 76.07971   2.58371    0.2651316 
2652.000002861023 76.77071   2.547332   0.2669127 
2652.200002864003 78.32761   2.493007   0.2811618 
2652.400002866983 76.44707   2.463904   0.2882864 
2652.600002869964 73.94553   2.474478   0.2793807 
2652.800002872944 71.87255   2.443436   0.270475  
2653.000002875924 72.44983   2.421124   0.2633505 
2653.200002878904 69.64214   2.459345   0.2491013 
2653.400002881885 62.14621   2.492037   0.2241654 
2653.600002884865 57.68539   2.468076   0.2027917 
2653.800002887845 53.6794    2.502223   0.1956671 
2654.000002890825 56.40837   2.552861   0.2010105 
2654.200002893806 65.82858   2.612425   0.2348522 
2654.400002896786 76.76196   2.628625   0.2865053 
2654.600002899766 88.31636   2.518132   0.3150035 
2654.800002902746 94.58775   2.451487   0.3132224 
2655.000002905726 98.2701    2.414042   0.3007544 
2655.200002908707 98.06893   2.340801   0.295411  
2655.400002911687 90.43306   2.358262   0.3007544 
2655.600002914667 88.45631   2.347688   0.3096601 
2655.800002917647 94.06294   2.353121   0.2989733 
2656.000002920628 96.49452   2.451487   0.2758184 
2656.200002923608 93.93175   2.530937   0.2562259 
2656.400002926588 90.83541   2.537534   0.2312899 
2656.600002929568 91.60512   2.54025    0.2259465 
2656.800002932549 91.17653   2.512991   0.2241654 
2657.000002935529 84.69521   2.566345   0.2206031 
2657.200002938509 81.73009   2.563144   0.2330711 
2657.400002941489 81.31899   2.607477   0.258007  
2657.600002944469 79.54341   2.666943   0.2633505 
2657.80000294745 73.57816   2.660832   0.2491013 
2658.00000295043 69.55467   2.625133   0.2277276 
2658.20000295341 65.96852   2.639102   0.2099162 
2658.40000295639 57.83409   2.72544    0.1974483 
2658.600002959371 53.27705   2.697889   0.1921048 
2658.800002962351 55.62991   2.62164    0.1956671 
2659.000002965331 63.91305   2.581479   0.2134785 
2659.200002968311 72.23117   2.610678   0.2384145 
2659.400002971292 73.07959   2.647444   0.270475  
2659.600002974272 66.50207   2.799263   0.282943  
2659.800002977252 63.45822   2.733006   0.2633505 
2660.000002980232 70.03574   2.624163   0.2366333 
2660.200002983212 73.61314   2.485246   0.2259465 
2660.400002986193 64.77022   2.470016   0.2081351 
2660.600002989173 57.02939   2.446928   0.2081351 
2660.800002992153 57.55419   2.451099   0.2045728 
2661.000002995133 55.69114   2.404535   0.2010105 
2661.200002998114 51.23033   2.375142   0.2170408 
2661.400003001094 45.12513   2.397648   0.2223842 
2661.600003004074 40.29694   2.428981   0.2045728 
2661.800003007054 42.18623   2.437615   0.2099162 
2662.000003010035 44.92395   2.482724   0.2099162 
2662.200003013015 49.90082   2.49582    0.2134785 
2662.400003015995 55.69989   2.523274   0.2081351 
2662.600003018975 59.70588   2.542094   0.2027917 
2662.800003021955 62.97715   2.522886   0.1956671 
2663.000003024936 63.7556    2.508237   0.2063539 
2663.200003027916 63.14334   2.486604   0.2223842 
2663.400003030896 65.22505   2.425877   0.2419768 
2663.600003033876 69.58966   2.401237   0.2544447 
2663.800003036857 72.09996   2.448577   0.2401956 
2664.000003039837 72.67725   2.530743   0.2277276 
2664.200003042817 75.34499   2.513476   0.2259465 
2664.400003045797 83.6806    2.562756   0.2295088 
2664.600003048778 87.79155   2.53637    0.2419768 
2664.800003051758 87.19678   2.493007   0.258007  
2665.000003054738 84.38908   2.476807   0.2740373 
2665.200003057718 81.75632   2.469434   0.2758184 
2665.400003060699 80.61926   2.487186   0.2633505 
2665.600003063679 76.2459    2.459636   0.2348522 
2665.800003066659 63.4932    2.464875   0.2241654 
2666.000003069639 55.17508   2.496111   0.2134785 
2666.200003072619 51.70265   2.594381   0.2063539 
2666.4000030756 49.00866   2.623677   0.1903237 
2666.60000307858 47.5742    2.539571   0.1992294 
2666.80000308156 49.74339   2.460218   0.2134785 
2667.00000308454 51.37027   2.446734   0.2152596 
2667.200003087521 48.85997   2.475546   0.2188219 
2667.400003090501 45.27381   2.482724   0.2206031 
2667.600003093481 44.50411   2.467203   0.2116974 
2667.800003096461 43.67317   2.473508   0.2027917 
2668.000003099442 43.62944   2.466815   0.2045728 
2668.200003102422 43.65568   2.473314   0.2099162 
2668.400003105402 44.92395   2.461382   0.2099162 
2668.600003108382 49.12237   2.47215    0.2116974 
2668.800003111362 56.39963   2.442077   0.2099162 
2669.000003114343 61.35901   2.470113   0.2116974 
2669.200003117323 66.35338   2.494462   0.2295088 
2669.400003120303 79.32475   2.546944   0.2597882 
2669.600003123283 86.70696   2.501544   0.2758184 
2669.800003126264 86.33961   2.407931   0.2900676 
2670.000003129244 84.64274   2.372425   0.3007544 
2670.200003132224 82.64849   2.426071   0.3060978 
2670.400003135204 80.80293   2.548302   0.2971921 
2670.600003138185 81.23152   2.547235   0.2971921 
2670.800003141165 78.66      2.498148   0.2918487 
2671.000003144145 77.08559   2.478844   0.2722561 
2671.200003147125 76.70948   2.439555   0.2633505 
2671.400003150105 76.10596   2.389499   0.2740373 
2671.600003153086 75.7211    2.317131   0.282943  
2671.800003156066 76.41209   2.234285   0.2971921 
2672.000003159046 73.58691   2.127188   0.3114412 
2672.200003162026 68.5488    2.019799   0.3221281 
2672.400003165007 61.01789   1.901061   0.3417206 
2672.600003167987 49.97954   1.801336   0.3630943 
2672.800003170967 38.88872   1.731587   0.4129662 
2673.000003173947 35.90609   1.73731    0.3951548 
2673.200003176928 46.87447   2.034351   0.3755623 
2673.400003179908 67.47295   2.460509   0.3221281 
2673.600003182888 80.52304   2.551697   0.2936298 
2673.800003185868 79.59589   2.528609   0.2615693 
2674.000003188848 73.07959   2.52502    0.2562259 
2674.200003191829 65.60116   2.528027   0.2597882 
2674.400003194809 59.92455   2.516289   0.2686939 
2674.600003197789 59.87207   2.489224   0.2722561 
2674.800003200769 66.39711   2.447801   0.2669127 
2675.00000320375 77.28677   2.452942   0.2544447 
2675.20000320673 87.03934   2.531811   0.2526636 
2675.40000320971 93.40694   2.554607   0.2686939 
2675.60000321269 91.18528   2.60544    0.2758184 
2675.800003215671 87.84404   2.548593   0.2722561 
2676.000003218651 87.94025   2.5127     0.2811618 
2676.200003221631 88.87614   2.616402   0.2882864 
2676.400003224611 87.56414   2.612813   0.2918487 
2676.600003227592 88.98985   2.575949   0.3114412 
2676.800003230572 91.40394   2.599813   0.3435018 
2677.000003233552 91.15903   2.57139    0.3541886 
2677.200003236532 90.30186   -9999      0.3488452 
2677.400003239512 88.43881   -9999      0.3488452 
2677.600003242493 87.79155   -9999      0.347064  
2677.800003245473 -14.90352  -9999      0.3417206 
