~Version
 VERS              .         2.0                           : CWLS LOG ASCII STANDARD - VERSION 2.0
 WRAP              .         NO                            : ONE LINE PER DEPTH STEP
 DLM               .         SPACE                         : DELIMITING CHARACTER(SPACE TAB OR COMMA)
~Well Information
#_______________________________________________________________________________
#
#PARAMETER_NAME    .UNIT     VALUE                         : DESCRIPTION
#_______________________________________________________________________________
STRT               .m        2460                          : First reference value
STOP               .m        2677.80000324547              : Last reference value
STEP               .m        0.2                           : Step increment
NULL               .         -9999                         : Missing value
COMP               .                                       : Company
WELL               .         606                           : Well name
FLD                .                                       : Field
LOC                .                                       : Location
CNTY               .                                       : County
STAT               .                                       : State
CTRY               .                                       : Country
SRVC               .                                       : Service Company
DATE               .                                       : Date
API                .                                       : API number
Cartographic_reference_system .         GCS_WGS_1984                  : GEOGCS["GCS_WGS_1984",DATUM["D_WGS_1984",SPHEROID["WGS_1984",6378137.0,298.257223563]],PRIMEM["Greenwich",0.0],UNIT["Degree",0.0174532925199433],AUTHORITY["EPSG",4326]]
EREF               .m        134                           : 
HZCS               .GCS_WGS_1984 World_Mercator                : PROJCS["World_Mercator",GEOGCS["GCS_WGS_1984",DATUM["D_WGS_1984",SPHEROID["WGS_1984",6378137.0,298.257223563]],PRIMEM["Greenwich",0.0],UNIT["Degree",0.0174532925199433]],PROJECTION["Mercator"],PARAMETER["False_Easting",0.0],PARAMETER["False_Northing",0.0],PARAMETER["Central_Meridian",0.0],PARAMETER["Standard_Parallel_1",0.0],UNIT["Meter",1.0],AUTHORITY["ESRI",54004]]
LATI               .dega     2.1305856004                  : GCS_WGS_1984
LONG               .dega     2.0279108213                  : GCS_WGS_1984
PROJECT_UPGRADE_TIME .         2014-05-27T11_38_46           : 
Pad                .         Pad6                          : 
X                  .m        225746                        : 
Y                  .m        235643                        : 
group              .         Pad6                          : 
Интер-р            .         Пузин                         : 
Куст               .         6                             : 
Статус             .         Не проверено                  : 
Тип                .         Нагнетательные                : 
~Parameter Information Block
#_______________________________________________________________________________
#
#PARAMETER_NAME    .UNIT     VALUE                         : DESCRIPTION
#_______________________________________________________________________________
SET                .         LQC                           : 
PROJECT_UPGRADE_TIME .         2014-05-27T11_38_46           : 
TLFamily_GR_NORM   .         Gamma Ray                     : 
TLFamily_MD        .         Measured Depth                : 
TLFamily_RHOB_NORM .         Bulk Density                  : 
TLFamily_TNPH_NORM .         Neutron Porosity              : 
~Curve Information
#_______________________________________________________________________________
#
#LOGNAME           .UNIT     LOG_ID                        : DESCRIPTION
#_______________________________________________________________________________
MD                 .m                                      :  
GR_NORM            .gAPI                                   : Normalised By Techlog 
RHOB_NORM          .g/cm3                                  : Normalized By Techlog 
TNPH_NORM          .v/v                                    : Normalised By Techlog 
~Ascii
# ...
2618.000002354383 60.80796   2.468949   0.2027917 
2618.200002357364 58.14896   2.470695   0.1921048 
2618.400002360344 56.4696    2.47215    0.181418  
2618.600002363324 56.57457   2.493201   0.1671689 
2618.800002366304 57.94779   2.504842   0.1653877 
2619.000002369285 59.79335   2.522013   0.1529197 
2619.200002372265 55.83984   2.570032   0.1475763 
2619.400002375245 49.446     2.643855   0.144014  
2619.600002378225 44.29419   2.691098   0.1368895 
2619.800002381206 42.53609   2.59312    0.156482  
2620.000002384186 42.77226   2.543548   0.1742934 
2620.200002387166 43.25333   2.549369   0.1778557 
2620.400002390146 43.06964   2.585941   0.1582632 
2620.600002393126 39.02867   2.562659   0.1547009 
2620.800002396107 38.53885   2.515416   0.1671689 
2621.000002399087 45.44      2.478262   0.1760746 
2621.200002402067 50.91544   2.483112   0.1956671 
2621.400002405047 52.49859   2.481754   0.2010105 
2621.600002408028 53.37327   2.485149   0.2170408 
2621.800002411008 53.89807   2.495141   0.2206031 
2622.000002413988 54.45786   2.484567   0.2081351 
2622.200002416968 53.43449   2.480493   0.1903237 
2622.400002419949 47.38177   2.455368   0.1831991 
2622.600002422929 43.63818   2.454398   0.1849803 
2622.800002425909 40.9267    2.450323   0.1849803 
2623.000002428889 38.20648   2.398909   0.1796368 
2623.20000243187 35.52998   2.396677   0.1742934 
2623.40000243485 30.64933   2.396386   0.1582632 
2623.60000243783 26.89699   2.514058   0.144014  
2623.80000244081 23.59948   2.645602   0.1208592 
2624.00000244379 19.0162    2.765601   0.1030478 
2624.200002446771 15.15016   2.802561   0.09770439
2624.400002449751 14.258     2.735819   0.09948553
2624.600002452731 15.18515   2.695949   0.1048289 
2624.800002455711 16.12104   2.702448   0.1083912 
2625.000002458692 18.08905   2.577017   0.1119535 
2625.200002461672 21.12416   2.5127     0.1279838 
2625.400002464652 24.49164   2.506879   0.1547009 
2625.600002467632 30.77178   2.433444   0.1992294 
2625.800002470613 34.77777   2.398327   0.2206031 
2626.000002473593 34.35793   2.332458   0.2241654 
2626.200002476573 33.50949   2.330033   0.2134785 
2626.400002479553 31.70768   2.364277   0.2188219 
2626.600002482533 31.6552    2.332846   0.2152596 
2626.800002485514 33.44827   2.320526   0.1992294 
2627.000002488494 34.68156   2.324309   0.2116974 
2627.200002491474 35.68743   2.324794   0.2170408 
2627.400002494454 34.20923   2.323145   0.2152596 
2627.600002497435 31.27034   2.333234   0.2188219 
2627.800002500415 30.12452   2.321302   0.2206031 
2628.000002503395 31.66394   2.333913   0.2134785 
2628.200002506375 35.0839    2.375627   0.2116974 
2628.400002509356 40.45438   2.442757   0.2027917 
2628.600002512336 47.34679   2.524535   0.193886  
2628.800002515316 53.58319   2.532101   0.1921048 
2629.000002518296 56.60955   2.447995   0.1974483 
2629.200002521276 56.38213   2.412878   0.2099162 
2629.400002524257 55.9273    2.431115   0.2206031 
2629.600002527237 53.58319   2.436742   0.2259465 
2629.800002530217 52.83972   2.530452   0.2473202 
2630.000002533197 57.40549   2.573524   0.258007  
2630.200002536178 66.93066   2.669369   0.2633505 
2630.400002539158 81.45894   2.685666   0.2669127 
2630.600002542138 95.86476   2.668981   0.2793807 
2630.800002545118 99.45966   2.625327   0.2847241 
2631.000002548099 95.81229   2.508625   0.2900676 
2631.200002551079 94.95511   2.440428   0.2775996 
2631.400002554059 97.49165   2.37359    0.2615693 
2631.600002557039 99.30222   2.347688   0.2633505 
2631.800002560019 99.69582   2.386201   0.2758184 
2632.000002563 96.76567   2.319847   0.3345961 
2632.20000256598 86.16467   2.240591   0.3363772 
2632.40000256896 75.54617   2.116808   0.3666566 
2632.60000257194 78.20516   2.055595   0.3666566 
2632.800002574921 83.73309   2.191601   0.3292527 
2633.000002577901 84.25789   2.5516     0.2633505 
2633.200002580881 85.63112   2.519781   0.2330711 
2633.400002583861 91.83253   2.512506   0.2170408 
2633.600002586842 90.64298   2.492231   0.2312899 
2633.800002589822 82.74471   2.560622   0.2419768 
2634.000002592802 76.69198   2.514349   0.2597882 
2634.200002595782 75.58115   2.546362   0.2651316 
2634.400002598763 78.31013   2.524535   0.2526636 
2634.600002601743 84.66898   2.526087   0.258007  
2634.800002604723 92.56726   2.510857   0.2686939 
2635.000002607703 94.14165   2.530937   0.2740373 
2635.200002610683 88.16766   2.491552   0.2882864 
2635.400002613664 81.36272   2.482142   0.2989733 
2635.600002616644 78.70373   2.442271   0.2989733 
2635.800002619624 79.43845   2.408998   0.2918487 
2636.000002622604 80.30437   2.368157   0.2811618 
2636.200002625585 83.06833   2.432668   0.2865053 
2636.400002628565 87.92275   2.587008   0.295411  
2636.600002631545 89.96074   2.59797    0.3185658 
2636.800002634525 93.34571   2.485925   0.3150035 
2637.000002637506 95.09505   2.494462   0.3078789 
2637.200002640486 91.06283   2.40861    0.3060978 
2637.400002643466 88.83241   2.363209   0.3185658 
2637.600002646446 87.42419   2.333137   0.3239092 
2637.800002649426 88.25513   2.412878   0.3025355 
2638.000002652407 89.30473   2.506588   0.258007  
2638.200002655387 84.32786   2.544713   0.2526636 
2638.400002658367 83.92551   2.57983    0.2526636 
2638.600002661347 81.32774   2.538698   0.2669127 
2638.800002664328 75.46745   2.514252   0.2615693 
2639.000002667308 73.0621    2.54675    0.2562259 
2639.200002670288 73.09709   2.514252   0.2615693 
2639.400002673268 75.44996   2.542481   0.2651316 
2639.600002676249 77.39172   2.526572   0.2722561 
2639.800002679229 82.52604   2.461964   0.2882864 
2640.000002682209 90.1969    2.485731   0.3060978 
2640.200002685189 95.32246   2.531034   0.3221281 
2640.400002688169 95.6461    2.542287   0.3221281 
2640.60000269115 95.61111   2.556742   0.3185658 
2640.80000269413 94.41281   2.553249   0.3185658 
2641.00000269711 91.74507   2.537728   0.3025355 
2641.20000270009 92.13867   2.53055    0.2989733 
2641.400002703071 95.35746   2.530161   0.3007544 
2641.600002706051 95.14754   2.498537   0.2793807 
2641.800002709031 88.42132   2.438488   0.2686939 
2642.000002712011 80.1032    2.43519    0.2615693 
2642.200002714992 74.19043   2.460218   0.2508825 
2642.400002717972 70.12321   2.450711   0.2544447 
2642.600002720952 64.09673   2.442563   0.2384145 
2642.800002723932 57.16059   2.451293   0.2116974 
2643.000002726912 53.06713   2.47671    0.1885425 
2643.200002729893 50.27693   2.452263   0.1849803 
2643.400002732873 53.44324   2.446443   0.193886  
2643.600002735853 57.01189   2.387947   0.2010105 
2643.800002738833 61.68264   2.333331   0.1974483 
2644.000002741814 71.339     2.267947   0.2170408 
2644.200002744794 77.74158   2.153768   0.245539  
2644.400002747774 79.75333   2.028627   0.2758184 
2644.600002750754 76.14969   1.897957   0.295411  
2644.800002753735 67.77909   1.79959    0.3043167 
2645.000002756715 54.02052   1.727027   0.3274715 
2645.200002759695 36.57085   1.689388   0.3880303 
2645.400002762675 17.1619    1.682986   0.3880303 
2645.600002765656 5.56377    1.666688   0.4058416 
2645.800002768636 6.735829   1.657957   0.4058416 
2646.000002771616 12.70108   1.679687   0.3933737 
2646.200002774596 19.40106   1.735176   0.4094039 
2646.400002777576 31.53274   2.028918   0.4076228 
2646.600002780557 46.62081   2.532877   0.3363772 
2646.800002783537 63.21331   2.620088   0.3060978 
2647.000002786517 76.47332   2.676935   0.3007544 
2647.200002789497 83.19953   2.583031   0.2971921 
2647.400002792478 86.15592   2.556354   0.2775996 
2647.600002795458 86.2084    2.513476   0.2686939 
2647.800002798438 80.95163   2.447995   0.2686939 
2648.000002801418 75.03011   2.370776   0.2740373 
2648.200002804399 65.13758   2.279394   0.2918487 
2648.400002807379 51.11662   2.177632   0.2971921 
2648.600002810359 49.73463   2.155029   0.3007544 
2648.800002813339 60.79922   2.315773   0.2615693 
2649.000002816319 74.55779   2.466912   0.2277276 
2649.2000028193 79.78831   2.487284   0.2134785 
2649.40000282228 81.85254   2.456726   0.2027917 
