~Version
 VERS              .         2.0                           : CWLS LOG ASCII STANDARD - VERSION 2.0
 WRAP              .         NO                            : ONE LINE PER DEPTH STEP
 DLM               .         SPACE                         : DELIMITING CHARACTER(SPACE TAB OR COMMA)
~Well Information
#_______________________________________________________________________________
#
#PARAMETER_NAME    .UNIT     VALUE                         : DESCRIPTION
#_______________________________________________________________________________
STRT               .m        2460                          : First reference value
STOP               .m        2677.80000324547              : Last reference value
STEP               .m        0.2                           : Step increment
NULL               .         -9999                         : Missing value
COMP               .                                       : Company
WELL               .         606                           : Well name
FLD                .                                       : Field
LOC                .                                       : Location
CNTY               .                                       : County
STAT               .                                       : State
CTRY               .                                       : Country
SRVC               .                                       : Service Company
DATE               .                                       : Date
API                .                                       : API number
Cartographic_reference_system .         GCS_WGS_1984                  : GEOGCS["GCS_WGS_1984",DATUM["D_WGS_1984",SPHEROID["WGS_1984",6378137.0,298.257223563]],PRIMEM["Greenwich",0.0],UNIT["Degree",0.0174532925199433],AUTHORITY["EPSG",4326]]
EREF               .m        134                           : 
HZCS               .GCS_WGS_1984 World_Mercator                : PROJCS["World_Mercator",GEOGCS["GCS_WGS_1984",DATUM["D_WGS_1984",SPHEROID["WGS_1984",6378137.0,298.257223563]],PRIMEM["Greenwich",0.0],UNIT["Degree",0.0174532925199433]],PROJECTION["Mercator"],PARAMETER["False_Easting",0.0],PARAMETER["False_Northing",0.0],PARAMETER["Central_Meridian",0.0],PARAMETER["Standard_Parallel_1",0.0],UNIT["Meter",1.0],AUTHORITY["ESRI",54004]]
LATI               .dega     2.1305856004                  : GCS_WGS_1984
LONG               .dega     2.0279108213                  : GCS_WGS_1984
PROJECT_UPGRADE_TIME .         2014-05-27T11_38_46           : 
Pad                .         Pad6                          : 
X                  .m        225746                        : 
Y                  .m        235643                        : 
group              .         Pad6                          : 
Интер-р            .         Пузин                         : 
Куст               .         6                             : 
Статус             .         Не проверено                  : 
Тип                .         Нагнетательные                : 
~Parameter Information Block
#_______________________________________________________________________________
#
#PARAMETER_NAME    .UNIT     VALUE                         : DESCRIPTION
#_______________________________________________________________________________
SET                .         LQC                           : 
PROJECT_UPGRADE_TIME .         2014-05-27T11_38_46           : 
TLFamily_GR_NORM   .         Gamma Ray                     : 
TLFamily_MD        .         Measured Depth                : 
TLFamily_RHOB_NORM .         Bulk Density                  : 
TLFamily_TNPH_NORM .         Neutron Porosity              : 
~Curve Information
#_______________________________________________________________________________
#
#LOGNAME           .UNIT     LOG_ID                        : DESCRIPTION
#_______________________________________________________________________________
MD                 .m                                      :  
GR_NORM            .gAPI                                   : Normalised By Techlog 
RHOB_NORM          .g/cm3                                  : Normalized By Techlog 
TNPH_NORM          .v/v                                    : Normalised By Techlog 
~Ascii
# ...
2554.80000141263 219.4645   2.318295   0.3381583 
2555.00000141561 214.3214   2.29996    0.3239092 
2555.200001418591 205.6097   2.351084   0.3185658 
2555.400001421571 195.0262   2.387268   0.3060978 
2555.600001424551 185.2474   2.393476   0.2847241 
2555.800001427531 171.1389   2.428496   0.2918487 
2556.000001430511 162.9083   2.463225   0.3060978 
2556.200001433492 162.9695   2.488448   0.3114412 
2556.400001436472 166.6256   2.433541   0.3078789 
2556.600001439452 173.9991   2.438876   0.2936298 
2556.800001442432 192.4371   2.430436   0.2989733 
2557.000001445413 214.5576   2.412975   0.3132224 
2557.200001448393 236.4418   2.367963   0.3310338 
2557.400001451373 254.4338   2.331391   0.3328149 
2557.600001454353 261.4574   2.342838   0.3292527 
2557.800001457334 273.1518   2.32266    0.3292527 
2558.000001460314 301.2112   2.332846   0.3417206 
2558.200001463294 341.5597   2.311601   0.3737811 
2558.400001466274 382.8529   2.244762   0.3898114 
2558.600001469254 406.6177   2.234382   0.3791246 
2558.800001472235 423.7875   2.227398   0.3524075 
2559.000001475215 438.8231   2.276193   0.3310338 
2559.200001478195 407.0551   2.288222   0.3185658 
2559.400001481175 346.1955   2.285506   0.3096601 
2559.600001484156 312.5557   2.289774   0.2971921 
2559.800001487136 296.6629   2.26688    0.3060978 
2560.000001490116 310.8588   2.244568   0.3096601 
2560.200001493096 333.3728   2.239233   0.347064  
2560.400001496077 336.6353   2.205765   0.3648754 
2560.600001499057 328.2298   2.210033   0.3826869 
2560.800001502037 318.8708   2.219443   0.396936  
2561.000001505017 312.7568   2.229144   0.3862491 
2561.200001507998 295.9719   2.233412   0.3506263 
2561.400001510978 268.9708   2.256597   0.3185658 
2561.600001513958 252.9906   2.276969   0.3060978 
2561.800001516938 251.1625   2.291617   0.3203469 
2562.000001519918 254.5213   2.276387   0.347064  
2562.200001522899 262.1834   2.27338    0.3506263 
2562.400001525879 273.0293   2.251359   0.3702189 
2562.600001528859 282.607    2.237778   0.3933737 
2562.800001531839 273.6416   2.233024   0.3951548 
2563.00000153482 264.7812   2.213622   0.3666566 
2563.2000015378 275.8633   2.212943   0.3452829 
2563.40000154078 278.1548   2.202175   0.3452829 
2563.60000154376 266.373    2.187527   0.347064  
2563.800001546741 255.2997   2.19587    0.3826869 
2564.000001549721 251.1275   2.198295   0.4129662 
2564.200001552701 249.8593   2.18355    0.4165285 
2564.400001555681 249.1508   2.180348   0.4200908 
2564.600001558661 247.9      2.191213   0.4200908 
2564.800001561642 239.7568   2.203533   0.4325588 
2565.000001564622 234.64     2.202175   0.4307776 
2565.200001567602 227.6426   2.214787   0.396936  
2565.400001570582 219.3595   2.186654   0.3559698 
2565.600001573563 208.0413   2.18452    0.3381583 
2565.800001576543 189.0347   2.211973   0.3292527 
2566.000001579523 168.5237   2.207511   0.3007544 
2566.200001582503 160.6166   2.242434   0.3043167 
2566.400001585484 161.4388   2.269596   0.3221281 
2566.600001588464 156.3132   2.289483   0.3043167 
2566.800001591444 138.435    2.317713   0.3150035 
2567.000001594424 116.6994   2.331973   0.3274715 
2567.200001597404 104.8214   2.366023   0.2936298 
2567.400001600385 121.204    2.375238   0.2989733 
2567.600001603365 144.374    2.293946   0.3203469 
2567.800001606345 149.7007   2.252135   0.347064  
2568.000001609325 142.5809   2.261836   0.3577509 
2568.200001612306 133.7642   2.303646   0.3452829 
2568.400001615286 127.4141   2.272022   0.3310338 
2568.600001618266 121.755    2.256597   0.3292527 
2568.800001621246 117.7665   2.288416   0.3613132 
2569.000001624227 120.443    2.288707   0.3862491 
2569.200001627207 127.5453   2.286476   0.3951548 
2569.400001630187 134.7701   2.279297   0.3737811 
2569.600001633167 136.0296   2.281625   0.3452829 
2569.800001636147 136.3183   2.298796   0.3399395 
2570.000001639128 140.2543   2.2857     0.3577509 
2570.200001642108 149.0447   2.28667    0.3541886 
2570.400001645088 157.2579   2.27629    0.3524075 
2570.600001648068 150.5754   2.26785    0.3506263 
2570.800001651049 125.2799   2.31878    0.3363772 
2571.000001654029 114.1979   2.363209   0.3185658 
2571.200001657009 115.6673   2.312668   0.3114412 
2571.400001659989 113.4019   2.303937   0.3096601 
2571.60000166297 106.6757   2.31228    0.295411  
2571.80000166595 97.49165   2.309952   0.2758184 
2572.00000166893 93.22326   2.309079   0.2793807 
2572.20000167191 93.45943   2.349434   0.282943  
2572.400001674891 92.81216   2.391827   0.2900676 
2572.600001677871 92.39232   2.432765   0.2793807 
2572.800001680851 98.71619   2.399006   0.2686939 
2573.000001683831 105.0138   2.383678   0.2900676 
2573.200001686811 107.2092   2.396871   0.3150035 
2573.400001689792 105.4686   2.337793   0.3150035 
2573.600001692772 105.8273   2.317907   0.3078789 
2573.800001695752 109.9907   2.316063   0.3007544 
2574.000001698732 110.7691   2.322757   0.3167847 
2574.200001701713 108.2064   2.339442   0.3328149 
2574.400001704693 108.7312   2.324406   0.3292527 
2574.600001707673 112.0024   2.289483   0.3221281 
2574.800001710653 116.7344   2.312377   0.3292527 
2575.000001713634 116.6469   2.30549    0.3292527 
2575.200001716614 116.0347   2.302094   0.3292527 
2575.400001719594 112.9034   2.282402   0.3435018 
2575.600001722574 108.4688   2.323533   0.3363772 
2575.800001725554 104.2179   2.29249    0.3256904 
2576.000001728535 101.3752   2.282984   0.3132224 
2576.200001731515 103.4919   2.280946   0.3239092 
2576.400001734495 107.9964   2.290841   0.3381583 
2576.600001737475 108.3201   2.316646   0.3078789 
2576.800001740456 104.9264   2.349919   0.282943  
2577.000001743436 100.553    2.347785   0.2633505 
2577.200001746416 94.58775   2.376015   0.2651316 
2577.400001749396 93.03958   2.370388   0.282943  
2577.600001752377 95.26124   2.360396   0.2865053 
2577.800001755357 100.9553   2.328869   0.2865053 
2578.000001758337 107.4104   2.292878   0.3078789 
2578.200001761317 111.8537   2.266201   0.3256904 
2578.400001764297 112.8421   2.266977   0.3292527 
2578.600001767278 109.6146   2.301124   0.3363772 
2578.800001770258 105.5998   2.31422    0.3328149 
2579.000001773238 98.9611    2.365247   0.3310338 
2579.200001776218 95.43618   2.378537   0.3274715 
2579.400001779199 99.8795    2.335756   0.3381583 
2579.600001782179 108.4775   2.292199   0.3506263 
2579.800001785159 118.9911   2.278715   0.3630943 
2580.000001788139 127.3704   2.261545   0.3862491 
2580.20000179112 129.9594   2.243113   0.4058416 
2580.4000017941 128.9798   2.24321    0.4040605 
2580.60000179708 129.8632   2.256112   0.3773434 
2580.80000180006 132.3035   2.251941   0.3541886 
2581.000001803041 137.5341   2.227786   0.3506263 
2581.200001806021 149.4034   2.215466   0.3577509 
2581.400001809001 156.4532   2.19684    0.372     
2581.600001811981 153.5843   2.170648   0.3933737 
2581.800001814961 149.3071   2.174528   0.384468  
2582.000001817942 139.0735   2.185975   0.3577509 
2582.200001820922 132.9508   2.234867   0.3702189 
2582.400001823902 135.3824   2.232054   0.3684377 
2582.600001826882 139.1872   2.240106   0.3755623 
2582.800001829863 144.0154   2.248642   0.3809057 
2583.000001832843 150.4792   2.246993   0.3898114 
2583.200001835823 155.9546   2.234673   0.3933737 
2583.400001838803 148.4762   2.217891   0.384468  
2583.600001841784 131.1052   2.256694   0.3506263 
2583.800001844764 120.1106   2.31228    0.3328149 
2584.000001847744 117.7403   2.318877   0.3292527 
2584.200001850724 117.3379   2.321884   0.3292527 
2584.400001853704 110.7429   2.352442   0.3221281 
2584.600001856685 103.212    2.393185   0.2989733 
2584.800001859665 104.2703   2.476418   0.2793807 
2585.000001862645 113.3407   2.53278    0.2865053 
2585.200001865625 124.4927   2.547526   0.2971921 
2585.400001868606 126.9506   2.579442   0.3167847 
2585.600001871586 122.8484   2.539862   0.3274715 
2585.800001874566 121.6763   2.514058   0.3256904 
2586.000001877546 123.863    2.441981   0.2989733 
2586.200001880527 121.4051   2.41055    0.282943  
