~Version
 VERS              .         2.0                           : CWLS LOG ASCII STANDARD - VERSION 2.0
 WRAP              .         NO                            : ONE LINE PER DEPTH STEP
 DLM               .         SPACE                         : DELIMITING CHARACTER(SPACE TAB OR COMMA)
~Well Information
#_______________________________________________________________________________
#
#PARAMETER_NAME    .UNIT     VALUE                         : DESCRIPTION
#_______________________________________________________________________________
STRT               .m        2460                          : First reference value
STOP               .m        2677.80000324547              : Last reference value
STEP               .m        0.2                           : Step increment
NULL               .         -9999                         : Missing value
COMP               .                                       : Company
WELL               .         606                           : Well name
FLD                .                                       : Field
LOC                .                                       : Location
CNTY               .                                       : County
STAT               .                                       : State
CTRY               .                                       : Country
SRVC               .                                       : Service Company
DATE               .                                       : Date
API                .                                       : API number
Cartographic_reference_system .         GCS_WGS_1984                  : GEOGCS["GCS_WGS_1984",DATUM["D_WGS_1984",SPHEROID["WGS_1984",6378137.0,298.257223563]],PRIMEM["Greenwich",0.0],UNIT["Degree",0.0174532925199433],AUTHORITY["EPSG",4326]]
EREF               .m        134                           : 
HZCS               .GCS_WGS_1984 World_Mercator                : PROJCS["World_Mercator",GEOGCS["GCS_WGS_1984",DATUM["D_WGS_1984",SPHEROID["WGS_1984",6378137.0,298.257223563]],PRIMEM["Greenwich",0.0],UNIT["Degree",0.0174532925199433]],PROJECTION["Mercator"],PARAMETER["False_Easting",0.0],PARAMETER["False_Northing",0.0],PARAMETER["Central_Meridian",0.0],PARAMETER["Standard_Parallel_1",0.0],UNIT["Meter",1.0],AUTHORITY["ESRI",54004]]
LATI               .dega     2.1305856004                  : GCS_WGS_1984
LONG               .dega     2.0279108213                  : GCS_WGS_1984
PROJECT_UPGRADE_TIME .         2014-05-27T11_38_46           : 
Pad                .         Pad6                          : 
X                  .m        225746                        : 
Y                  .m        235643                        : 
group              .         Pad6                          : 
Интер-р            .         Пузин                         : 
Куст               .         6                             : 
Статус             .         Не проверено                  : 
Тип                .         Нагнетательные                : 
~Parameter Information Block
#_______________________________________________________________________________
#
#PARAMETER_NAME    .UNIT     VALUE                         : DESCRIPTION
#_______________________________________________________________________________
SET                .         LQC                           : 
PROJECT_UPGRADE_TIME .         2014-05-27T11_38_46           : 
TLFamily_GR_NORM   .         Gamma Ray                     : 
TLFamily_MD        .         Measured Depth                : 
TLFamily_RHOB_NORM .         Bulk Density                  : 
TLFamily_TNPH_NORM .         Neutron Porosity              : 
~Curve Information
#_______________________________________________________________________________
#
#LOGNAME           .UNIT     LOG_ID                        : DESCRIPTION
#_______________________________________________________________________________
MD                 .m                                      :  
GR_NORM            .gAPI                                   : Normalised By Techlog 
RHOB_NORM          .g/cm3                                  : Normalized By Techlog 
TNPH_NORM          .v/v                                    : Normalised By Techlog 
~Ascii
# ...
2491.600000470877 80.2169    2.498148   0.2758184 
2491.800000473857 79.54341   2.545586   0.2793807 
2492.000000476837 79.27226   2.522013   0.2651316 
2492.200000479817 79.80581   2.543063   0.2740373 
2492.400000482798 83.96925   2.550145   0.2865053 
2492.600000485778 88.63124   2.524438   0.2811618 
2492.800000488758 91.19402   2.573039   0.2740373 
2493.000000491738 94.52652   2.608447   0.2811618 
2493.200000494719 92.89964   2.617275   0.2882864 
2493.400000497699 88.57876   2.588463   0.2758184 
2493.600000500679 84.16167   2.613394   0.2686939 
2493.800000503659 78.32761   2.60738    0.2669127 
2494.000000506639 74.74147   2.608835   0.2437579 
2494.20000050962 75.25752   2.562465   0.2330711 
2494.4000005126 76.05347   2.539377   0.2473202 
2494.60000051558 76.93689   2.577017   0.2740373 
2494.80000051856 77.969     2.55451    0.282943  
2495.000000521541 79.87579   2.55257    0.2651316 
2495.200000524521 80.05072   2.560719   0.2491013 
2495.400000527501 79.89328   2.54122    0.2401956 
2495.600000530481 78.88741   2.515028   0.2384145 
2495.800000533462 83.44444   2.524632   0.2473202 
2496.000000536442 89.1298    2.551794   0.2562259 
2496.200000539422 91.92      2.571099   0.2758184 
2496.400000542402 91.54388   2.603112   0.2847241 
2496.600000545382 91.7888    2.595545   0.282943  
2496.800000548363 93.3807    2.58953    0.2918487 
2497.000000551343 90.56426   2.578181   0.3007544 
2497.200000554323 87.62537   2.657146   0.2971921 
2497.400000557303 85.84104   2.673734   0.2936298 
2497.600000560284 87.8003    2.631826   0.2847241 
2497.800000563264 89.01609   2.570226   0.2775996 
2498.000000566244 88.36009   2.484373   0.2758184 
2498.200000569224 89.16479   2.474769   0.2562259 
2498.400000572205 89.59338   2.507267   0.2401956 
2498.600000575185 86.66323   2.579927   0.2633505 
2498.800000578165 88.98985   2.543742   0.2971921 
2499.000000581145 88.90238   2.518423   0.3007544 
2499.200000584126 84.6165    2.541802   0.3043167 
2499.400000587106 83.6806    2.575464   0.2989733 
2499.600000590086 83.34823   2.607186   0.295411  
2499.800000593066 79.13232   2.601269   0.2811618 
2500.000000596046 76.43833   2.604179   0.2633505 
2500.200000599027 76.46457   2.602432   0.258007  
2500.400000602007 75.74734   2.551406   0.258007  
2500.600000604987 73.64813   2.592732   0.2508825 
2500.800000607967 74.83768   2.587105   0.2419768 
2501.000000610948 79.0536    2.565181   0.2401956 
2501.200000613928 81.57265   2.535497   0.258007  
2501.400000616908 84.43282   2.520751   0.2758184 
2501.600000619888 84.44157   2.512991   0.2793807 
2501.800000622869 81.91376   2.500768   0.2811618 
2502.000000625849 82.27238   2.542094   0.2918487 
2502.200000628829 85.67485   2.570905   0.295411  
2502.400000631809 88.50879   2.545489   0.2971921 
2502.600000634789 88.26387   2.557227   0.2936298 
2502.80000063777 90.0657    2.544616   0.2900676 
2503.00000064075 93.53814   2.494462   0.2811618 
2503.20000064373 95.00759   2.590694   0.270475  
2503.40000064671 93.80054   2.575367   0.2740373 
2503.600000649691 89.47967   2.532393   0.2847241 
2503.800000652671 84.4678    2.5581     0.2918487 
2504.000000655651 84.17916   2.606992   0.2918487 
2504.200000658631 82.87591   2.61485    0.270475  
2504.400000661612 81.45894   2.597485   0.2544447 
2504.600000664592 81.80881   2.609999   0.2419768 
2504.800000667572 83.6806    2.622028   0.2277276 
2505.000000670552 86.52328   2.562756   0.2116974 
2505.200000673532 90.11818   2.586135   0.2081351 
2505.400000676513 94.87639   2.554219   0.2206031 
2505.600000679493 97.67533   2.547332   0.2437579 
2505.800000682473 97.97272   2.527639   0.2615693 
2506.000000685453 97.2205    2.592732   0.2722561 
2506.200000688434 96.49452   2.591956   0.2793807 
2506.400000691414 95.76855   2.579151   0.2740373 
2506.600000694394 93.54688   2.474673   0.2562259 
2506.800000697374 91.89375   2.470695   0.245539  
2507.000000700355 88.43881   2.517162   0.2384145 
2507.200000703335 80.20816   2.542773   0.2206031 
2507.400000706315 75.93102   2.506491   0.2099162 
2507.600000709295 69.37974   2.527251   0.2081351 
2507.800000712276 59.2423    2.514543   0.2081351 
2508.000000715256 52.40238   2.556548   0.1956671 
2508.200000718236 48.1165    2.535885   0.1725123 
2508.400000721216 48.31767   2.536758   0.1725123 
2508.600000724196 45.94732   2.542481   0.1921048 
2508.800000727177 45.8686    2.500671   0.2116974 
2509.000000730157 50.29443   2.469628   0.2116974 
2509.200000733137 56.90693   2.456047   0.2188219 
2509.400000736117 61.2453    2.420444   0.2312899 
2509.600000739098 59.74962   2.427138   0.2330711 
2509.800000742078 61.87507   2.438876   0.2241654 
2510.000000745058 65.59241   2.432571   0.2241654 
2510.200000748038 69.73835   2.442174   0.2366333 
2510.400000751019 72.92215   2.525117   0.2562259 
2510.600000753999 72.41485   2.537728   0.2473202 
2510.800000756979 65.3475    2.537728   0.2384145 
2511.000000759959 52.42863   2.535109   0.2277276 
2511.200000762939 42.88596   2.603694   0.1956671 
2511.40000076592 38.16274   2.665294   0.1600443 
2511.6000007689 36.00231   2.68489    0.1422329 
2511.80000077188 37.83037   2.619021   0.1351083 
2512.00000077486 39.56221   2.603597   0.1315461 
2512.200000777841 40.55934   2.593411   0.1618254 
2512.400000780821 41.34655   2.506394   0.1867614 
2512.600000783801 41.69641   2.493007   0.2027917 
2512.800000786781 48.58882   2.472441   0.2366333 
2513.000000789762 55.27131   2.452167   0.2669127 
2513.200000792742 58.51633   2.454883   0.2686939 
2513.400000795722 62.17245   2.469143   0.2562259 
2513.600000798702 62.9859    2.471665   0.245539  
2513.800000801682 64.35039   2.442077   0.2401956 
2514.000000804663 66.72948   2.456144   0.2241654 
2514.200000807643 72.07372   2.487381   0.2241654 
2514.400000810623 80.61926   2.584971   0.2312899 
2514.600000813603 88.77119   2.612231   0.2259465 
2514.800000816584 92.00747   2.596612   0.2206031 
2515.000000819564 88.66623   2.615141   0.2188219 
2515.200000822544 85.7011    2.59118    0.2330711 
2515.400000825524 84.80018   2.52143    0.245539  
2515.600000828505 82.74471   2.490873   0.2277276 
2515.800000831485 79.1848    2.489321   0.2170408 
2516.000000834465 78.59877   2.453815   0.2188219 
2516.200000837445 81.79131   2.496596   0.2277276 
2516.400000840425 78.93989   2.544421   0.2312899 
2516.600000843406 71.63638   2.510468   0.2223842 
2516.800000846386 64.21043   2.541511   0.2063539 
2517.000000849366 64.48158   2.492619   0.193886  
2517.200000852346 69.72961   2.484567   0.1956671 
2517.400000855327 73.74434   2.499798   0.2063539 
2517.600000858307 70.74422   2.479523   0.2241654 
2517.800000861287 63.56318   2.467979   0.2295088 
2518.000000864267 62.32115   2.472247   0.2312899 
2518.200000867248 64.85769   2.531811   0.2312899 
2518.400000870228 65.94228   2.527639   0.2295088 
2518.600000873208 68.92491   2.521528   0.2330711 
2518.800000876188 69.85206   2.538116   0.2419768 
2519.000000879169 64.33289   2.485828   0.2348522 
2519.200000882149 56.732     2.483597   0.2277276 
2519.400000885129 52.50734   2.453331   0.2170408 
2519.600000888109 53.12836   2.434899   0.2188219 
2519.800000891089 53.46948   2.44557    0.2152596 
2520.00000089407 52.47235   2.519102   0.2081351 
2520.20000089705 49.84835   2.568577   0.1885425 
2520.40000090003 44.89771   2.619603   0.1778557 
2520.60000090301 39.76339   2.651907   0.1742934 
2520.800000905991 38.03154   2.664227   0.16895   
2521.000000908971 39.11613   2.646086   0.1778557 
2521.200000911951 41.83636   2.592538   0.2010105 
2521.400000914931 45.80737   2.511245   0.2081351 
2521.600000917912 46.95318   2.518617   0.2241654 
2521.800000920892 47.19809   2.581188   0.2241654 
2522.000000923872 49.31479   2.556936   0.2152596 
2522.200000926852 54.47535   2.504357   0.2206031 
2522.400000929832 57.96529   2.477874   0.2188219 
2522.600000932813 58.88369   2.454689   0.2081351 
2522.800000935793 62.21619   2.440428   0.2010105 
2523.000000938773 68.53131   2.473799   0.1921048 
