~Version
 VERS              .         2.0                           : CWLS LOG ASCII STANDARD - VERSION 2.0
 WRAP              .         NO                            : ONE LINE PER DEPTH STEP
 DLM               .         SPACE                         : DELIMITING CHARACTER(SPACE TAB OR COMMA)
~Well Information
#_______________________________________________________________________________
#
#PARAMETER_NAME    .UNIT     VALUE                         : DESCRIPTION
#_______________________________________________________________________________
STRT               .m        2460                          : First reference value
STOP               .m        2677.80000324547              : Last reference value
STEP               .m        0.2                           : Step increment
NULL               .         -9999                         : Missing value
COMP               .                                       : Company
WELL               .         606                           : Well name
FLD                .                                       : Field
LOC                .                                       : Location
CNTY               .                                       : County
STAT               .                                       : State
CTRY               .                                       : Country
SRVC               .                                       : Service Company
DATE               .                                       : Date
API                .                                       : API number
Cartographic_reference_system .         GCS_WGS_1984                  : GEOGCS["GCS_WGS_1984",DATUM["D_WGS_1984",SPHEROID["WGS_1984",6378137.0,298.257223563]],PRIMEM["Greenwich",0.0],UNIT["Degree",0.0174532925199433],AUTHORITY["EPSG",4326]]
EREF               .m        134                           : 
HZCS               .GCS_WGS_1984 World_Mercator                : PROJCS["World_Mercator",GEOGCS["GCS_WGS_1984",DATUM["D_WGS_1984",SPHEROID["WGS_1984",6378137.0,298.257223563]],PRIMEM["Greenwich",0.0],UNIT["Degree",0.0174532925199433]],PROJECTION["Mercator"],PARAMETER["False_Easting",0.0],PARAMETER["False_Northing",0.0],PARAMETER["Central_Meridian",0.0],PARAMETER["Standard_Parallel_1",0.0],UNIT["Meter",1.0],AUTHORITY["ESRI",54004]]
LATI               .dega     2.1305856004                  : GCS_WGS_1984
LONG               .dega     2.0279108213                  : GCS_WGS_1984
PROJECT_UPGRADE_TIME .         2014-05-27T11_38_46           : 
Pad                .         Pad6                          : 
X                  .m        225746                        : 
Y                  .m        235643                        : 
group              .         Pad6                          : 
Интер-р            .         Пузин                         : 
Куст               .         6                             : 
Статус             .         Не проверено                  : 
Тип                .         Нагнетательные                : 
~Parameter Information Block
#_______________________________________________________________________________
#
#PARAMETER_NAME    .UNIT     VALUE                         : DESCRIPTION
#_______________________________________________________________________________
SET                .         LQC                           : 
PROJECT_UPGRADE_TIME .         2014-05-27T11_38_46           : 
TLFamily_GR_NORM   .         Gamma Ray                     : 
TLFamily_MD        .         Measured Depth                : 
TLFamily_RHOB_NORM .         Bulk Density                  : 
TLFamily_TNPH_NORM .         Neutron Porosity              : 
~Curve Information
#_______________________________________________________________________________
#
#LOGNAME           .UNIT     LOG_ID                        : DESCRIPTION
#_______________________________________________________________________________
MD                 .m                                      :  
GR_NORM            .gAPI                                   : Normalised By Techlog 
RHOB_NORM          .g/cm3                                  : Normalized By Techlog 
TNPH_NORM          .v/v                                    : Normalised By Techlog 
~Ascii
2460.0     47.55671   2.036097   0.2793807 
2460.20000000298 63.08211   1.998166   0.2740373 
2460.40000000596 71.72385   2.069565   0.2437579 
2460.600000008941 73.53442   2.176856   0.2384145 
2460.800000011921 72.52855   2.41152    0.2419768 
2461.000000014901 74.13795   2.518908   0.2508825 
2461.200000017881 77.58414   2.578665   0.2491013 
2461.400000020862 78.60751   2.570614   0.2384145 
2461.600000023842 79.30725   2.514737   0.2384145 
2461.800000026822 77.68036   2.504648   0.2384145 
2462.000000029802 75.54617   2.56392    0.2437579 
2462.200000032783 74.49656   2.582449   0.2473202 
2462.400000035763 71.0766    2.562368   0.2491013 
2462.600000038743 68.85493   2.56198    0.2544447 
2462.800000041723 72.0125    2.537922   0.2633505 
2463.000000044703 74.33912   2.551794   0.2669127 
2463.200000047684 73.41196   2.617081   0.2615693 
2463.400000050664 75.37998   2.618633   0.2722561 
2463.600000053644 77.62788   2.604567   0.2865053 
2463.800000056624 77.15556   2.57721    0.3007544 
2464.000000059605 77.71535   2.552182   0.3060978 
2464.200000062585 79.86703   2.571293   0.3043167 
2464.400000065565 82.10619   2.57042    0.3078789 
2464.600000068545 83.95174   2.583516   0.3078789 
2464.800000071526 85.51742   2.527639   0.2865053 
2465.000000074506 82.07996   2.554413   0.2562259 
2465.200000077486 80.65424   2.549272   0.2384145 
2465.400000080466 80.92539   2.557906   0.2401956 
2465.600000083447 81.4152    2.534138   0.2615693 
2465.800000086427 82.7622    2.557324   0.2882864 
2466.000000089407 83.83804   2.540347   0.2722561 
2466.200000092387 82.83218   2.558488   0.2651316 
2466.400000095367 82.80593   2.517162   0.270475  
2466.600000098348 80.28688   2.538116   0.2793807 
2466.800000101328 78.41508   2.531131   0.2775996 
2467.000000104308 79.45594   2.500962   0.2847241 
2467.200000107288 80.35686   2.53734    0.2936298 
2467.400000110269 79.57839   2.5127     0.282943  
2467.600000113249 78.78245   2.535691   0.2633505 
2467.800000116229 78.66      2.555092   0.2562259 
2468.000000119209 77.56666   2.541511   0.270475  
2468.20000012219 76.12345   2.529579   0.2651316 
2468.40000012517 75.58115   2.522886   0.2544447 
2468.60000012815 76.32462   2.519587   0.2544447 
2468.80000013113 76.68324   2.546556   0.2473202 
2469.00000013411 77.83781   2.54675    0.2348522 
2469.200000137091 79.25477   2.529482   0.2312899 
2469.400000140071 81.27525   2.525214   0.2366333 
2469.600000143051 82.41233   2.553055   0.2508825 
2469.800000146031 81.48518   2.608835   0.2740373 
2470.000000149012 77.87279   2.611357   0.2651316 
2470.200000151992 72.35362   2.61485    0.2419768 
2470.400000154972 68.25142   2.61776    0.2366333 
2470.600000157952 68.27765   2.604179   0.2419768 
2470.800000160933 73.59565   2.567219   0.2508825 
2471.000000163913 74.72398   2.586523   0.2615693 
2471.200000166893 73.67437   2.536758   0.2615693 
2471.400000169873 77.60164   2.603694   0.2651316 
2471.600000172853 80.18192   2.607089   0.270475  
2471.800000175834 80.32186   2.568674   0.2847241 
2472.000000178814 81.67761   2.539668   0.2918487 
2472.200000181794 84.24914   2.55257    0.2989733 
2472.400000184774 86.79443   2.510371   0.3060978 
2472.600000187755 86.16467   2.536176   0.3078789 
2472.800000190735 85.31623   2.52599    0.3043167 
2473.000000193715 85.09757   2.556936   0.3007544 
2473.200000196695 84.83517   2.566442   0.2882864 
2473.400000199676 84.15292   2.565763   0.2882864 
2473.600000202656 82.85841   2.601074   0.3025355 
2473.800000205636 83.49692   2.54772    0.2882864 
2474.000000208616 86.59325   2.480978   0.2775996 
2474.200000211596 88.09769   2.471471   0.2847241 
2474.400000214577 87.29299   2.486313   0.2811618 
2474.600000217557 85.77982   2.517356   0.270475  
2474.800000220537 84.70396   2.527057   0.2758184 
2475.000000223517 84.76519   2.515125   0.2918487 
2475.200000226498 86.77693   2.500574   0.2936298 
2475.400000229478 87.67785   2.515028   0.2811618 
2475.600000232458 85.91101   2.475642   0.270475  
2475.800000235438 82.60476   2.514155   0.2615693 
2476.000000238419 79.98949   2.51076    0.2651316 
2476.200000241399 79.82331   2.516968   0.2722561 
2476.400000244379 80.12944   2.556839   0.2722561 
2476.600000247359 77.313     2.616402   0.2686939 
2476.80000025034 76.42084   2.575658   0.2615693 
2477.00000025332 78.50256   2.553249   0.2544447 
2477.2000002563 82.40358   2.500962   0.245539  
2477.40000025928 82.77095   2.509789   0.2384145 
2477.60000026226 80.74171   2.480493   0.2366333 
2477.800000265241 78.66875   2.491649   0.245539  
2478.000000268221 78.85242   2.506685   0.2562259 
2478.200000271201 76.62201   2.486217   0.2775996 
2478.400000274181 74.34787   2.538795   0.2722561 
2478.600000277162 71.61889   2.567316   0.2562259 
2478.800000280142 70.13195   2.598261   0.2508825 
2479.000000283122 72.79095   2.63008    0.245539  
2479.200000286102 74.63651   2.589143   0.2401956 
2479.400000289083 73.80557   2.594963   0.2491013 
2479.600000292063 71.89005   2.588851   0.2633505 
2479.800000295043 69.41473   2.587396   0.2722561 
2480.000000298023 69.09984   2.596321   0.2686939 
2480.200000301003 73.70061   2.557712   0.2526636 
2480.400000303984 78.52005   2.582546   0.2401956 
2480.600000306964 80.15568   2.583516   0.2437579 
2480.800000309944 82.96337   2.59215    0.2544447 
2481.000000312924 84.21416   2.573136   0.258007  
2481.200000315905 82.15868   2.574397   0.2597882 
2481.400000318885 82.07121   2.578665   0.2669127 
2481.600000321865 83.99548   2.607477   0.2775996 
2481.800000324845 83.60188   2.62067    0.2562259 
2482.000000327826 81.88754   2.600881   0.2562259 
2482.200000330806 82.18491   2.557227   0.2544447 
2482.400000333786 82.42982   2.580994   0.2491013 
2482.600000336766 79.50842   2.574494   0.2562259 
2482.800000339746 75.69486   2.564017   0.270475  
2483.000000342727 77.10307   2.569159   0.2686939 
2483.200000345707 78.59877   2.556257   0.2544447 
2483.400000348687 81.12656   2.543354   0.2437579 
2483.600000351667 84.40658   2.54966    0.2437579 
2483.800000354648 87.72158   2.503678   0.2544447 
2484.000000357628 88.53502   2.525602   0.2491013 
2484.200000360608 87.36297   2.528997   0.2473202 
2484.400000363588 90.01322   2.544907   0.2491013 
2484.600000366569 89.69833   2.556159   0.2419768 
2484.800000369549 88.97236   2.529773   0.2473202 
2485.000000372529 88.61374   2.499409   0.2740373 
2485.200000375509 87.5379    2.5516     0.2882864 
2485.400000378489 87.28425   2.579248   0.2989733 
2485.60000038147 88.79743   2.553831   0.3078789 
2485.80000038445 89.16479   2.529676   0.3150035 
2486.00000038743 88.68372   2.49873    0.2989733 
2486.20000039041 87.6691    2.535982   0.2722561 
2486.400000393391 85.43869   2.547817   0.2562259 
2486.600000396371 83.45319   2.52696    0.2526636 
2486.800000399351 80.35686   2.556644   0.2473202 
2487.000000402331 79.60464   2.586426   0.2544447 
2487.200000405312 80.74171   2.56654    0.2615693 
2487.400000408292 80.6455    2.56654    0.2686939 
2487.600000411272 77.94276   2.573912   0.2633505 
2487.800000414252 76.9019    2.597776   0.258007  
2488.000000417233 78.55503   2.583128   0.2651316 
2488.200000420213 80.7767    2.517356   0.2882864 
2488.400000423193 84.45906   2.507073   0.2989733 
2488.600000426173 86.45331   2.577792   0.2740373 
2488.800000429153 86.04221   2.559458   0.2615693 
2489.000000432134 85.3075    2.521334   0.2669127 
2489.200000435114 84.71272   2.556354   0.2775996 
2489.400000438094 82.20241   2.570517   0.2722561 
2489.600000441074 80.39184   2.580412   0.2669127 
2489.800000444055 80.88165   2.531811   0.258007  
2490.000000447035 80.46181   2.549757   0.2473202 
2490.200000450015 79.41222   2.545295   0.2491013 
2490.400000452995 80.27814   2.557809   0.245539  
2490.600000455976 80.11195   2.540347   0.2473202 
2490.800000458956 79.27226   2.511439   0.2544447 
2491.000000461936 78.74746   2.533751   0.2669127 
2491.200000464916 80.07696   2.53637    0.2686939 
2491.400000467896 80.27814   2.517647   0.2669127 
