~Version
 VERS              .         2.0                           : CWLS LOG ASCII STANDARD - VERSION 2.0
 WRAP              .         NO                            : ONE LINE PER DEPTH STEP
 DLM               .         SPACE                         : DELIMITING CHARACTER(SPACE TAB OR COMMA)
~Well Information
#_______________________________________________________________________________
#
#PARAMETER_NAME    .UNIT     VALUE                         : DESCRIPTION
#_______________________________________________________________________________
STRT               .m        2460                          : First reference value
STOP               .m        2677.80000324547              : Last reference value
STEP               .m        0.2                           : Step increment
NULL               .         -9999                         : Missing value
COMP               .                                       : Company
WELL               .         606                           : Well name
FLD                .                                       : Field
LOC                .                                       : Location
CNTY               .                                       : County
STAT               .                                       : State
CTRY               .                                       : Country
SRVC               .                                       : Service Company
DATE               .                                       : Date
API                .                                       : API number
Cartographic_reference_system .         GCS_WGS_1984                  : GEOGCS["GCS_WGS_1984",DATUM["D_WGS_1984",SPHEROID["WGS_1984",6378137.0,298.257223563]],PRIMEM["Greenwich",0.0],UNIT["Degree",0.0174532925199433],AUTHORITY["EPSG",4326]]
EREF               .m        134                           : 
HZCS               .GCS_WGS_1984 World_Mercator                : PROJCS["World_Mercator",GEOGCS["GCS_WGS_1984",DATUM["D_WGS_1984",SPHEROID["WGS_1984",6378137.0,298.257223563]],PRIMEM["Greenwich",0.0],UNIT["Degree",0.0174532925199433]],PROJECTION["Mercator"],PARAMETER["False_Easting",0.0],PARAMETER["False_Northing",0.0],PARAMETER["Central_Meridian",0.0],PARAMETER["Standard_Parallel_1",0.0],UNIT["Meter",1.0],AUTHORITY["ESRI",54004]]
LATI               .dega     2.1305856004                  : GCS_WGS_1984
LONG               .dega     2.0279108213                  : GCS_WGS_1984
PROJECT_UPGRADE_TIME .         2014-05-27T11_38_46           : 
Pad                .         Pad6                          : 
X                  .m        225746                        : 
Y                  .m        235643                        : 
group              .         Pad6                          : 
Интер-р            .         Пузин                         : 
Куст               .         6                             : 
Статус             .         Не проверено                  : 
Тип                .         Нагнетательные                : 
~Parameter Information Block
#_______________________________________________________________________________
#
#PARAMETER_NAME    .UNIT     VALUE                         : DESCRIPTION
#_______________________________________________________________________________
SET                .         LQC                           : 
PROJECT_UPGRADE_TIME .         2014-05-27T11_38_46           : 
TLFamily_GR_NORM   .         Gamma Ray                     : 
TLFamily_MD        .         Measured Depth                : 
TLFamily_RHOB_NORM .         Bulk Density                  : 
TLFamily_TNPH_NORM .         Neutron Porosity              : 
~Curve Information
#_______________________________________________________________________________
#
#LOGNAME           .UNIT     LOG_ID                        : DESCRIPTION
#_______________________________________________________________________________
MD                 .m                                      :  
GR_NORM            .gAPI                                   : Normalised By Techlog 
RHOB_NORM          .g/cm3                                  : Normalized By Techlog 
TNPH_NORM          .v/v                                    : Normalised By Techlog 
~Ascii
# ...
2586.400001883507 114.2328   2.415788   0.2811618 
2586.600001886487 111.4601   2.435869   0.3007544 
2586.800001889467 112.5797   2.45789    0.3203469 
2587.000001892447 115.6673   2.43616    0.3221281 
2587.200001895428 115.1513   2.410259   0.3078789 
2587.400001898408 114.0492   2.444988   0.3078789 
2587.600001901388 114.0054   2.502126   0.3096601 
2587.800001904368 114.469    2.49485    0.3167847 
2588.000001907349 114.7926   2.436257   0.3292527 
2588.200001910329 114.3553   2.462449   0.3221281 
2588.400001913309 115.8073   2.483015   0.3043167 
2588.600001916289 115.781    2.499992   0.3007544 
2588.80000191927 109.2822   2.492813   0.295411  
2589.00000192225 105.6173   2.473799   0.2936298 
2589.20000192523 108.0402   2.52114    0.2989733 
2589.40000192821 109.2647   2.474769   0.2971921 
2589.60000193119 109.6583   2.463322   0.2847241 
2589.800001934171 108.495    2.455853   0.2936298 
2590.000001937151 102.626    2.502611   0.2989733 
2590.200001940131 99.8795    2.453331   0.2793807 
2590.400001943111 98.04269   2.420736   0.2437579 
2590.600001946092 89.75957   2.444697   0.2366333 
2590.800001949072 76.81444   2.534915   0.2295088 
2591.000001952052 75.65987   2.577404   0.2188219 
2591.200001955032 97.80653   2.551503   0.2045728 
2591.400001958013 121.9387   2.447122   0.2437579 
2591.600001960993 122.8134   2.421221   0.295411  
2591.800001963973 119.8745   2.437033   0.2989733 
2592.000001966953 118.3088   2.427041   0.282943  
2592.200001969934 114.3291   2.42093    0.282943  
2592.400001972914 112.8684   2.452167   0.2900676 
2592.600001975894 112.9296   2.399103   0.2971921 
2592.800001978874 109.0898   2.424034   0.2971921 
2593.000001981854 107.183    2.423161   0.2918487 
2593.200001984835 109.7283   2.427138   0.2989733 
2593.400001987815 111.2327   2.429757   0.3078789 
2593.600001990795 111.4426   2.429564   0.3132224 
2593.800001993775 110.1919   2.418117   0.3132224 
2594.000001996756 109.7983   2.426944   0.3043167 
2594.200001999736 111.0665   2.442174   0.3007544 
2594.400002002716 112.2823   2.470016   0.3007544 
2594.600002005696 112.4835   2.47021    0.295411  
2594.800002008677 113.7955   2.411035   0.295411  
2595.000002011657 114.9326   2.407252   0.2936298 
2595.200002014637 114.1279   2.418698   0.2865053 
2595.400002017617 115.0638   2.456823   0.2758184 
2595.600002020597 116.8044   2.411229   0.270475  
2595.800002023578 119.8832   2.425392   0.2740373 
2596.000002026558 124.2303   2.424519   0.2989733 
2596.200002029538 128.2538   2.440913   0.3274715 
2596.400002032518 130.5542   2.429272   0.3363772 
2596.600002035499 129.2772   2.41249    0.3345961 
2596.800002038479 127.5191   2.392506   0.3150035 
2597.000002041459 128.6299   2.386977   0.2918487 
2597.200002044439 132.531    2.411326   0.2811618 
2597.40000204742 132.7846   2.408027   0.2793807 
2597.6000020504 128.6124   2.381835   0.282943  
2597.80000205338 125.14     2.421512   0.3025355 
2598.00000205636 123.3994   2.455659   0.3060978 
2598.20000205934 118.3875   2.49582    0.2936298 
2598.400002062321 116.507    2.473023   0.2971921 
2598.600002065301 115.055    2.4835     0.3007544 
2598.800002068281 110.3843   2.482821   0.2918487 
2599.000002071261 110.8654   2.494365   0.2865053 
2599.200002074242 110.9091   2.493783   0.2865053 
2599.400002077222 109.2035   2.53928    0.2882864 
2599.600002080202 107.4279   2.544616   0.2918487 
2599.800002083182 104.594    2.505909   0.2811618 
2600.000002086163 103.2382   2.505521   0.282943  
2600.200002089143 103.0108   2.487284   0.2936298 
2600.400002092123 103.5094   2.462255   0.2971921 
2600.600002095103 103.868    2.468076   0.3203469 
2600.800002098083 104.9001   2.487575   0.3328149 
2601.000002101064 106.457    2.517356   0.3256904 
2601.200002104044 110.0082   2.528803   0.3060978 
2601.400002107024 114.2416   2.475837   0.2971921 
2601.600002110004 113.8305   2.477777   0.3007544 
2601.800002112985 112.0724   2.478941   0.3150035 
2602.000002115965 112.6847   2.447898   0.3150035 
2602.200002118945 115.6323   2.469919   0.3096601 
2602.400002121925 116.1571   2.499022   0.3167847 
2602.600002124906 117.8715   2.478165   0.3292527 
2602.800002127886 120.6617   2.448092   0.3221281 
2603.000002130866 121.8162   2.455659   0.3274715 
2603.200002133846 121.7725   2.483694   0.3150035 
2603.400002136827 119.3759   2.470598   0.3043167 
2603.600002139807 118.545    2.456435   0.3078789 
2603.800002142787 120.9591   2.465069   0.3007544 
2604.000002145767 120.0319   2.501447   0.2811618 
2604.200002148747 120.9591   2.469434   0.2865053 
2604.400002151728 125.726    2.459248   0.295411  
2604.600002154708 128.8049   2.441108   0.2900676 
2604.800002157688 125.3849   2.445764   0.2918487 
2605.000002160668 120.994    2.448674   0.2882864 
2605.200002163649 117.6616   2.491455   0.2989733 
2605.400002166629 116.9356   2.431407   0.3185658 
2605.600002169609 117.4604   2.444988   0.3363772 
2605.800002172589 117.8627   2.46468    0.3435018 
2606.00000217557 119.9882   2.468561   0.3488452 
2606.20000217855 120.6354   2.469046   0.3506263 
2606.40000218153 121.7113   2.471859   0.3363772 
2606.60000218451 120.3643   2.502805   0.3150035 
2606.80000218749 119.7083   2.5289     0.2900676 
2607.000002190471 121.3352   2.53831    0.2544447 
2607.200002193451 126.7931   2.556354   0.2312899 
2607.400002196431 133.7205   2.536855   0.2116974 
2607.600002199411 139.126    2.510081   0.2045728 
2607.800002202392 130.0556   2.495529   0.2027917 
2608.000002205372 94.01046   2.452457   0.1831991 
2608.200002208352 61.25405   2.485634   0.1849803 
2608.400002211332 47.48673   2.480396   0.1760746 
2608.600002214313 40.72553   2.473994   0.16895   
2608.800002217293 40.15699   2.474575   0.16895   
2609.000002220273 41.34655   2.444794   0.1849803 
2609.200002223253 44.99392   2.386783   0.1903237 
2609.400002226233 48.3614    2.349046   0.2010105 
2609.600002229214 47.24183   2.350113   0.1992294 
2609.800002232194 46.89196   2.370291   0.2063539 
2610.000002235174 46.69078   2.382126   0.2241654 
2610.200002238154 48.26519   2.366605   0.2330711 
2610.400002241135 50.45186   2.379992   0.2241654 
2610.600002244115 51.39651   2.405505   0.2277276 
2610.800002247095 49.15735   2.410453   0.2277276 
2611.000002250075 46.71702   2.383969   0.2134785 
2611.200002253056 44.43413   2.384067   0.1974483 
2611.400002256036 42.85973   2.399006   0.1867614 
2611.600002259016 44.55658   2.400655   0.1849803 
2611.800002261996 46.16598   2.413848   0.1831991 
2612.000002264977 45.05515   2.475837   0.1760746 
2612.200002267957 46.40215   2.559846   0.1636066 
2612.400002270937 48.54509   2.568771   0.1547009 
2612.600002273917 49.5597    2.557033   0.1493575 
2612.800002276897 49.39352   2.662287   0.1404517 
2613.000002279878 48.75501   2.65763    0.1529197 
2613.200002282858 48.65879   2.5808     0.1707311 
2613.400002285838 51.1516    2.538601   0.1796368 
2613.600002288818 53.43449   2.50135    0.1867614 
2613.800002291799 56.6008    2.449741   0.1956671 
2614.000002294779 58.72625   2.441787   0.1992294 
2614.200002297759 57.83409   2.474187   0.2045728 
2614.400002300739 57.83409   2.489321   0.2116974 
2614.60000230372 59.25105   2.525602   0.1885425 
2614.8000023067 59.15483   2.549466   0.1618254 
2615.00000230968 59.10236   2.541511   0.1457952 
2615.20000231266 57.32677   2.593702   0.1493575 
2615.40000231564 55.01765   2.629595   0.1636066 
2615.600002318621 55.47248   2.607477   0.1742934 
2615.800002321601 58.16646   2.570711   0.1831991 
2616.000002324581 60.30066   2.551018   0.1867614 
2616.200002327561 59.62716   2.529385   0.181418  
2616.400002330542 58.5863    2.519296   0.193886  
2616.600002333522 61.41149   2.51755    0.2045728 
2616.800002336502 64.39412   2.485731   0.2206031 
2617.000002339482 66.36212   2.486701   0.2134785 
2617.200002342463 67.33301   2.480784   0.2081351 
2617.400002345443 67.16682   2.45139    0.2010105 
2617.600002348423 64.38537   2.4673     0.1921048 
2617.800002351403 61.2453    2.454786   0.1992294 
