~Version
 VERS              .         2.0                           : CWLS LOG ASCII STANDARD - VERSION 2.0
 WRAP              .         NO                            : ONE LINE PER DEPTH STEP
 DLM               .         SPACE                         : DELIMITING CHARACTER(SPACE TAB OR COMMA)
~Well Information
#_______________________________________________________________________________
#
#PARAMETER_NAME    .UNIT     VALUE                         : DESCRIPTION
#_______________________________________________________________________________
STRT               .m        2460                          : First reference value
STOP               .m        2677.80000324547              : Last reference value
STEP               .m        0.2                           : Step increment
NULL               .         -9999                         : Missing value
COMP               .                                       : Company
WELL               .         606                           : Well name
FLD                .                                       : Field
LOC                .                                       : Location
CNTY               .                                       : County
STAT               .                                       : State
CTRY               .                                       : Country
SRVC               .                                       : Service Company
DATE               .                                       : Date
API                .                                       : API number
Cartographic_reference_system .         GCS_WGS_1984                  : GEOGCS["GCS_WGS_1984",DATUM["D_WGS_1984",SPHEROID["WGS_1984",6378137.0,298.257223563]],PRIMEM["Greenwich",0.0],UNIT["Degree",0.0174532925199433],AUTHORITY["EPSG",4326]]
EREF               .m        134                           : 
HZCS               .GCS_WGS_1984 World_Mercator                : PROJCS["World_Mercator",GEOGCS["GCS_WGS_1984",DATUM["D_WGS_1984",SPHEROID["WGS_1984",6378137.0,298.257223563]],PRIMEM["Greenwich",0.0],UNIT["Degree",0.0174532925199433]],PROJECTION["Mercator"],PARAMETER["False_Easting",0.0],PARAMETER["False_Northing",0.0],PARAMETER["Central_Meridian",0.0],PARAMETER["Standard_Parallel_1",0.0],UNIT["Meter",1.0],AUTHORITY["ESRI",54004]]
LATI               .dega     2.1305856004                  : GCS_WGS_1984
LONG               .dega     2.0279108213                  : GCS_WGS_1984
PROJECT_UPGRADE_TIME .         2014-05-27T11_38_46           : 
Pad                .         Pad6                          : 
X                  .m        225746                        : 
Y                  .m        235643                        : 
group              .         Pad6                          : 
Интер-р            .         Пузин                         : 
Куст               .         6                             : 
Статус             .         Не проверено                  : 
Тип                .         Нагнетательные                : 
~Parameter Information Block
#_______________________________________________________________________________
#
#PARAMETER_NAME    .UNIT     VALUE                         : DESCRIPTION
#_______________________________________________________________________________
SET                .         LQC                           : 
PROJECT_UPGRADE_TIME .         2014-05-27T11_38_46           : 
TLFamily_GR_NORM   .         Gamma Ray                     : 
TLFamily_MD        .         Measured Depth                : 
TLFamily_RHOB_NORM .         Bulk Density                  : 
TLFamily_TNPH_NORM .         Neutron Porosity              : 
~Curve Information
#_______________________________________________________________________________
#
#LOGNAME           .UNIT     LOG_ID                        : DESCRIPTION
#_______________________________________________________________________________
MD                 .m                                      :  
GR_NORM            .gAPI                                   : Normalised By Techlog 
RHOB_NORM          .g/cm3                                  : Normalized By Techlog 
TNPH_NORM          .v/v                                    : Normalised By Techlog 
~Ascii
# ...
2523.200000941753 73.82306   2.549951   0.2027917 
2523.400000944734 72.36237   2.586232   0.2259465 
2523.600000947714 64.76148   2.533363   0.2366333 
2523.800000950694 60.41436   2.469919   0.245539  
2524.000000953674 64.06174   2.489709   0.2401956 
2524.200000956655 73.92802   2.473314   0.2419768 
2524.400000959635 81.77382   2.51658    0.2366333 
2524.600000962615 81.68635   2.546071   0.2419768 
2524.800000965595 79.62213   2.507073   0.245539  
2525.000000968575 80.07696   2.494947   0.2384145 
2525.200000971556 81.52016   2.46633    0.2437579 
2525.400000974536 81.89627   2.489321   0.2491013 
2525.600000977516 82.66599   2.494074   0.2437579 
2525.800000980496 81.0216    2.515125   0.2348522 
2526.000000983477 80.47931   2.52114    0.2241654 
2526.200000986457 84.4678    2.472247   0.2259465 
2526.400000989437 87.77406   2.527251   0.2170408 
2526.600000992417 89.22601   2.587299   0.2116974 
2526.800000995398 91.43018   2.60253    0.2330711 
2527.000000998378 90.17066   2.620379   0.2473202 
2527.200001001358 87.03934   2.556354   0.2401956 
2527.400001004338 84.45906   2.48253    0.2348522 
2527.600001007318 77.49668   2.452457   0.2206031 
2527.800001010299 63.63315   2.44557    0.2116974 
2528.000001013279 56.14597   2.450517   0.193886  
2528.200001016259 55.37626   2.476807   0.1867614 
2528.400001019239 54.11674   2.483597   0.1974483 
2528.60000102222 57.77285   2.519005   0.2170408 
2528.8000010252 64.9539    2.527154   0.2206031 
2529.00000102818 71.71511   2.498537   0.2295088 
2529.20000103116 77.7066    2.539959   0.2437579 
2529.400001034141 84.38908   2.596224   0.2597882 
2529.600001037121 89.3922    2.608447   0.258007  
2529.800001040101 93.04832   2.583516   0.2562259 
2530.000001043081 90.55551   2.538795   0.2473202 
2530.200001046062 83.74183   2.504939   0.2366333 
2530.400001049042 82.13244   2.498245   0.2188219 
2530.600001052022 82.77095   2.505133   0.2170408 
2530.800001055002 79.02735   2.535303   0.2223842 
2531.000001057982 78.44133   2.518326   0.2170408 
2531.200001060963 82.91963   2.56392    0.2116974 
2531.400001063943 78.28388   2.510566   0.2152596 
2531.600001066923 69.7471    2.451487   0.2241654 
2531.800001069903 62.27741   2.442369   0.2188219 
2532.000001072884 57.08187   2.420251   0.1974483 
2532.200001075864 54.66778   2.460412   0.1867614 
2532.400001078844 53.07588   2.523371   0.181418  
2532.600001081824 50.53933   2.566831   0.1849803 
2532.800001084805 47.61794   2.638811   0.1778557 
2533.000001087785 44.37291   2.739797   0.1671689 
2533.200001090765 40.2707    2.746684   0.156482  
2533.400001093745 35.81863   2.700605   0.1547009 
2533.600001096725 32.8185    2.710403   0.1511386 
2533.800001099706 31.78639   2.741543   0.156482  
2534.000001102686 33.16837   2.63202    0.1636066 
2534.200001105666 38.21523   2.59506    0.1760746 
2534.400001108646 43.55946   2.547429   0.1831991 
2534.600001111627 46.04353   2.475546   0.193886  
2534.800001114607 55.33253   2.434317   0.2152596 
2535.000001117587 59.16359   2.395222   0.2223842 
2535.200001120567 59.88081   2.37844    0.2099162 
2535.400001123548 63.79934   2.432086   0.2010105 
2535.600001126528 67.87531   2.45789    0.2081351 
2535.800001129508 73.10583   2.439944   0.2134785 
2536.000001132488 73.83181   2.455077   0.2259465 
2536.200001135468 70.20193   2.481948   0.2241654 
2536.400001138449 65.2338    2.495917   0.2206031 
2536.600001141429 59.2423    2.466136   0.2063539 
2536.800001144409 57.09062   2.455853   0.1921048 
2537.000001147389 61.57767   2.513282   0.1956671 
2537.20000115037 71.96002   2.531422   0.2099162 
2537.40000115335 84.36285   2.544907   0.2223842 
2537.60000115633 89.85577   2.610484   0.2223842 
2537.80000115931 77.74158   2.616596   0.2206031 
2538.000001162291 75.01262   2.604276   0.2241654 
2538.200001165271 80.18192   2.588367   0.2348522 
2538.400001168251 89.63711   2.556451   0.2526636 
2538.600001171231 93.22326   2.527154   0.2473202 
2538.800001174212 99.01357   2.496014   0.2419768 
2539.000001177192 103.0721   2.537437   0.245539  
2539.200001180172 101.8475   2.561883   0.2401956 
2539.400001183152 98.54125   2.59118    0.2384145 
2539.600001186132 95.61111   2.586329   0.2401956 
2539.800001189113 97.02808   2.572748   0.2491013 
2540.000001192093 98.9611    2.626588   0.2508825 
2540.200001195073 98.44505   2.622514   0.258007  
2540.400001198053 99.94948   2.567995   0.2669127 
2540.600001201034 103.7455   2.571681   0.2633505 
2540.800001204014 107.6641   2.544034   0.2615693 
2541.000001206994 107.9002   2.569159   0.2526636 
2541.200001209974 106.2384   2.595933   0.245539  
2541.400001212955 105.7398   2.58274    0.245539  
2541.600001215935 108.0664   2.512215   0.2491013 
2541.800001218915 110.6292   2.47768    0.2562259 
2542.000001221895 106.7981   2.48447    0.2615693 
2542.200001224875 102.0224   2.54772    0.2686939 
2542.400001227856 97.04557   2.590986   0.2615693 
2542.600001230836 88.48254   2.567316   0.2473202 
2542.800001233816 89.60213   2.599037   0.2419768 
2543.000001236796 95.6461    2.591568   0.2473202 
2543.200001239777 95.56738   2.610873   0.2508825 
2543.400001242757 96.83565   2.654429   0.2526636 
2543.600001245737 99.88825   2.572166   0.2419768 
2543.800001248717 100.2819   2.56489    0.2437579 
2544.000001251698 99.69582   2.574591   0.2508825 
2544.200001254678 96.87939   2.569935   0.258007  
2544.400001257658 95.97847   2.581479   0.258007  
2544.600001260638 98.1564    2.601851   0.2651316 
2544.800001263618 101.2177   2.551697   0.2633505 
2545.000001266599 103.7368   2.566831   0.2811618 
2545.200001269579 108.39     2.603403   0.3007544 
2545.400001272559 115.921    2.591956   0.295411  
2545.600001275539 124.6852   2.555384   0.3025355 
2545.80000127852 130.3355   2.541026   0.3221281 
2546.0000012815 130.4842   2.542481   0.3274715 
2546.20000128448 135.1025   2.498827   0.3167847 
2546.40000128746 134.5864   2.5062     0.295411  
2546.600001290441 130.1256   2.505036   0.2793807 
2546.800001293421 123.6705   2.516968   0.2686939 
2547.000001296401 120.2681   2.561398   0.270475  
2547.200001299381 114.4952   2.549466   0.2775996 
2547.400001302361 110.4718   2.565958   0.2793807 
2547.600001305342 114.4428   2.584486   0.2865053 
2547.800001308322 118.9648   2.632699   0.2775996 
2548.000001311302 114.1454   2.59865    0.2651316 
2548.200001314282 109.6933   2.547429   0.2562259 
2548.400001317263 107.9527   2.585747   0.2526636 
2548.600001320243 106.5707   2.566927   0.2508825 
2548.800001323223 113.0958   2.59409    0.2544447 
2549.000001326203 121.4664   2.575561   0.2597882 
2549.200001329184 129.2597   2.59797    0.2900676 
2549.400001332164 141.2777   2.544227   0.2989733 
2549.600001335144 161.5175   2.483306   0.2865053 
2549.800001338124 181.9848   2.423646   0.2971921 
2550.000001341105 179.7107   2.421415   0.3310338 
2550.200001344085 168.305    2.463711   0.3559698 
2550.400001347065 170.0806   2.444309   0.3613132 
2550.600001350045 176.2033   2.410938   0.3435018 
2550.800001353025 183.1132   2.390566   0.3132224 
2551.000001356006 189.3146   2.392118   0.3167847 
2551.200001358986 198.0613   2.423937   0.3310338 
2551.400001361966 203.8079   2.421706   0.3292527 
2551.600001364946 196.067    2.43907    0.3185658 
2551.800001367927 189.2796   2.425392   0.3167847 
2552.000001370907 187.574    2.423452   0.3150035 
2552.200001373887 182.9732   2.415885   0.3292527 
2552.400001376867 179.4133   2.420542   0.3541886 
2552.600001379848 183.5592   2.402789   0.3630943 
2552.800001382828 186.6468   2.396871   0.372     
2553.000001385808 188.7635   2.440623   0.3702189 
2553.200001388788 199.5045   2.432183   0.3577509 
2553.400001391768 216.5343   2.375724   0.359532  
2553.600001394749 227.459    2.326637   0.3648754 
2553.800001397729 231.395    2.347203   0.3524075 
2554.000001400709 232.0685   2.313153   0.3381583 
2554.200001403689 231.43     2.331391   0.3506263 
2554.40000140667 231.9723   2.324115   0.3773434 
2554.60000140965 227.319    2.359717   0.3702189 
