~Version
 VERS              .         2.0                           : CWLS LOG ASCII STANDARD - VERSION 2.0
 WRAP              .         NO                            : ONE LINE PER DEPTH STEP
 DLM               .         SPACE                         : DELIMITING CHARACTER(SPACE TAB OR COMMA)
~Well Information
#_______________________________________________________________________________
#
#PARAMETER_NAME    .UNIT     VALUE                         : DESCRIPTION
#_______________________________________________________________________________
STRT               .m        2469                          : First reference value
STOP               .m        2690                          : Last reference value
STEP               .m        0.2                           : Step increment
NULL               .         -9999                         : Missing value
COMP               .                                       : Company
WELL               .         101                           : Well name
FLD                .                                       : Field
LOC                .                                       : Location
CNTY               .                                       : County
STAT               .                                       : State
CTRY               .                                       : Country
SRVC               .                                       : Service Company
DATE               .                                       : Date
API                .                                       : API number
EREF               .m        137.7                         : 
Pad                .         1                             : 
X                  .m        229503                        : 
Y                  .m        240117                        : 
group              .         Pad1                          : 
Интер-р            .         Пузин                         : 
Куст               .         1                             : 
Статус             .         Не проверено                  : 
Тип                .         Разведка                      : 
~Parameter Information Block
#_______________________________________________________________________________
#
#PARAMETER_NAME    .UNIT     VALUE                         : DESCRIPTION
#_______________________________________________________________________________
SET                .         LAS1                          : 
REAL_CREATION_DATE .         Ср апр 11 2012-13_17_05       : 
TLFamily_DEPTH     .         Measured Depth                : 
TLFamily_KS        .         Potential Resistivity         : 
TLFamily_KS1       .         Extra Shallow Resistivity     : 
TLFamily_KS2       .         Shallow Resistivity           : 
TLFamily_KS3       .         Medium Resistivity            : 
TLFamily_KS4       .         Deep Resistivity              : 
TLFamily_KS5       .         Extra Deep Resistivity        : 
TLFamily_LLD       .         Lateral Log Resistivity       : 
TLFamily_OKS3      .         Medium Resistivity Inverted   : 
TLFamily_RM        .         Mud Resistivity               : 
TLFamily_SP        .         Spontaneous Potential         : 
group              .         INI                           : 
~Curve Information
#_______________________________________________________________________________
#
#LOGNAME           .UNIT     LOG_ID                        : DESCRIPTION
#_______________________________________________________________________________
DEPTH              .m                                      : 1 Depth 
KS                 .ohm.m                                  : 10 Normal Log Resistivity  N11.0M0.5A 
KS1                .ohm.m                                  : 3 Lateral Log Resistivity  A0.4M0.1N 
KS2                .ohm.m                                  : 4 Lateral Log Resistivity  A1.0M0.1N 
KS3                .ohm.m                                  : 5 Lateral Log Resistivity  A2.0M0.5N 
KS4                .ohm.m                                  : 6 Lateral Log Resistivity  A4.0M0.5N 
KS5                .ohm.m                                  : 7 Lateral Log Resistivity  A8.0M0.5N 
LLD                .ohm.m                                  : 2 Laterolog Shallow 
OKS3               .ohm.m                                  : 8 Lateral Log Resistivity (Inverse) 
RM                 .ohm.m                                  : 11 Mud Resistivity 
SP                 .mV                                     : 9 Spontaneous Potential 
~Ascii
# ...
2509.2     7.2071     3.0831     8.4065     11.4227    10.14      5.929      6.2875     11.7756    0.493      26.351    
2509.4     7.1577     3.127      8.6746     11.6659    9.8537     5.9945     6.1329     11.6684    0.491      29.6137   
2509.6     7.1577     3.0979     8.6194     11.7723    9.4525     6.022      5.9569     11.3907    0.49       30.5611   
2509.8     7.1577     3.0635     8.475      11.7723    9.101      6.022      5.9937     11.0973    0.49       27.8291   
2510       7.1577     3.0731     8.4437     11.7976    8.976      6.022      6.1183     10.8513    0.49       27.4111   
2510.2     7.1577     3.0731     8.4384     11.8864    8.9428     6.0711     6.1999     10.6626    0.486      29.5715   
2510.4     7.1042     3.0731     8.4939     11.9802    8.9899     6.0818     6.2003     10.5677    0.485      28.6537   
2510.6     7.0443     3.1262     8.5912     12.0386    8.9794     6.128      6.1873     10.3134    0.481      27.4905   
2510.8     6.9863     3.1544     8.5882     11.9939    8.9151     6.128      5.9029     10.032     0.468      29.1501   
2511       6.8741     3.0731     8.4474     11.8257    8.8461     6.2268     5.6288     9.9422     0.467      31.285    
2511.2     6.801      3.0186     8.4194     11.7073    8.8978     6.4669     5.4629     9.9345     0.465      29.3432   
2511.4     6.6762     2.9707     8.2577     11.7604    9.1343     6.7776     5.5012     10.1131    0.461      27.2105   
2511.6     6.6052     3.0669     8.3622     12.0342    9.5934     7.1973     5.5701     10.3417    0.463      27.6776   
2511.8     6.5157     3.1162     8.5786     12.3308    10.0649    7.5698     5.3034     10.5374    0.462      29.062    
2512       6.5157     3.0522     8.3695     12.4296    10.2569    7.9824     5.0488     10.7493    0.466      26.38     
2512.2     6.5809     2.9776     8.0692     12.2415    10.3053    8.3514     4.8824     11.0175    0.467      25.5704   
2512.4     6.7296     2.8624     7.7852     11.9561    10.2685    8.6404     4.8348     11.3286    0.467      27.5801   
2512.6     6.8713     2.7932     7.6632     11.7327    10.3306    8.8347     5.3798     11.3676    0.466      30.0947   
2512.8     6.9706     3.0145     8.0252     11.7597    10.5007    8.9316     6.9682     11.0135    0.466      27.8732   
2513       7.0229     3.138      8.2945     12.0019    10.6208    8.7899     6.4109     10.5108    0.467      28.5728   
2513.2     6.8607     3.3647     8.8737     11.932     10.5556    8.4432     7.5947     9.7314     0.467      31.0324   
2513.4     6.6528     3.4575     8.8412     11.6586    10.0734    7.9374     5.6231     8.9327     0.458      31.6205   
2513.6     6.3488     3.3741     8.8663     10.9941    9.2927     7.3387     4.3454     8.4575     0.466      30.1556   
2513.8     6.0648     3.0876     8.5855     10.5055    8.7108     6.6793     4.2217     8.4712     0.467      31.4679   
2514       5.9362     2.9282     8.2722     10.1456    8.1406     6.1377     4.233      8.6582     0.467      33.6385   
2514.2     5.8545     2.8576     7.9911     9.8502     7.7478     5.6596     4.299      8.9031     0.467      32.1598   
2514.4     5.7979     2.8434     7.5772     9.6292     7.4224     5.3565     4.2635     9.1454     0.461      29.816    
2514.6     5.8201     2.7415     6.9779     9.3907     7.0225     5.1645     4.1246     9.4827     0.461      32.0484   
2514.8     5.8715     2.642      6.6284     9.3334     6.7926     5.0849     4.1654     10.2105    0.463      33.2482   
2515       5.8798     2.6828     6.6869     9.4542     6.7913     5.1183     4.3799     11.2794    0.467      32.4279   
2515.2     5.9644     2.6622     6.6375     9.6371     6.9432     5.2438     4.5751     12.4318    0.461      29.5975   
2515.4     5.9816     2.7391     6.7902     9.8915     7.1804     5.3671     4.88       13.5535    0.463      30.5842   
2515.6     6.0341     2.8433     7.0857     9.8628     7.3031     5.4394     4.8781     14.2998    0.466      32.351    
2515.8     6.0799     2.8736     7.0538     9.4953     7.2046     5.4158     4.6911     14.8422    0.471      29.8397   
2516       6.1565     2.7848     6.7765     9.0387     6.9619     5.3515     4.5623     15.109     0.467      29.8865   
2516.2     6.327      2.6504     6.5921     8.5272     6.7391     5.2805     4.5715     15.1515    0.469      31.5789   
2516.4     6.4946     2.6259     6.5384     8.2239     6.8262     5.3012     4.6711     15.0233    0.467      31.2973   
2516.6     6.7414     2.5815     6.4413     8.151      7.1111     5.4628     4.7791     15.089     0.471      29.1672   
2516.8     7.0245     2.5441     6.4614     8.2134     7.5419     5.7909     5.3316     15.3679    0.469      30.8969   
2517       7.4998     2.5732     6.537      8.3548     8.0437     6.3843     5.3522     15.7863    0.478      31.1152   
2517.2     8.1914     2.4501     6.3465     8.5638     8.7601     7.1387     5.4682     16.5794    0.483      29.309    
2517.4     9.1283     2.3155     6.2222     9.002      9.837      7.9912     6.4563     17.7286    0.487      28.371    
2517.6     10.1165    2.3829     6.6452     9.8828     11.0161    8.8574     16.238     17.4297    0.49       31.9359   
2517.8     11.0096    3.0346     8.0873     11.3339    12.0097    9.6904     46.044     15.5279    0.489      32.5398   
2518       11.3069    3.8493     9.927      13.3593    12.8791    10.2955    58.4106    13.1062    0.485      29.6366   
2518.2     10.8402    4.6267     12.3286    15.7305    13.7825    10.4989    45.6522    11.0595    0.485      30.0029   
2518.4     9.8314     5.387      15.2636    17.8835    14.2747    10.3108    21.8066    9.2888     0.484      31.9925   
2518.6     8.6574     5.5946     16.6541    18.5202    13.487     9.7456     6.9585     7.8956     0.479      31.7183   
2518.8     7.6615     4.802      15.3383    17.4911    11.5214    8.9169     4.4003     7.5909     0.473      29.9597   
2519       6.9961     3.8748     13.4409    15.9743    9.7168     7.869      3.9763     7.6593     0.478      31.158    
2519.2     6.6067     3.2988     11.7039    14.8174    8.6393     6.5434     4.1518     7.966      0.486      32.6395   
2519.4     6.4342     3.0101     10.3111    14.1595    8.1386     5.9339     4.095      8.4971     0.485      29.6524   
2519.6     6.3111     2.8611     9.0449     14.276     7.9942     5.741      4.7241     8.9467     0.475      27.2216   
2519.8     6.2481     2.9429     8.5873     14.9896    8.0819     5.7042     5.0455     9.2157     0.48       28.8517   
2520       6.1909     3.0093     8.3142     15.3839    8.1481     5.7042     4.8559     9.456      0.479      30.8939   
2520.2     6.1011     3.0192     8.0965     15.1805    8.1293     5.7042     4.6942     9.4916     0.479      28.0373   
2520.4     6.02       3.0132     7.952      14.5413    8.0068     5.6238     4.6016     9.3591     0.48       26.7267   
2520.6     5.9043     2.9327     7.7897     13.64      7.8854     5.4544     4.7772     8.9307     0.474      29.2171   
2520.8     5.7389     3.0646     8.0838     12.5274    7.7613     5.2541     4.6545     8.4716     0.467      30.4781   
2521       5.5535     3.0689     7.9003     11.3347    7.5102     5.0165     4.0676     8.1626     0.472      29.0139   
2521.2     5.4252     2.8919     7.3551     10.1396    7.2178     4.7697     4.1184     8.0281     0.465      30.0196   
2521.4     5.3921     2.7282     7.2414     9.1958     6.9238     4.5405     3.7462     8.0647     0.468      32.9626   
2521.6     5.3921     2.5526     6.6427     8.5171     6.7851     4.486      3.5409     8.3571     0.467      32.6388   
2521.8     5.4653     2.471      6.0719     8.0013     6.9651     4.6793     3.4955     8.9289     0.462      30.8316   
2522       5.6108     2.361      5.8584     7.9186     7.46       4.9221     3.5455     9.8416     0.465      31.0982   
2522.2     5.7146     2.3925     6.2116     8.325      8.2678     5.1652     4.4138     10.3358    0.472      33.3741   
2522.4     5.9088     2.7221     6.7981     9.0335     8.977      5.3737     6.1477     9.9582     0.471      32.1572   
