~Version
 VERS              .         2.0                           : CWLS LOG ASCII STANDARD - VERSION 2.0
 WRAP              .         NO                            : ONE LINE PER DEPTH STEP
 DLM               .         SPACE                         : DELIMITING CHARACTER(SPACE TAB OR COMMA)
~Well Information
#_______________________________________________________________________________
#
#PARAMETER_NAME    .UNIT     VALUE                         : DESCRIPTION
#_______________________________________________________________________________
STRT               .m        2469                          : First reference value
STOP               .m        2690                          : Last reference value
STEP               .m        0.2                           : Step increment
NULL               .         -9999                         : Missing value
COMP               .                                       : Company
WELL               .         101                           : Well name
FLD                .                                       : Field
LOC                .                                       : Location
CNTY               .                                       : County
STAT               .                                       : State
CTRY               .                                       : Country
SRVC               .                                       : Service Company
DATE               .                                       : Date
API                .                                       : API number
EREF               .m        137.7                         : 
Pad                .         1                             : 
X                  .m        229503                        : 
Y                  .m        240117                        : 
group              .         Pad1                          : 
Интер-р            .         Пузин                         : 
Куст               .         1                             : 
Статус             .         Не проверено                  : 
Тип                .         Разведка                      : 
~Parameter Information Block
#_______________________________________________________________________________
#
#PARAMETER_NAME    .UNIT     VALUE                         : DESCRIPTION
#_______________________________________________________________________________
SET                .         LAS3                          : 
REAL_CREATION_DATE .         Ср апр 11 2012-13_17_06       : 
TLFamily_DEPTH     .         Measured Depth                : 
TLFamily_GR        .         Gamma Ray                     : 
TLFamily_TNPH      .         Neutron Porosity              : 
group              .         INI                           : 
~Curve Information
#_______________________________________________________________________________
#
#LOGNAME           .UNIT     LOG_ID                        : DESCRIPTION
#_______________________________________________________________________________
DEPTH              .m                                      : 1 Depth 
GR                 .gAPI                                   :  
TNPH               .v/v                                    : 5 Hydrogen Content 
~Ascii
# ...
2566.2     479.55     0.308     
2566.4     507.87     0.297     
2566.6     486.41     0.311     
2566.8     383.32     0.326     
2567       352.68     0.335     
2567.2     366.17     0.342     
2567.4     387.55     0.354     
2567.6     382.46     0.359     
2567.8     362.77     0.34      
2568       359.32     0.327     
2568.2     356.32     0.316     
2568.4     357.85     0.308     
2568.6     361.14     0.307     
2568.8     367.53     0.323     
2569       365.39     0.333     
2569.2     359.01     0.326     
2569.4     341.33     0.328     
2569.6     318.04     0.304     
2569.8     301.31     0.3       
2570       297.24     0.339     
2570.2     296.77     0.356     
2570.4     297.24     0.368     
2570.6     304.14     0.373     
2570.8     327.63     0.368     
2571       337.3      0.346     
2571.2     329.03     0.323     
2571.4     333.26     0.322     
2571.6     340.2      0.343     
2571.8     335.76     0.349     
2572       319.9      0.328     
2572.2     311.37     0.31      
2572.4     306.17     0.302     
2572.6     304.92     0.281     
2572.8     291.68     0.269     
2573       283.23     0.28      
2573.2     280.54     0.281     
2573.4     276.77     0.29      
2573.6     274.05     0.293     
2573.8     261.89     0.29      
2574       233.8      0.274     
2574.2     210.34     0.284     
2574.4     184.85     0.304     
2574.6     179.03     0.298     
2574.8     195.44     0.277     
2575       201.43     0.257     
2575.2     201.12     0.253     
2575.4     197.22     0.254     
2575.6     194.84     0.253     
2575.8     191.23     0.256     
2576       183.5      0.257     
2576.2     174.9      0.248     
2576.4     173.05     0.231     
2576.6     169.29     0.24      
2576.8     155.87     0.245     
2577       147.04     0.248     
2577.2     145.3      0.245     
2577.4     144.87     0.248     
2577.6     150.31     0.26      
2577.8     152.45     0.255     
2578       151.01     0.248     
2578.2     152.32     0.244     
2578.4     157.51     0.227     
2578.6     164.63     0.227     
2578.8     176.21     0.227     
2579       168.38     0.232     
2579.2     149.28     0.243     
2579.4     133.28     0.245     
2579.6     132.23     0.232     
2579.8     129.13     0.231     
2580       125.29     0.227     
2580.2     125.63     0.209     
2580.4     127.31     0.221     
2580.6     127.57     0.224     
2580.8     124.79     0.215     
2581       124.97     0.212     
2581.2     125.4      0.214     
2581.4     127.69     0.224     
2581.6     131.93     0.246     
2581.8     134.43     0.258     
2582       128.49     0.264     
2582.2     126.85     0.286     
2582.4     131.77     0.293     
2582.6     134.04     0.295     
2582.8     128.14     0.292     
2583       126.8      0.276     
2583.2     133.36     0.267     
2583.4     140.99     0.279     
2583.6     140.11     0.302     
2583.8     138.15     0.328     
2584       145.82     0.339     
2584.2     146.62     0.343     
2584.4     146.01     0.332     
2584.6     135.62     0.322     
2584.8     120.97     0.311     
2585       121.76     0.316     
2585.2     126.35     0.327     
2585.4     130.87     0.329     
2585.6     125.66     0.32      
2585.8     115.09     0.304     
2586       110.47     0.291     
2586.2     109.06     0.296     
2586.4     106.1      0.311     
2586.6     109.54     0.318     
2586.8     125.6      0.336     
2587       139.29     0.342     
2587.2     146.76     0.315     
2587.4     147.3      0.285     
2587.6     137.39     0.272     
2587.8     122.01     0.278     
2588       113.67     0.278     
2588.2     112.2      0.279     
2588.4     114.72     0.292     
2588.6     120.26     0.316     
2588.8     135.19     0.328     
2589       150.54     0.355     
2589.2     155.02     0.383     
2589.4     154.42     0.386     
2589.6     152.48     0.353     
2589.8     153.12     0.336     
2590       162.26     0.342     
2590.2     167.72     0.334     
2590.4     167.69     0.334     
2590.6     156.25     0.351     
2590.8     141.74     0.348     
2591       143.73     0.344     
2591.2     148.31     0.347     
2591.4     150.35     0.348     
2591.6     153.23     0.347     
2591.8     170.22     0.335     
2592       183.38     0.341     
2592.2     188.54     0.333     
2592.4     176.55     0.318     
2592.6     155.09     0.31      
2592.8     142.37     0.311     
2593       142.3      0.332     
2593.2     143.96     0.358     
2593.4     142.87     0.359     
2593.6     136.16     0.334     
2593.8     130.14     0.3       
2594       131.6      0.275     
2594.2     134.19     0.273     
2594.4     133.13     0.283     
2594.6     134.03     0.288     
2594.8     138        0.283     
2595       146.47     0.286     
2595.2     150.95     0.292     
2595.4     151.5      0.307     
2595.6     142.88     0.305     
2595.8     137.98     0.295     
2596       138.5      0.302     
2596.2     137.28     0.301     
2596.4     136.62     0.302     
2596.6     138.37     0.299     
2596.8     137.35     0.307     
2597       136.86     0.317     
2597.2     135.85     0.298     
2597.4     133.96     0.276     
2597.6     133.99     0.247     
2597.8     135.43     0.221     
2598       131.83     0.206     
2598.2     124.09     0.197     
2598.4     105.86     0.176     
2598.6     84.84      0.158     
2598.8     65.64999   0.15      
2599       76.63      0.164     
2599.2     99.02      0.186     
2599.4     128.55     0.206     
2599.6     139.78     0.212     
2599.8     138.27     0.224     
2600       135.53     0.232     
2600.2     135.2      0.234     
2600.4     131.69     0.241     
2600.6     120.73     0.238     
2600.8     107.32     0.226     
2601       105.7      0.225     
2601.2     124.1      0.238     
2601.4     151.16     0.248     
2601.6     157.24     0.242     
2601.8     147.87     0.235     
2602       141.63     0.225     
2602.2     137.21     0.236     
2602.4     134.89     0.235     
2602.6     132.08     0.22      
2602.8     132        0.219     
2603       130.41     0.228     
2603.2     127.37     0.24      
2603.4     122.99     0.254     
2603.6     123.37     0.253     
2603.8     123.52     0.247     
2604       123.28     0.255     
2604.2     122.34     0.266     
2604.4     121.41     0.262     
2604.6     124.22     0.259     
2604.8     131.47     0.259     
2605       135.18     0.246     
2605.2     138.49     0.241     
2605.4     143.71     0.232     
2605.6     144.88     0.233     
2605.8     149.1      0.246     
2606       142.89     0.249     
2606.2     141.45     0.236     
2606.4     142.61     0.226     
2606.6     143.44     0.216     
2606.8     144.64     0.223     
2607       150.44     0.228     
2607.2     152.18     0.212     
2607.4     149.22     0.207     
2607.6     146.96     0.216     
2607.8     145.68     0.215     
2608       144.38     0.21      
2608.2     141.82     0.221     
2608.4     138.74     0.236     
2608.6     134.75     0.241     
2608.8     137.91     0.243     
2609       139.36     0.238     
2609.2     136.31     0.234     
2609.4     132.88     0.241     
2609.6     131.44     0.258     
2609.8     130.4      0.27      
2610       127.11     0.278     
2610.2     124.39     0.29      
2610.4     126.79     0.289     
2610.6     126.23     0.287     
2610.8     120.88     0.284     
2611       121.67     0.287     
2611.2     125.96     0.294     
2611.4     131.05     0.314     
2611.6     136.99     0.307     
2611.8     142.2      0.299     
2612       138.58     0.291     
2612.2     139.53     0.312     
2612.4     140.85     0.336     
2612.6     141.4      0.352     
2612.8     142.13     0.338     
2613       140.9      0.328     
2613.2     139.64     0.347     
2613.4     138.52     0.341     
2613.6     135.67     0.33      
2613.8     138.57     0.315     
2614       142.43     0.306     
2614.2     140.99     0.33      
2614.4     144.6      0.337     
2614.6     149.56     0.325     
