~Version
 VERS              .         2.0                           : CWLS LOG ASCII STANDARD - VERSION 2.0
 WRAP              .         NO                            : ONE LINE PER DEPTH STEP
 DLM               .         SPACE                         : DELIMITING CHARACTER(SPACE TAB OR COMMA)
~Well Information
#_______________________________________________________________________________
#
#PARAMETER_NAME    .UNIT     VALUE                         : DESCRIPTION
#_______________________________________________________________________________
STRT               .m        2469                          : First reference value
STOP               .m        2690                          : Last reference value
STEP               .m        0.2                           : Step increment
NULL               .         -9999                         : Missing value
COMP               .                                       : Company
WELL               .         101                           : Well name
FLD                .                                       : Field
LOC                .                                       : Location
CNTY               .                                       : County
STAT               .                                       : State
CTRY               .                                       : Country
SRVC               .                                       : Service Company
DATE               .                                       : Date
API                .                                       : API number
EREF               .m        137.7                         : 
Pad                .         1                             : 
X                  .m        229503                        : 
Y                  .m        240117                        : 
group              .         Pad1                          : 
Интер-р            .         Пузин                         : 
Куст               .         1                             : 
Статус             .         Не проверено                  : 
Тип                .         Разведка                      : 
~Parameter Information Block
#_______________________________________________________________________________
#
#PARAMETER_NAME    .UNIT     VALUE                         : DESCRIPTION
#_______________________________________________________________________________
SET                .         LAS3                          : 
REAL_CREATION_DATE .         Ср апр 11 2012-13_17_06       : 
TLFamily_DEPTH     .         Measured Depth                : 
TLFamily_GR        .         Gamma Ray                     : 
TLFamily_TNPH      .         Neutron Porosity              : 
group              .         INI                           : 
~Curve Information
#_______________________________________________________________________________
#
#LOGNAME           .UNIT     LOG_ID                        : DESCRIPTION
#_______________________________________________________________________________
DEPTH              .m                                      : 1 Depth 
GR                 .gAPI                                   :  
TNPH               .v/v                                    : 5 Hydrogen Content 
~Ascii
# ...
2663.4     67.33      0.184     
2663.6     75.55      0.208     
2663.8     85.63      0.209     
2664       102.04     0.207     
2664.2     113.52     0.217     
2664.4     120.77     0.228     
2664.6     119.6      0.243     
2664.8     108.42     0.252     
2665       101.71     0.238     
2665.2     98.98      0.237     
2665.4     93.97      0.236     
2665.6     89.17      0.23      
2665.8     83.09      0.221     
2666       84.09      0.214     
2666.2     86.68999   0.2       
2666.4     89.7       0.199     
2666.6     93.06      0.2       
2666.8     99.91      0.207     
2667       104.15     0.219     
2667.2     104.05     0.221     
2667.4     101.93     0.208     
2667.6     96.28999   0.199     
2667.8     87.09      0.191     
2668       84.39      0.187     
2668.2     81.07001   0.185     
2668.4     70.45999   0.166     
2668.6     61.16      0.137     
2668.8     54.42      0.118     
2669       57.3       0.116     
2669.2     62.39      0.131     
2669.4     71.58      0.151     
2669.6     81.44      0.185     
2669.8     92.04001   0.202     
2670       96.22      0.201     
2670.2     96.54      0.211     
2670.4     100.69     0.234     
2670.6     106.57     0.256     
2670.8     105.26     0.258     
2671       90.84      0.233     
2671.2     75.78      0.203     
2671.4     61.92001   0.19      
2671.6     58.33      0.191     
2671.8     59.92      0.195     
2672       61.06      0.195     
2672.2     59.61      0.203     
2672.4     58.24      0.214     
2672.6     60.1       0.209     
2672.8     57.95      0.197     
2673       58.18      0.196     
2673.2     61.28      0.199     
2673.4     63.94      0.199     
2673.6     65.23      0.2       
2673.8     69.02      0.195     
2674       72.01      0.196     
2674.2     77.12      0.212     
2674.4     87.21      0.241     
2674.6     94.46      0.244     
2674.8     106.05     0.232     
2675       110.69     0.226     
2675.2     109.6      0.229     
2675.4     109.27     0.227     
2675.6     108.44     0.224     
2675.8     112.57     0.246     
2676       116.45     0.274     
2676.2     119.46     0.285     
2676.4     117.72     0.288     
2676.6     112.28     0.281     
2676.8     101.18     0.263     
2677       88.94      0.243     
2677.2     79.92      0.23      
2677.4     75.88      0.217     
2677.6     76.36      0.228     
2677.8     76.87      0.228     
2678       74.57      0.225     
2678.2     75.91      0.245     
2678.4     78.3       0.238     
2678.6     75.89      0.228     
2678.8     74.7       0.228     
2679       74.48      0.234     
2679.2     77.33      0.249     
2679.4     84.57      0.257     
2679.6     88.92999   0.255     
2679.8     90.43999   0.26      
2680       91.19      0.27      
2680.2     90.14      0.285     
2680.4     89.8       0.284     
2680.6     87.45      0.253     
2680.8     86.87      0.234     
2681       88.36      0.242     
2681.2     90.61      0.248     
2681.4     91.68      0.236     
2681.6     88.50999   0.232     
2681.8     72.53999   0.242     
2682       58.62      0.268     
2682.2     46.23      0.303     
2682.4     34.8       0.342     
2682.6     36.41      0.321     
2682.8     58.02      0.263     
2683       76.87      0.217     
2683.2     76.67      0.205     
2683.4     67.24      0.193     
2683.6     59.52      0.174     
2683.8     61.89      0.165     
2684       70.96      0.174     
2684.2     79.28001   0.2       
2684.4     90         0.23      
2684.6     97.92      0.247     
2684.8     103.82     0.236     
2685       107.46     0.235     
2685.2     108.1      0.238     
2685.4     108.1      0.247     
2685.6     105.65     0.261     
2685.8     110.16     0.271     
2686       115.77     0.271     
2686.2     118.05     0.283     
2686.4     118.23     0.304     
2686.6     119.65     0.307     
2686.8     121.63     0.306     
2687       119.62     0.301     
2687.2     115.51     0.277     
2687.4     108.4      0.248     
2687.6     103.97     0.214     
2687.8     103.4      0.203     
2688       103.18     0.209     
2688.2     102.3      0.225     
2688.4     100.4      0.238     
2688.6     102.77     0.263     
2688.8     99.20999   0.272     
2689       99.08      0.267     
2689.2     98.55      0.287     
2689.4     97.5       0.294     
2689.6     98.98      0.293     
2689.8     104.6      0.296     
2690       104.53     0.297     
