~Version
 VERS              .         2.0                           : CWLS LOG ASCII STANDARD - VERSION 2.0
 WRAP              .         NO                            : ONE LINE PER DEPTH STEP
 DLM               .         SPACE                         : DELIMITING CHARACTER(SPACE TAB OR COMMA)
~Well Information
#_______________________________________________________________________________
#
#PARAMETER_NAME    .UNIT     VALUE                         : DESCRIPTION
#_______________________________________________________________________________
STRT               .m        2469                          : First reference value
STOP               .m        2690                          : Last reference value
STEP               .m        0.2                           : Step increment
NULL               .         -9999                         : Missing value
COMP               .                                       : Company
WELL               .         101                           : Well name
FLD                .                                       : Field
LOC                .                                       : Location
CNTY               .                                       : County
STAT               .                                       : State
CTRY               .                                       : Country
SRVC               .                                       : Service Company
DATE               .                                       : Date
API                .                                       : API number
EREF               .m        137.7                         : 
Pad                .         1                             : 
X                  .m        229503                        : 
Y                  .m        240117                        : 
group              .         Pad1                          : 
Интер-р            .         Пузин                         : 
Куст               .         1                             : 
Статус             .         Не проверено                  : 
Тип                .         Разведка                      : 
~Parameter Information Block
#_______________________________________________________________________________
#
#PARAMETER_NAME    .UNIT     VALUE                         : DESCRIPTION
#_______________________________________________________________________________
SET                .         LAS1                          : 
REAL_CREATION_DATE .         Ср апр 11 2012-13_17_05       : 
TLFamily_DEPTH     .         Measured Depth                : 
TLFamily_KS        .         Potential Resistivity         : 
TLFamily_KS1       .         Extra Shallow Resistivity     : 
TLFamily_KS2       .         Shallow Resistivity           : 
TLFamily_KS3       .         Medium Resistivity            : 
TLFamily_KS4       .         Deep Resistivity              : 
TLFamily_KS5       .         Extra Deep Resistivity        : 
TLFamily_LLD       .         Lateral Log Resistivity       : 
TLFamily_OKS3      .         Medium Resistivity Inverted   : 
TLFamily_RM        .         Mud Resistivity               : 
TLFamily_SP        .         Spontaneous Potential         : 
group              .         INI                           : 
~Curve Information
#_______________________________________________________________________________
#
#LOGNAME           .UNIT     LOG_ID                        : DESCRIPTION
#_______________________________________________________________________________
DEPTH              .m                                      : 1 Depth 
KS                 .ohm.m                                  : 10 Normal Log Resistivity  N11.0M0.5A 
KS1                .ohm.m                                  : 3 Lateral Log Resistivity  A0.4M0.1N 
KS2                .ohm.m                                  : 4 Lateral Log Resistivity  A1.0M0.1N 
KS3                .ohm.m                                  : 5 Lateral Log Resistivity  A2.0M0.5N 
KS4                .ohm.m                                  : 6 Lateral Log Resistivity  A4.0M0.5N 
KS5                .ohm.m                                  : 7 Lateral Log Resistivity  A8.0M0.5N 
LLD                .ohm.m                                  : 2 Laterolog Shallow 
OKS3               .ohm.m                                  : 8 Lateral Log Resistivity (Inverse) 
RM                 .ohm.m                                  : 11 Mud Resistivity 
SP                 .mV                                     : 9 Spontaneous Potential 
~Ascii
2469.0     -9999      0          0.0496     0          0          104.2767   0          20.6778    0.437      26.1449   
2469.2     -9999      0.2527     0.0496     0          0          104.3152   0          17.189     0.437      24.6969   
2469.4     -9999      1.156      0.0496     0          0          104.2939   0          14.9744    0.437      21.1877   
2469.6     -9999      1.6966     0.0496     0          0          104.3088   0          13.4749    0.442      17.1698   
2469.8     -9999      1.9939     0.817      0          0          104.3297   0          12.399     0.443      18.1453   
2470       4.9015     2.2318     2.7598     0          0          104.2922   0          11.6439    0.443      16.5024   
2470.2     5.1496     2.414      4.0263     0          0          104.2767   0          11.1054    0.443      16.6236   
2470.4     5.3457     2.5193     4.9674     0          0          104.2767   0          10.7666    0.439      17.3805   
2470.6     5.5143     2.598      5.654      0          0          104.2624   0          10.5365    0.443      14.2953   
2470.8     5.6396     2.6714     6.1127     0          0          104.2377   0          10.3686    0.443      15.5475   
2471       5.7826     2.7065     6.4268     0.8829     0          104.2489   0          10.1719    0.443      16.1237   
2471.2     5.872      2.7606     6.5928     3.2485     0          104.2104   0          9.7427     0.459      14.5218   
2471.4     5.8736     2.8558     6.885      4.8971     0          104.2237   0          9.2529     0.468      17.4757   
2471.6     5.8736     2.9115     7.1301     6.2027     0          104.2631   0          8.895      0.475      16.7319   
2471.8     5.8736     2.9055     7.2788     7.1799     0          104.2767   0          8.7154     0.479      12.5321   
2472       5.8736     2.8576     7.2796     7.7311     0          104.2645   0          8.5795     0.478      16.8717   
2472.2     5.8736     2.8037     7.2327     8.0682     0          104.2188   2.1423     8.5125     0.479      18.1977   
2472.4     5.8897     2.8037     7.2737     8.3232     0          22.3717    3.1659     8.4615     0.476      14.4338   
2472.6     5.9897     2.8037     7.2605     8.5629     0          0          3.5239     8.4721     0.479      16.4491   
2472.8     6.0535     2.8037     7.1279     8.735      0          0          3.652      8.5804     0.479      14.7658   
2473       6.0876     2.8037     7.1954     9.2385     0.5049     0          3.8306     8.9298     0.479      12.785    
2473.2     6.0065     2.9247     7.6961     9.9741     2.4394     0          4.3681     9.0283     0.484      16.1839   
2473.4     5.9169     3.3022     8.5493     10.5581    4.0106     0          5.5257     8.6589     0.479      12.8259   
2473.6     5.8405     3.2736     8.2806     10.382     5.0384     0          4.1764     8.1415     0.479      13.1416   
2473.8     5.6646     3.1557     7.9212     9.7968     5.38       0          3.5878     7.8873     0.479      16.8075   
2474       5.4616     3.0109     7.6928     9.3933     5.5479     0          3.4731     7.9264     0.479      15.4359   
2474.2     5.3386     2.9035     7.6397     9.0891     5.6511     0          3.4269     8.0255     0.479      13.9396   
2474.4     5.2741     2.8302     7.4926     8.8748     5.6849     0          3.3935     8.1434     0.48       16.9802   
2474.6     5.2315     2.7498     7.2444     8.6653     5.6993     0          3.4355     8.2611     0.485      14.1658   
2474.8     5.2315     2.7307     6.9598     8.5031     5.6753     0          3.4261     8.3956     0.481      14.1014   
2475       5.2551     2.6959     6.7485     8.344      5.5709     0          3.4192     8.4516     0.484      16.1389   
2475.2     5.296      2.6885     6.6437     8.2576     5.5701     0          3.5422     8.4615     0.48       14.2077   
2475.4     5.3505     2.6494     6.5985     8.2792     5.5596     0          3.6412     8.4615     0.484      13.9927   
2475.6     5.3921     2.7159     6.6255     8.3641     5.5175     0          3.7469     8.4147     0.483      14.7814   
2475.8     5.3921     2.7498     6.6581     8.2832     5.5116     0          3.7526     8.3442     0.479      12.0516   
2476       5.3921     2.7498     6.7212     8.1295     5.4649     0          3.7242     8.2557     0.479      13.9013   
2476.2     5.3921     2.7498     6.7499     8.0708     5.4543     0          3.6772     8.2376     0.484      15.6518   
2476.4     5.3921     2.7498     6.8524     7.9913     5.4122     0          3.7271     8.1491     0.485      12.0045   
2476.6     5.4456     2.7304     6.786      7.938      5.4061     0          3.7631     8.088      0.476      15.0349   
2476.8     5.4456     2.716      6.7848     7.9578     5.4122     0          3.789      8.0244     0.485      14.1318   
2477       5.3921     2.7498     6.9054     8.0637     5.4649     0          3.7262     7.9711     0.482      13.8587   
2477.2     5.3921     2.7498     6.9244     8.116      5.5175     0          3.7495     7.9178     0.485      16.1864   
2477.4     5.3921     2.7498     6.9577     8.2043     5.5389     0.7322     3.6558     7.8645     0.485      13.3733   
2477.6     5.3386     2.7498     6.9129     8.2576     5.6753     1.5037     3.6076     7.8325     0.481      12.8319   
2477.8     5.3108     2.7498     6.9653     8.3192     5.6945     2.0886     3.602      7.9182     0.479      15.5413   
2478       5.285      2.7653     6.9653     8.3859     5.7202     2.5676     3.6524     7.9708     0.485      12.7758   
2478.2     5.285      2.7498     6.9454     8.3973     5.6681     2.8454     3.6003     7.9818     0.485      14.2146   
2478.4     5.285      2.7498     6.8367     8.3033     5.6155     3.002      3.5492     7.9413     0.48       15.8109   
2478.6     5.285      2.7498     6.7557     8.2378     5.5701     3.1224     3.6242     7.9218     0.479      11.5502   
2478.8     5.285      2.7498     6.7033     8.151      5.5505     3.2134     3.6425     7.8752     0.479      14.9782   
2479       5.285      2.7498     6.7113     8.0978     5.5247     3.2842     3.6661     7.8678     0.479      14.8755   
2479.2     5.2729     2.758      6.785      8.0978     5.5701     3.3207     3.7032     7.8219     0.479      13.3509   
2479.4     5.2315     2.7956     6.8357     8.0978     5.5701     3.3652     3.5861     7.8049     0.479      16.024    
2479.6     5.2036     2.7719     6.8605     8.0358     5.562      3.3737     3.5803     7.7537     0.484      15.4494   
2479.8     5.178      2.7498     6.8001     7.9586     5.4953     3.3207     3.4798     7.7153     0.485      12.6398   
2480       5.1508     2.741      6.7345     7.8615     5.4433     3.3207     3.4388     7.7153     0.485      15.3558   
2480.2     5.1245     2.6959     6.6951     7.7783     5.3596     3.2748     3.4533     7.7619     0.488      14.1246   
2480.4     5.1245     2.6959     6.5985     7.7783     5.3522     3.2677     3.485      7.7686     0.485      13.7037   
2480.6     5.1245     2.6959     6.5985     7.7339     5.307      3.2677     3.4996     7.7915     0.485      16.633    
2480.8     5.1245     2.6959     6.5461     7.725      5.2871     3.2601     3.4522     7.827      0.479      15.8225   
2481       5.1245     2.6759     6.5245     7.7169     5.2544     3.2677     3.432      7.8752     0.479      13.951    
2481.2     5.1268     2.642      6.4806     7.6718     5.2355     3.2677     3.4937     7.8852     0.479      16.2636   
2481.4     5.178      2.6799     6.4937     7.6718     5.2544     3.3048     3.5264     7.9285     0.479      14.9846   
2481.6     5.178      2.6959     6.5132     7.6718     5.2544     3.3244     3.5309     7.9791     0.479      14.783    
2481.8     5.178      2.6959     6.5566     7.725      5.263      3.4107     3.5475     7.9726     0.479      21.2105   
2482       5.178      2.6959     6.5617     7.7016     5.2544     3.4746     3.5664     7.9285     0.479      15.2489   
2482.2     5.178      2.6959     6.5377     7.6498     5.2544     3.4891     3.5153     7.8906     0.479      14.0497   
