~Version
 VERS              .         2.0                           : CWLS LOG ASCII STANDARD - VERSION 2.0
 WRAP              .         NO                            : ONE LINE PER DEPTH STEP
 DLM               .         SPACE                         : DELIMITING CHARACTER(SPACE TAB OR COMMA)
~Well Information
#_______________________________________________________________________________
#
#PARAMETER_NAME    .UNIT     VALUE                         : DESCRIPTION
#_______________________________________________________________________________
STRT               .m        2469                          : First reference value
STOP               .m        2690                          : Last reference value
STEP               .m        0.2                           : Step increment
NULL               .         -9999                         : Missing value
COMP               .                                       : Company
WELL               .         101                           : Well name
FLD                .                                       : Field
LOC                .                                       : Location
CNTY               .                                       : County
STAT               .                                       : State
CTRY               .                                       : Country
SRVC               .                                       : Service Company
DATE               .                                       : Date
API                .                                       : API number
EREF               .m        137.7                         : 
Pad                .         1                             : 
X                  .m        229503                        : 
Y                  .m        240117                        : 
group              .         Pad1                          : 
Интер-р            .         Пузин                         : 
Куст               .         1                             : 
Статус             .         Не проверено                  : 
Тип                .         Разведка                      : 
~Parameter Information Block
#_______________________________________________________________________________
#
#PARAMETER_NAME    .UNIT     VALUE                         : DESCRIPTION
#_______________________________________________________________________________
SET                .         LAS3                          : 
REAL_CREATION_DATE .         Ср апр 11 2012-13_17_06       : 
TLFamily_DEPTH     .         Measured Depth                : 
TLFamily_GR        .         Gamma Ray                     : 
TLFamily_TNPH      .         Neutron Porosity              : 
group              .         INI                           : 
~Curve Information
#_______________________________________________________________________________
#
#LOGNAME           .UNIT     LOG_ID                        : DESCRIPTION
#_______________________________________________________________________________
DEPTH              .m                                      : 1 Depth 
GR                 .gAPI                                   :  
TNPH               .v/v                                    : 5 Hydrogen Content 
~Ascii
2469.0     95.71999   0.265     
2469.2     98.41      0.264     
2469.4     100.38     0.26      
2469.6     99.61      0.26      
2469.8     96.02      0.269     
2470       91.68      0.269     
2470.2     88.57001   0.261     
2470.4     88.39      0.258     
2470.6     90.45999   0.256     
2470.8     90.92      0.258     
2471       90.02      0.252     
2471.2     88.89      0.244     
2471.4     88.64999   0.243     
2471.6     91.42999   0.252     
2471.8     94.75999   0.266     
2472       95.53001   0.258     
2472.2     96.82      0.254     
2472.4     97.71      0.259     
2472.6     95.99      0.258     
2472.8     95.77      0.25      
2473       96.05      0.245     
2473.2     94.16      0.242     
2473.4     91.44      0.246     
2473.6     95.33      0.253     
2473.8     103.36     0.251     
2474       104.49     0.256     
2474.2     104.45     0.267     
2474.4     102.84     0.276     
2474.6     98.83      0.284     
2474.8     99         0.288     
2475       98.92      0.277     
2475.2     98.23      0.269     
2475.4     96.64      0.257     
2475.6     92.74001   0.244     
2475.8     91.52      0.249     
2476       93.49      0.274     
2476.2     94.93      0.276     
2476.4     98.13      0.27      
2476.6     97.64      0.269     
2476.8     98.52      0.277     
2477       101.36     0.293     
2477.2     99.54001   0.281     
2477.4     95.86      0.276     
2477.6     96.88      0.274     
2477.8     99.61      0.271     
2478       98.25      0.27      
2478.2     98.17001   0.276     
2478.4     98.78999   0.295     
2478.6     98.71001   0.298     
2478.8     99.18      0.301     
2479       100.85     0.31      
2479.2     98.99001   0.299     
2479.4     96.06      0.275     
2479.6     96.52      0.269     
2479.8     96.96999   0.268     
2480       95.77      0.269     
2480.2     93.98      0.266     
2480.4     92.22      0.268     
2480.6     94.53      0.274     
2480.8     99.66      0.281     
2481       101.61     0.278     
2481.2     100.19     0.271     
2481.4     96.47      0.269     
2481.6     96.25      0.273     
2481.8     96.53      0.271     
2482       97.91      0.262     
2482.2     98.17001   0.256     
2482.4     95.31      0.263     
2482.6     96.3       0.293     
2482.8     97.34      0.289     
2483       98.32      0.268     
2483.2     99.24      0.264     
2483.4     97.86      0.27      
2483.6     99.05      0.265     
2483.8     99.56001   0.257     
2484       96.8       0.253     
2484.2     97.12      0.252     
2484.4     100.16     0.263     
2484.6     99.24      0.271     
2484.8     99.61      0.275     
2485       97.7       0.258     
2485.2     95.03      0.241     
2485.4     93.44      0.245     
2485.6     94.5       0.261     
2485.8     98.91      0.258     
2486       102.72     0.258     
2486.2     102.33     0.265     
2486.4     103.14     0.276     
2486.6     106.19     0.276     
2486.8     106.03     0.273     
2487       102.58     0.264     
2487.2     99.81      0.259     
2487.4     94.54001   0.265     
2487.6     88.07      0.263     
2487.8     88.87      0.274     
2488       94.68001   0.277     
2488.2     100.45     0.268     
2488.4     104.28     0.258     
2488.6     102.6      0.251     
2488.8     98.72      0.248     
2489       97.83      0.242     
2489.2     97.07      0.25      
2489.4     96.16      0.249     
2489.6     94.89      0.253     
2489.8     97.83      0.244     
2490       98.6       0.234     
2490.2     101.61     0.229     
2490.4     106.62     0.239     
2490.6     108.59     0.254     
2490.8     109.72     0.268     
2491       112.4      0.286     
2491.2     115.41     0.306     
2491.4     117.13     0.313     
2491.6     119.55     0.307     
2491.8     121.71     0.301     
2492       123.18     0.282     
2492.2     121.8      0.263     
2492.4     117.09     0.257     
2492.6     113.68     0.25      
2492.8     105.37     0.234     
2493       98.38      0.213     
2493.2     94.09      0.183     
2493.4     82.73      0.156     
2493.6     73.26      0.136     
2493.8     73.98      0.132     
2494       89.06      0.143     
2494.2     102.17     0.177     
2494.4     110.86     0.225     
2494.6     113.35     0.249     
2494.8     113.84     0.241     
2495       112.92     0.236     
2495.2     114.41     0.228     
2495.4     116.77     0.229     
2495.6     117.27     0.226     
2495.8     110.83     0.201     
2496       96.42999   0.164     
2496.2     82.53      0.13      
2496.4     68.2       0.11      
2496.6     60.4       0.101     
2496.8     59.72      0.099     
2497       64.67      0.106     
2497.2     70.35      0.13      
2497.4     82.93      0.181     
2497.6     98.55      0.219     
2497.8     107.9      0.227     
2498       109.06     0.237     
2498.2     105.17     0.236     
2498.4     97.84      0.229     
2498.6     97.56      0.228     
2498.8     100.85     0.223     
2499       103.72     0.227     
2499.2     104.44     0.237     
2499.4     107.5      0.232     
2499.6     107.45     0.235     
2499.8     107.53     0.248     
2500       103.4      0.252     
2500.2     100.92     0.248     
2500.4     104.33     0.236     
2500.6     112.26     0.231     
2500.8     111.26     0.239     
2501       105.29     0.248     
2501.2     100.73     0.251     
2501.4     95.99      0.242     
2501.6     90.36      0.229     
2501.8     82.08      0.217     
2502       82.09      0.211     
2502.2     85.08      0.209     
2502.4     84.57      0.207     
2502.6     81.27      0.207     
2502.8     73.29001   0.193     
2503       66.86      0.179     
2503.2     64.38      0.173     
2503.4     62.97      0.144     
2503.6     60.21      0.11      
2503.8     60.43999   0.093     
2504       58.98      0.086     
2504.2     57.75      0.084     
2504.4     58.55      0.095     
2504.6     58.64      0.116     
2504.8     66.39      0.144     
2505       70.84      0.194     
2505.2     74.61      0.237     
2505.4     81.66      0.247     
2505.6     86.02      0.239     
2505.8     92.9       0.24      
2506       95.59      0.245     
2506.2     98.06      0.243     
2506.4     99.59      0.235     
2506.6     102.06     0.228     
2506.8     104.66     0.228     
2507       104.49     0.237     
2507.2     106.85     0.236     
2507.4     104.95     0.233     
2507.6     97.8       0.236     
2507.8     93.88      0.237     
2508       91.51      0.234     
2508.2     90.97      0.231     
2508.4     89.65      0.227     
2508.6     88.42      0.227     
2508.8     88.94      0.227     
2509       88.48      0.224     
2509.2     87.65      0.23      
2509.4     89.58      0.222     
2509.6     91.67      0.213     
2509.8     92.36      0.218     
2510       93.24001   0.222     
2510.2     93.31001   0.224     
2510.4     94.14      0.231     
2510.6     92.14      0.227     
2510.8     88.59      0.22      
2511       87.69      0.226     
2511.2     88.94      0.233     
2511.4     95.37      0.232     
2511.6     104.68     0.244     
2511.8     110.85     0.264     
2512       108.88     0.272     
2512.2     105.55     0.254     
2512.4     100.84     0.241     
2512.6     91.78001   0.221     
2512.8     81.13      0.209     
2513       78.52      0.208     
2513.2     78.37      0.211     
2513.4     74.74      0.224     
2513.6     71.93      0.227     
2513.8     71         0.228     
2514       71.38      0.234     
2514.2     71         0.235     
2514.4     69.18      0.254     
2514.6     70.91      0.265     
2514.8     77.45      0.255     
2515       81.16      0.244     
2515.2     86.18      0.237     
2515.4     92.29      0.239     
2515.6     92.25999   0.25      
2515.8     83.13      0.244     
2516       77.8       0.235     
2516.2     78.02      0.232     
2516.4     80.82      0.237     
2516.6     83.25      0.238     
2516.8     93.69      0.218     
2517       96.98      0.199     
2517.2     91.16      0.181     
2517.4     77.75      0.158     
