~Version
 VERS              .         2.0                           : CWLS LOG ASCII STANDARD - VERSION 2.0
 WRAP              .         NO                            : ONE LINE PER DEPTH STEP
 DLM               .         SPACE                         : DELIMITING CHARACTER(SPACE TAB OR COMMA)
~Well Information
#_______________________________________________________________________________
#
#PARAMETER_NAME    .UNIT     VALUE                         : DESCRIPTION
#_______________________________________________________________________________
STRT               .m        2469                          : First reference value
STOP               .m        2690                          : Last reference value
STEP               .m        0.2                           : Step increment
NULL               .         -9999                         : Missing value
COMP               .                                       : Company
WELL               .         101                           : Well name
FLD                .                                       : Field
LOC                .                                       : Location
CNTY               .                                       : County
STAT               .                                       : State
CTRY               .                                       : Country
SRVC               .                                       : Service Company
DATE               .                                       : Date
API                .                                       : API number
EREF               .m        137.7                         : 
Pad                .         1                             : 
X                  .m        229503                        : 
Y                  .m        240117                        : 
group              .         Pad1                          : 
Интер-р            .         Пузин                         : 
Куст               .         1                             : 
Статус             .         Не проверено                  : 
Тип                .         Разведка                      : 
~Parameter Information Block
#_______________________________________________________________________________
#
#PARAMETER_NAME    .UNIT     VALUE                         : DESCRIPTION
#_______________________________________________________________________________
SET                .         LAS1                          : 
REAL_CREATION_DATE .         Ср апр 11 2012-13_17_05       : 
TLFamily_DEPTH     .         Measured Depth                : 
TLFamily_KS        .         Potential Resistivity         : 
TLFamily_KS1       .         Extra Shallow Resistivity     : 
TLFamily_KS2       .         Shallow Resistivity           : 
TLFamily_KS3       .         Medium Resistivity            : 
TLFamily_KS4       .         Deep Resistivity              : 
TLFamily_KS5       .         Extra Deep Resistivity        : 
TLFamily_LLD       .         Lateral Log Resistivity       : 
TLFamily_OKS3      .         Medium Resistivity Inverted   : 
TLFamily_RM        .         Mud Resistivity               : 
TLFamily_SP        .         Spontaneous Potential         : 
group              .         INI                           : 
~Curve Information
#_______________________________________________________________________________
#
#LOGNAME           .UNIT     LOG_ID                        : DESCRIPTION
#_______________________________________________________________________________
DEPTH              .m                                      : 1 Depth 
KS                 .ohm.m                                  : 10 Normal Log Resistivity  N11.0M0.5A 
KS1                .ohm.m                                  : 3 Lateral Log Resistivity  A0.4M0.1N 
KS2                .ohm.m                                  : 4 Lateral Log Resistivity  A1.0M0.1N 
KS3                .ohm.m                                  : 5 Lateral Log Resistivity  A2.0M0.5N 
KS4                .ohm.m                                  : 6 Lateral Log Resistivity  A4.0M0.5N 
KS5                .ohm.m                                  : 7 Lateral Log Resistivity  A8.0M0.5N 
LLD                .ohm.m                                  : 2 Laterolog Shallow 
OKS3               .ohm.m                                  : 8 Lateral Log Resistivity (Inverse) 
RM                 .ohm.m                                  : 11 Mud Resistivity 
SP                 .mV                                     : 9 Spontaneous Potential 
~Ascii
# ...
2656.6     11.4018    3.3082     9.7954     16.1028    17.1383    17.7661    9.0555     43.0725    0.455      56.9156   
2656.8     12.1041    2.5208     8.2024     15.5921    19.445     21.8923    13.5231    49         0.469      34.1983   
2657       13.2495    2.308      7.9505     15.7664    21.4333    26.0579    31.4476    50.9916    0.458      33.5039   
2657.2     14.679     2.4034     8.2894     16.6656    22.8825    29.8685    57.12      47.4158    0.457      46.1859   
2657.4     16.2653    2.7547     9.0956     17.7067    23.4731    33.3884    53.1936    38.9662    0.46       55.659    
2657.6     17.6139    3.1976     9.9802     18.8202    24.1647    35.9736    44.6239    31.8599    0.476      35.0534   
2657.8     18.4162    3.4944     10.8792    20.2029    24.8628    37.1899    94.4475    27.6831    0.459      37.0281   
2658       18.6987    3.8794     12.6015    22.1458    26.0118    37.808     104.9067   24.1609    0.458      31.2525   
2658.2     18.7854    4.2977     15.2646    24.9826    27.2494    37.7841    106.7863   20.4259    0.465      44.5689   
2658.4     18.7313    4.7708     17.5162    26.1268    27.6711    38.1498    58.0039    17.1781    0.462      51.7387   
2658.6     17.9812    4.2564     15.8494    29.4874    29.3415    38.0008    45.4711    14.858     0.433      41.8825   
2658.8     16.8541    5.6        21.4782    33.7587    32.402     37.6451    20.4991    13.5136    0.457      31.9758   
2659       15.3044    5.7915     22.8704    39.1003    34.0252    37.436     19.2059    13.8171    0.474      32.6553   
2659.2     13.5189    5.6114     23.0807    44.007     35.8207    37.0555    24.4353    14.2337    0.461      46.4081   
2659.4     11.8441    5.9674     24.8142    50.2072    36.8428    32.0004    9.9596     14.287     0.461      44.3934   
2659.6     10.7569    5.9046     25.0498    51.8173    35.1215    28.3752    6.696      13.3614    0.455      35.3105   
2659.8     9.5148     4.8226     19.2803    46.6281    30.269     22.5703    6.9574     11.9159    0.465      35.4711   
2660       8.4323     3.7733     14.914     38.7446    26.1594    17.2228    7.331      10.3463    0.453      36.3041   
2660.2     7.9295     3.4915     13.5288    34.6864    24.1868    14.052     7.2499     9.7239     0.457      50.7437   
2660.4     7.5044     3.3754     12.2147    31.2887    22.6514    11.8641    7.3828     9.3502     0.475      53.6202   
2660.6     7          3.2887     10.8771    27.9093    21.288     9.1928     7.3307     8.9835     0.456      36.6572   
2660.8     6.4056     3.3185     9.8681     22.7499    19.4224    7.2805     5.7061     8.526      0.464      34.182    
2661       6.1511     2.9424     8.3513     18.0194    17.4492    5.8944     4.3423     8.4905     0.452      45.5409   
2661.2     6.0341     2.4815     6.987      14.3091    15.1387    4.6347     4.1087     8.9214     0.459      46.8522   
2661.4     6.0768     2.2263     6.1754     12.0419    13.458     3.5818     4.6731     9.567      0.451      36.2567   
2661.6     6.2627     2.0947     5.6622     10.5057    12.5705    3.0784     6.0711     9.8936     0.469      38.3406   
2661.8     6.5716     2.1887     5.5612     9.642      12.1241    2.7433     6.947      10.1629    0.453      35.1151   
2662       6.8287     2.3896     5.5807     9.4164     12.0262    2.5819     6.7731     10.7347    0.458      47.376    
2662.2     7.0123     2.4204     5.5777     9.3049     11.8942    2.5262     7.3271     11.462     0.463      49.2971   
2662.4     7.3117     2.5029     5.8224     9.3453     12.0373    2.5633     7.1349     12.0902    0.455      43.7232   
2662.6     7.7049     2.3868     6.0615     9.6553     12.5995    2.7011     8.3106     12.3054    0.457      34.6007   
2662.8     8.0182     2.5523     6.6842     10.3886    13.5607    2.9097     11.4463    12.0818    0.454      38.0636   
2663       8.2278     2.9291     7.5443     11.202     14.7595    3.1227     14.8267    11.2761    0.471      41.1741   
2663.2     8.1047     3.3152     8.4627     11.9767    15.6538    3.2507     16.5314    10.1825    0.458      42.7016   
2663.4     7.7705     3.9097     10.0403    12.4093    15.8467    3.4115     9.7558     9.1233     0.453      36.7337   
2663.6     7.4946     3.7121     9.6231     12.092     15.1857    3.6386     5.9734     8.6576     0.458      38.4918   
2663.8     7.2647     3.1853     8.7542     11.3888    14.8506    4.0254     5.531      9.1084     0.461      35.7916   
2664       7.1967     2.6479     8.0102     11.2883    16.171     4.805      5.9758     10.3525    0.456      43.447    
2664.2     7.1738     2.5725     7.9443     11.9403    18.5961    6.1913     7.8495     11.8712    0.454      49.4345   
2664.4     7.2112     2.7384     8.4003     13.5038    22.2511    8.0799     8.4834     13.4192    0.456      40.5093   
2664.6     7.107      2.9559     8.9657     16.075     27.3368    9.8638     8.8249     15.2104    0.464      40.6811   
2664.8     6.8971     3.3152     10.404     18.7631    30.1933    11.3709    8.8373     17.1444    0.454      39.3214   
2665       6.8367     3.4603     10.4763    19.2313    28.0654    12.5824    6.9808     17.3482    0.462      45.7062   
2665.2     6.8302     3.2058     9.5325     17.7433    23.2788    13.1146    6.6849     15.6103    0.459      43.4232   
2665.4     6.6809     3.1853     9.2143     16.1946    19.3755    12.4387    6.4612     13.443     0.452      43.5917   
2665.6     6.4906     3.2056     9.1317     14.7216    15.9166    11.487     5.4462     12.1019    0.464      40.0263   
2665.8     6.309      3.1153     8.5769     12.6577    12.7177    10.3338    4.6869     11.2733    0.455      39.2319   
2666       6.2481     2.7913     7.786      10.5828    10.123     8.9893     4.5694     11.0901    0.453      42.402    
2666.2     6.2481     2.5307     7.0161     9.3145     8.3371     7.6186     5.168      11.4264    0.461      47.0053   
2666.4     6.3263     2.4622     6.7396     8.5961     7.0654     6.6204     5.7796     11.8256    0.455      40.8453   
2666.6     6.4943     2.4746     6.4036     8.2178     6.245      5.9362     5.3351     12.3534    0.454      39.1617   
2666.8     6.6086     2.4329     6.1436     8.1217     5.7444     5.4899     6.2571     13.2453    0.46       42.7707   
2667       6.6795     2.4982     6.3411     8.5095     5.6753     5.0921     7.2398     13.856     0.46       46.8533   
2667.2     6.7935     2.6345     6.6442     9.0319     5.6477     4.8856     7.4287     13.7036    0.45       45.9246   
2667.4     6.8862     2.7498     6.9067     9.2938     5.5356     4.8567     7.0003     12.9101    0.456      44.9373   
2667.6     6.9598     2.7339     6.8903     9.2265     5.3723     4.9602     6.4582     12.1267    0.456      43.9418   
2667.8     7.1035     2.6781     6.669      9.0503     5.2688     5.3313     5.9084     12.2083    0.46       38.5902   
2668       7.2269     2.5311     6.5596     9.0795     5.5893     6.1792     6.2847     12.8056    0.46       46.6287   
2668.2     7.4957     2.4214     6.5576     9.5089     6.3292     7.3324     7.0617     14.0366    0.453      51.7867   
2668.4     7.9473     2.3187     6.6529     10.2755    7.6037     8.4978     8.5488     15.5603    0.454      43.1903   
2668.6     8.6356     2.3511     6.8079     11.6347    9.8189     9.6114     11.2151    16.0614    0.453      40.2275   
2668.8     9.3167     2.4378     7.4574     13.3425    12.805     10.5787    34.2333    15.1286    0.452      40.6436   
2669       9.7679     2.9764     8.6832     15.3408    15.8418    11.0574    100.626    12.8493    0.454      44.7255   
2669.2     9.8476     3.7304     10.5757    17.4992    18.8733    10.7307    51.2045    9.7058     0.457      40.6046   
2669.4     9.3552     4.7495     13.0667    19.2265    20.387     9.9097     12.1311    7.5037     0.455      40.549    
2669.6     8.672      4.9694     13.837     19.3629    19.3326    8.789      6.7979     6.5757     0.459      37.5522   
2669.8     7.868      4.4653     13.3004    17.7314    16.6442    7.2941     5.5978     6.0953     0.461      38.276    
