~Version
 VERS              .         2.0                           : CWLS LOG ASCII STANDARD - VERSION 2.0
 WRAP              .         NO                            : ONE LINE PER DEPTH STEP
 DLM               .         SPACE                         : DELIMITING CHARACTER(SPACE TAB OR COMMA)
~Well Information
#_______________________________________________________________________________
#
#PARAMETER_NAME    .UNIT     VALUE                         : DESCRIPTION
#_______________________________________________________________________________
STRT               .m        2469                          : First reference value
STOP               .m        2690                          : Last reference value
STEP               .m        0.2                           : Step increment
NULL               .         -9999                         : Missing value
COMP               .                                       : Company
WELL               .         101                           : Well name
FLD                .                                       : Field
LOC                .                                       : Location
CNTY               .                                       : County
STAT               .                                       : State
CTRY               .                                       : Country
SRVC               .                                       : Service Company
DATE               .                                       : Date
API                .                                       : API number
EREF               .m        137.7                         : 
Pad                .         1                             : 
X                  .m        229503                        : 
Y                  .m        240117                        : 
group              .         Pad1                          : 
Интер-р            .         Пузин                         : 
Куст               .         1                             : 
Статус             .         Не проверено                  : 
Тип                .         Разведка                      : 
~Parameter Information Block
#_______________________________________________________________________________
#
#PARAMETER_NAME    .UNIT     VALUE                         : DESCRIPTION
#_______________________________________________________________________________
SET                .         LAS1                          : 
REAL_CREATION_DATE .         Ср апр 11 2012-13_17_05       : 
TLFamily_DEPTH     .         Measured Depth                : 
TLFamily_KS        .         Potential Resistivity         : 
TLFamily_KS1       .         Extra Shallow Resistivity     : 
TLFamily_KS2       .         Shallow Resistivity           : 
TLFamily_KS3       .         Medium Resistivity            : 
TLFamily_KS4       .         Deep Resistivity              : 
TLFamily_KS5       .         Extra Deep Resistivity        : 
TLFamily_LLD       .         Lateral Log Resistivity       : 
TLFamily_OKS3      .         Medium Resistivity Inverted   : 
TLFamily_RM        .         Mud Resistivity               : 
TLFamily_SP        .         Spontaneous Potential         : 
group              .         INI                           : 
~Curve Information
#_______________________________________________________________________________
#
#LOGNAME           .UNIT     LOG_ID                        : DESCRIPTION
#_______________________________________________________________________________
DEPTH              .m                                      : 1 Depth 
KS                 .ohm.m                                  : 10 Normal Log Resistivity  N11.0M0.5A 
KS1                .ohm.m                                  : 3 Lateral Log Resistivity  A0.4M0.1N 
KS2                .ohm.m                                  : 4 Lateral Log Resistivity  A1.0M0.1N 
KS3                .ohm.m                                  : 5 Lateral Log Resistivity  A2.0M0.5N 
KS4                .ohm.m                                  : 6 Lateral Log Resistivity  A4.0M0.5N 
KS5                .ohm.m                                  : 7 Lateral Log Resistivity  A8.0M0.5N 
LLD                .ohm.m                                  : 2 Laterolog Shallow 
OKS3               .ohm.m                                  : 8 Lateral Log Resistivity (Inverse) 
RM                 .ohm.m                                  : 11 Mud Resistivity 
SP                 .mV                                     : 9 Spontaneous Potential 
~Ascii
# ...
2683.4     0          0          0          0          0          19.8106    5.7698     0          0          -270      
2683.6     0          0          0          0          0          19.7592    6.981      0          0          -270      
2683.8     0          0          0          0          0          5.9373     7.3867     0          0          -270      
2684       0          0          0          0          0          0          6.2632     0          0          -270      
2684.2     0          0          0          0          0          0          4.3637     0          0          -270      
2684.4     0          0          0          0          0          0          4.1545     0          0          -270      
2684.6     0          0          0          0          0          0          4.5646     0          0          -270      
2684.8     0          0          0          0          0          0          5.0484     0          0          -270      
2685       0          0          0          0          0          0          5.2738     0          0          -270      
2685.2     0          0          0          0          0          0          5.5755     0          0          -270      
2685.4     0          0          0          0          0          0          5.5195     0          0          -270      
2685.6     0          0          0          0          0          0          5.4246     0          0          -270      
2685.8     0          0          0          0          0          0          5.5351     0          0          -270      
2686       0          0          0          0          0          0          5.7979     0          0          -270      
2686.2     0          0          0          0          0          0          5.557      0          0          -270      
2686.4     0          0          0          0          0          0          5.4979     0          0          -270      
2686.6     0          0          0          0          0          0          5.3326     0          0          -270      
2686.8     0          0          0          0          0          0          5.4141     0          0          -270      
2687       0          0          0          0          0          0          5.3841     0          0          -270      
2687.2     0          0          0          0          0          0          5.1404     0          0          -270      
2687.4     0          0          0          0          0          0          5.6139     0          0          -270      
2687.6     0          0          0          0          0          0          6.2651     0          0          -270      
2687.8     0          0          0          0          0          0          6.0048     0          0          -270      
2688       0          0          0          0          0          0          5.6221     0          0          -270      
2688.2     0          0          0          0          0          0          5.6882     0          0          -270      
2688.4     0          0          0          0          0          0          6.0384     0          0          -270      
2688.6     0          0          0          0          0          0          6.2378     0          0          -270      
2688.8     0          0          0          0          0          0          6.2357     0          0          -270      
2689       0          0          0          0          0          0          6.2358     0          0          -270      
2689.2     0          0          0          0          0          0          6.1823     0          0          -270      
2689.4     0          0          0          0          0          0          6.1276     0          0          -270      
2689.6     0          0          0          0          0          0          6.2069     0          0          -270      
2689.8     0          0          0          0          0          0          6.2087     0          0          -270      
2690       0          0          0          0          0          0          6.2098     0          0          -270      
