~Version
 VERS              .         2.0                           : CWLS LOG ASCII STANDARD - VERSION 2.0
 WRAP              .         NO                            : ONE LINE PER DEPTH STEP
 DLM               .         SPACE                         : DELIMITING CHARACTER(SPACE TAB OR COMMA)
~Well Information
#_______________________________________________________________________________
#
#PARAMETER_NAME    .UNIT     VALUE                         : DESCRIPTION
#_______________________________________________________________________________
STRT               .m        2469                          : First reference value
STOP               .m        2690                          : Last reference value
STEP               .m        0.2                           : Step increment
NULL               .         -9999                         : Missing value
COMP               .                                       : Company
WELL               .         101                           : Well name
FLD                .                                       : Field
LOC                .                                       : Location
CNTY               .                                       : County
STAT               .                                       : State
CTRY               .                                       : Country
SRVC               .                                       : Service Company
DATE               .                                       : Date
API                .                                       : API number
EREF               .m        137.7                         : 
Pad                .         1                             : 
X                  .m        229503                        : 
Y                  .m        240117                        : 
group              .         Pad1                          : 
Интер-р            .         Пузин                         : 
Куст               .         1                             : 
Статус             .         Не проверено                  : 
Тип                .         Разведка                      : 
~Parameter Information Block
#_______________________________________________________________________________
#
#PARAMETER_NAME    .UNIT     VALUE                         : DESCRIPTION
#_______________________________________________________________________________
SET                .         LAS1                          : 
REAL_CREATION_DATE .         Ср апр 11 2012-13_17_05       : 
TLFamily_DEPTH     .         Measured Depth                : 
TLFamily_KS        .         Potential Resistivity         : 
TLFamily_KS1       .         Extra Shallow Resistivity     : 
TLFamily_KS2       .         Shallow Resistivity           : 
TLFamily_KS3       .         Medium Resistivity            : 
TLFamily_KS4       .         Deep Resistivity              : 
TLFamily_KS5       .         Extra Deep Resistivity        : 
TLFamily_LLD       .         Lateral Log Resistivity       : 
TLFamily_OKS3      .         Medium Resistivity Inverted   : 
TLFamily_RM        .         Mud Resistivity               : 
TLFamily_SP        .         Spontaneous Potential         : 
group              .         INI                           : 
~Curve Information
#_______________________________________________________________________________
#
#LOGNAME           .UNIT     LOG_ID                        : DESCRIPTION
#_______________________________________________________________________________
DEPTH              .m                                      : 1 Depth 
KS                 .ohm.m                                  : 10 Normal Log Resistivity  N11.0M0.5A 
KS1                .ohm.m                                  : 3 Lateral Log Resistivity  A0.4M0.1N 
KS2                .ohm.m                                  : 4 Lateral Log Resistivity  A1.0M0.1N 
KS3                .ohm.m                                  : 5 Lateral Log Resistivity  A2.0M0.5N 
KS4                .ohm.m                                  : 6 Lateral Log Resistivity  A4.0M0.5N 
KS5                .ohm.m                                  : 7 Lateral Log Resistivity  A8.0M0.5N 
LLD                .ohm.m                                  : 2 Laterolog Shallow 
OKS3               .ohm.m                                  : 8 Lateral Log Resistivity (Inverse) 
RM                 .ohm.m                                  : 11 Mud Resistivity 
SP                 .mV                                     : 9 Spontaneous Potential 
~Ascii
# ...
2536       5.1505     2.6313     7.1202     9.2507     6.9906     5.1344     3.4142     8.3176     0.479      30.2459   
2536.2     5.1894     2.5349     6.6934     9.0909     6.9792     5.1216     3.7623     8.3836     0.46       31.0754   
2536.4     5.3118     2.6078     6.4743     8.7693     6.8151     5.1714     3.506      8.4383     0.472      33.9243   
2536.6     5.4717     2.4282     5.7936     8.592      6.8366     5.2138     3.1421     8.9056     0.474      32.8803   
2536.8     5.6109     2.3221     5.7159     8.5333     7.0728     5.3159     3.9232     9.3089     0.473      32.4453   
2537       5.7948     2.4551     6.1424     8.7935     7.4429     5.4154     5.1075     9.5071     0.482      33.4141   
2537.2     5.8974     2.7676     6.6896     9.1519     7.7873     5.4924     5.3563     9.3218     0.479      33.4771   
2537.4     5.7288     3.1165     7.2331     9.3436     7.77       5.4713     5.5884     8.7589     0.479      31.3465   
2537.6     5.5299     3.2277     7.4637     9.1543     7.3429     5.3093     4.4869     8.2176     0.473      32.2081   
2537.8     5.3146     3.0149     7.2666     8.4229     6.8215     5.0516     3.1973     8.1148     0.473      33.7326   
2538       5.1996     2.6453     6.7377     7.7839     6.4461     4.7978     2.9287     8.4888     0.473      32.3531   
2538.2     5.178      2.4203     6.4026     7.512      6.3885     4.6522     3.233      8.9762     0.479      30.5924   
2538.4     5.2511     2.4143     6.3464     7.5591     6.4214     4.6834     3.4569     9.5319     0.476      30.4955   
2538.6     5.4513     2.4049     6.0367     7.5619     6.5297     4.8452     3.4611     10.1174    0.473      32.2587   
2538.8     5.6787     2.3142     5.6857     7.4861     6.6572     5.026      3.5978     10.2759    0.473      31.111    
2539       5.9564     2.3008     5.5973     7.7004     6.9815     5.292      4.1546     10.4191    0.483      28.107    
2539.2     6.182      2.4348     5.9224     8.2342     7.3659     5.7399     4.7693     10.2717    0.488      28.8848   
2539.4     6.3254     2.6485     6.5643     8.8479     7.7379     6.1328     5.8686     9.9317     0.485      32.166    
2539.6     6.4581     2.9304     7.0956     9.2723     7.9235     6.425      5.3057     9.6306     0.483      28.3773   
2539.8     6.4869     3.0036     7.2888     9.3583     7.9587     6.5777     4.7307     9.4707     0.479      27.0675   
2540       6.4087     3.0192     7.5479     9.2755     8.0689     6.7328     4.8011     9.3545     0.479      29.2265   
2540.2     6.3613     3.0525     7.8728     9.3317     8.1822     6.8401     4.6293     9.3064     0.485      28.2022   
2540.4     6.3511     3.0052     7.9712     9.3879     8.2578     6.9773     4.1446     9.3143     0.479      26.5732   
2540.6     6.3016     2.8735     7.8402     9.5182     8.2729     7.0997     4.5017     9.2933     0.479      25.6376   
2540.8     6.2879     2.9115     7.8831     9.8184     8.4245     7.1846     4.5886     9.044      0.479      29.4942   
2541       6.1658     2.9794     8.1211     10.1378    8.5112     7.2509     4.9506     8.8169     0.484      26.8803   
2541.2     6.0421     3.0503     8.1864     10.3572    8.4895     7.2933     4.1807     8.6999     0.479      24.7314   
2541.4     5.9198     2.9654     7.9272     10.3517    8.2877     7.2071     3.8832     8.727      0.479      26.284    
2541.6     5.8201     2.9103     7.8427     10.3716    8.1026     7.0848     3.8718     8.7988     0.474      28.0038   
2541.8     5.8109     2.8549     7.6729     10.255     7.9029     6.9847     3.813      8.8879     0.473      26.9753   
2542       5.7811     2.8037     7.4714     10.074     7.6584     6.9273     3.9157     8.8963     0.468      24.2755   
2542.2     5.7845     2.8037     7.3308     9.905      7.4174     6.8657     4.0128     8.8912     0.467      25.8402   
2542.4     5.8201     2.8037     7.2016     9.746      7.2424     6.8165     3.9302     8.8833     0.463      29.1523   
2542.6     5.8201     2.8086     7.1868     9.6682     7.1485     6.7699     3.989      8.7989     0.461      26.5014   
2542.8     5.8177     2.8576     7.2891     9.6421     7.1485     6.7103     4.2603     8.7218     0.463      25.5599   
2543       5.7666     2.909      7.332      9.5664     7.138      6.6445     4.0373     8.6181     0.467      27.3279   
2543.2     5.726      2.8576     7.3079     9.4363     7.0734     6.5786     3.8825     8.5614     0.467      26.8016   
2543.4     5.697      2.8576     7.2882     9.2682     7.0077     6.498      3.8838     8.5046     0.467      24.7548   
2543.6     5.6596     2.8479     7.2804     9.1459     6.9903     6.3507     3.7941     8.4584     0.467      23.7403   
2543.8     5.6596     2.8359     7.2504     9.0283     6.9343     6.1924     3.7977     8.3725     0.467      26.9002   
2544       5.6596     2.8037     7.1369     8.9515     6.8458     6.0425     3.7757     8.2515     0.467      27.1632   
2544.2     5.6531     2.7532     7.0719     8.8966     6.7345     5.8675     3.7217     8.1441     0.472      24.4699   
2544.4     5.6061     2.7715     7.1123     8.8966     6.675      5.7458     3.7222     8.195      0.473      24.8898   
2544.6     5.5605     2.8037     7.1748     8.9324     6.675      5.6725     3.7273     8.195      0.473      28.1658   
2544.8     5.587      2.8037     7.1738     8.9499     6.6356     5.6142     3.6688     8.195      0.473      26.7574   
2545       5.5526     2.8037     7.1224     8.9446     6.6223     5.5365     3.5803     8.2145     0.483      24.2591   
2545.2     5.5526     2.8037     7.1224     8.8966     6.5906     5.4599     3.5757     8.2808     0.489      25.4831   
2545.4     5.5498     2.7941     7.0693     8.8859     6.5257     5.4016     3.5246     8.2547     0.488      27.4027   
2545.6     5.5065     2.8018     7.0562     8.8219     6.4645     5.3675     3.4549     8.2299     0.489      25.5627   
2545.8     5.5132     2.7498     6.9608     8.7549     6.4368     5.286      3.4252     8.1879     0.485      23.447    
2546       5.4991     2.7583     6.9315     8.687      6.4119     5.2398     3.5588     8.0966     0.482      26.4318   
2546.2     5.4722     2.8131     6.9851     8.6793     6.3992     5.1176     3.4383     8.0922     0.479      27.5274   
2546.4     5.4456     2.7805     6.9086     8.5499     6.3303     4.9958     3.2237     8.1817     0.484      25.698    
2546.6     5.4933     2.7064     6.7191     8.3191     6.2101     4.8755     3.233      8.202      0.485      24.5857   
2546.8     5.5573     2.6526     6.6632     8.2435     6.1383     4.7546     3.4271     8.1921     0.485      27.6881   
2547       5.6162     2.7156     6.7259     8.2043     6.0962     4.654      3.5944     8.1417     0.485      25.0495   
2547.2     5.6596     2.8037     6.7632     8.2043     6.0962     4.5957     3.5318     8.1509     0.479      24.9263   
2547.4     5.6027     2.7594     6.7826     8.3246     6.1469     4.553      3.5676     8.2483     0.479      26.4533   
2547.6     5.5233     2.925      7.2796     8.4461     6.1488     4.4948     3.8749     8.2736     0.48       28.2538   
2547.8     5.444      2.9393     7.2431     8.5071     6.1062     4.4371     3.2922     8.3952     0.479      25.1849   
2548       5.3752     2.8624     7.1126     8.3526     5.9722     4.3885     3.0675     8.7255     0.479      24.3579   
2548.2     5.3386     2.7362     6.9347     8.1766     5.8078     4.3077     2.9706     9.3344     0.477      24.8523   
2548.4     5.3386     2.642      6.7557     8.0549     5.6882     4.2431     3.0917     9.9495     0.479      26.9397   
2548.6     5.3404     2.642      6.7468     7.9446     5.579      4.2167     3.2464     10.5907    0.481      25.3803   
2548.8     5.3921     2.6829     6.6262     7.8653     5.4483     4.1538     3.2308     10.9897    0.485      25.2095   
2549       5.4335     2.642      6.4637     7.7716     5.3249     4.1152     3.2801     11.0683    0.481      27.236    
2549.2     5.4616     2.651      6.3974     7.6715     5.2451     4.0852     3.4585     10.665     0.48       27.0896   
