~Version
 VERS              .         2.0                           : CWLS LOG ASCII STANDARD - VERSION 2.0
 WRAP              .         NO                            : ONE LINE PER DEPTH STEP
 DLM               .         SPACE                         : DELIMITING CHARACTER(SPACE TAB OR COMMA)
~Well Information
#_______________________________________________________________________________
#
#PARAMETER_NAME    .UNIT     VALUE                         : DESCRIPTION
#_______________________________________________________________________________
STRT               .m        2469                          : First reference value
STOP               .m        2690                          : Last reference value
STEP               .m        0.2                           : Step increment
NULL               .         -9999                         : Missing value
COMP               .                                       : Company
WELL               .         101                           : Well name
FLD                .                                       : Field
LOC                .                                       : Location
CNTY               .                                       : County
STAT               .                                       : State
CTRY               .                                       : Country
SRVC               .                                       : Service Company
DATE               .                                       : Date
API                .                                       : API number
EREF               .m        137.7                         : 
Pad                .         1                             : 
X                  .m        229503                        : 
Y                  .m        240117                        : 
group              .         Pad1                          : 
Интер-р            .         Пузин                         : 
Куст               .         1                             : 
Статус             .         Не проверено                  : 
Тип                .         Разведка                      : 
~Parameter Information Block
#_______________________________________________________________________________
#
#PARAMETER_NAME    .UNIT     VALUE                         : DESCRIPTION
#_______________________________________________________________________________
SET                .         LAS3                          : 
REAL_CREATION_DATE .         Ср апр 11 2012-13_17_06       : 
TLFamily_DEPTH     .         Measured Depth                : 
TLFamily_GR        .         Gamma Ray                     : 
TLFamily_TNPH      .         Neutron Porosity              : 
group              .         INI                           : 
~Curve Information
#_______________________________________________________________________________
#
#LOGNAME           .UNIT     LOG_ID                        : DESCRIPTION
#_______________________________________________________________________________
DEPTH              .m                                      : 1 Depth 
GR                 .gAPI                                   :  
TNPH               .v/v                                    : 5 Hydrogen Content 
~Ascii
# ...
2614.8     153.12     0.32      
2615       158.76     0.317     
2615.2     159.44     0.308     
2615.4     151.35     0.318     
2615.6     145.37     0.323     
2615.8     142.09     0.31      
2616       140.37     0.295     
2616.2     137.8      0.293     
2616.4     135.94     0.288     
2616.6     131.58     0.271     
2616.8     120.4      0.26      
2617       129.14     0.244     
2617.2     142.09     0.229     
2617.4     147.06     0.21      
2617.6     146.71     0.182     
2617.8     158.22     0.17      
2618       153.26     0.162     
2618.2     126.43     0.139     
2618.4     81.28999   0.115     
2618.6     56.83      0.1       
2618.8     44.02      0.091     
2619       40.25      0.085     
2619.2     41.46      0.085     
2619.4     47.4       0.088     
2619.6     54.07      0.111     
2619.8     64.48      0.149     
2620       72.34      0.169     
2620.2     74.06999   0.17      
2620.4     73.95      0.178     
2620.6     71.8       0.192     
2620.8     69.81      0.192     
2621       69.09      0.19      
2621.2     67.61      0.184     
2621.4     66.13      0.178     
2621.6     68.43001   0.164     
2621.8     68.58      0.159     
2622       66.92001   0.17      
2622.2     66.48      0.171     
2622.4     65.57      0.18      
2622.6     64.04      0.19      
2622.8     67.95      0.192     
2623       68.85001   0.186     
2623.2     67.15      0.188     
2623.4     66.45      0.189     
2623.6     68.02      0.176     
2623.8     64.5       0.152     
2624       60.99      0.142     
2624.2     58.22      0.143     
2624.4     57.2       0.144     
2624.6     58.83      0.159     
2624.8     65.02      0.177     
2625       67.83      0.184     
2625.2     68.8       0.191     
2625.4     68.76      0.19      
2625.6     67.92      0.192     
2625.8     65.78      0.195     
2626       69.71      0.194     
2626.2     72.9       0.199     
2626.4     74.23      0.205     
2626.6     72.52      0.21      
2626.8     72.64      0.222     
2627       73.11      0.221     
2627.2     68.71001   0.213     
2627.4     63.36      0.208     
2627.6     60.54      0.208     
2627.8     59.74      0.211     
2628       61.31      0.219     
2628.2     62.16      0.231     
2628.4     61.41      0.224     
2628.6     61.44      0.213     
2628.8     57.93      0.211     
2629       58.28      0.209     
2629.2     59.28      0.203     
2629.4     59.63      0.208     
2629.6     58.7       0.211     
2629.8     57.14      0.211     
2630       54.46      0.208     
2630.2     54.24      0.204     
2630.4     55.61      0.195     
2630.6     57.15      0.18      
2630.8     57.58      0.172     
2631       57.51      0.153     
2631.2     52.9       0.133     
2631.4     48.38      0.112     
2631.6     48.04      0.098     
2631.8     49.15      0.096     
2632       49.94      0.095     
2632.2     45.16      0.087     
2632.4     39.12      0.082     
2632.6     38.87      0.083     
2632.8     40.5       0.092     
2633       46.04      0.105     
2633.2     49.08      0.127     
2633.4     51.18      0.157     
2633.6     52.46      0.16      
2633.8     49.81      0.159     
2634       55.09      0.162     
2634.2     60.31      0.162     
2634.4     60.04      0.16      
2634.6     55.57      0.158     
2634.8     50.09      0.154     
2635       47.48      0.148     
2635.2     52.85      0.143     
2635.4     57.27      0.132     
2635.6     53.21      0.113     
2635.8     54.39      0.108     
2636       58.83      0.115     
2636.2     67.99      0.143     
2636.4     79.8       0.183     
2636.6     86.74      0.229     
2636.8     95.52      0.243     
2637       104.32     0.242     
2637.2     105.63     0.236     
2637.4     96.65      0.229     
2637.6     89.93      0.225     
2637.8     97.41      0.228     
2638       107.46     0.241     
2638.2     107.54     0.259     
2638.4     101.99     0.248     
2638.6     94.44      0.225     
2638.8     88.92999   0.208     
2639       94.05      0.211     
2639.2     93.21      0.215     
2639.4     86.56      0.214     
2639.6     88.53      0.219     
2639.8     105.45     0.23      
2640       114.95     0.244     
2640.2     114.75     0.281     
2640.4     112.98     0.31      
2640.6     109.99     0.293     
2640.8     114.28     0.259     
2641       114.69     0.248     
2641.2     114.44     0.288     
2641.4     114.97     0.337     
2641.6     107.88     0.352     
2641.8     94.94      0.321     
2642       94.94      0.275     
2642.2     93.96      0.254     
2642.4     88.61      0.235     
2642.6     88.10001   0.227     
2642.8     88.97      0.223     
2643       89.16      0.222     
2643.2     93.02      0.243     
2643.4     100.24     0.266     
2643.6     105.56     0.249     
2643.8     107.34     0.248     
2644       101.79     0.273     
2644.2     97.05      0.284     
2644.4     97.74001   0.279     
2644.6     102.09     0.275     
2644.8     105.42     0.258     
2645       103.61     0.241     
2645.2     96.85001   0.242     
2645.4     90.26      0.252     
2645.6     82.57      0.252     
2645.8     77.83      0.263     
2646       77         0.274     
2646.2     83.96      0.25      
2646.4     94.46      0.226     
2646.6     94.98      0.207     
2646.8     93.64999   0.206     
2647       91.14      0.203     
2647.2     86.03      0.202     
2647.4     80.03      0.198     
2647.6     79.64      0.195     
2647.8     75.77      0.194     
2648       69.44      0.201     
2648.2     68.73      0.209     
2648.4     72.61      0.211     
2648.6     72.5       0.207     
2648.8     80.3       0.207     
2649       96.17      0.2       
2649.2     99.29      0.194     
2649.4     96.66      0.193     
2649.6     93.91      0.191     
2649.8     92.76      0.191     
2650       86.26      0.196     
2650.2     80.89      0.212     
2650.4     81.75      0.219     
2650.6     86.19      0.221     
2650.8     81.39      0.228     
2651       69.35001   0.21      
2651.2     64.14      0.194     
2651.4     63.88      0.179     
2651.6     65.31999   0.176     
2651.8     69.75      0.182     
2652       84.96001   0.187     
2652.2     99.77      0.198     
2652.4     106.8      0.215     
2652.6     112.39     0.219     
2652.8     113.59     0.208     
2653       116.83     0.218     
2653.2     114.21     0.24      
2653.4     113.49     0.251     
2653.6     114.82     0.257     
2653.8     113.54     0.236     
2654       106.18     0.214     
2654.2     98.59      0.196     
2654.4     95.4       0.193     
2654.6     95.11      0.194     
2654.8     95.76      0.195     
2655       93.53      0.189     
2655.2     83.21      0.176     
2655.4     77.95999   0.177     
2655.6     76.75999   0.19      
2655.8     87.44      0.211     
2656       87.03      0.22      
2656.2     78.66      0.211     
2656.4     61.85001   0.209     
2656.6     51.27      0.219     
2656.8     46.9       0.257     
2657       34.48      0.304     
2657.2     14.3       0.326     
2657.4     5.109999   0.336     
2657.6     5.79       0.347     
2657.8     14.82      0.345     
2658       25.76      0.348     
2658.2     35.48      0.342     
2658.4     51.03      0.339     
2658.6     64.16      0.341     
2658.8     71.28      0.315     
2659       77.89      0.302     
2659.2     80.12      0.285     
2659.4     86.67      0.251     
2659.6     98.56      0.23      
2659.8     104.65     0.21      
2660       107.54     0.214     
2660.2     106.47     0.221     
2660.4     102.6      0.21      
2660.6     97.47      0.207     
2660.8     87.78      0.207     
2661       79.77      0.211     
2661.2     79.94      0.206     
2661.4     89.2       0.205     
2661.6     98.52      0.202     
2661.8     94.73      0.204     
2662       79.89      0.216     
2662.2     75.05      0.213     
2662.4     74.75999   0.213     
2662.6     76.82999   0.211     
2662.8     71.42999   0.197     
2663       62.85      0.183     
2663.2     62.14      0.174     
