~Version
 VERS              .         2.0                           : CWLS LOG ASCII STANDARD - VERSION 2.0
 WRAP              .         NO                            : ONE LINE PER DEPTH STEP
 DLM               .         SPACE                         : DELIMITING CHARACTER(SPACE TAB OR COMMA)
~Well Information
#_______________________________________________________________________________
#
#PARAMETER_NAME    .UNIT     VALUE                         : DESCRIPTION
#_______________________________________________________________________________
STRT               .m        2469                          : First reference value
STOP               .m        2690                          : Last reference value
STEP               .m        0.2                           : Step increment
NULL               .         -9999                         : Missing value
COMP               .                                       : Company
WELL               .         101                           : Well name
FLD                .                                       : Field
LOC                .                                       : Location
CNTY               .                                       : County
STAT               .                                       : State
CTRY               .                                       : Country
SRVC               .                                       : Service Company
DATE               .                                       : Date
API                .                                       : API number
EREF               .m        137.7                         : 
Pad                .         1                             : 
X                  .m        229503                        : 
Y                  .m        240117                        : 
group              .         Pad1                          : 
Интер-р            .         Пузин                         : 
Куст               .         1                             : 
Статус             .         Не проверено                  : 
Тип                .         Разведка                      : 
~Parameter Information Block
#_______________________________________________________________________________
#
#PARAMETER_NAME    .UNIT     VALUE                         : DESCRIPTION
#_______________________________________________________________________________
SET                .         LAS3                          : 
REAL_CREATION_DATE .         Ср апр 11 2012-13_17_06       : 
TLFamily_DEPTH     .         Measured Depth                : 
TLFamily_GR        .         Gamma Ray                     : 
TLFamily_TNPH      .         Neutron Porosity              : 
group              .         INI                           : 
~Curve Information
#_______________________________________________________________________________
#
#LOGNAME           .UNIT     LOG_ID                        : DESCRIPTION
#_______________________________________________________________________________
DEPTH              .m                                      : 1 Depth 
GR                 .gAPI                                   :  
TNPH               .v/v                                    : 5 Hydrogen Content 
~Ascii
# ...
2517.6     64.59      0.135     
2517.8     57.8       0.121     
2518       60.29      0.128     
2518.2     61.06      0.148     
2518.4     64.25999   0.177     
2518.6     69.37      0.217     
2518.8     72         0.223     
2519       76.73      0.23      
2519.2     81.04      0.251     
2519.4     86.24      0.257     
2519.6     95.83      0.254     
2519.8     106.82     0.255     
2520       109.39     0.264     
2520.2     109.4      0.262     
2520.4     106.39     0.259     
2520.6     101.23     0.254     
2520.8     87.45      0.252     
2521       78.4       0.255     
2521.2     75.63      0.25      
2521.4     71.68      0.244     
2521.6     68.94      0.257     
2521.8     66.18      0.242     
2522       71.44      0.224     
2522.2     76.75      0.214     
2522.4     83.17001   0.217     
2522.6     90.97      0.237     
2522.8     91.75999   0.245     
2523       87         0.25      
2523.2     86.36      0.24      
2523.4     87.74001   0.23      
2523.6     92.31      0.227     
2523.8     104.96     0.216     
2524       112.98     0.208     
2524.2     115.85     0.207     
2524.4     116.25     0.207     
2524.6     115.33     0.21      
2524.8     112.51     0.215     
2525       109.99     0.221     
2525.2     109.53     0.226     
2525.4     109.41     0.233     
2525.6     108.07     0.238     
2525.8     101.82     0.232     
2526       93.07      0.223     
2526.2     87.75      0.215     
2526.4     85.45999   0.217     
2526.6     92.73      0.222     
2526.8     100.64     0.225     
2527       99.22      0.221     
2527.2     98.89      0.216     
2527.4     98.29001   0.216     
2527.6     93.87      0.22      
2527.8     90.92      0.216     
2528       90.99      0.211     
2528.2     94.06      0.209     
2528.4     95.33      0.208     
2528.6     95.98      0.212     
2528.8     103.11     0.216     
2529       110.29     0.221     
2529.2     112.65     0.222     
2529.4     109.39     0.215     
2529.6     106.23     0.21      
2529.8     101.96     0.212     
2530       101.53     0.21      
2530.2     101.23     0.211     
2530.4     95.10001   0.215     
2530.6     81.68999   0.206     
2530.8     70.16      0.192     
2531       67.7       0.192     
2531.2     70.71      0.2       
2531.4     75.7       0.205     
2531.6     81.4       0.222     
2531.8     83.14999   0.237     
2532       80.03      0.233     
2532.2     78.16      0.217     
2532.4     72.81      0.207     
2532.6     64.08      0.204     
2532.8     64.46999   0.21      
2533       67.63      0.224     
2533.2     70.98      0.236     
2533.4     77.88      0.236     
2533.6     88.35      0.232     
2533.8     95.81001   0.227     
2534       90.22      0.222     
2534.2     80.57999   0.213     
2534.4     67.38      0.197     
2534.6     59.61      0.194     
2534.8     59         0.205     
2535       62.96      0.216     
2535.2     68.64      0.234     
2535.4     74.64      0.235     
2535.6     78.52      0.235     
2535.8     87.42      0.25      
2536       89.74      0.257     
2536.2     86.26      0.25      
2536.4     81.59      0.244     
2536.6     75.57      0.237     
2536.8     68.06      0.223     
2537       63.97      0.22      
2537.2     61.91      0.215     
2537.4     59.57      0.217     
2537.6     61.21      0.23      
2537.8     70.85      0.23      
2538       77.25999   0.219     
2538.2     79.69      0.217     
2538.4     82.81999   0.224     
2538.6     83.82      0.236     
2538.8     86.95      0.234     
2539       90.42      0.236     
2539.2     88.12      0.235     
2539.4     83.84      0.217     
2539.6     89.06      0.211     
2539.8     101.78     0.222     
2540       111.16     0.236     
2540.2     113.64     0.246     
2540.4     111.87     0.243     
2540.6     109.22     0.235     
2540.8     110.59     0.231     
2541       115.47     0.245     
2541.2     118.39     0.26      
2541.4     122.78     0.263     
2541.6     121.81     0.266     
2541.8     117.67     0.279     
2542       114.8      0.277     
2542.2     115.47     0.256     
2542.4     118.18     0.254     
2542.6     119.09     0.253     
2542.8     120.48     0.242     
2543       119.86     0.24      
2543.2     119.31     0.246     
2543.4     118.03     0.259     
2543.6     120.27     0.267     
2543.8     124.24     0.263     
2544       125.78     0.257     
2544.2     123.55     0.252     
2544.4     124.02     0.265     
2544.6     124.48     0.276     
2544.8     125.38     0.26      
2545       127.97     0.243     
2545.2     128.45     0.237     
2545.4     128.7      0.229     
2545.6     128.13     0.217     
2545.8     125.59     0.214     
2546       122.62     0.228     
2546.2     120.54     0.236     
2546.4     119.21     0.228     
2546.6     117.14     0.226     
2546.8     108.81     0.215     
2547       106.81     0.214     
2547.2     107.99     0.219     
2547.4     111.34     0.222     
2547.6     114.09     0.225     
2547.8     118.25     0.226     
2548       122.8      0.229     
2548.2     125.06     0.219     
2548.4     130.5      0.208     
2548.6     129.8      0.205     
2548.8     120.43     0.205     
2549       112.87     0.205     
2549.2     109.72     0.211     
2549.4     107.43     0.219     
2549.6     107.34     0.219     
2549.8     110.7      0.21      
2550       110.54     0.197     
2550.2     105.15     0.183     
2550.4     94.88      0.169     
2550.6     86.09      0.162     
2550.8     80.61      0.15      
2551       74.49001   0.138     
2551.2     72.93999   0.138     
2551.4     81.89      0.149     
2551.6     99.48      0.174     
2551.8     113.95     0.187     
2552       117.87     0.195     
2552.2     118.68     0.206     
2552.4     118.41     0.204     
2552.6     119.5      0.216     
2552.8     127.35     0.245     
2553       138.29     0.274     
2553.2     144.22     0.296     
2553.4     151.01     0.299     
2553.6     156.03     0.297     
2553.8     157.84     0.307     
2554       157.19     0.316     
2554.2     154.71     0.308     
2554.4     150.27     0.295     
2554.6     142.86     0.291     
2554.8     135.88     0.29      
2555       130.05     0.277     
2555.2     123.3      0.261     
2555.4     114.31     0.248     
2555.6     115.79     0.249     
2555.8     126.61     0.247     
2556       126.91     0.26      
2556.2     126.31     0.259     
2556.4     129.71     0.249     
2556.6     135.11     0.253     
2556.8     143.36     0.262     
2557       151.5      0.273     
2557.2     159.03     0.289     
2557.4     175.23     0.281     
2557.6     197.17     0.269     
2557.8     221.09     0.294     
2558       222.59     0.307     
2558.2     212.54     0.313     
2558.4     200.57     0.318     
2558.6     201.43     0.306     
2558.8     215.49     0.291     
2559       219.75     0.299     
2559.2     225.58     0.304     
2559.4     238.18     0.302     
2559.6     237.71     0.319     
2559.8     222.38     0.321     
2560       214.76     0.306     
2560.2     209.79     0.312     
2560.4     201.89     0.321     
2560.6     205.61     0.316     
2560.8     216.19     0.323     
2561       219.58     0.336     
2561.2     230.29     0.351     
2561.4     247.54     0.359     
2561.6     255.86     0.368     
2561.8     261.68     0.369     
2562       265.96     0.349     
2562.2     265.44     0.335     
2562.4     260.17     0.324     
2562.6     252.79     0.317     
2562.8     240.46     0.322     
2563       231.15     0.32      
2563.2     224.35     0.317     
2563.4     214.02     0.325     
2563.6     201.17     0.314     
2563.8     189.48     0.3       
2564       190.3      0.288     
2564.2     197.41     0.301     
2564.4     208.5      0.326     
2564.6     220.71     0.351     
2564.8     246.11     0.371     
2565       268.04     0.355     
2565.2     282.7      0.346     
2565.4     301.62     0.349     
2565.6     322.71     0.354     
2565.8     376.08     0.358     
2566       438.69     0.334     
