~Version
 VERS              .         2.0                           : CWLS LOG ASCII STANDARD - VERSION 2.0
 WRAP              .         NO                            : ONE LINE PER DEPTH STEP
 DLM               .         SPACE                         : DELIMITING CHARACTER(SPACE TAB OR COMMA)
~Well Information
#_______________________________________________________________________________
#
#PARAMETER_NAME    .UNIT     VALUE                         : DESCRIPTION
#_______________________________________________________________________________
STRT               .m        2469                          : First reference value
STOP               .m        2690                          : Last reference value
STEP               .m        0.2                           : Step increment
NULL               .         -9999                         : Missing value
COMP               .                                       : Company
WELL               .         101                           : Well name
FLD                .                                       : Field
LOC                .                                       : Location
CNTY               .                                       : County
STAT               .                                       : State
CTRY               .                                       : Country
SRVC               .                                       : Service Company
DATE               .                                       : Date
API                .                                       : API number
EREF               .m        137.7                         : 
Pad                .         1                             : 
X                  .m        229503                        : 
Y                  .m        240117                        : 
group              .         Pad1                          : 
Интер-р            .         Пузин                         : 
Куст               .         1                             : 
Статус             .         Не проверено                  : 
Тип                .         Разведка                      : 
~Parameter Information Block
#_______________________________________________________________________________
#
#PARAMETER_NAME    .UNIT     VALUE                         : DESCRIPTION
#_______________________________________________________________________________
SET                .         LAS1                          : 
REAL_CREATION_DATE .         Ср апр 11 2012-13_17_05       : 
TLFamily_DEPTH     .         Measured Depth                : 
TLFamily_KS        .         Potential Resistivity         : 
TLFamily_KS1       .         Extra Shallow Resistivity     : 
TLFamily_KS2       .         Shallow Resistivity           : 
TLFamily_KS3       .         Medium Resistivity            : 
TLFamily_KS4       .         Deep Resistivity              : 
TLFamily_KS5       .         Extra Deep Resistivity        : 
TLFamily_LLD       .         Lateral Log Resistivity       : 
TLFamily_OKS3      .         Medium Resistivity Inverted   : 
TLFamily_RM        .         Mud Resistivity               : 
TLFamily_SP        .         Spontaneous Potential         : 
group              .         INI                           : 
~Curve Information
#_______________________________________________________________________________
#
#LOGNAME           .UNIT     LOG_ID                        : DESCRIPTION
#_______________________________________________________________________________
DEPTH              .m                                      : 1 Depth 
KS                 .ohm.m                                  : 10 Normal Log Resistivity  N11.0M0.5A 
KS1                .ohm.m                                  : 3 Lateral Log Resistivity  A0.4M0.1N 
KS2                .ohm.m                                  : 4 Lateral Log Resistivity  A1.0M0.1N 
KS3                .ohm.m                                  : 5 Lateral Log Resistivity  A2.0M0.5N 
KS4                .ohm.m                                  : 6 Lateral Log Resistivity  A4.0M0.5N 
KS5                .ohm.m                                  : 7 Lateral Log Resistivity  A8.0M0.5N 
LLD                .ohm.m                                  : 2 Laterolog Shallow 
OKS3               .ohm.m                                  : 8 Lateral Log Resistivity (Inverse) 
RM                 .ohm.m                                  : 11 Mud Resistivity 
SP                 .mV                                     : 9 Spontaneous Potential 
~Ascii
# ...
2482.4     5.1939     2.6959     6.5461     7.6185     5.307      3.5326     3.5115     7.8752     0.479      15.7393   
2482.6     5.2315     2.6959     6.5461     7.6185     5.307      3.5696     3.5709     7.8523     0.479      13.1292   
2482.8     5.2562     2.6959     6.5472     7.6185     5.3596     3.5855     3.5964     7.8219     0.479      13.5492   
2483       5.285      2.6959     6.5985     7.6718     5.3676     3.5935     3.6617     7.7786     0.479      15.6895   
2483.2     5.285      2.7383     6.6307     7.7092     5.4122     3.6385     3.6398     7.7925     0.479      12.8651   
2483.4     5.285      2.7401     6.6598     7.764      5.4649     3.6865     3.5989     7.7848     0.484      13.1844   
2483.6     5.285      2.7498     6.7033     7.8182     5.4734     3.7394     3.6432     7.7686     0.485      15.7408   
2483.8     5.285      2.7498     6.755      7.8724     5.5261     3.7815     3.6834     7.7641     0.485      14.0057   
2484       5.285      2.8012     6.8091     7.9487     5.5701     3.7974     3.7218     7.7153     0.485      14.322    
2484.2     5.2226     2.8037     6.8911     8.0019     5.5701     3.847      3.679      7.7153     0.485      15.3501   
2484.4     5.162      2.8097     6.9266     8.0445     5.6017     3.8504     3.6146     7.7186     0.485      12.015    
2484.6     5.1143     2.799      6.8495     7.9823     5.5495     3.8504     3.4221     7.8046     0.48       14.7838   
2484.8     5.071      2.7219     6.6832     7.8644     5.4575     3.8504     3.2854     7.9276     0.481      15.9318   
2485       5.071      2.6853     6.5985     7.7714     5.3596     3.8019     3.3814     8.0522     0.485      13.3561   
2485.2     5.1037     2.642      6.5506     7.725      5.3317     3.7974     3.4509     8.1755     0.48       15.5799   
2485.4     5.1245     2.6488     6.4937     7.703      5.307      3.7974     3.465      8.2979     0.479      16.1071   
2485.6     5.1295     2.6959     6.539      7.6921     5.307      3.7974     3.6037     8.3549     0.479      13.9261   
2485.8     5.178      2.6959     6.4937     7.7144     5.307      3.7974     3.5675     8.3309     0.479      17.7362   
2486       5.178      2.6959     6.4712     7.6349     5.2704     3.7974     3.4642     8.3016     0.479      15.7488   
2486.2     5.178      2.6861     6.4937     7.6126     5.2544     3.7974     3.5159     8.3016     0.479      13.9141   
2486.4     5.1875     2.682      6.5325     7.5638     5.2544     3.7974     3.5239     8.3016     0.479      16.4566   
2486.6     5.2462     2.642      6.5095     7.512      5.2544     3.8345     3.5187     8.3397     0.479      16.2667   
2486.8     5.285      2.642      6.4837     7.512      5.2544     3.8504     3.6128     8.3655     0.484      15.8052   
2487       5.32       2.6959     6.5461     7.515      5.3033     3.9006     3.7118     8.4347     0.485      18.8635   
2487.2     5.4041     2.6911     6.5182     7.5653     5.3175     3.9645     3.6344     8.6009     0.484      16.1899   
2487.4     5.4974     2.642      6.4842     7.5757     5.3994     4.0558     3.5773     8.8457     0.479      16.8326   
2487.6     5.5779     2.643      6.5228     7.7831     5.6026     4.1523     3.792      9.0589     0.479      18.881    
2487.8     5.6174     2.7519     6.8497     8.1029     5.7886     4.2052     4.4196     8.8448     0.483      16.4206   
2488       5.6596     2.9654     7.2718     8.4067     5.8597     4.2582     4.8042     8.4501     0.479      18.5427   
2488.2     5.6115     3.0019     7.2676     8.4706     5.8273     4.224      3.9438     8.1697     0.484      18.9255   
2488.4     5.4651     3.0159     7.382      8.4643     5.7218     4.1249     3.8443     7.9261     0.485      16.6807   
2488.6     5.3989     2.9269     7.2834     8.3455     5.5274     3.976      3.6913     7.4999     0.48       19.1849   
2488.8     5.3921     2.7656     7.0726     8.083      5.3038     3.8615     3.4471     7.317      0.485      19.7907   
2489       5.3675     2.6959     6.9978     7.9673     5.2018     3.7116     3.5597     7.1938     0.485      17.1956   
2489.2     5.3921     2.6959     6.8755     7.946      5.2018     3.6544     3.7235     7.072      0.486      18.4891   
2489.4     5.3921     2.6959     6.8184     7.9922     5.2018     3.6014     3.7223     6.953      0.488      21.4043   
2489.6     5.3921     2.6959     6.8437     8.0744     5.222      3.6138     3.8819     6.9157     0.485      18.5171   
2489.8     5.378      2.731      6.8283     8.2956     5.3438     3.6385     3.7987     6.9582     0.481      19.8665   
2490       5.2653     2.8552     7.0821     8.5956     5.4644     3.5855     3.9098     7.0223     0.485      24.137    
2490.2     5.17       2.9115     7.2125     8.7699     5.515      3.6385     3.8073     7.0943     0.481      22.2576   
2490.4     5.0835     2.8808     7.1347     8.6594     5.4991     3.6171     3.433      7.5246     0.479      18.6187   
2490.6     4.942      2.7732     6.9407     8.6836     5.5701     3.5477     3.2098     7.9648     0.479      20.0557   
2490.8     4.7957     2.9505     7.4542     8.6263     5.5535     3.4427     3.6956     8.3648     0.478      21.4698   
2491       4.7352     2.7785     6.8811     8.3821     5.3316     3.3306     3.1505     8.8006     0.479      19.1821   
2491.2     4.6775     2.6516     6.5703     7.8814     5.0702     3.1876     3.0021     9.5133     0.479      18.9923   
2491.4     4.643      2.5856     6.3113     7.5679     4.8816     3.0403     3.0526     10.221     0.479      20.4344   
2491.6     4.6565     2.5343     6.0974     7.2545     4.7557     2.9321     3.0562     10.7388    0.485      21.8112   
2491.8     4.7125     2.5252     5.9263     6.9748     4.6342     2.8599     3.038      11.135     0.485      20.695    
2492       4.7898     2.4696     5.7303     6.6862     4.5243     2.8091     3.0442     11.6022    0.485      20.434    
2492.2     4.9722     2.4219     5.5973     6.4645     4.4452     2.791      3.1653     12.2683    0.485      22.8983   
2492.4     5.2074     2.3646     5.4534     6.2444     4.3532     2.8281     3.2117     13.1449    0.485      21.9772   
2492.6     5.5453     2.3071     5.226      5.9971     4.3074     2.9218     3.3182     14.1866    0.485      19.793    
2492.8     6.0208     2.2277     5.136      5.8414     4.3282     3.164      3.6129     15.2856    0.485      21.9658   
2493       6.6326     2.2184     5.1917     6.0217     4.5282     3.5797     4.1334     16.5193    0.483      23.4509   
2493.2     7.3939     2.2648     5.3678     6.4281     4.9729     4.0714     4.7526     18.0437    0.479      21.7032   
2493.4     8.1142     2.3738     5.8717     7.2927     5.8013     4.601      5.9922     19.1208    0.483      19.7475   
2493.6     8.5501     2.9509     7.2956     8.7282     6.7101     5.0335     12.6885    18.8338    0.479      22.6347   
2493.8     8.6529     3.8204     9.3469     10.1532    7.4869     5.1742     27.7731    17.3947    0.479      25.1304   
2494       8.5221     4.3351     10.6803    10.8491    7.6441     5.0804     19.4256    16.3525    0.477      23.1664   
2494.2     8.175      4.0059     10.439     10.6405    7.1547     4.7373     6.1012     16.2737    0.479      20.5193   
2494.4     7.8202     3.6317     10.3098    10.2771    6.399      4.2769     5.0906     17.1251    0.479      23.2246   
2494.6     7.6575     3.3312     10.2601    10.1788    5.7951     3.7466     5.1545     18.2288    0.483      22.5803   
2494.8     7.5858     3.2055     10.0051    10.3101    5.4386     3.3904     5.4354     19.2284    0.479      19.6081   
2495       7.5887     3.1177     9.4073     10.5542    5.1581     3.1787     5.5003     19.6876    0.484      19.731    
2495.2     7.6774     3.0673     8.9103     10.7981    5.0138     3.0688     5.7231     19.7648    0.485      23.008    
2495.4     7.8718     2.9057     8.1896     10.9508    4.8803     3.0117     5.364      19.9446    0.483      21.5701   
2495.6     8.2109     2.8075     7.7755     11.0687    4.8423     3.0859     5.5981     20.662     0.485      20.306    
