~Version
 VERS              .         2.0                           : CWLS LOG ASCII STANDARD - VERSION 2.0
 WRAP              .         NO                            : ONE LINE PER DEPTH STEP
 DLM               .         SPACE                         : DELIMITING CHARACTER(SPACE TAB OR COMMA)
~Well Information
#_______________________________________________________________________________
#
#PARAMETER_NAME    .UNIT     VALUE                         : DESCRIPTION
#_______________________________________________________________________________
STRT               .m        2469                          : First reference value
STOP               .m        2690                          : Last reference value
STEP               .m        0.2                           : Step increment
NULL               .         -9999                         : Missing value
COMP               .                                       : Company
WELL               .         101                           : Well name
FLD                .                                       : Field
LOC                .                                       : Location
CNTY               .                                       : County
STAT               .                                       : State
CTRY               .                                       : Country
SRVC               .                                       : Service Company
DATE               .                                       : Date
API                .                                       : API number
EREF               .m        137.7                         : 
Pad                .         1                             : 
X                  .m        229503                        : 
Y                  .m        240117                        : 
group              .         Pad1                          : 
Интер-р            .         Пузин                         : 
Куст               .         1                             : 
Статус             .         Не проверено                  : 
Тип                .         Разведка                      : 
~Parameter Information Block
#_______________________________________________________________________________
#
#PARAMETER_NAME    .UNIT     VALUE                         : DESCRIPTION
#_______________________________________________________________________________
SET                .         LAS1                          : 
REAL_CREATION_DATE .         Ср апр 11 2012-13_17_05       : 
TLFamily_DEPTH     .         Measured Depth                : 
TLFamily_KS        .         Potential Resistivity         : 
TLFamily_KS1       .         Extra Shallow Resistivity     : 
TLFamily_KS2       .         Shallow Resistivity           : 
TLFamily_KS3       .         Medium Resistivity            : 
TLFamily_KS4       .         Deep Resistivity              : 
TLFamily_KS5       .         Extra Deep Resistivity        : 
TLFamily_LLD       .         Lateral Log Resistivity       : 
TLFamily_OKS3      .         Medium Resistivity Inverted   : 
TLFamily_RM        .         Mud Resistivity               : 
TLFamily_SP        .         Spontaneous Potential         : 
group              .         INI                           : 
~Curve Information
#_______________________________________________________________________________
#
#LOGNAME           .UNIT     LOG_ID                        : DESCRIPTION
#_______________________________________________________________________________
DEPTH              .m                                      : 1 Depth 
KS                 .ohm.m                                  : 10 Normal Log Resistivity  N11.0M0.5A 
KS1                .ohm.m                                  : 3 Lateral Log Resistivity  A0.4M0.1N 
KS2                .ohm.m                                  : 4 Lateral Log Resistivity  A1.0M0.1N 
KS3                .ohm.m                                  : 5 Lateral Log Resistivity  A2.0M0.5N 
KS4                .ohm.m                                  : 6 Lateral Log Resistivity  A4.0M0.5N 
KS5                .ohm.m                                  : 7 Lateral Log Resistivity  A8.0M0.5N 
LLD                .ohm.m                                  : 2 Laterolog Shallow 
OKS3               .ohm.m                                  : 8 Lateral Log Resistivity (Inverse) 
RM                 .ohm.m                                  : 11 Mud Resistivity 
SP                 .mV                                     : 9 Spontaneous Potential 
~Ascii
# ...
2643.2     7.4344     2.6959     7.5875     10.2556    7.9793     10.9074    6.0707     10.7597    0.471      36.7202   
2643.4     7.4873     2.7606     7.6459     10.1029    6.9857     9.6142     6.5029     10.4963    0.472      34.0678   
2643.6     7.5323     2.8576     7.843      10.294     6.6219     8.6998     6.4974     10.4727    0.467      37.1646   
2643.8     7.4989     2.9275     8.0111     10.7485    6.3701     7.9766     6.5329     10.4532    0.462      35.7465   
2644       7.4092     2.9761     8.1227     11.5354    6.2267     7.4184     6.3816     10.6596    0.45       35.9143   
2644.2     7.3335     3.0458     8.4604     12.4486    6.3101     6.947      5.8017     11.2427    0.455      32.5723   
2644.4     7.2647     2.9881     8.4703     13.1846    6.6182     6.5328     5.7505     11.9758    0.461      31.8565   
2644.6     7.3036     2.851      8.2676     13.4121    6.7766     6.157      6.5203     12.8458    0.466      32.0457   
2644.8     7.3343     2.8317     8.1981     13.4658    6.9969     5.7652     7.7414     13.238     0.478      32.4005   
2645       7.3717     2.9761     8.4206     13.4703    7.3703     5.2862     7.2411     13.152     0.48       33.627    
2645.2     7.3603     3.133      8.5894     13.2064    7.7222     4.7444     6.7282     13.0693    0.471      32.0465   
2645.4     7.3182     3.086      8.3133     12.6386    7.6234     4.2069     6.6011     12.7908    0.452      33.5501   
2645.6     7.305      2.9546     7.9959     11.8509    7.5874     3.7117     6.3996     12.4289    0.451      31.7067   
2645.8     7.1993     2.9115     8.0789     11.5083    8.0315     3.247      6.1805     12.5207    0.453      35.1238   
2646       7.1042     2.9896     8.4564     11.1369    8.4125     2.8972     5.355      12.7874    0.46       32.1579   
2646.2     7.1464     2.6622     7.5379     10.5235    8.5652     2.6276     5.9464     12.9548    0.464      33.9819   
2646.4     7.1738     2.5451     7.393      9.9072     8.6694     2.374      6.4521     12.7074    0.453      33.4299   
2646.6     7.2914     2.5807     7.3466     9.8126     8.7795     2.1964     6.5667     12.5021    0.458      31.669    
2646.8     7.4228     2.574      7.1644     9.9191     8.8191     2.1554     7.2779     12.1769    0.467      30.3593   
2647       7.5058     2.638      7.3068     10.3007    8.9644     2.1741     7.5266     11.9683    0.455      31.2014   
2647.2     7.6275     2.7466     7.4321     10.702     9.1992     2.2626     7.4604     11.8803    0.473      27.3078   
2647.4     7.6928     2.8111     7.4961     10.9898    9.5115     2.5216     7.6349     11.9977    0.459      31.3437   
2647.6     7.7088     2.8971     7.6909     11.314     10.0324    2.9849     7.3702     12.2121    0.459      29.192    
2647.8     7.7623     2.9115     7.86       11.6776    10.8531    3.586      6.8054     12.7128    0.468      29.642    
2648       7.9002     2.841      7.8515     12.0612    12.1898    4.2036     7.3887     13.6293    0.453      30.5406   
2648.2     8.0006     2.7311     7.8518     13.0057    14.5206    5.0393     9.7273     14.9996    0.455      29.082    
2648.4     7.9527     2.8452     8.4573     14.6902    17.2192    6.6647     12.969     16.3227    0.477      32.5879   
2648.6     7.8533     3.4319     9.9533     16.6308    20.4669    8.7482     8.3376     17.1739    0.471      30.292    
2648.8     7.7284     3.4166     10.2306    18.8106    23.8577    10.01      8.0904     17.7377    0.452      32.6965   
2649       7.4593     3.6342     11.2681    19.6755    24.8236    10.7766    6.225      17.5416    0.458      30.002    
2649.2     7.3717     3.409      10.3696    18.8216    21.9488    11.3014    5.9357     15.8472    0.473      30.712    
2649.4     7.3688     3.1781     9.7133     16.6136    18.8344    10.4875    6.8868     14.0607    0.472      27.0413   
2649.6     7.3717     3.0731     9.51       15.1661    16.6408    9.2885     7.2058     12.8877    0.454      32.649    
2649.8     7.4253     3.081      9.1654     14.1784    14.7969    8.5196     6.757      12.085     0.459      27.3921   
2650       7.3717     3.1792     9.0864     13.2878    12.8486    8.1462     6.0125     11.8081    0.475      30.0739   
2650.2     7.3261     3.1176     8.6191     12.5148    11.3327    8.0507     7.035      11.7235    0.469      31.374    
2650.4     7.2359     3.03       8.5087     12.2064    10.4003    7.9818     7.7597     11.6578    0.453      38.2549   
2650.6     7.0843     3.2367     9.174      12.5522    9.9296     7.8683     6.7435     11.5752    0.464      35.2468   
2650.8     6.894      3.309      9.4525     13.0198    9.3849     7.5108     5.7558     11.392     0.458      29.5388   
2651       6.685      3.3347     9.3211     12.6945    8.4824     6.7721     4.9769     11.5189    0.459      30.445    
2651.2     6.5157     3.0662     8.5122     12.0297    7.4523     5.9628     5.1852     11.9022    0.466      28.4247   
2651.4     6.5317     2.8383     8.1337     11.2206    6.5742     5.2524     5.0761     12.4626    0.457      34.9489   
2651.6     6.692      2.6774     7.5624     10.6212    5.9802     4.7754     4.8677     13.5554    0.469      32.8121   
2651.8     6.9918     2.4755     6.767      10.0155    5.5782     4.5349     5.6559     15.1125    0.451      32.2663   
2652       7.4333     2.3295     6.2755     9.6928     5.5645     4.466      7.8724     16.2467    0.458      29.1204   
2652.2     7.9526     2.4925     6.5125     9.8314     5.9414     4.5231     9.1868     16.832     0.465      36.2005   
2652.4     8.421      2.7082     6.8804     10.3107    6.648      4.6748     10.16      16.9297    0.475      43.2967   
2652.6     8.7758     2.9238     7.4202     10.8429    7.4428     4.7879     10.1944    16.8935    0.463      46.3388   
2652.8     9.0059     3.1205     7.986      11.3073    8.3264     4.8038     9.511      16.8948    0.459      32.4938   
2653       9.1506     3.1822     8.5205     11.6437    9.0867     4.8038     9.8118     17.0045    0.473      30.189    
2653.2     9.2594     3.2853     9.1303     11.9873    10.038     4.7667     9.719      17.1163    0.457      30.9534   
2653.4     9.3478     3.3489     9.6321     12.1429    10.8487    4.7022     8.8636     17.3263    0.455      38.3027   
2653.6     9.3514     3.3335     9.744      12.2622    11.198     4.6449     8.8184     17.5965    0.468      38.5102   
2653.8     9.3514     3.2969     9.742      12.3238    11.2975    4.6078     8.9319     17.6722    0.468      32.811    
2654       9.3675     3.2887     9.6932     12.5209    11.185     4.5548     8.1986     17.7977    0.451      34.0835   
2654.2     9.4584     3.3016     9.6985     12.743     10.7147    4.492      8.4598     17.8915    0.461      32.283    
2654.4     9.5904     3.0741     9.1574     12.8       10.2656    4.486      8.8423     18.085     0.47       47.7444   
2654.6     9.7343     3.0731     9.0146     12.9539    9.8306     4.5655     9.0962     18.7036    0.455      53.7094   
2654.8     9.8465     3.0731     8.9393     13.1581    9.6851     4.7019     9.5077     20.0383    0.468      33.4233   
2655       10.003     3.1649     9.1727     13.2802    9.6236     4.9603     8.838      21.7081    0.464      30.743    
2655.2     10.1715    3.0453     8.8112     13.3592    9.6191     5.3406     9.6504     23.911     0.45       32.8172   
2655.4     10.3471    3.062      8.9047     13.3429    9.7883     5.9297     10.4773    26.066     0.463      43.8083   
2655.6     10.5899    3.0731     8.9251     13.6428    10.2326    6.6727     11.4142    28.6036    0.465      36.4248   
2655.8     10.7732    3.1445     9.3136     14.3724    11.1481    7.5788     13.4027    30.9886    0.455      35.7538   
2656       10.9012    3.3581     9.9315     15.2777    12.3035    8.7329     12.4042    32.8138    0.47       30.676    
2656.2     10.9031    3.4719     10.2568    16.0155    13.483     10.7236    9.0424     33.9937    0.456      32.836    
2656.4     10.9358    3.6227     10.6558    16.3493    15.0964    13.7384    6.7926     36.7341    0.461      40.4991   
