~Version
 VERS              .         2.0                           : CWLS LOG ASCII STANDARD - VERSION 2.0
 WRAP              .         NO                            : ONE LINE PER DEPTH STEP
 DLM               .         SPACE                         : DELIMITING CHARACTER(SPACE TAB OR COMMA)
~Well Information
#_______________________________________________________________________________
#
#PARAMETER_NAME    .UNIT     VALUE                         : DESCRIPTION
#_______________________________________________________________________________
STRT               .m        2469                          : First reference value
STOP               .m        2690                          : Last reference value
STEP               .m        0.2                           : Step increment
NULL               .         -9999                         : Missing value
COMP               .                                       : Company
WELL               .         101                           : Well name
FLD                .                                       : Field
LOC                .                                       : Location
CNTY               .                                       : County
STAT               .                                       : State
CTRY               .                                       : Country
SRVC               .                                       : Service Company
DATE               .                                       : Date
API                .                                       : API number
EREF               .m        137.7                         : 
Pad                .         1                             : 
X                  .m        229503                        : 
Y                  .m        240117                        : 
group              .         Pad1                          : 
Интер-р            .         Пузин                         : 
Куст               .         1                             : 
Статус             .         Не проверено                  : 
Тип                .         Разведка                      : 
~Parameter Information Block
#_______________________________________________________________________________
#
#PARAMETER_NAME    .UNIT     VALUE                         : DESCRIPTION
#_______________________________________________________________________________
SET                .         LAS1                          : 
REAL_CREATION_DATE .         Ср апр 11 2012-13_17_05       : 
TLFamily_DEPTH     .         Measured Depth                : 
TLFamily_KS        .         Potential Resistivity         : 
TLFamily_KS1       .         Extra Shallow Resistivity     : 
TLFamily_KS2       .         Shallow Resistivity           : 
TLFamily_KS3       .         Medium Resistivity            : 
TLFamily_KS4       .         Deep Resistivity              : 
TLFamily_KS5       .         Extra Deep Resistivity        : 
TLFamily_LLD       .         Lateral Log Resistivity       : 
TLFamily_OKS3      .         Medium Resistivity Inverted   : 
TLFamily_RM        .         Mud Resistivity               : 
TLFamily_SP        .         Spontaneous Potential         : 
group              .         INI                           : 
~Curve Information
#_______________________________________________________________________________
#
#LOGNAME           .UNIT     LOG_ID                        : DESCRIPTION
#_______________________________________________________________________________
DEPTH              .m                                      : 1 Depth 
KS                 .ohm.m                                  : 10 Normal Log Resistivity  N11.0M0.5A 
KS1                .ohm.m                                  : 3 Lateral Log Resistivity  A0.4M0.1N 
KS2                .ohm.m                                  : 4 Lateral Log Resistivity  A1.0M0.1N 
KS3                .ohm.m                                  : 5 Lateral Log Resistivity  A2.0M0.5N 
KS4                .ohm.m                                  : 6 Lateral Log Resistivity  A4.0M0.5N 
KS5                .ohm.m                                  : 7 Lateral Log Resistivity  A8.0M0.5N 
LLD                .ohm.m                                  : 2 Laterolog Shallow 
OKS3               .ohm.m                                  : 8 Lateral Log Resistivity (Inverse) 
RM                 .ohm.m                                  : 11 Mud Resistivity 
SP                 .mV                                     : 9 Spontaneous Potential 
~Ascii
# ...
2562.8     6.1946     2.9133     7.5323     9.0564     6.2014     4.1139     4.0549     10.613     0.48       23.3326   
2563       6.1946     2.9708     7.6265     9.0998     6.2233     3.9565     4.2535     10.7065    0.486      21.6392   
2563.2     6.1413     2.9887     7.7074     9.2114     6.2883     3.7202     4.3783     10.7969    0.48       23.8892   
2563.4     6.0876     3.1221     7.9446     9.2161     6.2412     3.5422     4.3825     10.8223    0.481      25.0845   
2563.6     6.0767     3.0274     7.6609     9.1427     6.0585     3.3654     3.946      10.9819    0.479      22.097    
2563.8     6.0341     2.878      7.3603     8.8522     5.7652     3.2855     3.7482     11.351     0.484      23.0952   
2564       6.1134     2.8469     7.3471     8.6511     5.5298     3.2148     3.9024     11.707     0.485      25.1116   
2564.2     6.236      2.6959     6.9529     8.4633     5.3978     3.2148     3.7891     12.3175    0.485      25.7947   
2564.4     6.4159     2.6729     6.8081     8.3729     5.3121     3.249      4.061      13.056     0.482      23.1331   
2564.6     6.6614     2.6959     6.8184     8.5504     5.4521     3.3747     4.5382     13.8776    0.479      24.8041   
2564.8     6.8535     2.8209     7.0754     8.8872     5.7236     3.6395     5.0571     14.5035    0.484      26.0878   
2565       7.0551     2.9713     7.401      9.3053     6.3301     4.0324     5.4211     15.2296    0.485      24.1012   
2565.2     7.2472     3.0283     7.6098     9.6083     6.6453     4.4387     5.3568     15.9281    0.487      21.7077   
2565.4     7.466      3.0198     7.7133     9.8511     7.0214     4.7639     5.2554     16.7385    0.485      23.847    
2565.6     7.649      3.0423     7.9226     10.1359    7.5467     5.0525     5.4843     17.5369    0.485      25.0529   
2565.8     7.8288     3.1098     8.3343     10.6385    8.3087     5.3029     6.0944     18.4316    0.483      23.3911   
2566       7.9364     3.211      8.7445     11.315     9.0015     5.5491     6.4092     19.0274    0.487      22.3712   
2566.2     8.07       3.4464     9.4485     11.6704    9.2034     5.7692     6.943      18.901     0.49       23.9119   
2566.4     8.2975     3.3565     9.1723     11.5255    8.7588     5.8097     6.1396     18.4027    0.485      26.2152   
2566.6     8.5086     3.2225     8.8833     11.174     8.3218     5.6561     5.9038     18.2374    0.485      22.3378   
2566.8     8.6639     3.1987     8.8948     11.1451    8.0127     5.479      6.7842     18.0824    0.49       23.4927   
2567       8.8954     3.2268     9.086      11.3789    7.9377     5.3902     6.8574     18.1032    0.489      25.5582   
2567.2     9.0589     3.1929     9.1456     11.702     7.9989     5.3764     6.9823     18.3174    0.488      24.8956   
2567.4     9.1812     3.3651     9.5667     12.1711    8.0633     5.3335     8.1141     18.1828    0.49       22.6746   
2567.6     9.3506     3.457      9.907      12.7235    8.0955     5.3641     8.262      17.7462    0.49       25.1951   
2567.8     9.4783     3.494      10.0486    13.1881    8.0955     5.3864     8.0332     17.3012    0.49       25.8057   
2568       9.5428     3.4655     10.1492    13.6762    8.1149     5.3453     8.2544     16.9321    0.49       24.0699   
2568.2     9.6062     3.532      10.3634    14.2062    8.2354     5.2872     8.5243     16.7037    0.49       24.0672   
2568.4     9.619      3.5667     10.5152    14.8408    8.3244     5.2788     8.4216     16.5108    0.49       25.9347   
2568.6     9.619      3.612      10.7401    15.2465    8.493      5.2149     8.6126     16.3034    0.49       24.6046   
2568.8     9.619      3.612      10.8438    15.5943    8.7457     5.1298     8.4662     16.04      0.49       23.0575   
2569       9.619      3.612      10.8863    15.9358    9.0748     5.0706     8.5867     15.9236    0.494      22.7706   
2569.2     9.613      3.613      10.8538    16.1837    9.3835     5.0276     8.7152     15.8557    0.49       26.456    
2569.4     9.5195     3.6659     11.0169    16.4952    9.7598     5.0157     8.9666     15.8051    0.496      24.9344   
2569.6     9.4428     3.6989     11.1484    16.8874    10.1819    5.0748     8.9565     15.6788    0.489      22.1938   
2569.8     9.2664     3.7198     11.1147    17.1686    10.6027    5.1386     8.7359     15.8485    0.493      24.5154   
2570       9.0853     3.7198     11.1768    17.2848    11.0853    5.2501     8.0078     16.3341    0.496      26.6849   
2570.2     8.9631     3.659      11.1241    17.3021    11.6187    5.414      7.4521     17.0581    0.491      26.1006   
2570.4     8.8699     3.5515     10.9062    17.0917    12.1114    5.6156     7.0882     17.8298    0.491      23.7088   
2570.6     8.8987     3.387      10.4454    17.0179    12.7642    5.7295     7.1563     18.6949    0.49       26.5402   
2570.8     8.9372     3.4275     10.5412    17.0894    13.2588    5.8075     8.067      19.1038    0.487      27.7627   
2571       9.0698     3.4451     10.3658    16.957     13.3335    5.8102     8.3199     19.0606    0.493      25.5675   
2571.2     9.2801     3.3444     9.8882     16.4217    12.96      5.716      7.9816     18.7369    0.496      24.7247   
2571.4     9.4029     3.3717     9.8274     15.8745    12.6951    5.5305     8.4824     18.5477    0.492      26.0943   
2571.6     9.527      3.3799     9.9043     15.6757    12.6828    5.4008     8.819      18.4716    0.491      26.8133   
2571.8     9.6255     3.4582     10.1466    15.6065    12.7929    5.3434     9.1691     18.3597    0.49       22.681    
2572       9.7206     3.5086     10.3612    15.5702    12.8578    5.3335     9.0174     18.3558    0.489      23.4543   
2572.2     9.7948     3.5581     10.4917    15.5092    12.9301    5.3335     8.9837     18.4894    0.49       25.6943   
2572.4     9.833      3.5581     10.6032    15.6232    13.0107    5.3751     9.1622     18.6554    0.488      26.7348   
2572.6     9.8633     3.6143     10.841     15.9117    13.1729    5.4132     9.5356     18.6838    0.486      23.7277   
2572.8     9.9335     3.6659     11.0333    16.2777    13.2598    5.4765     9.3834     18.5401    0.485      25.491    
2573       9.9616     3.6552     11.0518    16.6036    13.2937    5.5473     9.1138     18.4927    0.485      26.7456   
2573.2     9.9935     3.6152     10.9561    16.8902    13.2516    5.6442     9.0597     18.5643    0.486      25.4422   
2573.4     9.9502     3.6659     11.1895    17.1428    13.2586    5.7383     9.4541     18.7049    0.49       22.9939   
2573.6     9.94       3.708      11.362     17.4948    13.3145    5.8207     9.311      18.8552    0.49       24.0639   
2573.8     9.94       3.7069     11.3432    17.6791    13.2443    5.8854     9.3303     18.8715    0.487      27.2045   
2574       9.9818     3.6384     11.1558    17.4776    12.8512    5.9501     9.0898     18.6588    0.482      24.4023   
2574.2     9.9954     3.5716     10.8558    17.1986    12.5203    5.9767     9.2936     18.2006    0.477      25.2698   
2574.4     10.0149    3.6112     11.0369    17.1833    12.4227    6.0649     9.4875     17.7539    0.485      25.4278   
2574.6     9.9284     3.612      11.006     17.3974    12.5508    6.1996     9.9291     17.5649    0.479      27.8904   
2574.8     9.8694     3.6811     11.2395    17.5727    12.7306    6.3759     9.5293     17.5291    0.485      23.4232   
2575       9.7485     3.7083     11.3015    17.627     12.9492    6.4579     8.9258     17.7131    0.481      24.3311   
2575.2     9.6363     3.612      11.1141    17.5059    13.0461    6.581      8.553      18.0568    0.479      25.279    
2575.4     9.6346     3.5707     10.9022    17.2014    13.0492    6.7627     7.9367     18.639     0.472      25.1473   
2575.6     9.7524     3.4054     10.4187    16.8695    13.1112    7.0068     7.2531     19.9173    0.47       21.504    
2575.8     9.8871     3.2148     10.061     16.8011    13.4286    7.3627     9.5025     21.5267    0.473      21.6469   
2576       10.0694    3.3335     10.3068    17.4126    14.3117    7.8203     11.6585    22.4555    0.467      24.545    
