~Version
 VERS              .         2.0                           : CWLS LOG ASCII STANDARD - VERSION 2.0
 WRAP              .         NO                            : ONE LINE PER DEPTH STEP
 DLM               .         SPACE                         : DELIMITING CHARACTER(SPACE TAB OR COMMA)
~Well Information
#_______________________________________________________________________________
#
#PARAMETER_NAME    .UNIT     VALUE                         : DESCRIPTION
#_______________________________________________________________________________
STRT               .m        2469                          : First reference value
STOP               .m        2690                          : Last reference value
STEP               .m        0.2                           : Step increment
NULL               .         -9999                         : Missing value
COMP               .                                       : Company
WELL               .         101                           : Well name
FLD                .                                       : Field
LOC                .                                       : Location
CNTY               .                                       : County
STAT               .                                       : State
CTRY               .                                       : Country
SRVC               .                                       : Service Company
DATE               .                                       : Date
API                .                                       : API number
EREF               .m        137.7                         : 
Pad                .         1                             : 
X                  .m        229503                        : 
Y                  .m        240117                        : 
group              .         Pad1                          : 
Интер-р            .         Пузин                         : 
Куст               .         1                             : 
Статус             .         Не проверено                  : 
Тип                .         Разведка                      : 
~Parameter Information Block
#_______________________________________________________________________________
#
#PARAMETER_NAME    .UNIT     VALUE                         : DESCRIPTION
#_______________________________________________________________________________
SET                .         LAS1                          : 
REAL_CREATION_DATE .         Ср апр 11 2012-13_17_05       : 
TLFamily_DEPTH     .         Measured Depth                : 
TLFamily_KS        .         Potential Resistivity         : 
TLFamily_KS1       .         Extra Shallow Resistivity     : 
TLFamily_KS2       .         Shallow Resistivity           : 
TLFamily_KS3       .         Medium Resistivity            : 
TLFamily_KS4       .         Deep Resistivity              : 
TLFamily_KS5       .         Extra Deep Resistivity        : 
TLFamily_LLD       .         Lateral Log Resistivity       : 
TLFamily_OKS3      .         Medium Resistivity Inverted   : 
TLFamily_RM        .         Mud Resistivity               : 
TLFamily_SP        .         Spontaneous Potential         : 
group              .         INI                           : 
~Curve Information
#_______________________________________________________________________________
#
#LOGNAME           .UNIT     LOG_ID                        : DESCRIPTION
#_______________________________________________________________________________
DEPTH              .m                                      : 1 Depth 
KS                 .ohm.m                                  : 10 Normal Log Resistivity  N11.0M0.5A 
KS1                .ohm.m                                  : 3 Lateral Log Resistivity  A0.4M0.1N 
KS2                .ohm.m                                  : 4 Lateral Log Resistivity  A1.0M0.1N 
KS3                .ohm.m                                  : 5 Lateral Log Resistivity  A2.0M0.5N 
KS4                .ohm.m                                  : 6 Lateral Log Resistivity  A4.0M0.5N 
KS5                .ohm.m                                  : 7 Lateral Log Resistivity  A8.0M0.5N 
LLD                .ohm.m                                  : 2 Laterolog Shallow 
OKS3               .ohm.m                                  : 8 Lateral Log Resistivity (Inverse) 
RM                 .ohm.m                                  : 11 Mud Resistivity 
SP                 .mV                                     : 9 Spontaneous Potential 
~Ascii
# ...
2549.4     5.5057     2.6537     6.4413     7.603      5.19       4.1339     3.4361     10.2829    0.479      24.9938   
2549.6     5.5526     2.6915     6.4158     7.4808     5.1492     4.3221     3.3643     10.182     0.479      25.5612   
2549.8     5.6181     2.6345     6.3024     7.3084     5.1574     4.6566     3.2447     10.5132    0.485      28.4991   
2550       5.8295     2.5179     6.0902     7.1142     5.2775     5.1373     3.0914     11.2631    0.485      25.8134   
2550.2     6.18       2.2771     5.6557     6.9848     5.6135     5.781      3.259      12.0536    0.479      23.5831   
2550.4     6.6379     2.1894     5.614      7.1919     6.2877     6.5911     4.3001     12.7313    0.482      25.2073   
2550.6     7.094      2.3974     6.1326     7.9616     7.266      7.7087     6.4052     12.6864    0.481      25.8878   
2550.8     7.679      2.8378     7.0223     9.0837     8.6947     8.9305     6.5083     12.9942    0.48       24.0148   
2551       8.0556     2.7542     7.1297     10.4196    10.203     10.0137    6.4754     12.8654    0.484      23.2223   
2551.2     7.8307     3.7251     8.8462     12.2119    11.4356    10.4443    20.326     11.6477    0.488      25.706    
2551.4     7.4709     4.5028     11.0463    13.6757    11.6053    10.146     16.0693    9.9698     0.485      25.9119   
2551.6     6.9109     4.2989     11.8891    13.9225    10.7392    9.2238     4.8565     8.906      0.486      24.6485   
2551.8     6.3254     3.8256     10.769     12.9291    9.1648     8.0646     3.5257     8.2726     0.485      22.8377   
2552       5.9563     3.2981     9.9895     11.6995    7.8855     6.7067     3.2234     7.8846     0.481      25.2545   
2552.2     5.7219     3.0131     9.2915     10.7689    6.9702     5.6223     3.0935     7.7326     0.485      24.9459   
2552.4     5.6435     2.8204     8.452      10.1789    6.2307     4.7276     3.2076     7.78       0.49       22.8059   
2552.6     5.6061     2.6964     7.5774     9.9447     5.6923     4.1472     3.3342     7.9621     0.49       23.81     
2552.8     5.6061     2.701      7.1949     9.8948     5.3554     3.7793     3.4793     8.273      0.49       25.7578   
2553       5.59       2.7498     7.0213     10.1268    5.2456     3.5997     3.5554     8.721      0.489      24.2786   
2553.2     5.5526     2.7498     7.0171     10.3402    5.2536     3.4914     3.5164     8.891      0.485      22.9762   
2553.4     5.5634     2.7721     7.0409     10.5649    5.272      3.4057     3.6664     8.9715     0.485      23.9898   
2553.6     5.6061     2.8037     7.0235     10.3833    5.2544     3.3355     3.7205     8.9945     0.481      26.2319   
2553.8     5.6596     2.8037     7.0063     9.958      5.2547     3.2164     3.7367     8.9945     0.485      25.0762   
2554       5.6596     2.8207     6.9869     9.5978     5.3106     3.1174     3.8369     8.9891     0.485      22.7593   
2554.2     5.7047     2.8576     7.0506     9.2274     5.3665     3.0238     3.9352     8.9021     0.49       25.3734   
2554.4     5.7318     2.8134     6.9799     8.9144     5.4564     2.9392     3.7685     8.9438     0.488      25.2056   
2554.6     5.7965     2.8037     6.916      8.5966     5.5368     2.8314     3.7251     9.0528     0.485      23.1845   
2554.8     5.8355     2.8037     6.9718     8.4232     5.7418     2.7596     3.6853     9.1457     0.486      22.3478   
2555       6.0214     2.783      6.965      8.2593     6.0648     2.701      3.6688     9.2787     0.483      23.9692   
2555.2     6.0493     2.6733     6.7337     8.3363     6.5079     2.6434     3.9473     9.3645     0.483      25.3091   
2555.4     6.0208     3.2941     7.4102     8.7398     6.9564     2.585      6.3061     8.976      0.488      22.7798   
2555.6     6.0146     3.1423     7.9592     9.0175     7.0178     2.5275     4.3755     8.5692     0.48       23.5027   
2555.8     5.8394     3.0741     7.5045     8.7169     6.6422     2.4727     3.4285     8.4615     0.483      25.4845   
2556       5.7273     2.9911     7.4836     8.6        6.342      2.3499     3.5099     8.4679     0.48       25.9303   
2556.2     5.6625     2.874      7.3469     8.5235     6.011      2.2637     3.456      8.5248     0.479      23.2035   
2556.4     5.6356     2.846      7.2585     8.4037     5.7695     2.2214     3.4848     8.6424     0.479      24.8413   
2556.6     5.6061     2.7498     7.0427     8.3377     5.647      2.2084     3.5582     8.8506     0.474      26.2516   
2556.8     5.6531     2.7498     6.9571     8.2661     5.5614     2.2435     3.6166     9.1329     0.468      23.944    
2557       5.7349     2.6928     6.8904     8.2603     5.528      2.3269     3.5235     9.3888     0.464      23.4882   
2557.2     5.7764     2.6819     6.6682     8.3538     5.6219     2.5159     3.5068     9.7123     0.462      26.6641   
2557.4     5.8346     2.6959     6.6964     8.6717     5.9484     2.7525     3.6464     10.1342    0.467      26.1771   
2557.6     5.8918     2.6959     6.9603     9.0736     6.5425     3.0484     3.8338     10.7219    0.464      23.8035   
2557.8     5.9664     2.7678     7.4368     9.3021     7.1685     3.3105     4.1622     11.0389    0.461      23.9034   
2558       6.0907     2.9389     7.4002     9.4745     7.4415     3.5712     4.4009     11.0351    0.467      26.0719   
2558.2     6.2672     2.924      7.2807     9.5627     7.4642     3.8336     4.1244     10.8814    0.467      26.1235   
2558.4     6.3894     2.8593     7.1316     9.329      7.4642     4.0174     4.0327     10.9346    0.467      23.0619   
2558.6     6.5129     2.9162     7.3586     9.1949     7.4965     4.1688     4.3221     10.9666    0.473      25.9988   
2558.8     6.6875     2.9572     7.5051     9.3288     7.6237     4.4059     4.4729     10.8747    0.473      26.0341   
2559       6.7365     2.9461     7.6885     9.6472     7.7453     4.6915     4.9673     10.5556    0.473      23.9242   
2559.2     6.7461     3.2078     8.3234     9.8617     7.8218     5.0344     5.3279     10.0485    0.477      22.3326   
2559.4     6.6673     3.3312     8.6598     9.9084     7.673      5.2611     4.9649     9.5535     0.479      25.6563   
2559.6     6.5452     3.3294     8.6288     9.9593     7.4345     5.445      4.3844     9.2136     0.479      26.0198   
2559.8     6.3806     3.25       8.624      9.9084     7.1509     5.4924     4.2489     9.0268     0.483      23.8941   
2560       6.1899     3.2539     8.7393     9.9902     6.9537     5.4902     4.0588     8.8845     0.485      21.6783   
2560.2     6.1234     3.1285     8.5187     9.9471     6.6403     5.3848     3.7437     8.9347     0.49       27.9991   
2560.4     6.0876     2.9506     7.9514     9.7692     6.2372     5.2618     3.5503     9.2652     0.485      27.9331   
2560.6     6.048      2.8576     7.6955     9.6584     5.984      5.1404     3.8267     9.5316     0.487      25.1878   
2560.8     6.0381     2.9049     7.7295     9.8122     5.9034     5.1216     4.2864     9.6924     0.49       23.899    
2561       6.1411     2.9515     7.6679     9.9883     6.0283     5.1216     3.9862     9.8587     0.49       26.5576   
2561.2     6.0918     2.9274     7.4666     10.1869    6.1552     5.0853     4.045      10.0072    0.49       25.9016   
2561.4     6.11       3.1061     7.7625     10.3905    6.2435     5.0686     4.5672     10.0087    0.488      22.765    
2561.6     6.1411     2.9687     7.7996     10.471     6.3044     5.0252     4.1588     10.0331    0.489      24.1902   
2561.8     6.0961     3.0432     7.7784     10.1842    6.2598     4.9066     4.1123     9.9891     0.486      29.5132   
2562       6.1411     2.9852     7.6659     9.9536     6.3067     4.709      4.1317     10.0557    0.484      28.0456   
2562.2     6.1411     2.9654     7.6606     9.7194     6.3593     4.5439     4.0777     10.1378    0.485      22.9224   
2562.4     6.1544     2.9434     7.6167     9.475      6.3546     4.3815     4.1224     10.2696    0.48       24.2146   
2562.6     6.1946     2.9252     7.5412     9.2009     6.2629     4.2356     4.0828     10.4839    0.479      25.1742   
