~Version
 VERS              .         2.0                           : CWLS LOG ASCII STANDARD - VERSION 2.0
 WRAP              .         NO                            : ONE LINE PER DEPTH STEP
 DLM               .         SPACE                         : DELIMITING CHARACTER(SPACE TAB OR COMMA)
~Well Information
#_______________________________________________________________________________
#
#PARAMETER_NAME    .UNIT     VALUE                         : DESCRIPTION
#_______________________________________________________________________________
STRT               .m        2469                          : First reference value
STOP               .m        2690                          : Last reference value
STEP               .m        0.2                           : Step increment
NULL               .         -9999                         : Missing value
COMP               .                                       : Company
WELL               .         101                           : Well name
FLD                .                                       : Field
LOC                .                                       : Location
CNTY               .                                       : County
STAT               .                                       : State
CTRY               .                                       : Country
SRVC               .                                       : Service Company
DATE               .                                       : Date
API                .                                       : API number
EREF               .m        137.7                         : 
Pad                .         1                             : 
X                  .m        229503                        : 
Y                  .m        240117                        : 
group              .         Pad1                          : 
Интер-р            .         Пузин                         : 
Куст               .         1                             : 
Статус             .         Не проверено                  : 
Тип                .         Разведка                      : 
~Parameter Information Block
#_______________________________________________________________________________
#
#PARAMETER_NAME    .UNIT     VALUE                         : DESCRIPTION
#_______________________________________________________________________________
SET                .         LAS1                          : 
REAL_CREATION_DATE .         Ср апр 11 2012-13_17_05       : 
TLFamily_DEPTH     .         Measured Depth                : 
TLFamily_KS        .         Potential Resistivity         : 
TLFamily_KS1       .         Extra Shallow Resistivity     : 
TLFamily_KS2       .         Shallow Resistivity           : 
TLFamily_KS3       .         Medium Resistivity            : 
TLFamily_KS4       .         Deep Resistivity              : 
TLFamily_KS5       .         Extra Deep Resistivity        : 
TLFamily_LLD       .         Lateral Log Resistivity       : 
TLFamily_OKS3      .         Medium Resistivity Inverted   : 
TLFamily_RM        .         Mud Resistivity               : 
TLFamily_SP        .         Spontaneous Potential         : 
group              .         INI                           : 
~Curve Information
#_______________________________________________________________________________
#
#LOGNAME           .UNIT     LOG_ID                        : DESCRIPTION
#_______________________________________________________________________________
DEPTH              .m                                      : 1 Depth 
KS                 .ohm.m                                  : 10 Normal Log Resistivity  N11.0M0.5A 
KS1                .ohm.m                                  : 3 Lateral Log Resistivity  A0.4M0.1N 
KS2                .ohm.m                                  : 4 Lateral Log Resistivity  A1.0M0.1N 
KS3                .ohm.m                                  : 5 Lateral Log Resistivity  A2.0M0.5N 
KS4                .ohm.m                                  : 6 Lateral Log Resistivity  A4.0M0.5N 
KS5                .ohm.m                                  : 7 Lateral Log Resistivity  A8.0M0.5N 
LLD                .ohm.m                                  : 2 Laterolog Shallow 
OKS3               .ohm.m                                  : 8 Lateral Log Resistivity (Inverse) 
RM                 .ohm.m                                  : 11 Mud Resistivity 
SP                 .mV                                     : 9 Spontaneous Potential 
~Ascii
# ...
2616.4     4.93       2.45       5.5016     5.998      3.8219     3.04       2.3919     12.4326    0.472      28.6518   
2616.6     5.0871     2.2541     5.2911     6.037      4.058      3.1524     3.0398     14.5091    0.472      26.2539   
2616.8     5.0871     2.4195     5.7822     6.4672     4.3742     3.2518     4.9474     15.572     0.491      25.9514   
2617       5.1941     2.9186     6.7275     6.785      4.4089     3.2677     3.4824     15.4242    0.468      26.0965   
2617.2     5.2315     2.7929     6.1597     6.5455     4.0076     3.2585     2.7201     15.0482    0.456      26.3549   
2617.4     5.3057     2.6439     5.744      5.8586     3.6065     3.2148     2.6927     15.0255    0.455      23.8172   
2617.6     5.5396     2.2079     5.0516     5.2195     3.3395     3.3976     2.8422     14.9116    0.455      27.4506   
2617.8     5.9693     1.9361     4.6238     4.7961     3.5224     3.8943     2.6341     16.5064    0.455      25.048    
2618       6.4383     1.7368     4.32       4.8603     4.138      4.7418     4.089      18.8413    0.459      27.3967   
2618.2     7.182      1.8542     4.6993     5.5144     5.134      5.9023     5.5641     20.9675    0.463      23.733    
2618.4     8.297      1.9268     5.0701     6.5768     6.3663     7.2293     8.3226     21.8897    0.465      27.4866   
2618.6     9.319      2.322      5.9386     7.8994     7.6318     8.5029     12.0297    21.749     0.477      24.6552   
2618.8     10.3599    2.6275     6.6975     9.3396     8.787      9.7401     15.3356    20.8456    0.473      25.5358   
2619       11.123     2.9751     7.6577     11.1362    9.9697     10.7114    22.1489    19.7017    0.465      25.7042   
2619.2     11.418     3.6284     9.8874     13.2821    11.1466    11.4721    37.4278    18.2717    0.467      24.0581   
2619.4     11.1097    4.3572     12.2051    15.5435    12.143     11.4822    27.6521    16.4321    0.462      24.478    
2619.6     10.4088    5.0633     14.7535    17.2417    12.4434    10.7528    10.7533    14.5912    0.456      21.6621   
2619.8     9.5714     5.1038     15.782     17.739     11.8003    9.6006     6.2413     12.8068    0.456      24.8789   
2620       8.8526     4.6822     15.3057    16.8809    10.407     8.1562     5.0058     11.4459    0.454      22.7884   
2620.2     8.3329     3.8972     13.3577    15.7678    8.9718     6.6464     4.8777     10.6362    0.454      24.3309   
2620.4     7.9448     3.5173     12.1882    15.4282    7.8755     5.2954     4.8835     10.2477    0.456      22.8745   
2620.6     7.6491     3.3213     11.0796    15.4574    7.1769     4.2566     5.0147     10.2185    0.461      25.5592   
2620.8     7.4753     3.1674     10.058     15.4763    6.6685     3.5374     5.0318     10.1698    0.463      23.4892   
2621       7.3717     3.0413     9.0511     15.2406    6.3311     3.003      5.255      10.309     0.463      25.1367   
2621.2     7.3182     3.0192     8.5215     14.8626    6.1225     2.5931     5.421      10.5377    0.467      25.3735   
2621.4     7.3182     3.0189     8.3253     14.6033    5.9831     2.3202     5.5016     10.8077    0.467      22.9879   
2621.6     7.3204     2.9753     8.0519     14.1987    5.8161     2.1044     5.799      11.0409    0.467      24.2137   
2621.8     7.3717     2.9471     7.771      13.3458    5.6046     1.9074     6.2337     11.4209    0.468      22.4758   
2622       7.3717     2.9139     7.5623     12.9473    5.5806     1.7818     6.9504     11.5562    0.478      22.0958   
2622.2     7.3687     3.0571     7.8663     12.3717    5.6378     1.6878     6.3248     11.5194    0.476      23.5049   
2622.4     7.3022     3.1111     7.7877     11.8661    5.9625     1.6257     5.8484     11.3695    0.463      21.3135   
2622.6     7.2399     3.0624     7.7716     11.2964    6.4389     1.6257     5.9134     11.0755    0.456      25.5439   
2622.8     7.2273     2.9853     7.6731     10.7571    6.9851     1.6776     5.9928     10.7757    0.449      22.4037   
2623       7.2808     2.7929     7.3634     10.397     7.6526     1.8224     6.0432     10.6933    0.449      25.3552   
2623.2     7.3394     2.7691     7.3617     10.3602    8.5807     2.1238     6.3192     11.0804    0.449      23.7483   
2623.4     7.3981     2.7946     7.3871     10.7987    9.9457     2.5399     6.3847     11.6154    0.448      26.3601   
2623.6     7.5621     2.8384     7.6254     11.5236    11.9124    3.1553     6.7738     12.4001    0.456      24.5474   
2623.8     7.7382     2.8766     7.7713     12.6225    14.5498    4.0035     7.0663     13.4395    0.47       23.9886   
2624       8.0186     2.8145     7.9497     14.0694    18.0129    4.9758     9.8936     14.7513    0.467      24.2864   
2624.2     8.2562     2.8658     8.4815     15.7874    22.131     5.881      16.022     15.3107    0.457      23.7568   
2624.4     8.3831     3.2674     9.8146     17.5935    25.5685    6.6472     15.1881    14.9281    0.462      23.881    
2624.6     8.1148     3.7997     10.8374    19.1414    27.5457    7.0152     7.9596     13.6765    0.445      24.9883   
2624.8     7.5861     4.5166     12.5223    19.3243    27.2895    6.8464     4.7388     12.2246    0.443      26.7277   
2625       7.0993     4.2207     12.0677    18.1358    24.2425    6.295      4.334      10.857     0.46       24.6414   
2625.2     6.6631     3.709      10.986     15.7179    17.8415    5.6198     4.3817     9.7646     0.466      27.481    
2625.4     6.3656     3.3029     10.2091    13.6808    14.7664    4.761      4.5903     9.046      0.472      24.3422   
2625.6     6.1786     3.127      9.6087     12.4978    12.3576    4.0704     4.5116     8.4982     0.473      26.5288   
2625.8     6.0843     3.0524     8.9371     11.8411    10.6242    3.5125     4.3289     8.0752     0.473      24.5329   
2626       6.0181     2.9983     8.2396     11.3854    9.3086     3.0897     4.2934     7.8752     0.472      26.2372   
2626.2     5.9546     2.9654     7.8348     11.1373    8.2735     2.8084     4.337      7.8752     0.462      25.5214   
2626.4     5.8736     2.9446     7.5955     11.08      7.4507     2.5989     4.3291     7.8752     0.454      25.1043   
2626.6     5.8736     2.8663     7.4947     11.0529    6.7561     2.4361     4.3521     7.8752     0.449      27.5894   
2626.8     5.8984     2.8553     7.31       10.8511    6.2962     2.4573     4.5881     7.9089     0.449      27.5746   
2627       5.9806     2.784      7.0708     10.4429    5.9196     2.525      4.8343     7.718      0.447      28.3401   
2627.2     5.9789     2.7635     6.9854     10.2066    5.77       2.6298     4.4354     7.5765     0.448      29.0515   
2627.4     5.9031     3.0085     7.4363     10.0551    5.7232     2.7751     4.2956     7.4488     0.471      27.3423   
2627.6     5.8201     2.9636     7.2781     9.7466     5.5488     2.8811     4.1377     7.4193     0.468      26.8581   
2627.8     5.8089     2.8468     7.1384     9.3172     5.4649     2.9381     4.3142     7.3848     0.467      27.2192   
2628       5.8201     2.8037     7.054      8.8897     5.4773     2.9499     4.194      7.3029     0.463      26.1561   
2628.2     5.8413     2.6869     6.6649     8.5885     5.6585     2.9499     4.5675     7.4409     0.453      27.5154   
2628.4     5.804      2.7558     6.8201     8.4173     6.0665     2.8897     4.1659     7.5365     0.451      25.8414   
2628.6     5.7666     2.9007     7.0221     8.3863     6.3966     2.804      4.057      7.8362     0.447      30.0988   
2628.8     5.7666     2.8202     6.7511     8.2094     6.4645     2.6939     4.1873     8.412      0.45       26.6985   
2629       5.7666     2.7366     6.6015     7.9806     6.475      2.5844     4.252      9.0582     0.455      29.871    
2629.2     5.7666     2.7498     6.6404     7.938      6.5348     2.4361     4.3797     9.7198     0.455      27.4478   
2629.4     5.7505     2.7867     6.6768     7.9196     6.5066     2.3231     4.4078     10.3881    0.459      28.5939   
2629.6     5.6555     2.7821     6.6643     7.8209     6.3583     2.2243     3.7278     11.2654    0.457      26.3112   
