~Version
 VERS              .         2.0                           : CWLS LOG ASCII STANDARD - VERSION 2.0
 WRAP              .         NO                            : ONE LINE PER DEPTH STEP
 DLM               .         SPACE                         : DELIMITING CHARACTER(SPACE TAB OR COMMA)
~Well Information
#_______________________________________________________________________________
#
#PARAMETER_NAME    .UNIT     VALUE                         : DESCRIPTION
#_______________________________________________________________________________
STRT               .m        2469                          : First reference value
STOP               .m        2690                          : Last reference value
STEP               .m        0.2                           : Step increment
NULL               .         -9999                         : Missing value
COMP               .                                       : Company
WELL               .         101                           : Well name
FLD                .                                       : Field
LOC                .                                       : Location
CNTY               .                                       : County
STAT               .                                       : State
CTRY               .                                       : Country
SRVC               .                                       : Service Company
DATE               .                                       : Date
API                .                                       : API number
EREF               .m        137.7                         : 
Pad                .         1                             : 
X                  .m        229503                        : 
Y                  .m        240117                        : 
group              .         Pad1                          : 
Интер-р            .         Пузин                         : 
Куст               .         1                             : 
Статус             .         Не проверено                  : 
Тип                .         Разведка                      : 
~Parameter Information Block
#_______________________________________________________________________________
#
#PARAMETER_NAME    .UNIT     VALUE                         : DESCRIPTION
#_______________________________________________________________________________
SET                .         LAS1                          : 
REAL_CREATION_DATE .         Ср апр 11 2012-13_17_05       : 
TLFamily_DEPTH     .         Measured Depth                : 
TLFamily_KS        .         Potential Resistivity         : 
TLFamily_KS1       .         Extra Shallow Resistivity     : 
TLFamily_KS2       .         Shallow Resistivity           : 
TLFamily_KS3       .         Medium Resistivity            : 
TLFamily_KS4       .         Deep Resistivity              : 
TLFamily_KS5       .         Extra Deep Resistivity        : 
TLFamily_LLD       .         Lateral Log Resistivity       : 
TLFamily_OKS3      .         Medium Resistivity Inverted   : 
TLFamily_RM        .         Mud Resistivity               : 
TLFamily_SP        .         Spontaneous Potential         : 
group              .         INI                           : 
~Curve Information
#_______________________________________________________________________________
#
#LOGNAME           .UNIT     LOG_ID                        : DESCRIPTION
#_______________________________________________________________________________
DEPTH              .m                                      : 1 Depth 
KS                 .ohm.m                                  : 10 Normal Log Resistivity  N11.0M0.5A 
KS1                .ohm.m                                  : 3 Lateral Log Resistivity  A0.4M0.1N 
KS2                .ohm.m                                  : 4 Lateral Log Resistivity  A1.0M0.1N 
KS3                .ohm.m                                  : 5 Lateral Log Resistivity  A2.0M0.5N 
KS4                .ohm.m                                  : 6 Lateral Log Resistivity  A4.0M0.5N 
KS5                .ohm.m                                  : 7 Lateral Log Resistivity  A8.0M0.5N 
LLD                .ohm.m                                  : 2 Laterolog Shallow 
OKS3               .ohm.m                                  : 8 Lateral Log Resistivity (Inverse) 
RM                 .ohm.m                                  : 11 Mud Resistivity 
SP                 .mV                                     : 9 Spontaneous Potential 
~Ascii
# ...
2522.6     6.027      2.8293     6.8404     9.5738     9.2472     5.4924     5.4293     9.3035     0.463      31.5705   
2522.8     5.9304     3.1094     7.2842     9.7676     9.0282     5.3232     4.785      8.9068     0.455      31.7336   
2523       5.7724     3.0921     7.193      9.5024     8.5619     5.0571     3.9652     8.8879     0.457      33.42     
2523.2     5.7191     2.8817     7.0867     8.8761     7.78       4.8169     3.759      9.0149     0.466      29.8563   
2523.4     5.8021     2.638      6.8605     8.4246     7.298      4.6546     3.7474     9.471      0.471      29.272    
2523.6     5.8809     2.5882     6.7466     8.2668     7.1025     4.6296     4.2043     9.8443     0.475      31.8917   
2523.8     5.9806     2.6432     6.7815     8.4045     7.2535     4.6909     4.7255     10.162     0.462      32.1583   
2524       5.9806     2.8207     7.0977     8.782      7.5632     4.8556     4.7027     10.4775    0.457      28.3366   
2524.2     5.923      2.9115     7.2663     9.1624     7.9201     5.017      4.4858     10.7377    0.461      27.6186   
2524.4     5.8703     2.9115     7.3953     9.5077     8.1252     5.1626     4.2952     10.941     0.461      29.5593   
2524.6     5.8201     2.8857     7.4587     9.7376     8.1481     5.2275     3.939      11.33      0.467      28.79     
2524.8     5.8345     2.7778     7.3047     9.653      8.1198     5.2744     3.8689     11.9003    0.472      25.7659   
2525       5.9488     2.6564     7.0248     9.4103     7.9368     5.3176     3.9211     12.3779    0.465      27.0183   
2525.2     6.0829     2.6038     6.9297     9.192      7.8114     5.3735     4.4524     12.5657    0.467      28.6285   
2525.4     6.2637     2.7238     7.0544     9.0698     7.6113     5.4313     4.6876     12.5725    0.477      27.899    
2525.6     6.4595     2.6999     6.822      8.9388     7.3758     5.5641     4.4603     12.7399    0.478      26.2948   
2525.8     6.7479     2.6408     6.7534     8.7953     7.2144     5.766      4.4391     13.111     0.479      28.0306   
2526       7.0053     2.5795     6.7441     8.9762     7.3675     6.0727     5.1305     13.1372    0.475      29.8214   
2526.2     7.1721     2.8269     7.4184     9.4905     7.6606     6.3127     8.1819     12.5023    0.476      28.1726   
2526.4     7.2647     3.2828     8.4721     10.1618    7.8942     6.4401     8.5719     11.526     0.479      26.3519   
2526.6     7.2159     3.3659     8.6124     10.293     7.8015     6.4987     5.6595     10.8318    0.48       29.1172   
2526.8     7.0936     3.1917     8.285      10.0291    7.4117     6.4172     4.8872     10.4473    0.479      30.0648   
2527       6.9519     3.0322     8.3661     10.0458    7.2439     6.258      4.8693     10.5131    0.475      27.1714   
2527.2     6.8439     3.0339     8.7676     10.356     7.2537     6.0739     5.0504     10.7528    0.477      28.3945   
2527.4     6.7365     3.0192     8.7645     10.7397    7.2537     5.9904     5.155      10.9133    0.477      30.5724   
2527.6     6.7297     2.9834     8.5976     10.9937    7.2098     5.9095     5.1939     10.9031    0.476      30.3778   
2527.8     6.7297     2.9654     8.3712     11.1551    7.1985     5.8031     5.0236     10.894     0.469      29.8424   
2528       6.7426     2.9354     8.1168     11.2296    7.1485     5.6816     5.129      10.8195    0.475      30.0018   
2528.2     6.781      2.9046     7.9456     11.4175    7.199      5.6513     5.3831     10.743     0.467      30.9375   
2528.4     6.6954     2.9884     8.0868     11.8134    7.3884     5.6365     5.4094     10.8902    0.463      27.9917   
2528.6     6.6108     3.1222     8.4455     12.0461    7.6051     5.5983     5.4597     11.1068    0.473      27.6023   
2528.8     6.5692     3.0365     8.2666     12.0126    7.7178     5.5612     5.0693     10.8659    0.47       28.8894   
2529       6.5514     3.0079     8.1463     11.5781    7.6746     5.5338     4.8047     10.5583    0.467      29.9002   
2529.2     6.5692     2.8914     7.8581     11.0799    7.6474     5.3375     4.9077     10.2529    0.467      26.4723   
2529.4     6.5852     2.8576     7.7434     10.7027    7.622      5.187      5.2052     10.0911    0.461      27.298    
2529.6     6.6227     2.8578     7.6619     10.6027    7.697      5.1056     5.2834     9.9047     0.461      30.359    
2529.8     6.5919     2.9144     7.7595     10.6836    7.9369     5.0686     5.2575     10.0363    0.461      33.4806   
2530       6.5132     2.9654     7.8902     10.7983    8.1807     5.0177     4.9461     10.3926    0.461      28.6635   
2530.2     6.5364     2.9561     7.9761     10.7375    8.356      5.0556     4.659      10.8665    0.458      29.189    
2530.4     6.6611     2.7518     7.7672     10.4964    8.4367     5.139      4.3505     11.324     0.463      32.5657   
2530.6     6.7845     2.5992     7.2603     10.4114    8.5659     5.2621     4.8276     11.2263    0.459      30.4279   
2530.8     6.8733     2.8168     7.9655     10.9278    8.9229     5.3201     7.5908     10.7199    0.467      29.0881   
2531       6.7323     3.2222     9.0486     11.6806    9.3725     5.3996     8.4364     9.8582     0.467      30.9327   
2531.2     6.5411     3.5116     8.951      11.8981    9.2256     5.3568     5.3321     9.7681     0.464      33.0613   
2531.4     6.3726     3.251      8.3409     11.4388    8.5481     5.287      4.0402     9.8191     0.464      30.9269   
2531.6     6.2581     2.8563     8.1943     10.7154    8.2908     5.1652     4.3429     10.142     0.452      30.2936   
2531.8     6.3016     2.9711     8.2348     10.3312    8.1814     5.1216     4.3942     10.477     0.473      32.5916   
2532       6.3991     2.6735     7.4277     10.0703    8.1549     5.1797     4.2045     10.9593    0.457      33.3553   
2532.2     6.6475     2.6309     7.1103     9.7429     8.1222     5.3773     4.3935     11.5419    0.466      30.9309   
2532.4     6.7832     2.7358     7.3927     9.9892     8.5215     5.5315     5.6249     11.5967    0.473      31.4912   
2532.6     6.7832     3.0865     8.3121     10.5857    8.9471     5.6355     8.3826     10.97      0.472      36.6844   
2532.8     6.7149     3.5822     8.6977     11.2132    9.052      5.7042     7.0445     10.149     0.469      35.4164   
2533       6.4769     3.3657     8.3613     11.3823    8.9143     5.6775     4.8625     9.5026     0.472      30.1904   
2533.2     6.3379     3.2857     8.3669     10.8283    8.5029     5.6121     4.6312     9.2712     0.473      30.7778   
2533.4     6.2215     2.9553     7.9127     10.2294    8.2045     5.5453     3.9834     9.3199     0.47       31.8909   
2533.6     6.2058     2.8531     7.9382     9.9901     8.0401     5.5453     4.5094     9.3867     0.469      29.9696   
2533.8     6.2481     2.8037     7.7354     9.9526     7.979      5.5814     4.4651     9.2735     0.461      29.654    
2534       6.3845     2.7573     7.4638     9.7885     7.8362     5.661      4.4671     9.2091     0.463      30.4679   
2534.2     6.558      2.6741     7.1082     9.7815     7.782      5.7692     4.3893     9.2667     0.46       32.9424   
2534.4     6.6669     2.6135     7.086      10.0193    7.9015     5.9421     4.9569     9.305      0.464      30.8353   
2534.6     6.673      2.9724     7.9978     10.7528    8.2392     6.0698     7.2545     9.1078     0.475      29.6315   
2534.8     6.5472     3.4223     8.7649     11.6604    8.6335     6.1716     6.9996     8.6288     0.477      31.0234   
2535       6.2382     3.5303     8.9221     11.8529    8.764      6.1011     5.4013     8.1217     0.48       33.3855   
2535.2     5.8832     3.5484     9.0094     11.3442    8.3137     5.9345     4.5176     7.6932     0.482      30.5784   
2535.4     5.6065     3.2595     8.1851     10.6193    7.6773     5.6437     3.5611     7.5118     0.471      29.3637   
2535.6     5.3508     2.981      8.0996     9.8413     7.2472     5.3716     3.4201     7.5146     0.483      33.0861   
2535.8     5.2153     2.776      7.4434     9.5803     7.0969     5.1773     3.2468     7.9087     0.479      32.5623   
