~Version
 VERS              .         2.0                           : CWLS LOG ASCII STANDARD - VERSION 2.0
 WRAP              .         NO                            : ONE LINE PER DEPTH STEP
 DLM               .         SPACE                         : DELIMITING CHARACTER(SPACE TAB OR COMMA)
~Well Information
#_______________________________________________________________________________
#
#PARAMETER_NAME    .UNIT     VALUE                         : DESCRIPTION
#_______________________________________________________________________________
STRT               .m        2469                          : First reference value
STOP               .m        2690                          : Last reference value
STEP               .m        0.2                           : Step increment
NULL               .         -9999                         : Missing value
COMP               .                                       : Company
WELL               .         101                           : Well name
FLD                .                                       : Field
LOC                .                                       : Location
CNTY               .                                       : County
STAT               .                                       : State
CTRY               .                                       : Country
SRVC               .                                       : Service Company
DATE               .                                       : Date
API                .                                       : API number
EREF               .m        137.7                         : 
Pad                .         1                             : 
X                  .m        229503                        : 
Y                  .m        240117                        : 
group              .         Pad1                          : 
Интер-р            .         Пузин                         : 
Куст               .         1                             : 
Статус             .         Не проверено                  : 
Тип                .         Разведка                      : 
~Parameter Information Block
#_______________________________________________________________________________
#
#PARAMETER_NAME    .UNIT     VALUE                         : DESCRIPTION
#_______________________________________________________________________________
SET                .         LAS1                          : 
REAL_CREATION_DATE .         Ср апр 11 2012-13_17_05       : 
TLFamily_DEPTH     .         Measured Depth                : 
TLFamily_KS        .         Potential Resistivity         : 
TLFamily_KS1       .         Extra Shallow Resistivity     : 
TLFamily_KS2       .         Shallow Resistivity           : 
TLFamily_KS3       .         Medium Resistivity            : 
TLFamily_KS4       .         Deep Resistivity              : 
TLFamily_KS5       .         Extra Deep Resistivity        : 
TLFamily_LLD       .         Lateral Log Resistivity       : 
TLFamily_OKS3      .         Medium Resistivity Inverted   : 
TLFamily_RM        .         Mud Resistivity               : 
TLFamily_SP        .         Spontaneous Potential         : 
group              .         INI                           : 
~Curve Information
#_______________________________________________________________________________
#
#LOGNAME           .UNIT     LOG_ID                        : DESCRIPTION
#_______________________________________________________________________________
DEPTH              .m                                      : 1 Depth 
KS                 .ohm.m                                  : 10 Normal Log Resistivity  N11.0M0.5A 
KS1                .ohm.m                                  : 3 Lateral Log Resistivity  A0.4M0.1N 
KS2                .ohm.m                                  : 4 Lateral Log Resistivity  A1.0M0.1N 
KS3                .ohm.m                                  : 5 Lateral Log Resistivity  A2.0M0.5N 
KS4                .ohm.m                                  : 6 Lateral Log Resistivity  A4.0M0.5N 
KS5                .ohm.m                                  : 7 Lateral Log Resistivity  A8.0M0.5N 
LLD                .ohm.m                                  : 2 Laterolog Shallow 
OKS3               .ohm.m                                  : 8 Lateral Log Resistivity (Inverse) 
RM                 .ohm.m                                  : 11 Mud Resistivity 
SP                 .mV                                     : 9 Spontaneous Potential 
~Ascii
# ...
2495.8     8.884      2.6186     7.2788     11.1352    4.963      3.248      5.7401     21.7465    0.485      22.4913   
2496       9.7608     2.3682     6.786      11.2114    5.2854     3.4697     6.3178     22.9276    0.485      25.3372   
2496.2     10.8707    2.4682     7.1958     11.3682    5.7761     3.7447     10.3555    22.6817    0.482      23.9435   
2496.4     12.1394    2.5716     7.3078     12.0639    6.4072     4.0252     14.7554    20.9585    0.485      21.9384   
2496.6     12.984     3.1871     8.8084     13.335     7.3253     4.27       45.5829    18.4908    0.485      23.1379   
2496.8     13.3877    3.9098     10.8361    15.4216    8.6425     4.4824     93.1696    15.814     0.485      23.6969   
2497       13.033     4.6981     13.3903    17.9411    10.3128    4.687      101.0048   13.5149    0.487      21.7164   
2497.2     11.9261    5.454      16.7067    20.7066    12.1167    4.7508     62.1758    11.679     0.49       23.919    
2497.4     10.6473    5.9697     18.9888    22.2142    13.1397    4.6741     16.505     10.893     0.486      24.9737   
2497.6     9.5947     5.1893     17.6482    21.7074    13.1058    4.552      6.6829     11.2393    0.482      24.2608   
2497.8     8.8054     4.3307     15.7427    20.3614    12.8041    4.3723     5.5994     12.2886    0.486      22.9077   
2498       8.343      3.7617     13.975     19.6392    12.6729    4.2009     5.6207     13.4274    0.49       24.9277   
2498.2     8.0923     3.4217     12.5285    19.7378    12.6181    4.1172     6.2109     13.9464    0.489      26.7236   
2498.4     7.9891     3.4389     11.736     20.3872    12.4371    4.0753     7.4431     13.9781    0.481      25.7087   
2498.6     7.9234     3.3468     10.6493    20.5984    12.1086    4.0375     7.0205     13.765     0.479      26.2549   
2498.8     7.8907     3.4158     10.2271    20.2674    11.6756    3.9212     7.1335     13.5156    0.479      27.1597   
2499       7.8755     3.2838     9.6035     19.2902    11.1353    3.7327     6.9109     13.2054    0.479      28.6369   
2499.2     7.8723     3.2313     9.2301     17.7989    10.5853    3.4989     7.002      12.7788    0.479      23.6971   
2499.4     7.8533     3.2057     9.1582     16.3149    10.3216    3.335      7.069      12.5666    0.479      24.0146   
2499.6     7.8309     3.1809     9.0201     15.0281    10.2111    3.253      7.0129     12.5382    0.473      25.3085   
2499.8     7.7904     3.1809     9.0609     13.9963    10.3048    3.2408     7.108      12.7086    0.473      26.6016   
2500       7.7031     3.1809     9.068      13.4294    10.5929    3.2677     7.0999     12.9775    0.48       24.9613   
2500.2     7.6195     3.1903     9.1606     13.3765    11.1059    3.3068     6.92       13.5395    0.485      24.5374   
2500.4     7.5032     3.3172     9.4425     13.4684    11.6816    3.3645     6.8305     14.373     0.48       28.3514   
2500.6     7.4788     3.1809     9.0838     13.499     11.8837    3.4226     6.4664     15.2983    0.479      28.7043   
2500.8     7.4981     3.1321     8.9338     13.1956    11.7757    3.4884     6.2389     15.9897    0.481      25.5951   
2501       7.594      2.9477     8.3286     12.9337    11.5871    3.5959     6.1362     16.6037    0.471      29.2733   
2501.2     7.6947     2.9605     8.4685     12.7596    11.3821    3.7483     6.5187     17.7975    0.471      29.933    
2501.4     7.7526     3.0015     8.4106     12.9241    11.3095    3.9355     6.8036     19.4355    0.487      27.6023   
2501.6     7.9186     3.0831     8.6803     12.7662    10.8908    4.1391     7.0109     21.2981    0.488      26.7158   
2501.8     8.0773     3.0529     8.4782     12.6397    10.4506    4.3709     7.2386     22.8702    0.48       29.1301   
2502       8.3401     3.1318     8.6494     12.2659    9.9545     4.6129     8.5507     23.1878    0.48       29.811    
2502.2     8.6113     3.0947     8.3285     11.9729    9.6544     4.8556     6.9749     24.0636    0.472      29.024    
2502.4     8.9195     3.095      8.379      11.4719    9.5161     5.0998     6.3367     25.0331    0.481      27.9687   
2502.6     9.2885     2.738      7.7099     11.271     9.58       5.4347     7.5982     24.6207    0.478      31.1015   
2502.8     9.747      2.8677     8.3147     11.6948    10.1235    5.7005     11.2674    22.099     0.476      31.4786   
2503       10.1228    3.2536     9.342      12.5604    10.7326    5.9951     13.397     19.9326    0.478      30.2785   
2503.2     10.6721    3.4717     9.5797     12.9033    10.9224    6.3024     8.6156     19.4182    0.482      29.2804   
2503.4     11.3903    2.8791     8.3612     12.4046    10.7287    6.5924     7.3274     20.0348    0.479      31.0416   
2503.6     12.2795    2.5695     7.9218     12.3249    10.8696    6.8536     15.64      19.7813    0.481      31.5123   
2503.8     13.3147    2.8905     8.972      13.5829    11.6038    7.1842     42.8566    17.9568    0.485      30.3812   
2504       14.0887    3.4466     10.6567    15.809     12.8122    7.6487     81.8074    15.5553    0.48       30.9028   
2504.2     14.2637    4.1721     12.5823    18.6591    14.3215    8.1512     105.6716   13.3564    0.482      31.8233   
2504.4     13.5589    4.9728     14.962     21.6786    15.9893    8.7193     95.146     11.5218    0.485      30.6467   
2504.6     12.0745    5.7706     17.8697    25.0001    17.6368    9.0627     56.3674    9.9746     0.485      30.1439   
2504.8     10.236     6.3775     20.993     28.6236    18.6382    9.033      22.7896    8.698      0.482      32.6453   
2505       8.841      6.162      22.1928    29.5789    17.9922    8.7273     7.3208     8.1775     0.485      33.5685   
2505.2     7.7835     4.7374     17.7596    26.8068    15.8694    8.1127     4.3675     8.4857     0.485      31.3192   
2505.4     7.157      3.7113     13.994     22.6552    13.5384    7.2686     4.2496     9.2217     0.482      29.9648   
2505.6     6.8447     3.1327     11.5718    20.2342    12.2385    6.6055     4.5781     10.0776    0.479      30.8174   
2505.8     6.7832     2.8392     9.7911     19.2059    11.7419    6.3045     5.0488     10.7103    0.478      32.4918   
2506       6.7832     2.8152     8.9309     18.8217    11.7959    6.1937     6.065      11.2052    0.483      29.6181   
2506.2     6.7832     2.9678     8.512      18.5383    12.0561    6.1809     6.1302     11.4051    0.472      28.3633   
2506.4     6.8247     3.0136     8.1455     17.6318    12.0023    6.2636     5.8747     11.6974    0.479      29.6441   
2506.6     6.8898     2.9654     7.9835     16.4226    11.9466    6.2955     5.9426     11.9301    0.477      29.6158   
2506.8     6.8976     2.9242     7.8884     15.2227    12.0654    6.3832     6.4151     11.9839    0.478      28.5435   
2507       6.9437     3.0242     8.1026     14.227     12.3127    6.4412     6.1942     12.1279    0.473      30.0943   
2507.2     6.9437     3.0731     8.2227     13.2442    12.4414    6.4987     5.7764     12.3588    0.473      30.7391   
2507.4     6.9514     3.0107     8.1217     12.3712    12.34      6.4987     5.973      12.4736    0.473      29.0433   
2507.6     7.0099     2.9948     8.1956     11.6898    12.2298    6.4509     6.0675     12.421     0.473      26.6997   
2507.8     7.0668     2.9654     8.1179     11.2903    12.252     6.3491     6.1484     12.2977    0.479      28.9207   
2508       7.1107     3.0167     8.1284     11.1332    12.2926    6.2279     6.1458     12.243     0.479      30.0596   
2508.2     7.1577     3.0192     8.1515     11.1277    12.1391    6.1078     6.0316     12.1868    0.479      28.5533   
2508.4     7.1581     3.0192     8.2074     11.08      11.7588    5.987      6.1793     12.0575    0.479      25.647    
2508.6     7.2166     3.0192     8.2227     11.08      11.2631    5.9291     6.2139     11.7296    0.482      28.4056   
2508.8     7.2647     3.0192     8.2227     11.0849    10.7458    5.9161     6.1691     11.6132    0.485      29.9378   
2509       7.2499     3.026      8.264      11.1898    10.4062    5.9161     6.1063     11.6696    0.49       27.0821   
