~Version
 VERS              .         2.0                           : CWLS LOG ASCII STANDARD - VERSION 2.0
 WRAP              .         NO                            : ONE LINE PER DEPTH STEP
 DLM               .         SPACE                         : DELIMITING CHARACTER(SPACE TAB OR COMMA)
~Well Information
#_______________________________________________________________________________
#
#PARAMETER_NAME    .UNIT     VALUE                         : DESCRIPTION
#_______________________________________________________________________________
STRT               .m        2469                          : First reference value
STOP               .m        2690                          : Last reference value
STEP               .m        0.2                           : Step increment
NULL               .         -9999                         : Missing value
COMP               .                                       : Company
WELL               .         101                           : Well name
FLD                .                                       : Field
LOC                .                                       : Location
CNTY               .                                       : County
STAT               .                                       : State
CTRY               .                                       : Country
SRVC               .                                       : Service Company
DATE               .                                       : Date
API                .                                       : API number
EREF               .m        137.7                         : 
Pad                .         1                             : 
X                  .m        229503                        : 
Y                  .m        240117                        : 
group              .         Pad1                          : 
Интер-р            .         Пузин                         : 
Куст               .         1                             : 
Статус             .         Не проверено                  : 
Тип                .         Разведка                      : 
~Parameter Information Block
#_______________________________________________________________________________
#
#PARAMETER_NAME    .UNIT     VALUE                         : DESCRIPTION
#_______________________________________________________________________________
SET                .         LAS1                          : 
REAL_CREATION_DATE .         Ср апр 11 2012-13_17_05       : 
TLFamily_DEPTH     .         Measured Depth                : 
TLFamily_KS        .         Potential Resistivity         : 
TLFamily_KS1       .         Extra Shallow Resistivity     : 
TLFamily_KS2       .         Shallow Resistivity           : 
TLFamily_KS3       .         Medium Resistivity            : 
TLFamily_KS4       .         Deep Resistivity              : 
TLFamily_KS5       .         Extra Deep Resistivity        : 
TLFamily_LLD       .         Lateral Log Resistivity       : 
TLFamily_OKS3      .         Medium Resistivity Inverted   : 
TLFamily_RM        .         Mud Resistivity               : 
TLFamily_SP        .         Spontaneous Potential         : 
group              .         INI                           : 
~Curve Information
#_______________________________________________________________________________
#
#LOGNAME           .UNIT     LOG_ID                        : DESCRIPTION
#_______________________________________________________________________________
DEPTH              .m                                      : 1 Depth 
KS                 .ohm.m                                  : 10 Normal Log Resistivity  N11.0M0.5A 
KS1                .ohm.m                                  : 3 Lateral Log Resistivity  A0.4M0.1N 
KS2                .ohm.m                                  : 4 Lateral Log Resistivity  A1.0M0.1N 
KS3                .ohm.m                                  : 5 Lateral Log Resistivity  A2.0M0.5N 
KS4                .ohm.m                                  : 6 Lateral Log Resistivity  A4.0M0.5N 
KS5                .ohm.m                                  : 7 Lateral Log Resistivity  A8.0M0.5N 
LLD                .ohm.m                                  : 2 Laterolog Shallow 
OKS3               .ohm.m                                  : 8 Lateral Log Resistivity (Inverse) 
RM                 .ohm.m                                  : 11 Mud Resistivity 
SP                 .mV                                     : 9 Spontaneous Potential 
~Ascii
# ...
2629.8     5.59       2.898      6.7892     7.687      6.0609     2.2084     3.5521     12.4609    0.467      26.1401   
2630       5.5526     2.7368     6.4513     7.3651     5.7374     2.2595     3.4889     14.5736    0.472      27.5332   
2630.2     5.6099     2.5045     6.0061     6.9336     5.4465     2.3981     3.8519     17.0071    0.473      25.9194   
2630.4     5.7067     2.4778     5.9013     6.6361     5.4251     2.6521     4.0997     20.1001    0.473      26.8193   
2630.6     5.9548     2.3759     5.6654     6.546      5.5851     3.2125     4.0396     23.0344    0.473      26.9599   
2630.8     6.3425     2.4126     5.4383     6.4232     5.8942     4.0289     4.3502     26.4378    0.472      29.668    
2631       6.8524     2.2405     5.0912     6.4183     6.5428     4.863      6.0112     29.8564    0.46       26.8136   
2631.2     7.9731     2.1388     4.9202     6.7608     7.7078     5.802      8.6869     32.4898    0.455      29.6264   
2631.4     9.2438     2.286      5.4096     7.1627     8.8162     7.0301     12.0388    33.2699    0.441      25.7344   
2631.6     10.3818    2.4309     5.4479     7.8307     9.7698     8.6403     13.1065    32.2258    0.457      28.5593   
2631.8     11.2084    2.742      6.3804     8.7643     10.9925    10.4273    10.9351    31.443     0.454      24.3356   
2632       12.2138    3.0959     7.8365     9.7178     12.6065    12.1209    15.2416    32.3783    0.467      26.0459   
2632.2     13.2788    2.7042     7.7735     10.4317    14.0287    14.0056    54.0585    32.571     0.462      24.1193   
2632.4     14.1961    3.1808     9.6262     11.2308    15.0554    16.2742    97.0286    31.4395    0.476      24.3446   
2632.6     14.6206    3.8822     11.5996    13.0948    15.9674    18.7006    80.5087    29.4072    0.474      26.0011   
2632.8     14.4213    4.5265     13.8614    15.5129    16.9574    20.7535    44.2895    27.1243    0.473      24.4789   
2633       13.7874    5.1089     16.3687    18.0325    17.6628    21.8817    14.2293    24.6068    0.466      26.1245   
2633.2     13.0823    5.2265     17.4208    20.8791    16.9315    22.0265    8.3639     22.6668    0.456      24.7702   
2633.4     12.4863    4.4545     16.0031    21.5344    15.2598    21.553     9.1438     22.2793    0.449      27.8297   
2633.6     11.8743    3.9656     14.8738    22.6282    13.6633    20.1354    13.1626    23.2184    0.448      23.2424   
2633.8     11.1394    4.0378     15.6575    24.6957    13.4697    17.8837    8.4369     23.811     0.452      24.6432   
2634       10.7008    4.4693     16.2869    25.9206    13.2049    16.0078    6.1447     24.0041    0.46       23.1452   
2634.2     10.7101    3.6825     12.87      23.7519    12.0032    14.5902    6.069      24.2399    0.469      24.9706   
2634.4     11.28      2.7021     9.4884     19.5225    9.3201     12.3022    7.4077     27.1383    0.469      23.0077   
2634.6     11.9987    2.3398     8.2055     19.033     9.0024     11.1805    16.6653    29.6144    0.462      26.6173   
2634.8     12.9905    2.5329     9.0785     20.2262    9.8796     10.8172    46.5043    29.0395    0.457      23.8838   
2635       14.238     3.0578     10.0837    22.0184    11.4658    10.7915    30.7828    25.9169    0.457      27.4486   
2635.2     15.2277    3.3299     10.3393    22.8505    13.9874    10.844     32.1427    23.0118    0.459      26.6159   
2635.4     15.6858    3.6955     11.2814    23.7322    16.9476    10.8036    84.0798    20.6071    0.473      25.8561   
2635.6     15.7582    4.2749     13.4971    25.5157    20.3653    10.7361    175.6778   17.9417    0.469      25.2292   
2635.8     15.2904    4.909      16.3575    28.3633    24.2183    10.7675    150.391    15.2863    0.457      26.2226   
2636       14.0299    5.6572     19.6147    31.9446    28.8624    10.4297    44.1337    13.1698    0.454      24.7732   
2636.2     12.719     6.2605     22.0888    33.3111    31.0078    9.7116     11.8032    11.7259    0.46       25.409    
2636.4     11.574     5.6377     20.7419    31.8468    29.8811    8.6258     7.1622     10.4135    0.464      28.5653   
2636.6     10.6122    4.5506     17.4725    28.4436    26.6422    7.4573     7.1886     9.2647     0.47       26.6741   
2636.8     9.8637     3.9169     15.4427    26.9499    24.6788    6.2529     7.1751     8.9829     0.461      28.0663   
2637       9.199      3.6811     14.5452    27.3707    23.369     5.1651     7.0775     9.225      0.457      29.4752   
2637.2     8.6799     3.6388     13.588     27.6827    22.0555    4.3641     7.3436     9.4167     0.455      28.9168   
2637.4     8.2868     3.4503     12.2274    26.7217    20.2092    3.8446     7.0604     9.2763     0.459      29.717    
2637.6     8.0154     3.4029     11.2328    25.2643    18.4187    3.4149     5.8404     9.1306     0.464      30.5444   
2637.8     7.819      3.247      10.0848    23.0798    16.5045    2.934      5.6279     9.4785     0.462      28.6746   
2638       7.7145     3.0188     9.0512     20.5944    14.9446    2.5748     7.1902     9.858      0.461      29.0786   
2638.2     7.6052     2.8771     8.6744     18.9773    14.2425    2.283      8.0425     9.787      0.454      28.4113   
2638.4     7.5249     3.0839     8.9119     17.795     14.0832    2.131      6.8084     9.2644     0.461      30.5695   
2638.6     7.3472     3.2161     8.6976     16.448     13.7886    2.0081     5.7925     8.7653     0.469      27.8547   
2638.8     7.1447     3.1837     8.5875     14.9548    13.6661    1.9544     5.6133     8.9899     0.461      32.4992   
2639       6.9437     3.111      8.2508     13.3342    13.2535    1.9435     4.9691     9.5849     0.455      31.489    
2639.2     6.9376     2.8238     7.4507     11.8275    12.7951    2.0017     5.5345     10.2641    0.454      34.2309   
2639.4     6.9208     2.7067     7.2272     10.8632    12.4771    2.3861     6.2265     10.6903    0.458      34.6109   
2639.6     7.0037     2.7606     7.1644     10.654     12.7597    2.9963     5.6577     11.2337    0.455      34.9803   
2639.8     7.0976     2.7753     7.0252     10.6041    13.3802    3.792      5.5669     12.0134    0.457      36.1815   
2640       7.249      2.6035     6.7153     10.8048    14.564     4.7834     7.8539     12.2829    0.469      33.7643   
2640.2     7.4289     2.6854     7.3998     11.5836    16.164     6.3635     8.3594     12.2927    0.467      35.8474   
2640.4     7.5077     2.9347     7.9683     13.0707    18.3797    8.1532     7.825      12.7001    0.464      33.2076   
2640.6     7.4253     3.3183     8.6359     14.2451    20.4272    9.9675     6.3877     13.3       0.453      36.1461   
2640.8     7.469      3.2141     9.1967     14.4569    20.5613    11.8409    6.6687     13.3818    0.46       33.6898   
2641       7.6154     3.0029     8.3345     13.5832    19.0514    14.1173    6.3195     13.5056    0.461      35.8465   
2641.2     7.669      2.8845     8.2967     12.8856    18.615     16.8154    6.4777     14.5341    0.476      33.8236   
2641.4     7.4696     3.1317     8.6665     13.6978    20.3222    20.6139    6.1334     16.7147    0.476      36.8412   
2641.6     7.2487     3.2699     9.6385     14.8484    22.6589    24.6005    6.6197     19.2349    0.473      34.1079   
2641.8     7.1073     3.4054     10.1099    15.7224    24.8065    27.1072    6.7123     21.4225    0.465      34.6373   
2642       6.9812     3.5787     11.0345    16.5373    25.554     27.8237    7.2367     21.3265    0.462      33.1475   
2642.2     7.0133     3.5109     10.2833    16.3901    23.0027    26.4707    5.2264     19.0596    0.45       31.4253   
2642.4     7.0905     3.1267     8.9187     14.8186    18.0443    23.3325    5.1649     15.5367    0.449      32.6834   
2642.6     7.1669     2.9165     8.3912     13.1511    14.4715    19.0548    5.2067     13.1356    0.454      31.198    
2642.8     7.2735     2.7929     8.0104     12.0176    12.1469    15.4093    5.2569     11.9102    0.455      33.7635   
2643       7.3343     2.6959     7.7051     11.0635    9.8291     12.7165    5.5948     11.2124    0.458      33.3658   
