~Version
 VERS              .         2.0                           : CWLS LOG ASCII STANDARD - VERSION 2.0
 WRAP              .         NO                            : ONE LINE PER DEPTH STEP
 DLM               .         SPACE                         : DELIMITING CHARACTER(SPACE TAB OR COMMA)
~Well Information
#_______________________________________________________________________________
#
#PARAMETER_NAME    .UNIT     VALUE                         : DESCRIPTION
#_______________________________________________________________________________
STRT               .m        2469                          : First reference value
STOP               .m        2690                          : Last reference value
STEP               .m        0.2                           : Step increment
NULL               .         -9999                         : Missing value
COMP               .                                       : Company
WELL               .         101                           : Well name
FLD                .                                       : Field
LOC                .                                       : Location
CNTY               .                                       : County
STAT               .                                       : State
CTRY               .                                       : Country
SRVC               .                                       : Service Company
DATE               .                                       : Date
API                .                                       : API number
EREF               .m        137.7                         : 
Pad                .         1                             : 
X                  .m        229503                        : 
Y                  .m        240117                        : 
group              .         Pad1                          : 
Интер-р            .         Пузин                         : 
Куст               .         1                             : 
Статус             .         Не проверено                  : 
Тип                .         Разведка                      : 
~Parameter Information Block
#_______________________________________________________________________________
#
#PARAMETER_NAME    .UNIT     VALUE                         : DESCRIPTION
#_______________________________________________________________________________
SET                .         LAS1                          : 
REAL_CREATION_DATE .         Ср апр 11 2012-13_17_05       : 
TLFamily_DEPTH     .         Measured Depth                : 
TLFamily_KS        .         Potential Resistivity         : 
TLFamily_KS1       .         Extra Shallow Resistivity     : 
TLFamily_KS2       .         Shallow Resistivity           : 
TLFamily_KS3       .         Medium Resistivity            : 
TLFamily_KS4       .         Deep Resistivity              : 
TLFamily_KS5       .         Extra Deep Resistivity        : 
TLFamily_LLD       .         Lateral Log Resistivity       : 
TLFamily_OKS3      .         Medium Resistivity Inverted   : 
TLFamily_RM        .         Mud Resistivity               : 
TLFamily_SP        .         Spontaneous Potential         : 
group              .         INI                           : 
~Curve Information
#_______________________________________________________________________________
#
#LOGNAME           .UNIT     LOG_ID                        : DESCRIPTION
#_______________________________________________________________________________
DEPTH              .m                                      : 1 Depth 
KS                 .ohm.m                                  : 10 Normal Log Resistivity  N11.0M0.5A 
KS1                .ohm.m                                  : 3 Lateral Log Resistivity  A0.4M0.1N 
KS2                .ohm.m                                  : 4 Lateral Log Resistivity  A1.0M0.1N 
KS3                .ohm.m                                  : 5 Lateral Log Resistivity  A2.0M0.5N 
KS4                .ohm.m                                  : 6 Lateral Log Resistivity  A4.0M0.5N 
KS5                .ohm.m                                  : 7 Lateral Log Resistivity  A8.0M0.5N 
LLD                .ohm.m                                  : 2 Laterolog Shallow 
OKS3               .ohm.m                                  : 8 Lateral Log Resistivity (Inverse) 
RM                 .ohm.m                                  : 11 Mud Resistivity 
SP                 .mV                                     : 9 Spontaneous Potential 
~Ascii
# ...
2589.6     10.8252    3.5581     10.3288    16.5442    16.1253    14.2777    9.9027     25.4076    0.461      27.2569   
2589.8     11.0233    3.4418     10.1959    16.1845    15.8133    14.695     9.6194     26.3556    0.461      22.4286   
2590       11.1332    3.3964     10.247     16.0481    15.7093    14.8106    11.0424    26.4192    0.466      24.5768   
2590.2     11.3416    3.4072     10.696     16.3306    15.7156    14.8441    11.6653    26.0735    0.467      24.7633   
2590.4     11.8651    3.4775     10.5904    16.5791    15.7876    15.2372    12.5387    25.4625    0.467      23.0664   
2590.6     12.4373    3.4923     11.055     17.0361    15.8142    15.9579    13.8441    24.2658    0.472      24.4367   
2590.8     12.7336    3.6094     11.0937    17.4351    16.226     16.4656    13.2428    23.139     0.478      23.6348   
2591       12.9321    3.6319     11.1987    18.0562    17.0948    16.6481    13.881     21.8599    0.481      26.172    
2591.2     13.1014    3.7814     11.7629    19.2986    17.7331    17.0719    16.9261    21.2467    0.489      23.791    
2591.4     13.2878    3.9832     12.8629    20.6       18.272     17.5547    15.945     20.389     0.49       26.2145   
2591.6     13.2948    4.0311     13.2178    21.8752    18.9856    18.0526    15.7762    19.1506    0.49       23.6308   
2591.8     13.2361    4.2047     13.7579    22.8548    20.0768    18.6137    16.2737    17.4389    0.49       24.3986   
2592       13.0303    4.2728     14.3064    23.5958    21.612     19.0316    17.7194    14.9718    0.49       23.9984   
2592.2     12.5181    4.504      15.8921    24.8829    22.4763    19.1078    22.3552    13.0818    0.48       25.4673   
2592.4     11.7742    4.8639     16.6531    27.7062    22.2068    18.7154    15.2652    12.6269    0.479      24.2689   
2592.6     11.1596    4.7269     16.2883    28.1954    21.5413    17.9194    10.481     12.045     0.479      23.875    
2592.8     10.8929    4.2273     15.5065    27.2157    20.9527    16.7487    8.3487     10.7529    0.479      25.8351   
2593       10.4978    4.0629     14.2077    26.2528    20.0689    15.3766    8.4427     9.9398     0.473      24.0475   
2593.2     9.7804     4          14.0767    25.9367    19.9154    14.2103    9.9174     9.3454     0.467      26.9141   
2593.4     9.1422     4.0685     13.839     26.2969    20.323     13.3406    9.887      9.3086     0.462      25.0248   
2593.6     8.8231     4.097      13.8641    26.0701    20.3866    12.6487    8.8411     9.0114     0.461      26.3738   
2593.8     8.5781     4.0469     13.2505    25.5257    20.11      11.9462    7.9335     8.0154     0.465      23.5032   
2594       8.2702     3.9292     12.4027    24.7128    19.7596    11.0551    7.0838     6.9929     0.47       26.4343   
2594.2     7.6782     3.8706     11.9873    23.4737    19.364     9.9691     6.8966     6.4154     0.473      25.7546   
2594.4     6.8652     3.8206     11.527     21.9254    18.5271    8.9631     6.5077     5.9627     0.471      24.2055   
2594.6     6.2325     3.6774     11.5046    20.1597    17.0615    8.2101     5.9331     5.662      0.467      25.5471   
2594.8     6.0341     3.2648     10.9485    18.984     15.759     7.3476     4.5044     5.3473     0.47       25.2146   
2595       5.955      3.0125     9.5098     16.852     14.2305    6.1856     3.5649     5.4853     0.475      25.6141   
2595.2     5.6839     2.959      7.9999     13.7122    12.8848    5.299      3.1571     6.0555     0.485      24.309    
2595.4     5.313      2.7245     7.454      12.5244    12.1281    4.9863     3.4146     6.5936     0.49       26.2691   
2595.6     5.3386     2.5378     7.2731     12.1322    11.8287    4.8663     3.6726     7.1562     0.49       23.6021   
2595.8     5.3386     2.722      7.1676     11.926     11.7225    4.842      3.8777     7.7067     0.485      27.733    
2596       5.3386     2.7819     6.861      11.7492    11.6707    4.6981     4.3142     7.9871     0.485      26.5536   
2596.2     5.2658     2.7768     6.7946     11.3356    11.43      4.4074     4.1929     8.1064     0.478      26.9899   
2596.4     5.1545     2.9236     6.1762     9.798      10.2096    4.1887     3.2562     8.3777     0.472      23.6874   
2596.6     5.1245     2.5651     6.0746     8.3793     9.1236     4.0177     2.9748     9.1406     0.467      25.2057   
2596.8     5.1245     2.4041     6.0723     8.0379     8.7327     3.9563     2.9897     10.1071    0.467      24.1574   
2597       5.1453     2.5758     5.9321     7.937      8.4379     3.9563     3.4744     10.385     0.467      27.3545   
2597.2     5.2482     2.475      5.9879     7.5483     7.9055     3.9934     3.4647     10.6241    0.461      24.6965   
2597.4     5.3921     2.5343     5.7804     6.816      7.3294     4.1001     3.4616     10.8521    0.461      25.3486   
2597.6     5.514      2.5343     5.7632     6.5428     7.09       4.296      3.6572     11.2446    0.461      25.7507   
2597.8     5.6877     2.4714     5.5349     6.5002     7.0338     4.7175     3.457      11.7328    0.461      24.9818   
2598       5.8969     2.4265     5.5189     6.4895     6.999      5.4216     3.3888     12.607     0.461      26.8286   
2598.2     6.3222     2.3879     5.3498     6.4699     7.4361     6.0385     3.3666     14.4254    0.461      24.4049   
2598.4     7.0321     2.1176     5.4322     7.4706     9.4506     6.8097     3.9486     17.7006    0.461      26.6607   
2598.6     7.6613     2.0428     5.5192     9.2404     11.3778    8.7528     6.5684     19.2006    0.461      28.7143   
2598.8     8.1674     2.5459     6.599      10.511     11.9273    11.1037    29.0195    17.3171    0.47       29.2945   
2599       8.604      3.2144     8.5248     11.3114    11.9994    11.7063    35.2968    14.3447    0.478      26.0322   
2599.2     8.5788     4.3078     10.5135    11.7183    11.7218    11.5309    8.7478     11.7871    0.477      27.4065   
2599.4     8.325      4.0321     9.8302     11.2896    9.211      10.9939    4.9194     10.2097    0.481      26.2544   
2599.6     8.0332     3.779      10.0307    10.6256    7.5933     10.0772    4.5755     9.5045     0.483      26.7162   
2599.8     7.8033     3.399      9.9516     10.2664    7.4534     9.5441     4.5        9.2084     0.481      26.5015   
2600       7.6928     3.188      9.7635     10.117     7.4296     9.6101     4.6422     9.2182     0.48       25.8021   
2600.2     7.6673     3.0459     9.3432     10.2181    7.3662     10.0315    4.8831     9.4213     0.483      25.8664   
2600.4     7.6438     3.0517     9.1657     10.8993    8.2479     11.3628    5.2563     9.6483     0.48       23.8342   
2600.6     7.7402     3.105      9.0423     11.8029    9.9484     13.8531    4.8355     10.3091    0.479      27.2165   
2600.8     7.8839     2.9962     8.8617     13.139     11.0509    15.3947    6.6279     10.9372    0.479      26.5401   
2601       7.515      3.2922     10.0589    16.2102    11.4523    15.814     15.4802    10.3685    0.479      31.342    
2601.2     7.3018     4.1623     11.7467    18.8711    11.2953    15.9651    8.1634     8.9669     0.474      25.1576   
2601.4     6.8185     4.013      11.6807    18.9702    10.2277    14.158     4.862      7.8055     0.467      27.2633   
2601.6     6.2869     4.0363     11.135     17.5842    9.2377     10.7094    4.5565     6.8491     0.475      26.2052   
2601.8     5.8157     3.5756     10.1596    15.866     8.5498     9.0465     3.4515     6.244      0.461      31.1208   
2602       5.4056     3.367      9.8134     13.9237    7.6658     8.2354     3.3887     5.8683     0.461      26.8578   
2602.2     5.1115     3.012      8.8828     12.5364    6.8049     7.315      2.9194     5.7431     0.456      25.1601   
2602.4     4.8892     2.8581     8.1535     11.4788    6.1704     6.0231     2.843      5.8071     0.46       25.8583   
2602.6     4.7339     2.7304     7.437      10.6175    5.9401     4.6822     2.7454     5.9308     0.458      25.6506   
2602.8     4.6965     2.5891     6.8676     9.7943     5.8226     3.7961     2.622      6.1013     0.461      28.3089   
