~Version
 VERS              .         2.0                           : CWLS LOG ASCII STANDARD - VERSION 2.0
 WRAP              .         NO                            : ONE LINE PER DEPTH STEP
 DLM               .         SPACE                         : DELIMITING CHARACTER(SPACE TAB OR COMMA)
~Well Information
#_______________________________________________________________________________
#
#PARAMETER_NAME    .UNIT     VALUE                         : DESCRIPTION
#_______________________________________________________________________________
STRT               .m        2469                          : First reference value
STOP               .m        2690                          : Last reference value
STEP               .m        0.2                           : Step increment
NULL               .         -9999                         : Missing value
COMP               .                                       : Company
WELL               .         101                           : Well name
FLD                .                                       : Field
LOC                .                                       : Location
CNTY               .                                       : County
STAT               .                                       : State
CTRY               .                                       : Country
SRVC               .                                       : Service Company
DATE               .                                       : Date
API                .                                       : API number
EREF               .m        137.7                         : 
Pad                .         1                             : 
X                  .m        229503                        : 
Y                  .m        240117                        : 
group              .         Pad1                          : 
Интер-р            .         Пузин                         : 
Куст               .         1                             : 
Статус             .         Не проверено                  : 
Тип                .         Разведка                      : 
~Parameter Information Block
#_______________________________________________________________________________
#
#PARAMETER_NAME    .UNIT     VALUE                         : DESCRIPTION
#_______________________________________________________________________________
SET                .         LAS1                          : 
REAL_CREATION_DATE .         Ср апр 11 2012-13_17_05       : 
TLFamily_DEPTH     .         Measured Depth                : 
TLFamily_KS        .         Potential Resistivity         : 
TLFamily_KS1       .         Extra Shallow Resistivity     : 
TLFamily_KS2       .         Shallow Resistivity           : 
TLFamily_KS3       .         Medium Resistivity            : 
TLFamily_KS4       .         Deep Resistivity              : 
TLFamily_KS5       .         Extra Deep Resistivity        : 
TLFamily_LLD       .         Lateral Log Resistivity       : 
TLFamily_OKS3      .         Medium Resistivity Inverted   : 
TLFamily_RM        .         Mud Resistivity               : 
TLFamily_SP        .         Spontaneous Potential         : 
group              .         INI                           : 
~Curve Information
#_______________________________________________________________________________
#
#LOGNAME           .UNIT     LOG_ID                        : DESCRIPTION
#_______________________________________________________________________________
DEPTH              .m                                      : 1 Depth 
KS                 .ohm.m                                  : 10 Normal Log Resistivity  N11.0M0.5A 
KS1                .ohm.m                                  : 3 Lateral Log Resistivity  A0.4M0.1N 
KS2                .ohm.m                                  : 4 Lateral Log Resistivity  A1.0M0.1N 
KS3                .ohm.m                                  : 5 Lateral Log Resistivity  A2.0M0.5N 
KS4                .ohm.m                                  : 6 Lateral Log Resistivity  A4.0M0.5N 
KS5                .ohm.m                                  : 7 Lateral Log Resistivity  A8.0M0.5N 
LLD                .ohm.m                                  : 2 Laterolog Shallow 
OKS3               .ohm.m                                  : 8 Lateral Log Resistivity (Inverse) 
RM                 .ohm.m                                  : 11 Mud Resistivity 
SP                 .mV                                     : 9 Spontaneous Potential 
~Ascii
# ...
2670       7.1995     3.7971     12.1925    15.7578    14.1167    6.0717     5.3126     5.7696     0.448      38.458    
2670.2     6.7864     3.2761     11.2757    14.1742    12.2777    5.284      5.5409     5.796      0.448      52.009    
2670.4     6.3757     3.127      10.5791    13.8619    11.4331    4.9454     5.8351     6.1138     0.453      44.9173   
2670.6     6.0393     3.1181     10.2073    14.3491    11.269     4.9097     5.6487     6.3069     0.456      41.5404   
2670.8     5.4899     3.1472     9.8611     15.4609    11.5335    4.8499     4.9652     6.2761     0.449      38.4716   
2671       4.669      3.3708     10.0566    17.0479    12.0202    4.6077     4.4539     6.2962     0.439      43.7685   
2671.2     4.2212     3.3097     10.6171    18.0862    11.5402    4.1896     3.6191     6.5201     0.454      40.2054   
2671.4     4.0384     2.9664     9.385      16.8919    9.7437     3.6381     2.8465     6.5234     0.455      36.4987   
2671.6     3.9314     2.5029     7.4842     13.8434    7.5145     2.8941     2.7196     6.5426     0.457      34.7264   
2671.8     3.91       2.1343     5.4345     10.594     5.8245     2.2028     3.3056     6.4943     0.449      33.3608   
2672       3.9635     2.0112     5.0063     8.3348     4.8782     1.7039     3.8814     6.5426     0.453      38.3887   
2672.2     4.0009     2.1829     5.0161     7.3139     4.4067     1.4254     3.8167     6.5426     0.458      50.3481   
2672.4     4.0216     2.3187     4.9812     6.5872     4.1138     1.2708     3.2711     6.5079     0.463      41.6052   
2672.6     4.0408     2.2366     4.5421     6.0439     3.8654     1.2118     3.6019     6.532      0.468      31.2541   
2672.8     4.1494     2.1092     4.6593     5.4639     3.7181     1.202      3.596      6.4959     0.455      33.8646   
2673       4.2845     2.0672     4.5433     4.9342     3.6681     1.2535     3.5469     5.1915     0.454      38.534    
2673.2     4.2845     2.0032     4.3981     4.7854     3.6846     1.4044     4.0361     0          0.433      41.9658   
2673.4     4.2782     1.9954     4.3384     4.8701     3.8356     1.6841     4.5765     0          0.43       35.6672   
2673.6     4.3621     1.9996     4.6084     5.1388     4.0624     2.0414     5.255      0          0.437      35.6429   
2673.8     4.3755     1.9954     4.9849     5.5264     4.3768     2.41       5.5587     0          0.437      34.314    
2674       4.429      1.9954     4.9816     5.8973     4.6592     2.8841     5.4645     0          0.437      34.7927   
2674.2     4.3925     1.9954     4.9744     6.2181     5.0446     3.3647     5.62       0          0.437      50.2837   
2674.4     4.3829     1.9954     5.0477     6.7171     5.6244     3.7489     7.2305     0          0.437      58.9485   
2674.6     4.4025     1.9954     5.1268     7.521      6.2827     4.0522     8.4925     0          0.439      34.4711   
2674.8     4.3755     1.9954     5.1316     8.1512     6.6677     4.2344     7.8099     0          0.437      32.1273   
2675       4.3755     1.9954     5.1316     8.2043     6.6643     4.2046     6.9868     0          0.437      41.194    
2675.2     4.3755     1.9954     5.1316     8.174      6.6118     4.0907     6.3713     0          0.437      52.8161   
2675.4     4.3755     1.9954     5.1316     8.1768     6.622      4.0252     6.204      0          0          37.3041   
2675.6     0          1.9954     5.1316     8.2387     6.6644     4.0326     6.3963     0          0          34.7896   
2675.8     0          0          5.1316     8.2634     6.6761     4.1696     6.3806     0          0          34.7378   
2676       0          0          5.0814     8.3061     6.7528     4.4462     6.0862     0          0          36.8717   
2676.2     0          0          5.0988     8.3002     6.9735     4.8303     5.8323     0          0          46.1656   
2676.4     0          0          0          8.2682     7.3509     5.1622     5.7667     0          0          44.8184   
2676.6     0          0          0          8.3108     7.834      5.4398     5.0462     0          0          39.6671   
2676.8     0          0          0          8.3021     7.7195     5.5919     6.0592     0          0          38.9663   
2677       0          0          0          8.3002     7.3697     5.5983     5.9641     0          0          57.5507   
2677.2     0          0          0          8.2586     7.261      5.4218     4.455      0          0          44.2392   
2677.4     0          0          0          8.2576     7.2537     5.3054     4.7491     0          0          40.0299   
2677.6     0          0          0          0          7.1244     5.2011     5.4928     0          0          37.13     
2677.8     0          0          0          0          7.1437     5.2033     5.9946     0          0          34.3151   
2678       0          0          0          0          7.1485     5.3777     5.2718     0          0          38.3194   
2678.2     0          0          0          0          7.1429     5.7186     4.6407     0          0          49.6182   
2678.4     0          0          0          0          7.1485     5.8472     4.8914     0          0          41.2861   
2678.6     0          0          0          0          7.1485     5.8828     5.5315     0          0          37.4397   
2678.8     0          0          0          0          7.1399     5.9532     5.1329     0          0          38.914    
2679       0          0          0          0          7.1485     6.0061     4.8043     0          0          50.0228   
2679.2     0          0          0          0          7.0982     6.2394     5.0291     0          0          47.667    
2679.4     0          0          0          0          7.1156     6.7734     5.7474     0          0          41.1264   
2679.6     0          0          0          0          0          7.4812     7.1182     0          0          46.9905   
2679.8     0          0          0          0          0          8.482      7.3848     0          0          43.9953   
2680       0          0          0          0          0          9.8104     9.6845     0          0          48.697    
2680.2     0          0          0          0          0          10.8399    13.363     0          0          48.068    
2680.4     0          0          0          0          0          11.5486    13.4316    0          0          44.6567   
2680.6     0          0          0          0          0          12.2899    9.6236     0          0          40.808    
2680.8     0          0          0          0          0          13.7822    8.4521     0          0          39.0727   
2681       0          0          0          0          0          16.2664    8.6806     0          0          46.7564   
2681.2     0          0          0          0          0          18.828     9.1258     0          0          53.9746   
2681.4     0          0          0          0          0          19.6657    8.6125     0          0          -270      
2681.6     0          0          0          0          0          19.6747    8.8013     0          0          -270      
2681.8     0          0          0          0          0          19.7247    9.8749     0          0          -270      
2682       0          0          0          0          0          19.7582    11.1579    0          0          -270      
2682.2     0          0          0          0          0          19.8548    18.194     0          0          -270      
2682.4     0          0          0          0          0          19.8793    79.265     0          0          -270      
2682.6     0          0          0          0          0          19.8207    90.332     0          0          -270      
2682.8     0          0          0          0          0          19.8785    18.5012    0          0          -270      
2683       0          0          0          0          0          19.862     6.4937     0          0          -270      
2683.2     0          0          0          0          0          19.8297    5.5874     0          0          -270      
