~Version
 VERS              .         2.0                           : CWLS LOG ASCII STANDARD - VERSION 2.0
 WRAP              .         NO                            : ONE LINE PER DEPTH STEP
 DLM               .         SPACE                         : DELIMITING CHARACTER(SPACE TAB OR COMMA)
~Well Information
#_______________________________________________________________________________
#
#PARAMETER_NAME    .UNIT     VALUE                         : DESCRIPTION
#_______________________________________________________________________________
STRT               .m        2469                          : First reference value
STOP               .m        2690                          : Last reference value
STEP               .m        0.2                           : Step increment
NULL               .         -9999                         : Missing value
COMP               .                                       : Company
WELL               .         101                           : Well name
FLD                .                                       : Field
LOC                .                                       : Location
CNTY               .                                       : County
STAT               .                                       : State
CTRY               .                                       : Country
SRVC               .                                       : Service Company
DATE               .                                       : Date
API                .                                       : API number
EREF               .m        137.7                         : 
Pad                .         1                             : 
X                  .m        229503                        : 
Y                  .m        240117                        : 
group              .         Pad1                          : 
Интер-р            .         Пузин                         : 
Куст               .         1                             : 
Статус             .         Не проверено                  : 
Тип                .         Разведка                      : 
~Parameter Information Block
#_______________________________________________________________________________
#
#PARAMETER_NAME    .UNIT     VALUE                         : DESCRIPTION
#_______________________________________________________________________________
SET                .         LAS1                          : 
REAL_CREATION_DATE .         Ср апр 11 2012-13_17_05       : 
TLFamily_DEPTH     .         Measured Depth                : 
TLFamily_KS        .         Potential Resistivity         : 
TLFamily_KS1       .         Extra Shallow Resistivity     : 
TLFamily_KS2       .         Shallow Resistivity           : 
TLFamily_KS3       .         Medium Resistivity            : 
TLFamily_KS4       .         Deep Resistivity              : 
TLFamily_KS5       .         Extra Deep Resistivity        : 
TLFamily_LLD       .         Lateral Log Resistivity       : 
TLFamily_OKS3      .         Medium Resistivity Inverted   : 
TLFamily_RM        .         Mud Resistivity               : 
TLFamily_SP        .         Spontaneous Potential         : 
group              .         INI                           : 
~Curve Information
#_______________________________________________________________________________
#
#LOGNAME           .UNIT     LOG_ID                        : DESCRIPTION
#_______________________________________________________________________________
DEPTH              .m                                      : 1 Depth 
KS                 .ohm.m                                  : 10 Normal Log Resistivity  N11.0M0.5A 
KS1                .ohm.m                                  : 3 Lateral Log Resistivity  A0.4M0.1N 
KS2                .ohm.m                                  : 4 Lateral Log Resistivity  A1.0M0.1N 
KS3                .ohm.m                                  : 5 Lateral Log Resistivity  A2.0M0.5N 
KS4                .ohm.m                                  : 6 Lateral Log Resistivity  A4.0M0.5N 
KS5                .ohm.m                                  : 7 Lateral Log Resistivity  A8.0M0.5N 
LLD                .ohm.m                                  : 2 Laterolog Shallow 
OKS3               .ohm.m                                  : 8 Lateral Log Resistivity (Inverse) 
RM                 .ohm.m                                  : 11 Mud Resistivity 
SP                 .mV                                     : 9 Spontaneous Potential 
~Ascii
# ...
2603       4.6804     2.4386     6.3331     9.2321     5.8275     3.4249     2.715      6.3993     0.467      24.9528   
2603.2     4.6207     2.5353     6.303      9.3114     5.9384     3.3504     3.2593     6.4251     0.467      27.5719   
2603.4     4.643      2.6892     6.4029     9.113      5.8705     3.1597     2.9685     6.3188     0.467      25.1035   
2603.6     4.5437     2.642      6.034      8.5707     5.6167     2.6454     2.659      6.2704     0.467      25.9799   
2603.8     4.4664     2.6716     6.1055     8.0093     5.2307     2.1873     2.6748     6.2855     0.478      24.2684   
2604       4.4129     2.5774     5.9698     7.5299     4.9403     2.1024     2.4704     6.3872     0.479      25.9589   
2604.2     4.3755     2.5235     5.907      7.0657     4.7046     2.1024     2.4993     6.4974     0.481      25.752    
2604.4     4.3915     2.4515     5.728      6.7006     4.6016     2.0061     2.4188     6.6636     0.483      24.3283   
2604.6     4.445      2.3726     5.5093     6.4453     4.5178     1.8832     2.4607     6.8709     0.485      27.6889   
2604.8     4.5125     2.3759     5.5249     6.3404     4.6066     1.8376     2.6926     7.033      0.485      25.9635   
2605       4.615      2.429      5.5785     6.3404     5.0861     1.8376     2.6926     7.0863     0.485      27.8947   
2605.2     4.7519     2.4804     5.5507     6.3511     5.3835     1.8376     2.6611     7.1685     0.485      25.8264   
2605.4     4.8196     2.4912     5.5986     6.4948     5.5944     1.8376     2.8939     7.2164     0.485      27.9105   
2605.6     4.912      2.5882     5.8451     6.6173     5.7404     1.8906     2.9335     7.2355     0.485      24.7996   
2605.8     4.964      2.642      5.9897     6.6645     5.7805     1.9265     2.8576     7.2355     0.485      27.2013   
2606       4.964      2.6959     6.1559     6.7239     5.734      1.9435     2.8921     7.167      0.48       27.9313   
2606.2     4.95       2.7498     6.3538     6.7915     5.7174     1.9435     2.8764     7.0434     0.485      26.3721   
2606.4     4.8963     2.7498     6.4685     6.8446     5.5702     1.9932     2.7715     6.9456     0.484      26.6453   
2606.6     4.8417     2.7929     6.5985     6.8623     5.4026     2.0336     2.5947     6.8645     0.484      26.3775   
2606.8     4.8035     2.6903     6.4663     6.8197     5.2031     2.0976     2.4731     6.9347     0.479      26.8363   
2607       4.7569     2.5977     6.3038     6.8304     5.0966     2.1925     2.6413     6.9713     0.479      28.1263   
2607.2     4.75       2.6313     6.3835     6.9275     5.0439     2.3688     2.6405     7.0207     0.485      27.6822   
2607.4     4.75       2.5989     6.2946     6.9795     4.985      2.5933     2.6356     6.969      0.485      26.8758   
2607.6     4.8035     2.6236     6.2087     6.9316     4.9282     2.7667     2.4655     6.9797     0.485      26.6939   
2607.8     4.8658     2.4935     5.9698     6.9262     4.8861     2.9045     2.6965     7.0994     0.482      24.8217   
2608       4.9105     2.524      5.9984     7.0393     4.8966     2.987      3.0827     7.1567     0.481      27.1934   
2608.2     4.9421     2.6737     6.3244     7.1592     4.9352     3.0611     3.0405     6.9973     0.485      23.9409   
2608.4     4.9573     2.7246     6.3994     7.299      4.8756     3.1088     2.8551     6.8315     0.485      27.5426   
2608.6     4.8783     2.8037     6.488      7.2356     4.7704     3.1363     2.7521     6.7025     0.485      24.6712   
2608.8     4.8278     2.7205     6.3844     7.1328     4.7061     3.1459     2.6259     6.7025     0.48       27.2875   
2609       4.75       2.6959     6.4316     7.0324     4.623      3.1989     2.6834     6.7025     0.485      27.5282   
2609.2     4.75       2.6722     6.451      6.9795     4.607      3.3863     2.5752     6.7106     0.485      25.4836   
2609.4     4.6931     2.5882     6.2842     6.9795     4.5704     3.6079     2.7803     6.6854     0.485      27.1335   
2609.6     4.6398     2.6528     6.4141     6.9795     4.5704     3.7294     2.5404     6.5261     0.485      24.7633   
2609.8     4.5895     2.683      6.324      6.963      4.5076     3.8345     2.4364     6.436      0.485      26.2449   
2610       4.5722     2.5882     6.0641     6.8371     4.4155     3.8504     2.5039     6.4467     0.48       25.4302   
2610.2     4.4848     2.5777     6.0553     6.7665     4.4126     3.8504     2.4385     6.5426     0.478      27.1996   
2610.4     4.4825     2.5235     5.9485     6.7665     4.4219     3.8504     2.4397     6.5426     0.484      26.3078   
2610.6     4.5022     2.4804     5.865      6.7558     4.4652     3.8504     2.67       6.5389     0.479      30.1554   
2610.8     4.536      2.4912     5.8769     6.71       4.4652     3.8504     2.6678     6.4635     0.479      27.9361   
2611       4.5895     2.4804     5.7555     6.6493     4.4652     3.8504     2.5703     6.436      0.479      29.6262   
2611.2     4.5895     2.5194     5.7697     6.5555     4.4757     3.8925     2.4824     6.5225     0.479      28.5251   
2611.4     4.5895     2.4359     5.6941     6.6392     4.6327     3.9254     2.5635     6.6746     0.479      29.7513   
2611.6     4.536      2.5916     5.9207     6.8183     4.891      3.9563     2.8378     6.6919     0.485      30.3003   
2611.8     4.536      2.642      6.3037     7.0489     4.9913     3.9774     2.585      6.5853     0.485      29.488    
2612       4.536      2.5449     6.0137     6.957      4.9342     3.9647     2.3806     6.4893     0.479      32.2042   
2612.2     4.5199     2.4864     5.874      6.8091     4.8966     3.8981     2.4621     6.5426     0.473      28.8924   
2612.4     4.4664     2.5989     6.1321     6.8208     4.9667     3.8077     2.6165     6.5845     0.485      29.8721   
2612.6     4.445      2.6357     6.2071     6.873      4.9869     3.7444     2.4299     6.5426     0.485      26.9237   
2612.8     4.4825     2.5286     5.9338     6.7967     4.8471     3.6915     2.2423     6.6096     0.485      30.4105   
2613       4.5196     2.4696     5.7163     6.4949     4.7177     3.6915     2.2499     6.8568     0.48       25.9476   
2613.2     4.6055     2.3982     5.6211     6.4562     4.7283     3.6915     2.4011     7.1618     0.479      27.7926   
2613.4     4.7022     2.4561     5.7556     6.5569     4.7914     3.6915     2.876      7.2132     0.481      28.3199   
2613.6     4.766      2.6183     6.0998     6.7147     4.8756     3.6544     2.8315     7.0275     0.479      27.3611   
2613.8     4.8035     2.6959     6.089      6.7558     4.806      3.6338     2.5569     6.7356     0.479      27.7383   
2614       4.7766     2.6922     6.0222     6.6433     4.6535     3.5099     2.4746     6.6492     0.479      26.9178   
2614.2     4.7246     2.642      6.0327     6.4895     4.4566     3.3927     2.4366     6.6617     0.473      27.9207   
2614.4     4.6965     2.5882     6.127      6.383      4.3356     3.2899     2.3926     6.8213     0.475      26.5761   
2614.6     4.6965     2.5343     6.0477     6.2872     4.1916     3.2168     2.3949     6.9854     0.474      30.7519   
2614.8     4.6737     2.5343     6.0117     6.2616     4.1373     3.1292     2.4572     7.0223     0.479      29.6364   
2615       4.6965     2.5235     5.9462     6.2339     4.0443     3.0743     2.4749     7.0863     0.479      33.3843   
2615.2     4.6965     2.4936     5.865      6.2339     3.9973     3.0559     2.515      7.2183     0.474      30.3377   
2615.4     4.6965     2.5343     5.8579     6.291      3.9917     3.0029     2.5001     7.5209     0.473      31.8652   
2615.6     4.7233     2.5742     5.8909     6.3768     3.9496     2.9658     2.5323     8.1673     0.479      29.7672   
2615.8     4.6965     2.5035     5.7915     6.4637     3.9812     2.9499     2.7699     9.0252     0.479      29.7519   
2616       4.7527     2.5882     5.9147     6.4212     3.9285     2.897      2.5867     9.8412     0.474      30.3037   
2616.2     4.8196     2.5235     5.7738     6.2418     3.828      2.934      2.3714     10.8853    0.473      26.8752   
