~Version
 VERS              .         2.0                           : CWLS LOG ASCII STANDARD - VERSION 2.0
 WRAP              .         NO                            : ONE LINE PER DEPTH STEP
 DLM               .         SPACE                         : DELIMITING CHARACTER(SPACE TAB OR COMMA)
~Well Information
#_______________________________________________________________________________
#
#PARAMETER_NAME    .UNIT     VALUE                         : DESCRIPTION
#_______________________________________________________________________________
STRT               .m        2898                          : First reference value
STOP               .m        3121.600112                   : Last reference value
STEP               .m        0.2000001                     : Step increment
NULL               .         -9999                         : Missing value
COMP               .                                       : Company
WELL               .         200                           : Well name
FLD                .                                       : Field
LOC                .                                       : Location
CNTY               .                                       : County
STAT               .                                       : State
CTRY               .                                       : Country
SRVC               .                                       : Service Company
DATE               .                                       : Date
API                .                                       : API number
EREF               .m        139.76                        : 
Pad                .         2                             : 
X                  .m        228492                        : 
Y                  .m        241733                        : 
group              .         Pad2                          : 
Интер-р            .         Зайцев                        : 
Куст               .         2                             : 
Статус             .         Не проверено                  : 
Тип                .         Разведка                      : 
~Parameter Information Block
#_______________________________________________________________________________
#
#PARAMETER_NAME    .UNIT     VALUE                         : DESCRIPTION
#_______________________________________________________________________________
SET                .         LAS1                          : 
REAL_CREATION_DATE .         Ср апр 11 2012-13_17_06       : 
TLFamily_DEPTH     .         Measured Depth                : 
TLFamily_GZ1       .         Extra Shallow Resistivity     : 
TLFamily_GZ2       .         Shallow Resistivity           : 
TLFamily_GZ3       .         Medium Resistivity            : 
TLFamily_GZ4       .         Deep Resistivity              : 
TLFamily_GZ5       .         Extra Deep Resistivity        : 
TLFamily_GZr       .         Medium Resistivity Inverted   : 
TLFamily_LLD       .         Lateral Log Resistivity       : 
TLFamily_PS        .         Spontaneous Potential         : 
TLFamily_PZ        .         Potential Resistivity         : 
TLFamily_RS        .         Mud Resistivity               : 
group              .         INI                           : 
~Curve Information
#_______________________________________________________________________________
#
#LOGNAME           .UNIT     LOG_ID                        : DESCRIPTION
#_______________________________________________________________________________
DEPTH              .m                                      : 1 Depth 
GZ1                .ohm.m                                  : 3 Подошвенный градиент-зонд А0.4М0.1N 
GZ2                .ohm.m                                  : 4 Подошвенный градиент-зонд А1.0М0.1N 
GZ3                .ohm.m                                  : 5 Подошвенный градиент-зонд А2.0М0.5N 
GZ4                .ohm.m                                  : 6 Подошвенный градиент-зонд А4.0М0.5N 
GZ5                .ohm.m                                  : 7 Подошвенный градиент-зонд А8.0М1.0N 
GZr                .ohm.m                                  : 8 Кровельный градиент-зонд N0.5M2.0A 
LLD                .ohm.m                                  : 11 Трехэлектродный  бокового каротажа БК-3 
PS                 .mV                                     : 2 Потенциал самопроизвольной поляризации 
PZ                 .ohm.m                                  : 9 Однополюсный потенциал-зонд N6.0М0.5А 
RS                 .ohm.m                                  : 10 УЭС жидкости в стволе скажины 
~Ascii
# ...
3030.000066 1.9954     7.2509     10.1719    9.1193     10.8421    9.9561     4.9638     39.9937    6.8198     0.4108    
3030.200066 2.0294     7.2459     10.7305    9.114      11.0228    9.9006     5.1721     39.1232    6.804      0.4144    
3030.400066 2.0639     7.3886     11.6256    9.3876     11.5259    10.0085    4.7092     38.9365    6.7814     0.4142    
3030.600066 2.1032     7.6761     12.8829    10.0394    11.8572    10.3859    5.6317     39.1887    6.6752     0.4132    
3030.800066 2.2196     8.4322     14.5292    10.8372    11.9544    10.3855    8.2524     39.0584    6.5106     0.4091    
3031.000066 2.3952     8.515      15.6173    11.1656    11.6706    9.6946     5.3629     39.0159    6.4479     0.4078    
3031.200067 2.35       8.3831     15.6741    11.0575    10.9625    8.7901     5.0478     39.8562    6.2485     0.4022    
3031.400067 2.4501     8.5823     15.1281    10.7459    9.8228     8.0017     4.5727     40.6171    5.9907     0.4026    
3031.600067 2.3467     8.1341     14.1831    10.2936    8.6564     7.4947     3.5331     39.6603    5.7596     0.4086    
3031.800067 2.2741     8.0017     13.1382    9.7298     7.552      7.0949     3.5146     37.2586    5.481      0.4139    
3032.000067 2.1921     7.5951     12.1383    9.2617     6.4983     6.916      3.0732     35.9111    5.281      0.4156    
3032.200067 2.0515     7.0032     11.321     8.9725     5.6621     6.868      3.0065     36.5755    5.1558     0.4139    
3032.400067 2.0185     6.6916     10.8466    8.9409     4.9387     7.0011     2.9856     37.2588    4.9938     0.4136    
3032.600067 1.984      6.5046     10.4245    8.9978     4.4285     7.1935     2.8973     36.7211    4.8974     0.4081    
3032.800067 1.8822     5.9048     9.7741     9.0054     3.847      7.5058     3.2655     36.1414    4.8867     0.4019    
3033.000068 1.8548     5.767      9.6394     8.9732     3.5154     7.5796     3.8473     36.1962    4.8867     0.3976    
3033.200068 1.9627     5.9417     9.6137     8.8941     3.2282     7.5554     3.4947     35.7267    4.8867     0.41      
3033.400068 2.0231     5.9174     9.3968     8.5529     3.0266     7.5866     3.1655     34.3738    4.8409     0.4083    
3033.600068 2.0414     5.897      9.0192     8.1056     2.8198     7.692      3.1912     33.3869    4.7405     0.4175    
3033.800068 1.9954     5.816      8.5637     7.6946     2.6386     7.7849     2.9079     33.4608    4.7087     0.4153    
3034.000068 1.9801     5.7522     8.1561     7.3872     2.5245     7.8422     2.9536     33.6358    4.6736     0.4139    
3034.200068 1.9217     5.6007     7.7473     7.18       2.3673     7.9723     2.8855     33.5299    4.6736     0.4081    
3034.400068 1.8633     5.3522     7.3699     6.965      2.3143     8.1971     2.8987     34.0923    4.7289     0.4062    
3034.600068 1.8338     5.2513     7.1433     6.8368     2.2613     8.4142     3.2771     35.1859    4.7868     0.401     
3034.800068 1.8646     5.332      7.1047     6.9121     2.2613     8.4615     3.3875     35.5368    4.8441     0.4084    
3035.000068 1.8876     5.3411     7.1372     7.0254     2.304      8.4615     3.3527     35.2314    4.9436     0.4144    
3035.200069 1.9012     5.3448     7.1677     7.1434     2.3143     8.4615     3.6032     35.9921    5.0378     0.4147    
3035.400069 1.9599     5.5168     7.2836     7.2011     2.373      8.4868     3.8308     37.5491    5.0949     0.4139    
3035.600069 1.9954     5.6974     7.3615     7.2253     2.4885     8.4582     3.7268     37.4471    5.1317     0.4124    
3035.800069 2.0479     5.8608     7.483      7.1759     2.5496     8.4002     3.7521     36.0733    5.1475     0.4078    
3036.000069 2.0787     6.0294     7.5538     7.0645     2.663      8.3182     3.5562     36.1538    5.0997     0.4025    
3036.200069 2.0693     6.0746     7.6116     6.9075     2.778      8.2613     3.4118     37.4389    5.0584     0.4085    
3036.400069 2.0739     6.1762     7.5897     6.7167     2.9449     8.2043     3.2826     37.6947    5.0465     0.4145    
3036.600069 2.0306     6.0653     7.5631     6.5477     3.123      8.195      3.2389     36.9184    5.0197     0.4198    
3036.800069 2.018      6.0028     7.6057     6.444      3.3523     8.1972     3.4651     36.7125    4.9932     0.4138    
3037.000069 2.0231     6.0085     7.7206     6.4119     3.5764     8.2416     3.3166     37.5136    4.9932     0.4081    
3037.20007 2.0236     6.0062     7.776      6.3323     3.856      8.2055     3.2704     38.5876    4.9932     0.4077    
3037.40007 2.0077     5.8701     7.7532     6.2671     4.0336     8.3023     3.0555     38.7402    5.0088     0.3982    
3037.60007 1.9036     5.6595     7.6714     6.1769     4.1631     8.3987     3.3499     37.5091    5.0465     0.4074    
3037.80007 1.9074     5.7483     7.7564     6.2164     4.2211     8.3352     3.9988     36.725     5.0955     0.4089    
3038.00007 2.0714     6.0329     7.9716     6.2324     4.2741     7.9691     3.611      37.5209    5.1284     0.4196    
3038.20007 2.1032     6.052      7.989      6.1754     4.2211     7.7495     3.4928     38.9964    5.0902     0.4139    
3038.40007 2.0951     6.0536     7.9439     6.0962     4.2211     7.662      3.3583     40.3571    5.0321     0.4103    
3038.60007 2.0493     6.1209     7.9117     6.0644     4.1682     7.6791     3.3149     40.9445    4.9932     0.4076    
3038.80007 2.0338     6.0969     7.83       6.0436     4.1682     7.8291     3.3103     40.769     4.9474     0.4027    
3039.000071 1.9954     6.03       7.799      6.0041     4.1682     7.9511     3.3644     41.0986    4.8618     0.4081    
3039.200071 2.0443     6.0989     7.73       5.9467     4.2211     7.9493     3.0263     42.3591    4.8334     0.4119    
3039.400071 1.9935     5.886      7.6132     5.8406     4.2211     7.7976     3.0087     42.4196    4.8254     0.4172    
3039.600071 1.9415     5.7603     7.5631     5.783      4.2211     7.8705     3.0843     40.6092    4.7676     0.4136    
3039.800071 1.9415     5.7847     7.6474     5.8464     4.1682     7.9285     3.1798     39.2532    4.7051     0.4039    
3040.000071 1.9565     5.8126     7.7228     5.8742     4.1174     7.9285     3.2168     39.9748    4.6736     0.402     
3040.200071 1.9757     5.7623     7.6423     5.7769     4.1076     7.9285     2.9818     41.1336    4.6241     0.4032    
3040.400071 1.9415     5.5237     7.3639     5.6431     4.0622     7.9993     2.7924     40.3773    4.623      0.4082    
3040.600071 1.8584     5.2479     7.0639     5.5463     4.0885     8.4262     2.5261     38.5032    4.7158     0.4137    
3040.800071 1.7429     4.9738     6.8168     5.598      4.2019     8.9885     2.6754     37.3791    4.8416     0.4081    
3041.000072 1.6721     4.8742     6.8608     5.8412     4.3684     9.4085     3.2746     37.1805    5.0583     0.4036    
3041.200072 1.7164     5.0971     7.2537     6.278      4.4826     9.2202     5.317      37.099     5.2453     0.4016    
3041.400072 2.0698     5.9259     7.8459     6.6677     4.5389     8.5186     8.142      36.336     5.3128     0.4088    
3041.600072 2.3327     6.3606     8.1306     6.7802     4.486      7.9382     7.1706     35.5505    5.3113     0.4141    
3041.800072 2.2923     6.2984     8.0015     6.6569     4.3574     7.7686     3.196      35.8006    5.1612     0.4198    
3042.000072 2.2063     6.3654     7.7949     6.5395     4.2439     7.8117     3.2026     36.4241    4.9973     0.4163    
3042.200072 2.1231     6.488      7.776      6.4566     4.0763     7.8219     3.3222     36.2004    4.8804     0.4095    
3042.400072 2.1032     6.6209     7.7471     6.3276     4.0093     7.8219     3.3368     34.9389    4.7877     0.4022    
3042.600072 2.0394     6.284      7.5965     6.1442     3.9526     7.8894     3.0957     33.7768    4.7521     0.403     
3042.800072 1.9469     5.8709     7.4127     5.9809     3.9033     8.112      2.8489     33.0865    4.7589     0.4081    
3043.000072 1.8889     5.655      7.3793     5.9384     3.9033     8.3433     3.0071     32.1885    4.7802     0.4109    
