~Version
 VERS              .         2.0                           : CWLS LOG ASCII STANDARD - VERSION 2.0
 WRAP              .         NO                            : ONE LINE PER DEPTH STEP
 DLM               .         SPACE                         : DELIMITING CHARACTER(SPACE TAB OR COMMA)
~Well Information
#_______________________________________________________________________________
#
#PARAMETER_NAME    .UNIT     VALUE                         : DESCRIPTION
#_______________________________________________________________________________
STRT               .m        2898                          : First reference value
STOP               .m        3121.600112                   : Last reference value
STEP               .m        0.2000001                     : Step increment
NULL               .         -9999                         : Missing value
COMP               .                                       : Company
WELL               .         200                           : Well name
FLD                .                                       : Field
LOC                .                                       : Location
CNTY               .                                       : County
STAT               .                                       : State
CTRY               .                                       : Country
SRVC               .                                       : Service Company
DATE               .                                       : Date
API                .                                       : API number
EREF               .m        139.76                        : 
Pad                .         2                             : 
X                  .m        228492                        : 
Y                  .m        241733                        : 
group              .         Pad2                          : 
Интер-р            .         Зайцев                        : 
Куст               .         2                             : 
Статус             .         Не проверено                  : 
Тип                .         Разведка                      : 
~Parameter Information Block
#_______________________________________________________________________________
#
#PARAMETER_NAME    .UNIT     VALUE                         : DESCRIPTION
#_______________________________________________________________________________
SET                .         LAS1                          : 
REAL_CREATION_DATE .         Ср апр 11 2012-13_17_06       : 
TLFamily_DEPTH     .         Measured Depth                : 
TLFamily_GZ1       .         Extra Shallow Resistivity     : 
TLFamily_GZ2       .         Shallow Resistivity           : 
TLFamily_GZ3       .         Medium Resistivity            : 
TLFamily_GZ4       .         Deep Resistivity              : 
TLFamily_GZ5       .         Extra Deep Resistivity        : 
TLFamily_GZr       .         Medium Resistivity Inverted   : 
TLFamily_LLD       .         Lateral Log Resistivity       : 
TLFamily_PS        .         Spontaneous Potential         : 
TLFamily_PZ        .         Potential Resistivity         : 
TLFamily_RS        .         Mud Resistivity               : 
group              .         INI                           : 
~Curve Information
#_______________________________________________________________________________
#
#LOGNAME           .UNIT     LOG_ID                        : DESCRIPTION
#_______________________________________________________________________________
DEPTH              .m                                      : 1 Depth 
GZ1                .ohm.m                                  : 3 Подошвенный градиент-зонд А0.4М0.1N 
GZ2                .ohm.m                                  : 4 Подошвенный градиент-зонд А1.0М0.1N 
GZ3                .ohm.m                                  : 5 Подошвенный градиент-зонд А2.0М0.5N 
GZ4                .ohm.m                                  : 6 Подошвенный градиент-зонд А4.0М0.5N 
GZ5                .ohm.m                                  : 7 Подошвенный градиент-зонд А8.0М1.0N 
GZr                .ohm.m                                  : 8 Кровельный градиент-зонд N0.5M2.0A 
LLD                .ohm.m                                  : 11 Трехэлектродный  бокового каротажа БК-3 
PS                 .mV                                     : 2 Потенциал самопроизвольной поляризации 
PZ                 .ohm.m                                  : 9 Однополюсный потенциал-зонд N6.0М0.5А 
RS                 .ohm.m                                  : 10 УЭС жидкости в стволе скажины 
~Ascii
# ...
2924.400013 2.1127     6.3116     8.7187     7.1303     4.3271     7.7522     3.9959     30.4465    5.1913     0.4294    
2924.600013 2.1571     6.427      8.8313     7.2011     4.2824     7.7153     3.9562     31.4841    5.0912     0.4316    
2924.800013 2.1982     6.5461     8.8819     7.1905     4.2715     7.718      3.6206     34.3092    4.9789     0.4316    
2925.000014 2.1483     6.4593     8.7645     7.0984     4.2129     7.898      3.195      35.855     4.8925     0.4264    
2925.200014 2.1032     6.3243     8.6151     6.9885     4.1026     8.1832     3.2105     35.6274    4.8098     0.431     
2925.400014 2.0543     6.2137     8.4775     6.8576     3.9923     8.5267     3.1805     34.8368    4.7284     0.4257    
2925.600014 2.0224     6.073      8.2537     6.6891     3.9332     8.8368     3.1114     32.8522    4.6694     0.4239    
2925.800014 1.9666     5.8594     8.0272     6.5224     3.8197     9.1727     3.0849     29.7595    4.6204     0.4198    
2926.000014 1.9351     5.6475     7.8032     6.3574     3.7605     9.5779     3.064      27.4308    4.6204     0.4195    
2926.200014 1.8876     5.5263     7.5907     6.1698     3.6915     10.078     3.0412     27.1824    4.6344     0.4139    
2926.400014 1.8876     5.4144     7.41       6.0529     3.6385     10.5798    3.1413     29.3312    4.6917     0.4139    
2926.600014 1.8472     5.3348     7.2252     5.8951     3.5855     11.0242    3.1682     32.5354    4.7487     0.4139    
2926.800014 1.8338     5.2375     7.0133     5.7842     3.5326     11.47      3.2149     34.3564    4.8779     0.4139    
2927.000014 1.8081     5.1316     6.812      5.7107     3.5326     11.8339    3.4486     35.0566    5.0454     0.4139    
2927.200015 1.7845     5.107      6.6932     5.6753     3.5326     12.0183    3.8747     36.3616    5.2143     0.4127    
2927.400015 1.8316     5.192      6.658      5.6508     3.5326     12.0581    4.2108     37.6355    5.4361     0.4081    
2927.600015 1.891      5.3683     6.7718     5.7029     3.5855     11.9883    4.573      36.8918    5.6071     0.4081    
2927.800015 1.9739     5.6354     6.9474     5.8098     3.5855     11.8881    4.6856     34.68      5.7763     0.4081    
2928.000015 2.0314     5.8343     7.136      5.8655     3.6385     11.7943    4.5152     33.4669    5.9024     0.4081    
2928.200015 2.0493     6.0315     7.3039     5.9201     3.6385     11.7115    4.7383     33.7026    6.0141     0.4081    
2928.400015 2.0652     6.2567     7.5284     5.9877     3.6915     11.6262    4.9596     34.8692    6.1034     0.4081    
2928.600015 2.1239     6.5257     7.9377     6.1269     3.7013     11.452     5.2146     37.2105    6.1969     0.4081    
2928.800015 2.1808     6.8096     8.4269     6.2649     3.7073     11.1905    5.2439     40.07      6.2182     0.4089    
2929.000015 2.2368     7.0129     8.7977     6.3281     3.7232     10.9771    4.924      42.1228    6.2182     0.4139    
2929.200016 2.2111     7.07       9.1352     6.3593     3.6915     10.8694    4.5604     42.7643    6.2182     0.4139    
2929.400016 2.211      7.0222     9.3906     6.3611     3.6915     10.8813    4.4705     42.0229    6.1809     0.4139    
2929.600016 2.1772     7.0177     9.6097     6.417      3.6538     10.9375    4.5194     40.0532    6.1649     0.4178    
2929.800016 2.1571     7.0177     9.7902     6.5373     3.6385     11.0456    4.5814     37.7144    6.1649     0.4198    
2930.000016 2.1571     7.0177     9.9992     6.6676     3.6385     11.1061    4.6284     36.1974    6.1649     0.4198    
2930.200016 2.1828     6.997      10.0823    6.7786     3.6915     11.2188    4.446      36.1984    6.1649     0.4198    
2930.400016 2.1571     6.8746     10.1185    6.8904     3.6915     11.3299    4.4698     38.4181    6.1649     0.4198    
2930.600016 2.1571     6.8605     10.1671    7.0459     3.6915     11.4412    4.6793     41.7803    6.1649     0.4198    
2930.800016 2.1571     6.8605     10.2231    7.2333     3.7102     11.5693    4.6079     43.6018    6.1649     0.4181    
2931.000017 2.1611     6.8605     10.225     7.4533     3.7444     11.8268    4.5416     44.0271    6.1649     0.4226    
2931.200017 2.2045     6.8853     10.1914    7.6516     3.7974     12.132     4.3211     44.8648    6.1649     0.4313    
2931.400017 2.1473     6.7308     10.0747    7.878      3.8504     12.5643    4.4289     44.7498    6.1649     0.4257    
2931.600017 2.1419     6.761      10.012     8.0941     3.8983     13.089     4.4654     41.8801    6.1649     0.4257    
2931.800017 2.1396     6.7831     9.97       8.2739     3.9563     13.5456    4.3539     38.6969    6.2118     0.4298    
2932.000017 2.0776     6.608      9.8768     8.3451     4.0183     14.0893    4.4052     38.387     6.2945     0.4153    
2932.200017 2.0802     6.5757     9.7746     8.4172     4.1152     14.7295    4.6488     39.9994    6.3555     0.4198    
2932.400017 2.0493     6.5385     9.7991     8.5737     4.1682     15.3433    5.055      41.9892    6.4131     0.4198    
2932.600017 2.1032     6.6431     9.851      8.6929     4.2211     15.736     4.9461     44.9392    6.5262     0.4198    
2932.800017 2.0976     6.6285     9.7658     8.6761     4.358      15.8703    4.84       48.724     6.6473     0.4172    
2933.000018 2.0413     6.4482     9.6544     8.6493     4.4694     15.9841    4.8629     52.402     6.8019     0.4136    
2933.200018 2.0314     6.4994     9.6745     8.7976     4.5794     16.3879    5.3706     55.1499    6.9141     0.412     
2933.400018 2.0878     6.7958     9.8373     8.9899     4.7893     16.5322    5.5556     56.03      7.0479     0.4135    
2933.600018 2.0442     6.7056     9.8945     9.0422     5.0157     16.3398    6.0566     55.3301    7.3126     0.4029    
2933.800018 2.0712     6.8107     10.1106    9.2855     5.4174     16.1313    6.2595     55.2041    7.5607     0.4022    
2934.000018 2.1571     7.0604     10.5279    9.7554     5.78       16.2712    6.2271     56.3651    7.7709     0.4022    
2934.200018 2.1571     7.1651     10.7843    10.1228    6.283      16.2967    6.3574     58.0439    7.9759     0.4022    
2934.400018 2.1571     7.2885     11.2739    10.7173    6.7908     16.277     7.5525     61.5741    8.1873     0.4022    
2934.600018 2.2024     7.6672     12.041     11.4973    7.2664     16.0061    10.5419    66.5839    8.3832     0.4048    
2934.800018 2.3724     8.2664     13.1512    12.455     7.6748     15.3498    13.5711    69.5301    8.4551     0.4059    
2935.000018 2.6157     9.2434     14.2785    13.2152    7.9637     14.1675    9.9104     69.8943    8.4381     0.4139    
2935.200019 2.7752     9.7026     15.1014    13.5864    8.0306     13.0623    6.9961     70.1532    8.2904     0.4139    
2935.400019 2.7931     9.8718     15.3977    13.4698    7.8704     12.3864    5.5372     70.5701    8.0442     0.4145    
2935.600019 2.7112     9.7612     15.4676    13.1715    7.5789     12.1201    5.1404     69.9237    7.8121     0.4185    
2935.800019 2.6161     9.5818     15.1482    12.7053    7.2927     12.0709    5.0768     69.4064    7.6191     0.4198    
2936.000019 2.449      9.1068     14.8352    12.3936    7.0112     11.9961    5.8515     70.5982    7.5051     0.4172    
2936.200019 2.394      8.891      14.9       12.333     6.7594     11.6388    7.1104     72.7498    7.3526     0.4146    
2936.400019 2.5702     9.26       15.3091    12.5196    6.4839     11.2095    5.5748     74.4071    7.225      0.4257    
2936.600019 2.5489     8.8912     15.3454    12.4839    6.3113     10.8144    5.1817     74.4865    7.0933     0.4295    
2936.800019 2.4919     8.5932     15.1163    12.2529    6.0409     10.533     5.1101     74.5544    6.9031     0.4262    
2937.000019 2.4804     8.4497     14.9238    12.0629    5.7614     10.3219    4.919      77.1352    6.7364     0.4267    
2937.20002 2.4335     8.3694     14.6379    11.8269    5.4853     10.1317    4.2446     80.6283    6.5379     0.4249    
2937.40002 2.3765     8.086      13.8781    11.4653    5.219      10.1894    3.6304     81.1335    6.4293     0.4242    
