~Version
 VERS              .         2.0                           : CWLS LOG ASCII STANDARD - VERSION 2.0
 WRAP              .         NO                            : ONE LINE PER DEPTH STEP
 DLM               .         SPACE                         : DELIMITING CHARACTER(SPACE TAB OR COMMA)
~Well Information
#_______________________________________________________________________________
#
#PARAMETER_NAME    .UNIT     VALUE                         : DESCRIPTION
#_______________________________________________________________________________
STRT               .m        2898                          : First reference value
STOP               .m        3121.600112                   : Last reference value
STEP               .m        0.2000001                     : Step increment
NULL               .         -9999                         : Missing value
COMP               .                                       : Company
WELL               .         200                           : Well name
FLD                .                                       : Field
LOC                .                                       : Location
CNTY               .                                       : County
STAT               .                                       : State
CTRY               .                                       : Country
SRVC               .                                       : Service Company
DATE               .                                       : Date
API                .                                       : API number
EREF               .m        139.76                        : 
Pad                .         2                             : 
X                  .m        228492                        : 
Y                  .m        241733                        : 
group              .         Pad2                          : 
Интер-р            .         Зайцев                        : 
Куст               .         2                             : 
Статус             .         Не проверено                  : 
Тип                .         Разведка                      : 
~Parameter Information Block
#_______________________________________________________________________________
#
#PARAMETER_NAME    .UNIT     VALUE                         : DESCRIPTION
#_______________________________________________________________________________
SET                .         LAS4                          : 
REAL_CREATION_DATE .         Ср апр 11 2012-13_17_06       : 
TLFamily_DEPTH     .         Measured Depth                : 
TLFamily_GR        .         Gamma Ray                     : 
TLFamily_TNPH      .         Neutron Porosity              : 
group              .         INI                           : 
~Curve Information
#_______________________________________________________________________________
#
#LOGNAME           .UNIT     LOG_ID                        : DESCRIPTION
#_______________________________________________________________________________
DEPTH              .m                                      : 1 Depth 
GR                 .gAPI                                   :  
TNPH               .v/v                                    : 4 Суммарное водородосодержание 
~Ascii
# ...
2992.400047 251.206    0.291834  
2992.600047 242.149    0.268607  
2992.800047 233.743    0.272156  
2993.000048 225.102    0.299579  
2993.200048 213.33     0.327469  
2993.400048 196.213    0.324329  
2993.600048 182.316    0.301193  
2993.800048 176.858    0.277918  
2994.000048 175.166    0.263685  
2994.200048 176.407    0.26739   
2994.400048 180.716    0.282791  
2994.600048 196.922    0.317097  
2994.800048 231.191    0.364021  
2995.000049 265.122    0.372904  
2995.200049 277.066    0.333477  
2995.400049 278.924    0.299058  
2995.600049 301.694    0.298263  
2995.800049 352.539    0.328031  
2996.000049 414.925    0.349915  
2996.200049 454.06     0.320113  
2996.400049 400.784    0.231667  
2996.600049 288.811    0.194984  
2996.800049 227.502    0.200303  
2997.000049 235.301    0.218544  
2997.20005 253.238    0.228754  
2997.40005 272.866    0.244421  
2997.60005 323.415    0.27248   
2997.80005 367.087    0.299371  
2998.00005 372.247    0.305313  
2998.20005 360.793    0.324963  
2998.40005 354.061    0.354923  
2998.60005 358.308    0.356935  
2998.80005 357.74     0.330711  
2999.00005 347.53     0.308612  
2999.200051 331.93     0.301307  
2999.400051 308.271    0.311648  
2999.600051 283.972    0.335944  
2999.800051 274.187    0.335087  
3000.000051 276.323    0.305452  
3000.200051 282.818    0.308966  
3000.400051 295.737    0.346833  
3000.600051 303.981    0.380497  
3000.800051 302.237    0.3857    
3001.000052 304.311    0.352924  
3001.200052 313.429    0.317977  
3001.400052 322.521    0.316041  
3001.600052 315.426    0.328305  
3001.800052 303.63     0.347619  
3002.000052 298.042    0.373672  
3002.200052 292.311    0.387699  
3002.400052 282.85     0.365541  
3002.600052 277.088    0.338245  
3002.800052 273.442    0.349405  
3003.000053 264.698    0.382979  
3003.200053 257.618    0.391224  
3003.400053 256.011    0.376932  
3003.600053 246.081    0.368122  
3003.800053 220.558    0.352759  
3004.000053 191.176    0.346191  
3004.200053 177.563    0.353343  
3004.400053 181.482    0.355898  
3004.600053 188.239    0.339032  
3004.800053 186.967    0.323536  
3005.000053 185.063    0.325864  
3005.200054 191.635    0.343832  
3005.400054 199.894    0.360106  
3005.600054 195.384    0.348778  
3005.800054 182.586    0.326533  
3006.000054 168.346    0.315918  
3006.200054 154.652    0.296926  
3006.400054 143.829    0.282011  
3006.600054 133.869    0.286099  
3006.800054 130.61     0.290804  
3007.000054 131.157    0.291644  
3007.200055 131.945    0.278689  
3007.400055 139.515    0.259449  
3007.600055 145.608    0.25978   
3007.800055 142.278    0.264211  
3008.000055 138.219    0.250054  
3008.200055 144.371    0.242793  
3008.400055 159.039    0.257266  
3008.600055 169.009    0.272755  
3008.800055 156.581    0.271411  
3009.000056 138.024    0.265402  
3009.200056 135.831    0.255292  
3009.400056 138.661    0.251518  
3009.600056 130.476    0.256625  
3009.800056 121.639    0.268104  
3010.000056 115.615    0.273598  
3010.200056 111.057    0.266527  
3010.400056 113.804    0.257618  
3010.600056 116.878    0.247738  
3010.800056 111.364    0.238983  
3011.000057 106.649    0.236025  
3011.200057 111.514    0.232244  
3011.400057 117.594    0.235618  
3011.600057 117.052    0.25302   
3011.800057 115.73     0.27348   
3012.000057 119.712    0.283795  
3012.200057 118.5      0.284241  
3012.400057 113.741    0.275693  
3012.600057 110.707    0.275321  
3012.800057 112.177    0.287084  
3013.000057 119.189    0.294412  
3013.200058 127.524    0.293022  
3013.400058 134.68     0.293398  
3013.600058 139.431    0.304424  
3013.800058 141.293    0.3155    
3014.000058 139.774    0.298785  
3014.200058 130.937    0.274036  
3014.400058 119.351    0.278135  
3014.600058 114.551    0.284711  
3014.800058 118.994    0.277495  
3015.000058 128.25     0.283763  
3015.200059 129.986    0.279579  
3015.400059 118.908    0.249827  
3015.600059 103.451    0.239011  
3015.800059 94.033     0.242702  
3016.000059 94.39201   0.247341  
3016.200059 100.721    0.269057  
3016.400059 108.703    0.300559  
3016.600059 120.155    0.325234  
3016.800059 131.874    0.337502  
3017.00006 137.672    0.322513  
3017.20006 131.923    0.312571  
3017.40006 123.023    0.313692  
3017.60006 116.326    0.29709   
3017.80006 112.387    0.27714   
3018.00006 109.467    0.266276  
3018.20006 109.953    0.273416  
3018.40006 123.57     0.282889  
3018.60006 144.026    0.291977  
3018.80006 155.327    0.30594   
3019.000061 154.29     0.3172    
3019.200061 149.76     0.320659  
3019.400061 147.928    0.306772  
3019.600061 152.629    0.290984  
3019.800061 159.339    0.300581  
3020.000061 161.54     0.315082  
3020.200061 155.882    0.306066  
3020.400061 143.868    0.299831  
3020.600061 137.323    0.308095  
3020.800061 143.577    0.318874  
3021.000061 148.794    0.316916  
3021.200062 145.067    0.311906  
3021.400062 151.969    0.32665   
3021.600062 177.293    0.355649  
3021.800062 199.2      0.368667  
3022.000062 193.006    0.357513  
3022.200062 163.141    0.345403  
3022.400062 135.02     0.320333  
3022.600062 132.776    0.310159  
3022.800062 134.202    0.317498  
3023.000062 136.356    0.327071  
3023.200063 134.414    0.312821  
3023.400063 128.829    0.280782  
3023.600063 125.257    0.255662  
3023.800063 120.471    0.220748  
3024.000063 107.866    0.186697  
3024.200063 105.008    0.183239  
3024.400063 120.774    0.205038  
3024.600063 137.868    0.225707  
3024.800063 144.516    0.238279  
3025.000064 142.46     0.246418  
3025.200064 135.567    0.266776  
3025.400064 132.822    0.288028  
3025.600064 131.269    0.283922  
3025.800064 125.153    0.264034  
3026.000064 121.465    0.262058  
3026.200064 124.38     0.276135  
3026.400064 127.561    0.295836  
3026.600064 123.368    0.282842  
3026.800064 117.892    0.252521  
3027.000065 118.821    0.244985  
3027.200065 122.426    0.246974  
3027.400065 123.758    0.249641  
3027.600065 124.861    0.257921  
3027.800065 123.444    0.256949  
3028.000065 118.885    0.258614  
3028.200065 102.121    0.238125  
3028.400065 78.493     0.207129  
3028.600065 77.48901   0.201133  
3028.800065 102.573    0.223455  
3029.000065 110.184    0.25278   
3029.200066 115.332    0.266591  
3029.400066 122.675    0.271494  
3029.600066 123.964    0.26102   
3029.800066 122.463    0.249984  
3030.000066 125        0.253573  
3030.200066 125.62     0.277465  
3030.400066 117.569    0.275862  
3030.600066 113.462    0.252197  
3030.800066 123.684    0.257952  
3031.000066 134.342    0.281604  
3031.200067 134.601    0.300354  
3031.400067 134.644    0.307168  
3031.600067 134.517    0.292722  
3031.800067 130.345    0.275607  
3032.000067 123.042    0.261848  
3032.200067 119.583    0.257053  
3032.400067 118.638    0.265134  
3032.600067 115.961    0.275116  
3032.800067 118.764    0.272041  
3033.000068 120.63     0.259438  
3033.200068 118.455    0.254941  
3033.400068 116.405    0.260235  
3033.600068 114.122    0.259866  
3033.800068 110.634    0.254429  
3034.000068 110.041    0.256783  
3034.200068 115.17     0.258906  
3034.400068 122.592    0.253585  
3034.600068 125.24     0.249107  
3034.800068 126.79     0.240103  
3035.000068 125.208    0.232112  
3035.200069 125.368    0.227167  
3035.400069 130.064    0.240145  
3035.600069 135.166    0.26143   
3035.800069 137.925    0.27482   
3036.000069 141.628    0.288896  
3036.200069 144.095    0.289659  
3036.400069 142.129    0.274505  
3036.600069 139.789    0.267604  
3036.800069 141.352    0.271006  
3037.000069 142.258    0.274491  
3037.20007 139.068    0.271092  
3037.40007 135.979    0.272636  
3037.60007 134.692    0.282889  
3037.80007 129.914    0.289393  
3038.00007 123.198    0.294475  
3038.20007 123.65     0.277903  
3038.40007 128.12     0.275163  
3038.60007 132.863    0.297398  
3038.80007 129.714    0.297336  
3039.000071 119.783    0.264647  
3039.200071 112.903    0.241174  
3039.400071 112.185    0.250845  
3039.600071 116.289    0.266993  
