~Version
 VERS              .         2.0                           : CWLS LOG ASCII STANDARD - VERSION 2.0
 WRAP              .         NO                            : ONE LINE PER DEPTH STEP
 DLM               .         SPACE                         : DELIMITING CHARACTER(SPACE TAB OR COMMA)
~Well Information
#_______________________________________________________________________________
#
#PARAMETER_NAME    .UNIT     VALUE                         : DESCRIPTION
#_______________________________________________________________________________
STRT               .m        2898                          : First reference value
STOP               .m        3121.600112                   : Last reference value
STEP               .m        0.2000001                     : Step increment
NULL               .         -9999                         : Missing value
COMP               .                                       : Company
WELL               .         200                           : Well name
FLD                .                                       : Field
LOC                .                                       : Location
CNTY               .                                       : County
STAT               .                                       : State
CTRY               .                                       : Country
SRVC               .                                       : Service Company
DATE               .                                       : Date
API                .                                       : API number
EREF               .m        139.76                        : 
Pad                .         2                             : 
X                  .m        228492                        : 
Y                  .m        241733                        : 
group              .         Pad2                          : 
Интер-р            .         Зайцев                        : 
Куст               .         2                             : 
Статус             .         Не проверено                  : 
Тип                .         Разведка                      : 
~Parameter Information Block
#_______________________________________________________________________________
#
#PARAMETER_NAME    .UNIT     VALUE                         : DESCRIPTION
#_______________________________________________________________________________
SET                .         LAS1                          : 
REAL_CREATION_DATE .         Ср апр 11 2012-13_17_06       : 
TLFamily_DEPTH     .         Measured Depth                : 
TLFamily_GZ1       .         Extra Shallow Resistivity     : 
TLFamily_GZ2       .         Shallow Resistivity           : 
TLFamily_GZ3       .         Medium Resistivity            : 
TLFamily_GZ4       .         Deep Resistivity              : 
TLFamily_GZ5       .         Extra Deep Resistivity        : 
TLFamily_GZr       .         Medium Resistivity Inverted   : 
TLFamily_LLD       .         Lateral Log Resistivity       : 
TLFamily_PS        .         Spontaneous Potential         : 
TLFamily_PZ        .         Potential Resistivity         : 
TLFamily_RS        .         Mud Resistivity               : 
group              .         INI                           : 
~Curve Information
#_______________________________________________________________________________
#
#LOGNAME           .UNIT     LOG_ID                        : DESCRIPTION
#_______________________________________________________________________________
DEPTH              .m                                      : 1 Depth 
GZ1                .ohm.m                                  : 3 Подошвенный градиент-зонд А0.4М0.1N 
GZ2                .ohm.m                                  : 4 Подошвенный градиент-зонд А1.0М0.1N 
GZ3                .ohm.m                                  : 5 Подошвенный градиент-зонд А2.0М0.5N 
GZ4                .ohm.m                                  : 6 Подошвенный градиент-зонд А4.0М0.5N 
GZ5                .ohm.m                                  : 7 Подошвенный градиент-зонд А8.0М1.0N 
GZr                .ohm.m                                  : 8 Кровельный градиент-зонд N0.5M2.0A 
LLD                .ohm.m                                  : 11 Трехэлектродный  бокового каротажа БК-3 
PS                 .mV                                     : 2 Потенциал самопроизвольной поляризации 
PZ                 .ohm.m                                  : 9 Однополюсный потенциал-зонд N6.0М0.5А 
RS                 .ohm.m                                  : 10 УЭС жидкости в стволе скажины 
~Ascii
2898.0000000 1.0843     0          0          0          0          13.9949    94.6662    0          3.5817     0.3904    
2898.2     1.4096     0.1455     0          0          0          12.5683    93.2456    0.0151     4.0974     0.3904    
2898.4     1.6142     1.7207     0          0          0          11.4631    97.7659    3.5764     4.4153     0.3904    
2898.6     1.7529     3.2087     0          0          0          10.6323    101.9268   9.2912     4.6506     0.3904    
2898.8     1.835      4.2485     0          0          0          10.0555    103.865    15.1878    4.8126     0.3908    
2899.000001 1.969      5.0149     0          0          0          9.6942     104.5582   21.3391    4.8737     0.3968    
2899.200001 1.9969     5.3908     0          0          0          9.3852     109.5069   26.9765    4.9186     0.4081    
2899.400001 2.0224     5.6043     0.2184     0          0          9.1836     113.8418   31.0177    4.9399     0.4086    
2899.600001 1.9954     5.7533     2.3149     0          0          9.0593     199.6031   33.0897    4.8867     0.4156    
2899.800001 2.0493     5.9277     4.2762     0          0          8.9868     1437.498   33.3835    4.8804     0.4198    
2900.000001 2.0493     5.9698     5.6879     0          0          8.8988     593.132    32.6381    4.843      0.4198    
2900.200001 2.0493     5.9436     6.3266     0          0          8.9145     0          31.9414    4.8334     0.4198    
2900.400001 1.9954     5.8409     6.7339     0          0          9.0222     0          31.7431    4.8334     0.4198    
2900.600001 1.953      5.7289     6.9787     0          0          9.1542     2.389      31.5524    4.8334     0.4198    
2900.800001 1.9415     5.6817     7.1301     0          0          9.1544     3.0645     31.9742    4.9127     0.4198    
2901.000002 1.9415     5.6031     7.217      0          0          9.0624     3.1798     34.1445    4.9817     0.4198    
2901.200002 1.9445     5.6293     7.2523     0          0          9.0478     3.2895     37.8681    5.0411     0.4198    
2901.400002 1.9954     5.6682     7.3633     0.0652     0          9.0478     3.3355     41.2407    5.0663     0.4198    
2901.600002 1.9954     5.7816     7.4353     1.4319     0          9.0247     3.4709     42.8131    5.0997     0.4257    
2901.800002 2.0493     5.9295     7.5365     2.8047     0          8.9678     3.5431     43.1222    5.0997     0.4263    
2902.000002 2.0493     6.0054     7.5631     3.7453     0          8.9412     3.4015     41.8705    5.0997     0.4269    
2902.200002 2.0493     5.9536     7.5631     4.3192     0          8.9412     3.4318     39.4326    5.0997     0.4306    
2902.400002 2.0166     5.937      7.5098     4.6729     0          8.9711     3.3598     38.1957    5.0997     0.4257    
2902.600002 1.9954     5.9174     7.5098     4.9229     0          9.0541     3.3385     38.3927    5.0997     0.4257    
2902.800002 1.9954     5.9026     7.5403     5.1422     0          9.2367     3.3426     38.7942    5.0997     0.4257    
2903.000002 1.9954     5.887      7.6581     5.3187     0          9.4049     3.4943     39.5103    5.0997     0.4257    
2903.200003 1.9954     5.9174     7.7494     5.4471     0          9.5167     3.5507     40.9617    5.1074     0.4233    
2903.400003 1.9954     5.9174     7.776      5.5322     0          9.4463     3.5381     42.8955    5.153      0.4198    
2903.600003 1.9954     5.865      7.7998     5.6017     0          9.3835     3.5934     44.9791    5.153      0.4198    
2903.800003 1.9954     5.9174     7.8353     5.6628     0          9.3676     3.6511     46.6003    5.2062     0.4219    
2904.000003 1.9954     5.9237     7.8825     5.7016     0          9.3676     3.6215     46.0486    5.2062     0.4257    
2904.200003 2.0132     5.9579     7.9035     5.7528     0          9.4458     3.5472     43.3919    5.2198     0.4227    
2904.400003 1.9685     5.8985     7.8537     5.7805     0          9.5676     3.4525     40.7983    5.2921     0.4198    
2904.600003 1.9292     5.803      7.7661     5.7805     0          9.7312     3.4162     39.2519    5.3725     0.4139    
2904.800003 1.9146     5.7603     7.7228     5.8321     0          9.794      3.7252     39.6097    5.4512     0.4139    
2905.000003 1.9415     5.8464     7.7851     6.006      0          9.7361     4.1627     41.8336    5.5427     0.4139    
2905.200004 1.982      6.0299     8.0681     6.2616     0          9.646      4.4501     44.1523    5.615      0.4137    
2905.400004 2.0866     6.6363     8.484      6.5073     0          9.4798     5.0324     45.0175    5.5815     0.416     
2905.600004 2.2576     6.6914     8.7825     6.7079     0          9.3403     4.7361     44.6889    5.5258     0.4198    
2905.800004 2.1949     6.6509     8.7773     6.7131     0.2354     9.3559     3.6202     44.7153    5.4429     0.4195    
2906.000004 2.1288     6.5542     8.6103     6.6248     1.0106     9.5156     3.4828     44.7445    5.366      0.4139    
2906.200004 2.0384     6.4206     8.487      6.6003     1.5517     9.6531     3.5497     43.091     5.366      0.4139    
2906.400004 1.9954     6.3539     8.4681     6.5697     1.9538     9.7411     3.7079     39.8608    5.366      0.4139    
2906.600004 1.9954     6.2614     8.4681     6.5796     2.2826     9.8363     3.7355     37.2744    5.4156     0.4187    
2906.800004 1.9954     6.1794     8.5174     6.6405     2.4939     9.8919     3.8844     37.7323    5.4228     0.4139    
2907.000005 2.0227     6.1794     8.5746     6.675      2.6862     9.8324     4.0068     41.1059    5.4725     0.4139    
2907.200005 2.017      6.1147     8.6278     6.675      2.8647     9.7201     4.0038     45.7855    5.5122     0.4104    
2907.400005 2.007      6.1704     8.6278     6.7354     2.9867     9.6874     3.9637     48.9208    5.5258     0.4081    
2907.600005 2.0493     6.2354     8.6793     6.8088     3.1584     9.7126     4.0044     48.3777    5.5258     0.4034    
2907.800005 2.0703     6.3774     8.7766     6.938      3.3133     9.6498     4.123      45.7212    5.5272     0.4076    
2908.000005 2.0774     6.4284     8.7343     7.0241     3.3737     9.5282     4.0659     43.1889    5.5791     0.4081    
2908.200005 2.1032     6.4134     8.7589     7.0433     3.4266     9.3982     4.0462     41.493     5.5503     0.4081    
2908.400005 2.0977     6.389      8.7564     7.0433     3.4796     9.2285     4.0995     40.7118    5.5694     0.4081    
2908.600005 2.0493     6.3648     8.7879     7.0624     3.5326     9.106      4.0219     40.7399    5.5258     0.4081    
2908.800005 2.0746     6.4157     8.8756     7.1091     3.5326     9.1011     3.9695     41.891     5.5087     0.412     
2909.000006 2.0748     6.4413     8.9569     7.1797     3.5855     9.0747     3.9494     44.5909    5.4725     0.4139    
2909.200006 2.0663     6.4413     9.0005     7.235      3.6443     9.1011     3.8891     46.9511    5.4725     0.4144    
2909.400006 2.0581     6.4277     9.017      7.2626     3.7123     9.1781     3.8214     46.9773    5.4469     0.4198    
2909.600006 2.0967     6.4797     9.0744     7.3279     3.7444     9.2728     3.861      46.3737    5.4193     0.4198    
2909.800006 2.0784     6.4248     9.107      7.3314     3.7974     9.3001     3.8732     45.7184    5.4193     0.4198    
2910.000006 2.0493     6.3451     9.0513     7.2694     3.7974     9.2443     3.9094     43.8996    5.4193     0.4198    
2910.200006 2.0797     6.3366     9.0005     7.2537     3.7974     9.2077     3.951      42.6913    5.4193     0.4228    
2910.400006 2.1032     6.3125     8.9924     7.2537     3.8504     9.2305     3.8646     42.7892    5.3785     0.4294    
2910.600006 2.1032     6.2858     8.9362     7.2533     3.8504     9.2354     3.8426     41.975     5.366      0.4316    
2910.800006 2.1032     6.307      8.8404     7.2251     3.8504     9.2083     3.8286     41.2307    5.366      0.4316    
2911.000006 2.0844     6.2761     8.7285     7.2011     3.8504     9.2077     3.8193     43.2834    5.366      0.4262    
