~Version
 VERS              .         2.0                           : CWLS LOG ASCII STANDARD - VERSION 2.0
 WRAP              .         NO                            : ONE LINE PER DEPTH STEP
 DLM               .         SPACE                         : DELIMITING CHARACTER(SPACE TAB OR COMMA)
~Well Information
#_______________________________________________________________________________
#
#PARAMETER_NAME    .UNIT     VALUE                         : DESCRIPTION
#_______________________________________________________________________________
STRT               .m        2898                          : First reference value
STOP               .m        3121.600112                   : Last reference value
STEP               .m        0.2000001                     : Step increment
NULL               .         -9999                         : Missing value
COMP               .                                       : Company
WELL               .         200                           : Well name
FLD                .                                       : Field
LOC                .                                       : Location
CNTY               .                                       : County
STAT               .                                       : State
CTRY               .                                       : Country
SRVC               .                                       : Service Company
DATE               .                                       : Date
API                .                                       : API number
EREF               .m        139.76                        : 
Pad                .         2                             : 
X                  .m        228492                        : 
Y                  .m        241733                        : 
group              .         Pad2                          : 
Интер-р            .         Зайцев                        : 
Куст               .         2                             : 
Статус             .         Не проверено                  : 
Тип                .         Разведка                      : 
~Parameter Information Block
#_______________________________________________________________________________
#
#PARAMETER_NAME    .UNIT     VALUE                         : DESCRIPTION
#_______________________________________________________________________________
SET                .         LAS1                          : 
REAL_CREATION_DATE .         Ср апр 11 2012-13_17_06       : 
TLFamily_DEPTH     .         Measured Depth                : 
TLFamily_GZ1       .         Extra Shallow Resistivity     : 
TLFamily_GZ2       .         Shallow Resistivity           : 
TLFamily_GZ3       .         Medium Resistivity            : 
TLFamily_GZ4       .         Deep Resistivity              : 
TLFamily_GZ5       .         Extra Deep Resistivity        : 
TLFamily_GZr       .         Medium Resistivity Inverted   : 
TLFamily_LLD       .         Lateral Log Resistivity       : 
TLFamily_PS        .         Spontaneous Potential         : 
TLFamily_PZ        .         Potential Resistivity         : 
TLFamily_RS        .         Mud Resistivity               : 
group              .         INI                           : 
~Curve Information
#_______________________________________________________________________________
#
#LOGNAME           .UNIT     LOG_ID                        : DESCRIPTION
#_______________________________________________________________________________
DEPTH              .m                                      : 1 Depth 
GZ1                .ohm.m                                  : 3 Подошвенный градиент-зонд А0.4М0.1N 
GZ2                .ohm.m                                  : 4 Подошвенный градиент-зонд А1.0М0.1N 
GZ3                .ohm.m                                  : 5 Подошвенный градиент-зонд А2.0М0.5N 
GZ4                .ohm.m                                  : 6 Подошвенный градиент-зонд А4.0М0.5N 
GZ5                .ohm.m                                  : 7 Подошвенный градиент-зонд А8.0М1.0N 
GZr                .ohm.m                                  : 8 Кровельный градиент-зонд N0.5M2.0A 
LLD                .ohm.m                                  : 11 Трехэлектродный  бокового каротажа БК-3 
PS                 .mV                                     : 2 Потенциал самопроизвольной поляризации 
PZ                 .ohm.m                                  : 9 Однополюсный потенциал-зонд N6.0М0.5А 
RS                 .ohm.m                                  : 10 УЭС жидкости в стволе скажины 
~Ascii
# ...
2937.60002 2.1825     7.3931     12.9192    11.1078    5.0478     10.4979    4.2385     78.4032    6.3433     0.4216    
2937.80002 2.0983     7.1152     12.3229    10.964     4.9348     10.7359    4.9681     76.1282    6.3247     0.4198    
2938.00002 2.0894     7.1187     12.2267    11.1688    4.8567     10.7305    5.0974     76.2022    6.3247     0.4198    
2938.20002 2.202      7.2484     12.2377    11.4159    4.8567     10.7509    4.2744     76.9336    6.3247     0.4159    
2938.40002 2.2131     7.0178     12.0894    11.5401    4.9009     10.8863    4.6345     76.8073    6.3247     0.4135    
2938.60002 2.1318     6.8471     11.84      11.6021    4.9097     10.9133    5.0783     76.1561    6.3247     0.4129    
2938.80002 2.1768     7.0003     11.7248    11.8579    4.9097     10.8404    4.8747     75.6787    6.3247     0.4139    
2939.000021 2.211      7.1224     11.5509    12.0928    4.9097     10.7145    4.7547     76.081     6.3247     0.4079    
2939.200021 2.211      7.0978     11.3203    12.1268    4.8567     10.577     5.0318     78.3083    6.3202     0.4024    
2939.400021 2.2148     7.2333     11.12      11.9985    4.8038     10.3249    4.9626     82.4107    6.2626     0.4081    
2939.600021 2.2574     7.257      10.9211    11.7269    4.7198     10.0881    4.5798     87.0192    6.2182     0.405     
2939.800021 2.2212     7.1527     10.6735    11.3208    4.6077     9.9022     4.4389     91.0876    6.1622     0.406     
2940.000021 2.2138     7.0593     10.4383    10.865     4.5495     9.8185     4.0615     94.4075    6.0684     0.4081    
2940.200021 2.1408     6.803      10.1685    10.4346    4.5389     9.8301     4.1098     96.703     6.0584     0.4081    
2940.400021 2.0781     6.7056     10.0653    10.2503    4.5389     9.9006     4.6807     97.9104    5.9819     0.4081    
2940.600021 2.1517     6.8707     10.1319    10.1656    4.5468     9.8892     4.3228     98.175     5.9519     0.4081    
2940.800021 2.1055     6.7155     10.1488    9.9919     4.6055     9.6272     4.6115     98.474     5.9199     0.4081    
2941.000022 2.1557     6.7033     10.0411    9.6749     4.6449     9.2179     4.359      99.5072    5.8937     0.4081    
2941.200022 2.1032     6.5392     9.8946     9.3624     4.6978     8.9813     4.0373     99.8674    5.8454     0.4081    
2941.400022 2.0952     6.4186     9.6739     9.0359     4.8102     9.0353     3.8256     97.4736    5.8059     0.4081    
2941.600022 2.0383     6.2315     9.5254     8.9432     5.0362     9.4161     3.7302     92.5971    5.7921     0.4077    
2941.800022 1.9561     6.1311     9.495      9.0729     5.4528     10.0549    4.2394     87.383     5.7921     0.406     
2942.000022 1.9415     6.1959     9.5934     9.399      5.943      10.5046    4.7911     83.8292    5.8377     0.4072    
2942.200022 2.0047     6.2903     9.821      9.8908     6.5454     10.848     4.7501     82.1061    5.8939     0.4091    
2942.400022 2.0972     6.4929     10.1181    10.4598    7.3504     11.2212    4.511      81.4888    5.9196     0.4139    
2942.600022 2.1549     6.5869     10.4793    11.2478    8.2193     11.8358    4.4863     83.5464    5.8986     0.4139    
2942.800022 2.1074     6.7153     11.0775    12.2563    8.778      12.4501    5.7624     88.434     5.8547     0.4142    
2943.000022 2.286      7.5179     11.4461    12.7168    9.0868     12.2061    5.0055     93.4866    5.7806     0.4195    
2943.200023 2.3279     7.2426     11.0901    12.1416    9.1471     11.2045    4.0247     97.4065    5.7799     0.4139    
2943.400023 2.1745     6.7288     10.0907    10.9482    8.8078     10.2311    3.865      100.4266   5.7481     0.4144    
2943.600023 2.0862     6.4183     9.3385     10.0633    8.1837     9.8998     3.8889     102.9441   5.7156     0.4155    
2943.800023 2.0297     6.2558     8.8562     9.5272     7.8291     9.764      3.8338     104.4201   5.6856     0.4198    
2944.000023 1.9478     6.0896     8.6282     9.1529     7.7089     9.7814     3.9227     104.4408   5.6558     0.4198    
2944.200023 1.9415     6.0597     8.6549     8.9546     7.6817     9.9305     4.1219     104.3586   5.6323     0.4197    
2944.400023 1.9666     6.0746     8.8195     8.8884     7.8185     10.1126    3.9272     104.5155   5.6323     0.4142    
2944.600023 1.9415     6.0048     8.9406     8.962      7.9894     10.4471    3.9281     103.9601   5.6427     0.4198    
2944.800023 1.9156     5.9196     9.238      9.1546     8.0878     10.8255    4.988      103.8261   5.6856     0.4198    
2945.000023 1.9783     6.2037     9.6928     9.3664     8.0486     10.8904    5.0987     105.212    5.7028     0.4157    
2945.200024 2.0496     6.2916     10.0464    9.228      7.8306     10.4549    4.9674     107.0361   5.7388     0.4139    
2945.400024 2.0672     6.2319     9.6945     8.7037     7.6642     9.7061     4.0223     107.9545   5.858      0.4129    
2945.600024 1.882      5.6556     9.2958     8.3991     7.3858     9.2595     4.2346     107.7272   5.8717     0.3911    
2945.800024 1.9762     6.1197     9.4316     8.6049     7.1108     9.3307     4.4921     107.192    5.7649     0.4022    
2946.000024 2.1006     6.5984     9.8165     8.9792     6.9754     9.6501     4.0494     106.6093   5.6539     0.4023    
2946.200024 2.0477     6.5485     9.6317     8.9652     6.953      9.7978     3.9744     105.2972   5.6323     0.4059    
2946.400024 2.0005     6.369      9.4569     8.9089     6.7568     9.9097     4.1126     103.2237   5.6323     0.4022    
2946.600024 2.0159     6.2422     9.277      8.8899     6.5849     10.1364    3.7236     100.2869   5.6712     0.4022    
2946.800024 1.95       5.8924     9.1771     8.9936     6.5517     10.5985    3.901      96.0513    5.726      0.4022    
2947.000025 1.8997     5.8814     9.2817     9.3942     6.5517     10.9905    4.8781     92.3606    5.8002     0.4026    
2947.200025 1.9572     6.1097     9.669      10.0225    6.6041     10.9862    5.1411     91.1648    5.8683     0.4081    
2947.400025 2.0592     6.363      9.9848     10.3992    6.6047     10.6764    5.1395     92.3866    5.9471     0.4081    
2947.600025 2.1511     6.5013     10.1132    10.4228    6.537      10.3266    4.7277     96.2558    5.9519     0.4075    
2947.800025 2.2072     6.638      9.944      10.1949    6.3727     10.0164    4.1157     101.5672   5.8997     0.4082    
2948.000025 2.184      6.5889     9.5811     9.7596     6.1841     9.9146     3.8418     104.9536   5.8652     0.4139    
2948.200025 2.0958     6.4137     9.1669     9.315      5.99       10.111     3.8158     105.8157   5.8543     0.4139    
2948.400025 1.9954     6.2605     8.9269     9.0576     5.9161     10.4083    4.0437     106.5371   5.8986     0.4136    
2948.600025 1.9852     6.1794     8.8504     9.0409     5.9161     10.8178    4.1269     107.1466   5.9582     0.412     
2948.800025 1.9415     6.1095     9.0041     9.2995     6.022      11.1185    5.3403     106.4135   6.0702     0.4144    
2949.000025 2.0445     6.3564     9.4384     9.7666     6.1809     11.1505    6.5869     105.5528   6.1117     0.4204    
2949.200026 2.1902     6.793      10.0077    10.1942    6.2339     10.8145    5.8017     105.8377   6.1117     0.4257    
2949.400026 2.3411     7.0327     10.367     10.2105    6.1434     10.4205    4.1658     107.0492   6.0469     0.4198    
2949.600026 2.2921     6.9039     10.2329    9.8566     5.9203     10.3387    3.9081     108.2921   5.8635     0.4198    
2949.800026 2.2068     6.8387     9.8713     9.343      5.7513     10.3947    3.5389     108.755    5.7574     0.4196    
2950.000026 2.0627     6.5382     9.4126     8.8966     5.6702     10.5841    3.2762     108.5612   5.7493     0.4139    
2950.200026 1.9077     6.0769     8.9617     8.6181     5.7042     11.0681    3.6594     107.9701   5.8061     0.4106    
2950.400026 1.8247     5.7898     8.8657     8.7149     5.864      11.6819    5.1572     106.2748   5.9044     0.4081    
2950.600026 1.8761     5.9833     9.2067     9.0595     6.0283     11.7176    7.3591     103.8654   5.9958     0.4081    
