~Version
 VERS              .         2.0                           : CWLS LOG ASCII STANDARD - VERSION 2.0
 WRAP              .         NO                            : ONE LINE PER DEPTH STEP
 DLM               .         SPACE                         : DELIMITING CHARACTER(SPACE TAB OR COMMA)
~Well Information
#_______________________________________________________________________________
#
#PARAMETER_NAME    .UNIT     VALUE                         : DESCRIPTION
#_______________________________________________________________________________
STRT               .m        2898                          : First reference value
STOP               .m        3121.600112                   : Last reference value
STEP               .m        0.2000001                     : Step increment
NULL               .         -9999                         : Missing value
COMP               .                                       : Company
WELL               .         200                           : Well name
FLD                .                                       : Field
LOC                .                                       : Location
CNTY               .                                       : County
STAT               .                                       : State
CTRY               .                                       : Country
SRVC               .                                       : Service Company
DATE               .                                       : Date
API                .                                       : API number
EREF               .m        139.76                        : 
Pad                .         2                             : 
X                  .m        228492                        : 
Y                  .m        241733                        : 
group              .         Pad2                          : 
Интер-р            .         Зайцев                        : 
Куст               .         2                             : 
Статус             .         Не проверено                  : 
Тип                .         Разведка                      : 
~Parameter Information Block
#_______________________________________________________________________________
#
#PARAMETER_NAME    .UNIT     VALUE                         : DESCRIPTION
#_______________________________________________________________________________
SET                .         LAS1                          : 
REAL_CREATION_DATE .         Ср апр 11 2012-13_17_06       : 
TLFamily_DEPTH     .         Measured Depth                : 
TLFamily_GZ1       .         Extra Shallow Resistivity     : 
TLFamily_GZ2       .         Shallow Resistivity           : 
TLFamily_GZ3       .         Medium Resistivity            : 
TLFamily_GZ4       .         Deep Resistivity              : 
TLFamily_GZ5       .         Extra Deep Resistivity        : 
TLFamily_GZr       .         Medium Resistivity Inverted   : 
TLFamily_LLD       .         Lateral Log Resistivity       : 
TLFamily_PS        .         Spontaneous Potential         : 
TLFamily_PZ        .         Potential Resistivity         : 
TLFamily_RS        .         Mud Resistivity               : 
group              .         INI                           : 
~Curve Information
#_______________________________________________________________________________
#
#LOGNAME           .UNIT     LOG_ID                        : DESCRIPTION
#_______________________________________________________________________________
DEPTH              .m                                      : 1 Depth 
GZ1                .ohm.m                                  : 3 Подошвенный градиент-зонд А0.4М0.1N 
GZ2                .ohm.m                                  : 4 Подошвенный градиент-зонд А1.0М0.1N 
GZ3                .ohm.m                                  : 5 Подошвенный градиент-зонд А2.0М0.5N 
GZ4                .ohm.m                                  : 6 Подошвенный градиент-зонд А4.0М0.5N 
GZ5                .ohm.m                                  : 7 Подошвенный градиент-зонд А8.0М1.0N 
GZr                .ohm.m                                  : 8 Кровельный градиент-зонд N0.5M2.0A 
LLD                .ohm.m                                  : 11 Трехэлектродный  бокового каротажа БК-3 
PS                 .mV                                     : 2 Потенциал самопроизвольной поляризации 
PZ                 .ohm.m                                  : 9 Однополюсный потенциал-зонд N6.0М0.5А 
RS                 .ohm.m                                  : 10 УЭС жидкости в стволе скажины 
~Ascii
# ...
3043.200073 1.9303     5.7876     7.7877     6.0195     3.9033     8.3193     3.8451     31.8227    4.8334     0.413     
3043.400073 2.034      5.9142     8.1379     6.0269     3.8504     8.0672     3.7837     32.8648    4.8334     0.4066    
3043.600073 2.074      5.9137     8.1423     5.8769     3.8002     7.8992     3.4056     34.0409    4.8334     0.3977    
3043.800073 2.0493     5.865      7.9126     5.7226     3.7396     7.885      3.2631     34.2147    4.7761     0.4081    
3044.000073 2.0459     5.865      7.6789     5.6081     3.6248     8.0189     3.1969     34.3231    4.7269     0.4115    
3044.200073 1.9954     5.865      7.4631     5.4933     3.5623     8.1492     3.0942     35.0766    4.7269     0.4139    
3044.400073 1.981      5.7966     7.3362     5.4082     3.5326     8.2184     3.0775     35.7206    4.7269     0.4082    
3044.600073 1.9415     5.7823     7.2469     5.3596     3.4796     8.3593     3.1637     35.6638    4.7269     0.4013    
3044.800073 1.9415     5.7079     7.2436     5.3596     3.4796     8.7129     3.1902     35.5206    4.7068     0.3984    
3045.000073 1.967      5.7177     7.2527     5.3765     3.4266     9.1696     3.2332     35.7622    4.7269     0.4083    
3045.200074 1.9415     5.6131     7.2969     5.4577     3.4266     9.7638     3.1893     35.8481    4.7406     0.4139    
3045.400074 1.9415     5.579      7.2969     5.5399     3.3737     10.412     3.2403     35.8605    4.7802     0.4095    
3045.600074 1.9819     5.6529     7.2744     5.538      3.3207     11.057     3.3592     36.5498    4.8032     0.4075    
3045.800074 1.9511     5.5537     7.1253     5.3607     3.2782     11.8208    2.9508     37.4892    4.8622     0.4002    
3046.000074 1.8686     5.3006     6.8492     5.1538     3.2704     12.8656    2.9217     37.8134    4.9781     0.4022    
3046.200074 1.7825     5.1351     6.8313     5.1544     3.2083     13.6208    3.4686     37.7524    5.1088     0.4028    
3046.400074 1.9539     5.6982     7.0479     5.2681     3.093      13.5634    5.6907     38.031     5.1671     0.4173    
3046.600074 2.1452     6.0277     7.1616     5.2318     2.9023     13.259     4.0905     38.9348    5.268      0.4087    
3046.800074 2.0306     5.6091     6.7117     4.7302     2.6771     13.1       3.0485     39.8387    5.3378     0.4015    
3047.000074 1.784      4.9848     6.0536     4.1933     2.4487     13.1165    3.0967     40.3361    5.4788     0.3875    
3047.200075 1.6998     4.8388     5.6343     3.8362     2.2666     13.6411    3.502      41.6031    5.7156     0.3963    
3047.400075 1.6229     4.7648     5.5001     3.7286     2.1598     14.6378    3.5955     44.4099    5.9562     0.3994    
3047.600075 1.6721     4.8327     5.588      3.7509     2.2216     15.7878    3.8246     47.0546    6.2104     0.4017    
3047.800075 1.6851     4.8936     5.8678     3.9474     2.3881     17.0465    4.8012     48.2417    6.5011     0.3963    
3048.000075 1.7869     5.2567     6.3007     4.2307     2.5321     18.5097    5.3743     49.4716    6.7459     0.3953    
3048.200075 1.8819     5.6625     7.0492     4.673      2.7625     19.8441    6.7011     52.1562    6.9445     0.3939    
3048.400075 2.1655     6.6501     8.3772     5.3376     3.1623     20.9835    6.8496     54.8937    7.1175     0.4108    
3048.600075 2.2813     6.907      8.904      5.6618     3.4513     21.8988    5.4553     56.8326    7.1925     0.4076    
3048.800075 2.1601     6.6341     8.8765     5.8468     3.8726     23.5405    4.8526     59.3607    7.3413     0.3964    
3049.000076 2.0417     6.4131     8.8425     6.1962     4.4959     26.0702    4.6037     62.9901    7.5432     0.3904    
3049.200076 1.9237     6.2743     8.894      6.8348     5.428      29.8479    4.4801     66.5914    7.8388     0.3905    
3049.400076 1.7549     5.8215     8.9502     7.7175     6.5585     33.8249    6.0108     69.2368    8.3717     0.3963    
3049.600076 1.647      5.6083     9.343      8.9321     7.6427     37.1961    10.8044    71.2025    9.0849     0.3929    
3049.800076 1.6813     5.8884     10.0988    10.223     8.5426     37.4906    33.2483    72.5359    9.9432     0.3952    
3050.000076 1.8519     6.3919     11.0755    11.3624    9.2166     34.9648    32.4002    72.7228    10.9085    0.3893    
3050.200076 2.1586     7.2054     12.0938    12.2655    9.6441     31.0776    21.4644    72.1807    11.6922    0.3859    
3050.400076 2.3684     7.9394     13.079     13.1128    9.8851     28.3528    14.9467    72.3872    12.1775    0.395     
3050.600076 2.4846     8.6761     13.9046    13.9767    10.1852    26.9998    13.3982    73.9941    12.5817    0.4029    
3050.800076 2.5431     9.4451     14.5399    14.6769    10.4638    26.1947    14.4645    75.5862    12.8322    0.4086    
3051.000076 2.5738     10.1143    15.2983    15.3969    10.8197    25.6054    14.63      76.1303    13.0425    0.3963    
3051.200077 2.68       10.7489    16.6661    16.5387    11.1958    24.1818    45.7296    76.8677    13.0887    0.3918    
3051.400077 2.9954     12.2154    18.9626    17.9001    11.3717    22.3767    46.7024    78.9068    13.0044    0.4053    
3051.600077 3.2826     13.2183    20.9185    18.7144    11.4615    21.1878    12.7644    81.084     12.8484    0.4137    
3051.800077 3.0919     12.5361    22.3096    18.8837    11.4329    21.012     8.8838     81.8871    12.565     0.4045    
3052.000077 3.0295     12.6647    23.8262    19.0603    11.3979    20.6774    13.9965    81.8113    12.2159    0.3982    
3052.200077 3.1035     13.1719    26.5902    20.4332    10.9812    19.6299    28.3748    81.9201    11.8014    0.3919    
3052.400077 3.4026     14.4659    28.1941    21.5833    10.5701    18.0449    16.2283    82.3655    11.3943    0.4022    
3052.600077 3.2361     13.354     28.0679    21.5896    10.0732    16.6655    7.8831     82.8974    10.9924    0.4063    
3052.800077 2.9677     12.1284    26.1638    20.3801    9.5077     15.4617    7.7467     83.4424    10.5874    0.4022    
3053.000077 2.768      11.4184    24.7546    19.6831    8.6565     14.547     7.4709     83.8937    10.2595    0.4051    
3053.200078 2.6506     10.9032    23.6656    19.3595    8.0353     13.8341    7.248      84.1571    9.9904     0.3981    
3053.400078 2.5492     10.251     22.9543    19.4783    7.6487     13.2877    7.1986     84.6949    9.7616     0.3957    
3053.600078 2.4608     9.5797     21.7816    20.4121    7.2591     12.4402    7.2778     86.0326    9.4956     0.4012    
3053.800078 2.4023     9.1554     20.9002    21.513     7.2831     12.1849    6.6471     87.5442    9.3791     0.4022    
3054.000078 2.3457     8.9377     20.5992    23.3422    7.4518     12.2287    6.5009     87.5791    9.2637     0.4022    
3054.200078 2.3504     8.9331     20.8987    25.2178    7.8762     12.5738    6.8567     85.9202    9.2008     0.3987    
3054.400078 2.3268     8.9611     21.8582    27.931     8.542      13.3736    6.5154     85.0492    9.218      0.3958    
3054.600078 2.3188     9.4435     23.1924    31.0996    9.3619     13.6338    12.3857    86.4549    9.231      0.391     
3054.800078 2.5381     10.272     24.9522    34.7366    10.0543    12.9281    39.7155    88.6222    9.1723     0.397     
3055.000079 2.9856     11.4697    25.9974    37.2748    10.5578    11.7163    19.3969    90.1805    9.0268     0.3992    
3055.200079 3.2057     11.6945    26.0209    38.366     10.6763    10.9467    6.8229     91.207     8.655      0.4022    
3055.400079 3.1571     11.7554    25.1592    37.9835    10.2997    10.2939    7.6961     91.7727    8.0651     0.4022    
3055.600079 3.1533     12.0538    23.6479    35.7997    9.6569     9.5535     5.907      91.6792    7.6        0.4022    
3055.800079 2.8745     11.0263    21.3591    32.0548    8.8805     8.7768     4.5115     90.6066    7.2136     0.4022    
3056.000079 2.6862     10.2821    19.0394    28.2427    7.9733     8.3157     4.4611     89.286     6.8369     0.4079    
3056.200079 2.5699     9.5253     17.3006    25.1794    7.1384     8.1098     3.9162     89.2254    6.515      0.4       
