~Version
 VERS              .         2.0                           : CWLS LOG ASCII STANDARD - VERSION 2.0
 WRAP              .         NO                            : ONE LINE PER DEPTH STEP
 DLM               .         SPACE                         : DELIMITING CHARACTER(SPACE TAB OR COMMA)
~Well Information
#_______________________________________________________________________________
#
#PARAMETER_NAME    .UNIT     VALUE                         : DESCRIPTION
#_______________________________________________________________________________
STRT               .m        2898                          : First reference value
STOP               .m        3121.600112                   : Last reference value
STEP               .m        0.2000001                     : Step increment
NULL               .         -9999                         : Missing value
COMP               .                                       : Company
WELL               .         200                           : Well name
FLD                .                                       : Field
LOC                .                                       : Location
CNTY               .                                       : County
STAT               .                                       : State
CTRY               .                                       : Country
SRVC               .                                       : Service Company
DATE               .                                       : Date
API                .                                       : API number
EREF               .m        139.76                        : 
Pad                .         2                             : 
X                  .m        228492                        : 
Y                  .m        241733                        : 
group              .         Pad2                          : 
Интер-р            .         Зайцев                        : 
Куст               .         2                             : 
Статус             .         Не проверено                  : 
Тип                .         Разведка                      : 
~Parameter Information Block
#_______________________________________________________________________________
#
#PARAMETER_NAME    .UNIT     VALUE                         : DESCRIPTION
#_______________________________________________________________________________
SET                .         LAS1                          : 
REAL_CREATION_DATE .         Ср апр 11 2012-13_17_06       : 
TLFamily_DEPTH     .         Measured Depth                : 
TLFamily_GZ1       .         Extra Shallow Resistivity     : 
TLFamily_GZ2       .         Shallow Resistivity           : 
TLFamily_GZ3       .         Medium Resistivity            : 
TLFamily_GZ4       .         Deep Resistivity              : 
TLFamily_GZ5       .         Extra Deep Resistivity        : 
TLFamily_GZr       .         Medium Resistivity Inverted   : 
TLFamily_LLD       .         Lateral Log Resistivity       : 
TLFamily_PS        .         Spontaneous Potential         : 
TLFamily_PZ        .         Potential Resistivity         : 
TLFamily_RS        .         Mud Resistivity               : 
group              .         INI                           : 
~Curve Information
#_______________________________________________________________________________
#
#LOGNAME           .UNIT     LOG_ID                        : DESCRIPTION
#_______________________________________________________________________________
DEPTH              .m                                      : 1 Depth 
GZ1                .ohm.m                                  : 3 Подошвенный градиент-зонд А0.4М0.1N 
GZ2                .ohm.m                                  : 4 Подошвенный градиент-зонд А1.0М0.1N 
GZ3                .ohm.m                                  : 5 Подошвенный градиент-зонд А2.0М0.5N 
GZ4                .ohm.m                                  : 6 Подошвенный градиент-зонд А4.0М0.5N 
GZ5                .ohm.m                                  : 7 Подошвенный градиент-зонд А8.0М1.0N 
GZr                .ohm.m                                  : 8 Кровельный градиент-зонд N0.5M2.0A 
LLD                .ohm.m                                  : 11 Трехэлектродный  бокового каротажа БК-3 
PS                 .mV                                     : 2 Потенциал самопроизвольной поляризации 
PZ                 .ohm.m                                  : 9 Однополюсный потенциал-зонд N6.0М0.5А 
RS                 .ohm.m                                  : 10 УЭС жидкости в стволе скажины 
~Ascii
# ...
2990.400046 2.0493     6.9053     10.5749    8.0955     4.9217     11.0647    3.9699     32.3359    6.0584     0.4022    
2990.600046 2.1032     7.0349     10.712     8.1209     4.9558     11.1396    4.4464     32.6401    6.0931     0.404     
2990.800046 2.0727     6.8526     10.7648    8.1017     5.0157     11.1978    4.1346     32.01      6.1483     0.4022    
2991.000046 2.0939     6.8657     10.9327    8.3008     5.0705     11.3013    4.3189     30.6873    6.1504     0.406     
2991.200047 2.1988     7.1428     11.1577    8.66       5.1746     11.4381    4.4706     30.3901    6.1295     0.4175    
2991.400047 2.1721     7.1066     11.1062    8.7956     5.1746     11.4459    4.1466     30.6023    6.1201     0.4184    
2991.600047 2.1935     7.1158     10.8962    8.8942     5.0991     11.3964    4.3811     29.8243    6.1352     0.4204    
2991.800047 2.1313     6.9407     10.6036    8.9158     4.9885     11.4463    4.1152     29.0094    6.1649     0.4257    
2992.000047 2.1826     6.9755     10.416     8.9095     4.8771     11.5294    4.2564     29.591     6.1649     0.4257    
2992.200047 2.1571     6.9047     10.304     8.9899     4.7508     11.7416    4.2508     30.6389    6.1649     0.4243    
2992.400047 2.1834     6.9903     10.2215    8.9861     4.6524     11.9245    4.2234     30.6395    6.1995     0.4196    
2992.600047 2.1312     6.8966     10.1718    8.9373     4.5414     12.0919    4.2735     30.1971    6.2182     0.4116    
2992.800047 2.1641     6.9609     10.1892    8.971      4.4307     12.2034    4.5317     30.3047    6.2182     0.4139    
2993.000048 2.211      7.0998     10.3153    8.9779     4.2666     12.3142    4.6049     30.4182    6.2025     0.4098    
2993.200048 2.2495     7.1957     10.2764    8.8125     4.1547     12.4257    4.6674     30.3304    6.1649     0.4033    
2993.400048 2.2047     7.0139     10.0879    8.4797     3.9895     12.6966    4.1487     30.9269    6.1649     0.4067    
2993.600048 2.1102     6.7821     9.7651     8.0731     3.8785     13.1211    3.8324     32.0685    6.1649     0.4022    
2993.800048 2.0315     6.5771     9.5696     7.8229     3.7688     13.7603    3.9626     32.4679    6.2467     0.4013    
2994.000048 2.0725     6.5755     9.4563     7.7303     3.7974     14.825     3.7903     31.6977    6.306      0.4037    
2994.200048 1.9954     6.4617     9.4264     7.7283     3.837      16.1797    4.1756     30.206     6.3889     0.4082    
2994.400048 1.9954     6.3716     9.4307     7.8189     3.9942     17.6026    4.5808     28.8692    6.5743     0.4142    
2994.600048 2.0283     6.4613     9.5969     8.0752     4.163      18.6581    5.0943     28.5594    6.7577     0.4171    
2994.800048 2.0935     6.6528     9.8886     8.4235     4.3327     19.4259    5.358      28.4806    6.9525     0.4198    
2995.000049 2.1693     6.7122     10.1012    8.6661     4.6167     20.1744    5.2706     27.4771    7.1404     0.424     
2995.200049 2.1701     6.8081     10.2312    8.9426     4.8937     20.9995    5.2235     26.8306    7.3649     0.4257    
2995.400049 2.1571     6.86       10.3454    9.2558     5.1958     21.811     5.2373     27.355     7.5867     0.4206    
2995.600049 2.1777     7.0137     10.5005    9.6329     5.5303     22.427     5.8265     27.2278    7.8574     0.4198    
2995.800049 2.1854     7.1711     10.7754    10.1325    5.8267     22.9248    6.1995     26.0915    8.1371     0.4188    
2996.000049 2.2622     7.5107     10.9152    10.3787    6.009      23.1046    6.4778     25.5308    8.4552     0.4139    
2996.200049 2.1263     7.2084     10.6872    10.1183    6.2211     23.4431    5.7536     25.7944    9.0505     0.4113    
2996.400049 1.9825     6.8607     10.7917    10.0978    6.4484     23.2964    7.3964     25.1063    9.5973     0.4022    
2996.600049 2.2769     8.0555     12.0006    10.8793    6.5143     21.9435    30.1711    23.3988    9.9084     0.4061    
2996.800049 2.6949     9.4931     13.4227    11.6242    6.7352     20.091     31.3855    23.1102    10.1735    0.4144    
2997.000049 2.7736     9.5065     14.2024    11.8849    6.8873     19.1263    8.7256     24.1579    10.2896    0.4198    
2997.20005 2.7577     9.7716     14.781     12.0582    6.9225     18.5796    8.9985     24.7782    10.1468    0.4248    
2997.40005 2.8707     10.6258    15.7307    12.4765    6.8924     18.0206    11.1384    24.5873    10.0304    0.4317    
2997.60005 2.9115     10.9828    16.5456    12.6162    6.8884     17.6246    7.2445     24.299     9.8905     0.4316    
2997.80005 2.8621     10.9083    16.9574    12.6722    6.8695     17.6652    6.989      24.6641    9.7538     0.4303    
2998.00005 2.75       10.5948    17.3491    12.757     6.773      17.6826    7.4446     25.3678    9.6228     0.424     
2998.20005 2.6959     10.4421    17.7553    12.9404    6.7106     17.6261    7.361      25.5804    9.5379     0.4196    
2998.40005 2.69       10.2987    18.1544    13.2615    6.6556     17.5318    7.3987     25.092     9.4826     0.4142    
2998.60005 2.642      10.0835    18.5754    13.5922    6.5977     17.5227    7.3798     24.8587    9.4543     0.4165    
2998.80005 2.642      9.9757     19.0384    14.0514    6.5517     17.5227    7.6632     25.292     9.3972     0.4099    
2999.00005 2.642      9.9573     19.2372    14.5962    6.5517     17.5227    7.8665     25.4215    9.34       0.4081    
2999.200051 2.6848     10.0372    19.156     15.1717    6.5517     17.4694    7.7359     25.2996    9.2606     0.4178    
2999.400051 2.6959     10.0564    19.0678    15.6933    6.5517     17.474     7.5022     25.1876    9.1797     0.4204    
2999.600051 2.6959     10.0182    18.9139    16.219     6.6047     17.6102    7.0167     25.0343    9.0652     0.421     
2999.800051 2.6959     9.9871     18.5574    16.7468    6.6436     17.9786    6.5136     24.9104    8.951      0.4275    
3000.000051 2.6645     9.8056     18.1357    17.1388    6.7106     18.5662    6.1108     24.2556    8.8812     0.4314    
3000.200051 2.5818     9.4867     17.7325    17.5893    6.7636     19.2402    6.1078     23.7595    8.843      0.4257    
3000.400051 2.5343     9.379      17.4543    18.0088    6.7636     19.6973    6.8894     24.2844    8.868      0.4257    
3000.600051 2.4971     9.2807     17.1916    18.2928    6.7106     19.7868    6.8602     24.2453    8.9401     0.4212    
3000.800051 2.4804     9.0024     16.8284    18.3931    6.7106     19.6886    7.1923     22.6214    9.0322     0.4144    
3001.000052 2.4804     8.9471     16.5903    18.3374    6.6381     19.6295    7.2966     21.3544    9.1127     0.4193    
3001.200052 2.4804     8.9147     16.4426    18.1917    6.6576     19.6014    7.3826     21.5284    9.2246     0.4084    
3001.400052 2.4804     9.0394     16.3779    18.0775    6.6576     19.5747    7.8359     21.5905    9.286      0.4087    
3001.600052 2.5325     9.2337     16.3741    17.989     6.7106     19.5393    7.7853     21.3259    9.3626     0.4198    
3001.800052 2.5597     9.3076     16.371     17.8547    6.8113     19.5535    7.7559     21.9643    9.4193     0.4198    
3002.000052 2.5343     9.3499     16.3959    17.8336    6.8704     19.6547    7.8368     22.8031    9.4759     0.4224    
3002.200052 2.5674     9.4514     16.6091    17.9529    6.9822     19.697     8.2909     22.7134    9.5203     0.4287    
3002.400052 2.6237     9.6659     16.9242    18.1515    7.146      19.6873    8.2242     22.4446    9.5203     0.428     
3002.600052 2.642      9.8147     17.2306    18.2499    7.325      19.5571    7.9526     22.5794    9.5385     0.4296    
3002.800052 2.6015     9.6849     17.3688    18.2499    7.494      19.4471    7.7702     22.9339    9.5736     0.4209    
3003.000053 2.6322     9.7088     17.5031    18.268     7.7189     19.3353    8.2493     23.2938    9.5736     0.4146    
3003.200053 2.642      9.8313     17.7685    18.3683    7.8905     19.3924    8.1849     23.3213    9.5736     0.419     
3003.400053 2.642      9.916      17.9669    18.4329    8.0731     19.4415    8.2133     23.1552    9.5736     0.4131    
