~Version
 VERS              .         2.0                           : CWLS LOG ASCII STANDARD - VERSION 2.0
 WRAP              .         NO                            : ONE LINE PER DEPTH STEP
 DLM               .         SPACE                         : DELIMITING CHARACTER(SPACE TAB OR COMMA)
~Well Information
#_______________________________________________________________________________
#
#PARAMETER_NAME    .UNIT     VALUE                         : DESCRIPTION
#_______________________________________________________________________________
STRT               .m        2898                          : First reference value
STOP               .m        3121.600112                   : Last reference value
STEP               .m        0.2000001                     : Step increment
NULL               .         -9999                         : Missing value
COMP               .                                       : Company
WELL               .         200                           : Well name
FLD                .                                       : Field
LOC                .                                       : Location
CNTY               .                                       : County
STAT               .                                       : State
CTRY               .                                       : Country
SRVC               .                                       : Service Company
DATE               .                                       : Date
API                .                                       : API number
EREF               .m        139.76                        : 
Pad                .         2                             : 
X                  .m        228492                        : 
Y                  .m        241733                        : 
group              .         Pad2                          : 
Интер-р            .         Зайцев                        : 
Куст               .         2                             : 
Статус             .         Не проверено                  : 
Тип                .         Разведка                      : 
~Parameter Information Block
#_______________________________________________________________________________
#
#PARAMETER_NAME    .UNIT     VALUE                         : DESCRIPTION
#_______________________________________________________________________________
SET                .         LAS1                          : 
REAL_CREATION_DATE .         Ср апр 11 2012-13_17_06       : 
TLFamily_DEPTH     .         Measured Depth                : 
TLFamily_GZ1       .         Extra Shallow Resistivity     : 
TLFamily_GZ2       .         Shallow Resistivity           : 
TLFamily_GZ3       .         Medium Resistivity            : 
TLFamily_GZ4       .         Deep Resistivity              : 
TLFamily_GZ5       .         Extra Deep Resistivity        : 
TLFamily_GZr       .         Medium Resistivity Inverted   : 
TLFamily_LLD       .         Lateral Log Resistivity       : 
TLFamily_PS        .         Spontaneous Potential         : 
TLFamily_PZ        .         Potential Resistivity         : 
TLFamily_RS        .         Mud Resistivity               : 
group              .         INI                           : 
~Curve Information
#_______________________________________________________________________________
#
#LOGNAME           .UNIT     LOG_ID                        : DESCRIPTION
#_______________________________________________________________________________
DEPTH              .m                                      : 1 Depth 
GZ1                .ohm.m                                  : 3 Подошвенный градиент-зонд А0.4М0.1N 
GZ2                .ohm.m                                  : 4 Подошвенный градиент-зонд А1.0М0.1N 
GZ3                .ohm.m                                  : 5 Подошвенный градиент-зонд А2.0М0.5N 
GZ4                .ohm.m                                  : 6 Подошвенный градиент-зонд А4.0М0.5N 
GZ5                .ohm.m                                  : 7 Подошвенный градиент-зонд А8.0М1.0N 
GZr                .ohm.m                                  : 8 Кровельный градиент-зонд N0.5M2.0A 
LLD                .ohm.m                                  : 11 Трехэлектродный  бокового каротажа БК-3 
PS                 .mV                                     : 2 Потенциал самопроизвольной поляризации 
PZ                 .ohm.m                                  : 9 Однополюсный потенциал-зонд N6.0М0.5А 
RS                 .ohm.m                                  : 10 УЭС жидкости в стволе скажины 
~Ascii
# ...
2950.800026 2.1446     6.5915     9.7105     9.3291     6.2018     11.3885    4.6141     102.1536   6.0733     0.4036    
2951.000026 2.23       6.5215     9.9021     9.3069     6.4086     11.0788    3.9035     100.1209   6.1117     0.4075    
2951.200027 2.1408     6.2446     9.6023     9.0896     6.597      11.2925    3.7001     95.2241    6.1117     0.4073    
2951.400027 1.9753     6.0085     9.4271     9.0652     6.8537     11.7137    4.3359     87.8987    6.1659     0.4022    
2951.600027 1.9425     6.1884     9.4048     9.2701     7.1007     12.0121    5.0619     81.3815    6.2257     0.4022    
2951.800027 1.9986     6.4452     9.633      9.6533     7.3745     12.0715    5.3402     76.0151    6.3678     0.4047    
2952.000027 2.0871     6.643      9.917      9.9906     7.5966     11.9904    5.3579     69.761     6.4312     0.4113    
2952.200027 2.1923     6.835      10.1509    10.2762    7.7701     11.9155    4.8581     63.4446    6.4725     0.4143    
2952.400027 2.211      6.9159     10.318     10.3941    7.891      11.8727    4.6846     59.4547    6.5031     0.4198    
2952.600027 2.211      6.9895     10.4423    10.4513    7.9945     11.9561    4.5982     57.7799    6.5377     0.4157    
2952.800027 2.1933     6.9555     10.5725    10.5248    8.105      12.1158    4.8506     56.2221    6.6092     0.4198    
2953.000028 2.1571     7.0012     10.7202    10.6584    8.2158     12.133     5.5546     53.8509    6.6729     0.4199    
2953.200028 2.2064     7.141      10.8837    10.9483    8.2753     11.9823    6.1824     52.3813    6.7295     0.4257    
2953.400028 2.2908     7.4142     11.0775    11.1197    8.3526     11.6671    5.4646     52.6647    6.7508     0.4257    
2953.600028 2.3726     7.5539     11.2149    11.0652    8.3526     11.4559    4.9838     53.1098    6.7122     0.4257    
2953.800028 2.3763     7.6409     11.3581    10.9497    8.2551     11.4116    4.818      52.5227    6.5996     0.4257    
2954.000028 2.387      7.7502     11.4842    10.7897    8.0952     11.5809    4.629      51.3027    6.4863     0.4254    
2954.200028 2.3187     7.8016     11.5027    10.6051    7.9258     11.8255    4.3399     50.589     6.3738     0.4198    
2954.400028 2.3053     7.7186     11.4717    10.3963    7.76       12.1349    4.0318     50.5948    6.2812     0.4157    
2954.600028 2.2043     7.4234     11.2379    10.1683    7.5767     12.4956    3.9549     51.0237    6.2262     0.4134    
2954.800028 2.1032     7.07       11.014     10.0297    7.431      12.6658    4.7235     52.7712    6.2182     0.4081    
2955.000029 2.1511     7.095      10.996     9.9178     7.2393     12.4916    4.5558     55.8371    6.3035     0.4139    
2955.200029 2.1571     6.9958     10.9936    9.7292     7.1529     12.204     4.4847     59.0924    6.3644     0.4121    
2955.400029 2.1225     6.7684     10.7793    9.487      7.0402     12.007     4.6663     62.5746    6.4387     0.4055    
2955.600029 2.0878     6.7147     10.6436    9.3815     6.9299     11.9619    4.8189     67.2761    6.4951     0.4024    
2955.800029 2.1571     6.8868     10.5466    9.3582     6.8723     11.9651    4.2617     73.1242    6.5525     0.4081    
2956.000029 2.1322     6.812      10.3281    9.3105     6.8695     12.217     4.3084     77.5899    6.6962     0.4042    
2956.200029 2.0082     6.5672     10.1608    9.3208     6.8807     12.1755    7.3273     78.9562    6.8188     0.4076    
2956.400029 2.0517     6.7672     10.51      9.7007     6.9225     11.6003    9.9211     78.817     6.9051     0.4033    
2956.600029 2.3611     7.7177     11.2764    10.3097    6.9754     10.7888    6.5404     79.0075    6.8829     0.4145    
2956.800029 2.555      8.1827     11.9355    10.7731    6.9225     10.1342    5.4353     80.3636    6.7408     0.4152    
2957.000029 2.5345     8.293      12.2199    10.8587    6.7953     9.6064     4.6982     82.6793    6.4829     0.4183    
2957.20003 2.5494     8.3486     12.1476    10.6428    6.5258     9.4092     3.5893     84.589     6.2762     0.4198    
2957.40003 2.3356     7.9573     11.7262    10.172     6.1919     9.479      3.6721     85.7141    6.0818     0.4223    
2957.60003 2.2089     7.4952     11.0753    9.5555     6.0213     9.7242     3.5182     86.4566    6.0051     0.4251    
2957.80003 1.9785     6.7239     10.6459    9.2198     5.9161     10.1861    4.0143     85.9662    6.046      0.4143    
2958.00003 1.9927     6.7281     10.7979    9.3939     5.9161     10.6927    4.9998     83.7247    6.0148     0.4203    
2958.20003 2.1074     6.9779     11.2545    9.7824     5.9864     11.04      4.8481     81.9432    6.0051     0.4252    
2958.40003 2.1571     6.9832     11.5978    10.0532    6.0983     11.0106    4.7226     82.7979    6.0283     0.4152    
2958.60003 2.2243     7.0648     11.8354    10.2105    6.0472     10.8111    4.79       85.7863    5.9775     0.4198    
2958.80003 2.2882     7.1907     11.951     10.2994    5.9052     10.5313    4.661      89.6846    5.8689     0.4139    
2959.00003 2.3441     7.339      11.6322    10.139     5.6827     10.2591    3.7197     93.9137    5.7889     0.4139    
2959.200031 2.2059     6.9343     10.9168    9.6587     5.4041     10.106     3.3587     98.0936    5.7323     0.4117    
2959.400031 2.0663     6.4976     9.9896     9.0522     5.1265     10.549     3.1843     101.199    5.6856     0.4024    
2959.600031 1.9545     6.1616     9.3735     8.7648     4.8549     11.1721    3.8921     102.9112   5.6977     0.4048    
2959.800031 1.9146     6.2037     9.1233     8.7144     4.8038     11.3624    4.3441     104.6514   5.8078     0.3983    
2960.000031 1.9666     6.1496     9.011      8.7099     4.8567     11.3649    4.0894     106.8585   5.9666     0.3968    
2960.200031 1.9604     5.9954     9.0846     8.7581     4.9097     11.3152    5.381      108.5748   6.0784     0.4022    
2960.400031 2.0168     6.1958     9.5032     9.1522     4.9913     11.2425    6.0467     109.4204   6.1117     0.4028    
2960.600031 2.2684     6.8585     9.9155     9.453      5.0157     10.92      4.8021     110.2498   6.1117     0.4082    
2960.800031 2.2942     6.9506     10.0068    9.3749     5.0531     10.5801    3.9761     111.2698   6.1117     0.4139    
2961.000032 2.2049     6.6716     9.6451     8.9405     5.0686     10.3789    3.838      111.6      6.0761     0.4137    
2961.200032 2.0972     6.5167     9.2852     8.6256     5.0686     10.3453    3.7486     111.1953   6.0676     0.4111    
2961.400032 2.0078     6.3161     9.0983     8.5247     5.2297     10.6752    3.88       110.5479   6.1512     0.4107    
2961.600032 1.9415     6.2746     9.1737     8.7099     5.445      11.0838    6.2313     110.6934   6.2259     0.4144    
2961.800032 2.0282     6.6788     9.7628     9.1371     5.6091     10.9948    8.3524     111.8541   6.2936     0.416     
2962.000032 2.3265     7.2744     10.455     9.46       5.7216     10.3866    5.6953     112.0229   6.3247     0.4305    
2962.200032 2.4521     7.3532     10.7019    9.4775     5.7572     9.8921     3.8717     110.7291   6.2246     0.4251    
2962.400032 2.3047     7.0213     10.4833    9.2753     5.7572     9.9339     3.6162     109.0284   6.1351     0.4208    
2962.600032 2.1325     6.8016     10.3073    9.2004     5.7572     10.205     4.2445     106.5304   6.0233     0.4255    
2962.800032 2.1032     6.9732     10.3657    9.3596     5.7955     10.4836    4.6883     103.4413   5.9519     0.4219    
2963.000033 2.1404     7.1378     10.5283    9.5782     5.9161     10.7054    4.659      101.4424   5.9414     0.4198    
2963.200033 2.1849     7.0734     10.6156    9.6929     6.022      10.7695    4.7131     101.7263   5.8857     0.4195    
2963.400033 2.2477     7.1059     10.4478    9.5369     6.022      10.7914    3.5954     103.3678   5.8039     0.4101    
2963.600033 2.1347     6.5828     10.1353    9.256      6.0344     10.9853    3.5153     104.0036   5.7921     0.4085    
2963.800033 2.0327     6.4086     9.8001     8.9876     6.0926     11.2062    3.8072     102.7155   5.7456     0.4082    
