~Version
 VERS              .         2.0                           : CWLS LOG ASCII STANDARD - VERSION 2.0
 WRAP              .         NO                            : ONE LINE PER DEPTH STEP
 DLM               .         SPACE                         : DELIMITING CHARACTER(SPACE TAB OR COMMA)
~Well Information
#_______________________________________________________________________________
#
#PARAMETER_NAME    .UNIT     VALUE                         : DESCRIPTION
#_______________________________________________________________________________
STRT               .m        2898                          : First reference value
STOP               .m        3121.600112                   : Last reference value
STEP               .m        0.2000001                     : Step increment
NULL               .         -9999                         : Missing value
COMP               .                                       : Company
WELL               .         200                           : Well name
FLD                .                                       : Field
LOC                .                                       : Location
CNTY               .                                       : County
STAT               .                                       : State
CTRY               .                                       : Country
SRVC               .                                       : Service Company
DATE               .                                       : Date
API                .                                       : API number
EREF               .m        139.76                        : 
Pad                .         2                             : 
X                  .m        228492                        : 
Y                  .m        241733                        : 
group              .         Pad2                          : 
Интер-р            .         Зайцев                        : 
Куст               .         2                             : 
Статус             .         Не проверено                  : 
Тип                .         Разведка                      : 
~Parameter Information Block
#_______________________________________________________________________________
#
#PARAMETER_NAME    .UNIT     VALUE                         : DESCRIPTION
#_______________________________________________________________________________
SET                .         LAS1                          : 
REAL_CREATION_DATE .         Ср апр 11 2012-13_17_06       : 
TLFamily_DEPTH     .         Measured Depth                : 
TLFamily_GZ1       .         Extra Shallow Resistivity     : 
TLFamily_GZ2       .         Shallow Resistivity           : 
TLFamily_GZ3       .         Medium Resistivity            : 
TLFamily_GZ4       .         Deep Resistivity              : 
TLFamily_GZ5       .         Extra Deep Resistivity        : 
TLFamily_GZr       .         Medium Resistivity Inverted   : 
TLFamily_LLD       .         Lateral Log Resistivity       : 
TLFamily_PS        .         Spontaneous Potential         : 
TLFamily_PZ        .         Potential Resistivity         : 
TLFamily_RS        .         Mud Resistivity               : 
group              .         INI                           : 
~Curve Information
#_______________________________________________________________________________
#
#LOGNAME           .UNIT     LOG_ID                        : DESCRIPTION
#_______________________________________________________________________________
DEPTH              .m                                      : 1 Depth 
GZ1                .ohm.m                                  : 3 Подошвенный градиент-зонд А0.4М0.1N 
GZ2                .ohm.m                                  : 4 Подошвенный градиент-зонд А1.0М0.1N 
GZ3                .ohm.m                                  : 5 Подошвенный градиент-зонд А2.0М0.5N 
GZ4                .ohm.m                                  : 6 Подошвенный градиент-зонд А4.0М0.5N 
GZ5                .ohm.m                                  : 7 Подошвенный градиент-зонд А8.0М1.0N 
GZr                .ohm.m                                  : 8 Кровельный градиент-зонд N0.5M2.0A 
LLD                .ohm.m                                  : 11 Трехэлектродный  бокового каротажа БК-3 
PS                 .mV                                     : 2 Потенциал самопроизвольной поляризации 
PZ                 .ohm.m                                  : 9 Однополюсный потенциал-зонд N6.0М0.5А 
RS                 .ohm.m                                  : 10 УЭС жидкости в стволе скажины 
~Ascii
# ...
2964.000033 1.95       6.2671     9.7458     8.9742     6.2054     11.4273    3.8718     101.512    5.8159     0.4022    
2964.200033 1.8927     6.1018     9.8188     9.1972     6.371      11.6528    4.9214     102.0375   5.8969     0.4022    
2964.400033 2.0168     6.4635     10.0333    9.5909     6.4987     11.7913    5.2467     103.6573   5.9518     0.4035    
2964.600033 2.1053     6.61       10.0869    9.8017     6.593      11.6316    4.5818     105.6626   5.9859     0.4043    
2964.800033 2.2067     6.723      9.8118     9.5508     6.6119     11.4874    3.4438     107.4401   6.051      0.4083    
2965.000033 2.0041     6.0882     9.2707     9.0771     6.6082     11.9227    4.0367     108.6976   6.1963     0.4137    
2965.200034 1.899      6.0114     9.1385     9.0333     6.6666     12.363     6.207      110.1114   6.3702     0.4139    
2965.400034 2.0069     6.4573     9.5933     9.4456     6.7234     11.98      8.109      111.4983   6.5175     0.4139    
2965.600034 2.2471     7.0695     10.0792    9.8065     6.8165     11.2797    6.6584     112.6267   6.5609     0.4195    
2965.800034 2.4265     7.3753     10.4513    10.0459    6.7943     10.578     5.3936     113.7031   6.4847     0.4208    
2966.000034 2.4964     7.5875     10.6719    9.9805     6.6286     10.0791    4.6392     113.6424   6.2703     0.4264    
2966.200034 2.4843     7.7285     10.5469    9.6121     6.4295     9.8343     3.2535     111.9569   6.1329     0.4256    
2966.400034 2.2382     7.1501     10.1573    9.0443     6.354      10.1245    3.1316     109.9348   6.0252     0.4198    
2966.600034 2.0177     6.6845     9.8215     8.7834     6.3398     10.7128    3.8561     108.5111   6.0051     0.4198    
2966.800034 1.9415     6.5742     9.8513     8.8969     6.3888     11.0018    4.9803     107.8072   6.0549     0.4196    
2967.000034 1.9511     6.5444     9.9444     8.9819     6.5541     10.8836    4.752      108.0179   6.2466     0.4136    
2967.200035 1.9694     6.2898     10.1668    9.1767     6.6576     10.7821    5.5076     109.1419   6.3827     0.4081    
2967.400035 2.1015     6.5606     10.5854    9.4283     6.6576     10.5126    6.4428     110.3889   6.4312     0.4125    
2967.600035 2.2273     6.8889     11.1623    9.6963     6.6576     10.2098    5.3646     111.1354   6.4078     0.4083    
2967.800035 2.3098     7.2321     11.3146    9.7265     6.6345     10.0349    4.4405     111.4896   6.3473     0.4072    
2968.000035 2.3187     7.3312     11.2404    9.7757     6.521      10.0935    4.4556     111.3816   6.2022     0.4081    
2968.200035 2.3187     7.4568     11.0239    9.7276     6.4087     10.1624    4.1965     110.6284   6.0241     0.4081    
2968.400035 2.2847     7.3774     10.7702    9.729      6.2979     10.3549    3.9621     109.21     5.9604     0.4056    
2968.600035 2.1856     7.2021     10.4385    9.7427     6.1346     10.4497    4.216      107.543    5.8082     0.4051    
2968.800035 2.2255     7.2111     10.19      9.5796     6.0227     10.6114    3.3469     106.0873   5.7388     0.4118    
2969.000036 2.1043     6.571      9.8823     9.1953     5.9691     11.0363    3.1483     104.5433   5.695      0.4103    
2969.200036 1.9494     6.1193     9.5622     8.9518     5.9044     11.984     3.7708     102.1373   5.7067     0.4099    
2969.400036 1.9054     6.0497     9.4797     9.0076     5.8784     12.6778    4.3799     98.5761    5.7628     0.4145    
2969.600036 1.9415     6.0493     9.3518     9.0522     6.0176     13.1303    3.7251     93.7503    5.9458     0.414     
2969.800036 1.8208     5.5758     9.1932     9.0644     6.2111     13.7244    4.6174     88.4477    6.1398     0.4091    
2970.000036 1.9365     5.745      9.2474     9.2676     6.3603     14.234     5.5246     84.0514    6.2535     0.4212    
2970.200036 2.074      6.2427     9.5599     9.6174     6.7926     14.3254    4.7435     79.6209    6.4293     0.4239    
2970.400036 2.0493     6.2912     9.5774     9.6168     6.9687     14.2122    4.7514     74.5473    6.5846     0.4225    
2970.600036 2.0826     6.4166     9.557      9.6414     7.0829     14.1459    5.3178     70.2853    6.6584     0.4198    
2970.800036 2.1151     6.6865     9.7342     9.8291     7.1953     13.9756    5.125      66.9035    6.7575     0.4198    
2971.000037 2.1571     6.798      9.7991     10.0517    7.309      13.7994    4.685      64.6159    6.9115     0.4194    
2971.200037 2.1148     6.7357     9.7549     10.1474    7.4714     13.6606    5.045      64.3672    7.0316     0.4134    
2971.400037 2.0846     6.7441     9.8355     10.2073    7.6052     13.6452    5.3112     65.2773    7.2175     0.4136    
2971.600037 2.0493     6.7317     10.0788    10.3404    7.7465     13.3239    6.9498     65.314     7.4946     0.4122    
2971.800037 2.0745     6.9283     10.576     10.6465    7.9485     12.6992    9.3058     63.8233    7.6898     0.4022    
2972.000037 2.2677     7.5074     11.3885    11.0607    8.1208     11.8234    8.8098     61.759     7.7923     0.404     
2972.200037 2.4644     8.134      12.3524    11.5004    8.3439     11.0669    8.1186     59.2903    7.7118     0.4081    
2972.400037 2.6328     8.8207     13.2366    11.8868    8.4056     10.5047    6.5191     56.2214    7.4922     0.4112    
2972.600037 2.7402     9.4263     13.7009    12.0137    8.4585     10.1635    4.6812     52.986     7.1823     0.4176    
2972.800037 2.6443     9.2802     13.7775    11.8264    8.3936     10.1138    4.1969     49.4815    6.9269     0.4198    
2973.000037 2.4891     9.0016     13.6391    11.498     8.2287     10.1934    4.177      46.179     6.6707     0.4198    
2973.200038 2.4086     8.6597     13.4547    11.215     8.043      10.303     4.0848     44.6965    6.5201     0.4198    
2973.400038 2.3065     8.2071     13.2303    11.0272    7.8773     10.3664    4.1313     44.6012    6.4082     0.4204    
2973.600038 2.2648     7.8455     13.0784    10.9158    7.7396     10.4336    4.271      44.2526    6.3265     0.4316    
2973.800038 2.2132     7.561      12.964     10.8046    7.627      10.4336    4.1943     43.9515    6.2714     0.4301    
2974.000038 2.211      7.3278     12.7666    10.7262    7.5141     10.4737    4.0851     44.0024    6.2662     0.4257    
2974.200038 2.1804     7.1301     12.492     10.7283    7.403      10.4869    4.3087     43.4292    6.2182     0.4257    
2974.400038 2.184      7.0722     12.1752    10.7587    7.2371     10.4121    4.5256     41.9058    6.2015     0.4257    
2974.600038 2.211      7.1224     11.8447    10.8168    7.1252     10.327     4.3172     40.337     6.1649     0.4213    
2974.800038 2.211      7.1224     11.4853    10.8314    7.0125     10.3271    4.1153     39.4761    6.1184     0.4198    
2975.000038 2.211      7.0872     11.2167    10.8314    6.9015     10.4087    4.1257     39.3676    6.0858     0.4145    
2975.200039 2.211      7.1082     10.9944    10.787     6.8165     10.4273    4.1394     39.4       6.0584     0.4198    
2975.400039 2.184      6.9955     10.7132    10.6804    6.6255     10.3803    4.0616     39.0705    6.0553     0.4134    
2975.600039 2.1571     6.8926     10.4611    10.567     6.5129     10.3428    4.0957     38.7535    6.012      0.4081    
2975.800039 2.1571     6.8605     10.3502    10.4826    6.448      10.3426    4.112      38.5219    6.0209     0.4081    
2976.000039 2.1571     6.8354     10.269     10.367     6.3362     10.3619    4.0713     37.9929    6.0051     0.4084    
2976.200039 2.1571     6.8579     10.2128    10.1998    6.2339     10.3526    4.0681     37.6157    5.989      0.4143    
2976.400039 2.1571     6.8081     10.1563    9.9941     6.1669     10.304     4.1041     38.2345    5.9519     0.4198    
2976.600039 2.1571     6.8081     10.1003    9.7722     6.075      10.1475    4.1177     38.8596    5.9519     0.4198    
2976.800039 2.1571     6.8081     10.0193    9.5707     5.9953     10.087     4.0376     38.0445    5.9519     0.4198    
2977.00004 2.1571     6.7702     9.9897     9.4515     5.9375     10.0355    3.9613     37.1662    5.9519     0.4258    
