~Version
 VERS              .         2.0                           : CWLS LOG ASCII STANDARD - VERSION 2.0
 WRAP              .         NO                            : ONE LINE PER DEPTH STEP
 DLM               .         SPACE                         : DELIMITING CHARACTER(SPACE TAB OR COMMA)
~Well Information
#_______________________________________________________________________________
#
#PARAMETER_NAME    .UNIT     VALUE                         : DESCRIPTION
#_______________________________________________________________________________
STRT               .m        2898                          : First reference value
STOP               .m        3121.600112                   : Last reference value
STEP               .m        0.2000001                     : Step increment
NULL               .         -9999                         : Missing value
COMP               .                                       : Company
WELL               .         200                           : Well name
FLD                .                                       : Field
LOC                .                                       : Location
CNTY               .                                       : County
STAT               .                                       : State
CTRY               .                                       : Country
SRVC               .                                       : Service Company
DATE               .                                       : Date
API                .                                       : API number
EREF               .m        139.76                        : 
Pad                .         2                             : 
X                  .m        228492                        : 
Y                  .m        241733                        : 
group              .         Pad2                          : 
Интер-р            .         Зайцев                        : 
Куст               .         2                             : 
Статус             .         Не проверено                  : 
Тип                .         Разведка                      : 
~Parameter Information Block
#_______________________________________________________________________________
#
#PARAMETER_NAME    .UNIT     VALUE                         : DESCRIPTION
#_______________________________________________________________________________
SET                .         LAS4                          : 
REAL_CREATION_DATE .         Ср апр 11 2012-13_17_06       : 
TLFamily_DEPTH     .         Measured Depth                : 
TLFamily_GR        .         Gamma Ray                     : 
TLFamily_TNPH      .         Neutron Porosity              : 
group              .         INI                           : 
~Curve Information
#_______________________________________________________________________________
#
#LOGNAME           .UNIT     LOG_ID                        : DESCRIPTION
#_______________________________________________________________________________
DEPTH              .m                                      : 1 Depth 
GR                 .gAPI                                   :  
TNPH               .v/v                                    : 4 Суммарное водородосодержание 
~Ascii
# ...
3087.000095 75.416     0.168688  
3087.200095 75.396     0.14369   
3087.400095 75.276     0.144994  
3087.600095 77.31599   0.156406  
3087.800095 87.308     0.160963  
3088.000095 96.843     0.166823  
3088.200095 97.265     0.171295  
3088.400095 91.672     0.178832  
3088.600095 82.802     0.201133  
3088.800095 73.499     0.231921  
3089.000096 71.88      0.246504  
3089.200096 74.62      0.249948  
3089.400096 73.79401   0.210478  
3089.600096 70.764     0.192504  
3089.800096 71.482     0.190487  
3090.000096 73.744     0.182462  
3090.200096 72.131     0.18479   
3090.400096 71.00099   0.190257  
3090.600096 66.88599   0.188581  
3090.800096 55.958     0.17842   
3091.000096 46.738     0.171657  
3091.200097 43.527     0.165649  
3091.400097 43.999     0.162742  
3091.600097 46.698     0.175951  
3091.800097 53.475     0.205556  
3092.000097 72.246     0.228121  
3092.200097 94.119     0.232379  
3092.400097 99.54601   0.221819  
3092.600097 95.009     0.205649  
3092.800097 90.885     0.198136  
3093.000097 85.281     0.182224  
3093.200098 79.763     0.15814   
3093.400098 80.85      0.164424  
3093.600098 88.91      0.194555  
3093.800098 98.301     0.211619  
3094.000098 97.731     0.205321  
3094.200098 86.012     0.203906  
3094.400098 73.446     0.210346  
3094.600098 70.119     0.210985  
3094.800098 68.017     0.190716  
3095.000099 62.943     0.15081   
3095.200099 60.175     0.143635  
3095.400099 59.662     0.15623   
3095.600099 55.976     0.153813  
3095.800099 55.699     0.125941  
3096.000099 58.196     0.107748  
3096.200099 60.954     0.103473  
3096.400099 63.612     0.115978  
3096.600099 67.719     0.148025  
3096.800099 74.824     0.168618  
3097.0001  82.836     0.176496  
3097.2001  84.979     0.1922    
3097.4001  77.38499   0.224732  
3097.6001  74.55      0.256924  
3097.8001  81.659     0.226621  
3098.0001  83.83      0.163125  
3098.2001  77.418     0.145303  
3098.4001  69.712     0.163894  
3098.6001  62.01      0.173506  
3098.8001  58.732     0.166234  
3099.0001  57.045     0.165472  
3099.200101 51.104     0.1748    
3099.400101 45.832     0.172627  
3099.600101 44.932     0.160152  
3099.800101 48.483     0.150644  
3100.000101 54.936     0.15084   
3100.200101 57.852     0.153326  
3100.400101 63.371     0.149774  
3100.600101 69.903     0.14541   
3100.800101 74.012     0.15532   
3101.000101 78.54      0.187473  
3101.200102 85.968     0.229321  
3101.400102 95.62      0.2479    
3101.600102 106.944    0.240862  
3101.800102 114.135    0.22343   
3102.000102 109.849    0.206271  
3102.200102 99.953     0.192857  
3102.400102 97.02699   0.185446  
3102.600102 95.7       0.188552  
3102.800102 87.58701   0.194343  
3103.000103 77.28799   0.204993  
3103.200103 77.597     0.213217  
3103.400103 84.25101   0.210784  
3103.600103 89.28001   0.219243  
3103.800103 97.002     0.239957  
3104.000103 109.857    0.253417  
3104.200103 115.691    0.24612   
3104.400103 107.276    0.224547  
3104.600103 90.069     0.207654  
3104.800103 77.558     0.207914  
3105.000104 72.36      0.207845  
3105.200104 69.831     0.20568   
3105.400104 65.913     0.21034   
3105.600104 62.056     0.224286  
3105.800104 58.635     0.223461  
3106.000104 57.541     0.21097   
3106.200104 64.653     0.205316  
3106.400104 75.054     0.218215  
3106.600104 83.009     0.23424   
3106.800104 86.09      0.232454  
3107.000104 83.469     0.230812  
3107.200105 85.475     0.246178  
3107.400105 92.467     0.251917  
3107.600105 92.278     0.231404  
3107.800105 84.946     0.217252  
3108.000105 78.252     0.227195  
3108.200105 76.678     0.225286  
3108.400105 75.707     0.211036  
3108.600105 79.896     0.212916  
3108.800105 89.424     0.226869  
3109.000105 92.989     0.232239  
3109.200106 89.721     0.240266  
3109.400106 85.813     0.269025  
3109.600106 67.948     0.324299  
3109.800106 36.182     0.423445  
3110.000106 23.168     0.522596  
3110.200106 39.874     0.421504  
3110.400106 65.932     0.270891  
3110.600106 71.509     0.187766  
3110.800106 62.458     0.169854  
3111.000107 63.805     0.170462  
3111.200107 72.112     0.180502  
3111.400107 82.905     0.208989  
3111.600107 88.996     0.219745  
3111.800107 87.312     0.205786  
3112.000107 84.485     0.20491   
3112.200107 83.512     0.208713  
3112.400107 84.81499   0.214449  
3112.600107 91.748     0.232371  
3112.800107 96.193     0.244852  
3113.000108 94.242     0.256571  
3113.200108 90.87401   0.272351  
3113.400108 89.549     0.285479  
3113.600108 88.726     0.273185  
3113.800108 87.368     0.237519  
3114.000108 86.824     0.224659  
3114.200108 86.26601   0.231565  
3114.400108 89.007     0.248311  
3114.600108 91.885     0.267335  
3114.800108 90.513     0.259249  
3115.000108 91.618     0.250239  
3115.200109 92.59499   0.25529   
3115.400109 92.313     0.269647  
3115.600109 92.69      0.283639  
3115.800109 95.73399   0.280962  
3116.000109 96.64799   0.27437   
3116.200109 92.154     0.258097  
3116.400109 87.23601   0.267841  
3116.600109 85.69701   0.280642  
3116.800109 89.582     0.27938   
3117.000109 91.301     0.279018  
3117.20011 89.06      0.295099  
3117.40011 88.469     0.303403  
3117.60011 89.263     0.306669  
3117.80011 91.27499   0.324618  
3118.00011 95.384     0.330194  
3118.20011 93.213     0.313604  
3118.40011 91.684     0.297906  
3118.60011 95.122     0.293524  
3118.80011 96.041     0.291265  
3119.000111 94.539     0.289435  
3119.200111 90.798     0.280856  
3119.400111 89.348     0.283406  
3119.600111 94.923     0.290384  
3119.800111 99.66699   0.283863  
3120.000111 96.578     0.275849  
3120.200111 91.06      0.269886  
3120.400111 88.468     0.272933  
3120.600111 90.848     0.267767  
3120.800111 92.717     0.252093  
3121.000112 89.271     0.238301  
3121.200112 16.034     0.240354  
3121.400112 -20        0.250309  
3121.600112 -20        0.257582  
