~Version
 VERS              .         2.0                           : CWLS LOG ASCII STANDARD - VERSION 2.0
 WRAP              .         NO                            : ONE LINE PER DEPTH STEP
 DLM               .         SPACE                         : DELIMITING CHARACTER(SPACE TAB OR COMMA)
~Well Information
#_______________________________________________________________________________
#
#PARAMETER_NAME    .UNIT     VALUE                         : DESCRIPTION
#_______________________________________________________________________________
STRT               .m        2898                          : First reference value
STOP               .m        3121.600112                   : Last reference value
STEP               .m        0.2000001                     : Step increment
NULL               .         -9999                         : Missing value
COMP               .                                       : Company
WELL               .         200                           : Well name
FLD                .                                       : Field
LOC                .                                       : Location
CNTY               .                                       : County
STAT               .                                       : State
CTRY               .                                       : Country
SRVC               .                                       : Service Company
DATE               .                                       : Date
API                .                                       : API number
EREF               .m        139.76                        : 
Pad                .         2                             : 
X                  .m        228492                        : 
Y                  .m        241733                        : 
group              .         Pad2                          : 
Интер-р            .         Зайцев                        : 
Куст               .         2                             : 
Статус             .         Не проверено                  : 
Тип                .         Разведка                      : 
~Parameter Information Block
#_______________________________________________________________________________
#
#PARAMETER_NAME    .UNIT     VALUE                         : DESCRIPTION
#_______________________________________________________________________________
SET                .         LAS1                          : 
REAL_CREATION_DATE .         Ср апр 11 2012-13_17_06       : 
TLFamily_DEPTH     .         Measured Depth                : 
TLFamily_GZ1       .         Extra Shallow Resistivity     : 
TLFamily_GZ2       .         Shallow Resistivity           : 
TLFamily_GZ3       .         Medium Resistivity            : 
TLFamily_GZ4       .         Deep Resistivity              : 
TLFamily_GZ5       .         Extra Deep Resistivity        : 
TLFamily_GZr       .         Medium Resistivity Inverted   : 
TLFamily_LLD       .         Lateral Log Resistivity       : 
TLFamily_PS        .         Spontaneous Potential         : 
TLFamily_PZ        .         Potential Resistivity         : 
TLFamily_RS        .         Mud Resistivity               : 
group              .         INI                           : 
~Curve Information
#_______________________________________________________________________________
#
#LOGNAME           .UNIT     LOG_ID                        : DESCRIPTION
#_______________________________________________________________________________
DEPTH              .m                                      : 1 Depth 
GZ1                .ohm.m                                  : 3 Подошвенный градиент-зонд А0.4М0.1N 
GZ2                .ohm.m                                  : 4 Подошвенный градиент-зонд А1.0М0.1N 
GZ3                .ohm.m                                  : 5 Подошвенный градиент-зонд А2.0М0.5N 
GZ4                .ohm.m                                  : 6 Подошвенный градиент-зонд А4.0М0.5N 
GZ5                .ohm.m                                  : 7 Подошвенный градиент-зонд А8.0М1.0N 
GZr                .ohm.m                                  : 8 Кровельный градиент-зонд N0.5M2.0A 
LLD                .ohm.m                                  : 11 Трехэлектродный  бокового каротажа БК-3 
PS                 .mV                                     : 2 Потенциал самопроизвольной поляризации 
PZ                 .ohm.m                                  : 9 Однополюсный потенциал-зонд N6.0М0.5А 
RS                 .ohm.m                                  : 10 УЭС жидкости в стволе скажины 
~Ascii
# ...
3069.600086 2.3726     8.6874     18.5145    13.1725    7.5303     15.8943    7.5412     76.0112    9.3045     0.4135    
3069.800086 2.4234     8.9414     18.8773    16.0348    8.1483     16.1417    9.65       75.2972    9.2141     0.4035    
3070.000086 2.5559     9.4764     19.71      19.6945    8.798      16.2551    8.3768     82.4762    9.0773     0.4033    
3070.200086 2.6675     9.8884     20.3585    22.9577    9.2503     17.6752    4.9902     93.6575    9.0121     0.4129    
3070.400086 2.4451     9.3131     20.4817    25.2739    9.6486     18.6661    10.1612    100.0041   8.9027     0.4079    
3070.600086 2.5805     9.5241     19.8233    26.4692    10.0806    18.9795    7.1304     96.1336    8.9773     0.4024    
3070.800086 2.334      8.8039     18.8807    26.8959    10.4871    18.6589    7.0187     84.0117    9.1865     0.4081    
3071.000087 2.3116     8.6599     18.4335    28.0283    10.9844    19.5515    7.7935     71.2707    9.2008     0.4076    
3071.200087 2.4123     8.9651     18.9326    30.2578    11.6531    21.2308    8.3983     65.9528    9.2008     0.4016    
3071.400087 2.4901     9.5562     20.0157    33.0484    12.0049    22.3001    14.4353    68.942     9.1216     0.4033    
3071.600087 2.7326     10.741     21.0528    34.8802    11.7861    22.3311    16.0331    72.2328    8.9517     0.4099    
3071.800087 2.9378     11.2537    21.129     33.8784    11.0108    20.9287    7.897      73.0438    8.794      0.4108    
3072.000087 2.86       10.6856    19.8593    30.2423    9.8269     19.1024    6.1609     78.8675    8.579      0.4033    
3072.200087 2.6049     9.7979     18.2565    26.4339    8.4504     17.4886    5.502      90.5976    8.4074     0.4125    
3072.400087 2.4263     9.2338     16.7259    22.8353    7.2975     16.4216    5.7643     97.429     8.2801     0.408     
3072.600087 2.3092     8.8155     15.6856    20.0874    6.3246     15.7315    5.5634     93.1303    8.1928     0.398     
3072.800087 2.216      8.2354     14.8034    17.7559    5.6408     15.3873    5.2067     86.0189    8.1888     0.4138    
3073.000088 2.1296     7.5545     13.7469    15.5987    5.0914     15.4425    5.0362     86.0923    8.1945     0.4054    
3073.200088 2.0147     6.9566     12.9116    13.9863    4.7724     15.8636    5.7546     88.6181    8.2907     0.4001    
3073.400088 1.9754     6.8792     12.6745    13.2219    4.6449     16.1842    6.8114     84.7796    8.407      0.4119    
3073.600088 2.0099     6.9664     13.0348    13.057     4.8417     16.2224    7.8813     79.2955    8.5682     0.4025    
3073.800088 2.1121     7.1374     13.5493    13.1313    5.3475     16.2658    8.3562     81.1806    8.6905     0.4026    
3074.000088 2.1798     7.3967     14.0351    13.5458    6.1837     16.5578    8.4772     89.1248    8.8036     0.4126    
3074.200088 2.2371     7.6355     14.7131    14.3743    7.4404     16.9801    8.4923     94.7418    8.8812     0.4004    
3074.400088 2.349      8.3834     16.2984    16.5437    9.398      18.2904    8.2308     94.3357    8.8812     0.4116    
3074.600088 2.3833     8.8771     17.4844    18.7352    10.8565    19.0075    9.88       91.7178    8.8812     0.4085    
3074.800088 2.4663     9.2183     18.2824    20.5439    12.469     19.1757    10.5149    90.3308    8.8812     0.4028    
3075.000088 2.5263     9.5225     18.8413    22.1745    13.8932    19.0985    10.121     88.9643    8.8812     0.4181    
3075.200089 2.5604     9.755      19.7873    24.5542    14.7642    19.3172    10.7954    84.4631    8.746      0.4024    
3075.400089 2.7618     10.6266    20.7631    26.7138    15.0583    19.2469    11.3826    78.2699    8.4639     0.4087    
3075.600089 2.8679     10.9298    20.6675    27.1468    14.6812    18.255     6.9396     76.8979    8.2501     0.4154    
3075.800089 2.6858     10.2884    18.9222    24.8872    13.6336    17.1582    4.7724     83.5623    8.1447     0.399     
3076.000089 2.3557     8.94       16.9625    22.3086    12.0584    16.8896    5.2491     91.4075    8.0884     0.4084    
3076.200089 2.1861     8.4925     15.9142    20.7293    10.7029    16.9868    8.2533     91.8256    8.0317     0.4079    
3076.400089 2.3134     8.8988     15.9594    19.9617    9.7192     16.717     9.5026     90.0516    8.029      0.4047    
3076.600089 2.4022     8.863      16.0271    19.142     9.0315     15.9573    8.4478     94.7396    8.029      0.4109    
3076.800089 2.4685     8.7017     15.7955    17.9694    8.3875     15.333     7.2711     99.8794    7.9742     0.4076    
3077.000089 2.5097     8.5693     15.6324    16.7675    7.8204     15.3884    5.6283     97.3161    7.8166     0.4074    
3077.20009 2.4101     8.42       15.2674    15.8097    7.3565     16.2366    4.915      88.511     7.716      0.4133    
3077.40009 2.2604     8.2268     15.1032    15.4034    6.9041     17.8713    5.051      80.0484    7.6789     0.4011    
3077.60009 2.2368     8.3848     15.0714    14.8919    6.6097     18.9668    6.0264     78.9789    7.786      0.404     
3077.80009 2.0499     7.783      14.7301    14.3399    6.3943     18.8013    7.1772     85.4697    8.1142     0.4078    
3078.00009 2.0876     7.4449     14.1364    13.7824    6.2208     17.9122    9.3019     92.6401    8.5016     0.3993    
3078.20009 2.1675     7.5362     14.1094    13.7664    6.128      16.9959    10.3053    95.977     8.831      0.4126    
3078.40009 2.306      7.7926     14.4171    14.0077    6.1757     16.2361    10.2672    95.4336    9.0505     0.4073    
3078.60009 2.4376     8.2145     14.7066    14.253     6.2916     15.6933    9.6136     91.5549    9.173      0.4081    
3078.80009 2.4804     8.6081     14.9179    14.5764    6.5397     15.2397    9.3245     84.3512    9.2327     0.4136    
3079.000091 2.509      8.9761     15.0733    15.1504    6.8062     15.0887    9.2618     75.2984    9.2122     0.4003    
3079.200091 2.6187     9.5182     15.2997    15.6911    6.9811     15.0856    8.9259     69.3314    9.1089     0.4143    
3079.400091 2.642      9.8049     15.5146    16.0531    7.1198     15.1056    8.3485     70.8916    9.0322     0.4147    
3079.600091 2.6959     9.8992     15.7193    16.1888    7.2403     14.8924    7.1312     80.0939    8.8332     0.4081    
3079.800091 2.6036     9.6261     15.7653    15.6163    7.2306     14.8131    6.0328     93.0926    8.7457     0.4125    
3080.000091 2.483      9.03       15.4694    14.8179    7.171      14.9774    6.4952     102.8193   8.6883     0.4047    
3080.200091 2.3945     8.6303     15.1465    14.0647    7.0041     14.9929    6.9724     102.3052   8.6787     0.4136    
3080.400091 2.3187     8.3489     14.6728    13.4427    6.836      15.0757    6.2854     94.9784    8.7375     0.4009    
3080.600091 2.2669     7.9483     14.124     12.9564    6.6675     15.2818    6.4105     91.8       8.7747     0.4086    
3080.800091 2.1936     7.6124     13.5265    12.3735    6.6576     15.5209    6.5631     92.2286    8.8473     0.4071    
3081.000092 2.1819     7.4074     12.9981    11.9732    6.775      16.0311    6.4131     88.5064    8.9335     0.3999    
3081.200092 2.1067     7.2292     12.654     11.8368    7.0164     16.9875    6.7883     82.1814    9.0302     0.4108    
3081.400092 2.1095     7.2254     12.5675    11.9685    7.4392     18.1918    7.4213     79.7271    9.1332     0.41      
3081.600092 2.1681     7.3078     12.681     12.6289    7.9689     19.6272    7.8841     82.437     9.1898     0.4026    
3081.800092 2.211      7.5325     12.9076    13.4446    8.7481     21.1497    7.836      87.8874    9.246      0.4132    
3082.000092 2.2547     7.6442     12.933     14.1613    9.6826     22.6842    6.9525     94.3287    9.3302     0.4014    
3082.200092 2.1936     7.2869     12.8009    14.8834    10.8687    24.7102    6.8314     99.8371    9.5315     0.4082    
3082.400092 2.079      7.1941     12.8828    15.6712    12.331     26.8932    8.1722     100.2768   9.6781     0.4137    
3082.600092 2.1412     7.4778     13.2813    16.8536    14.1765    29.5069    9.1776     93.5324    9.8507     0.4018    
