~Version
 VERS              .         2.0                           : CWLS LOG ASCII STANDARD - VERSION 2.0
 WRAP              .         NO                            : ONE LINE PER DEPTH STEP
 DLM               .         SPACE                         : DELIMITING CHARACTER(SPACE TAB OR COMMA)
~Well Information
#_______________________________________________________________________________
#
#PARAMETER_NAME    .UNIT     VALUE                         : DESCRIPTION
#_______________________________________________________________________________
STRT               .m        2898                          : First reference value
STOP               .m        3121.600112                   : Last reference value
STEP               .m        0.2000001                     : Step increment
NULL               .         -9999                         : Missing value
COMP               .                                       : Company
WELL               .         200                           : Well name
FLD                .                                       : Field
LOC                .                                       : Location
CNTY               .                                       : County
STAT               .                                       : State
CTRY               .                                       : Country
SRVC               .                                       : Service Company
DATE               .                                       : Date
API                .                                       : API number
EREF               .m        139.76                        : 
Pad                .         2                             : 
X                  .m        228492                        : 
Y                  .m        241733                        : 
group              .         Pad2                          : 
Интер-р            .         Зайцев                        : 
Куст               .         2                             : 
Статус             .         Не проверено                  : 
Тип                .         Разведка                      : 
~Parameter Information Block
#_______________________________________________________________________________
#
#PARAMETER_NAME    .UNIT     VALUE                         : DESCRIPTION
#_______________________________________________________________________________
SET                .         LAS1                          : 
REAL_CREATION_DATE .         Ср апр 11 2012-13_17_06       : 
TLFamily_DEPTH     .         Measured Depth                : 
TLFamily_GZ1       .         Extra Shallow Resistivity     : 
TLFamily_GZ2       .         Shallow Resistivity           : 
TLFamily_GZ3       .         Medium Resistivity            : 
TLFamily_GZ4       .         Deep Resistivity              : 
TLFamily_GZ5       .         Extra Deep Resistivity        : 
TLFamily_GZr       .         Medium Resistivity Inverted   : 
TLFamily_LLD       .         Lateral Log Resistivity       : 
TLFamily_PS        .         Spontaneous Potential         : 
TLFamily_PZ        .         Potential Resistivity         : 
TLFamily_RS        .         Mud Resistivity               : 
group              .         INI                           : 
~Curve Information
#_______________________________________________________________________________
#
#LOGNAME           .UNIT     LOG_ID                        : DESCRIPTION
#_______________________________________________________________________________
DEPTH              .m                                      : 1 Depth 
GZ1                .ohm.m                                  : 3 Подошвенный градиент-зонд А0.4М0.1N 
GZ2                .ohm.m                                  : 4 Подошвенный градиент-зонд А1.0М0.1N 
GZ3                .ohm.m                                  : 5 Подошвенный градиент-зонд А2.0М0.5N 
GZ4                .ohm.m                                  : 6 Подошвенный градиент-зонд А4.0М0.5N 
GZ5                .ohm.m                                  : 7 Подошвенный градиент-зонд А8.0М1.0N 
GZr                .ohm.m                                  : 8 Кровельный градиент-зонд N0.5M2.0A 
LLD                .ohm.m                                  : 11 Трехэлектродный  бокового каротажа БК-3 
PS                 .mV                                     : 2 Потенциал самопроизвольной поляризации 
PZ                 .ohm.m                                  : 9 Однополюсный потенциал-зонд N6.0М0.5А 
RS                 .ohm.m                                  : 10 УЭС жидкости в стволе скажины 
~Ascii
# ...
3096.000099 2.013      6.4098     10.7485    7.4109     5.908      9.4845     15.3585    97.6662    6.6032     0.3972    
3096.200099 2.445      7.6859     11.7266    8.9782     5.8102     8.4013     15.2939    93.2261    6.4799     0.4217    
3096.400099 2.6918     8.3299     11.9159    9.8137     5.6751     7.5644     5.3091     92.2285    6.3314     0.4031    
3096.600099 2.5262     7.8438     11.2672    9.9896     5.5077     7.2753     4.1156     93.8751    6.1079     0.4079    
3096.800099 2.2758     7.3965     10.5569    10.1147    5.4394     7.4999     3.8875     96.9618    5.9141     0.4024    
3097.0001  2.1045     7.1507     10.3369    10.6206    5.4931     7.8877     4.5322     100.267    5.7596     0.4077    
3097.2001  2.1463     7.4885     10.7695    11.4567    5.7373     8.1488     6.1509     103.639    5.6271     0.3989    
3097.4001  2.2891     7.7693     11.2763    12.1009    6.1167     8.2059     5.3963     107.3159   5.5126     0.4175    
3097.6001  2.2573     7.2338     11.7846    12.853     6.3162     8.776      3.9679     108.0529   5.3712     0.4023    
3097.8001  2.2806     7.429      12.2002    13.3978    6.2124     9.3754     4.8954     102.4751   5.1388     0.4105    
3098.0001  2.3187     7.594      12.4058    13.3638    5.9353     9.3186     5.3721     93.7291    4.9451     0.4068    
3098.2001  2.2762     7.2843     11.7813    12.0425    5.4065     8.6562     3.8408     87.9084    4.8484     0.4081    
3098.4001  2.131      6.6249     10.6789    10.435     4.6096     8.2092     3.3609     88.485     4.7065     0.3964    
3098.6001  1.9885     6.0292     9.4666     9.0224     3.9473     8.1191     3.3356     94.4472    4.587      0.4046    
3098.8001  1.889      5.8031     8.4841     7.9351     3.4066     8.2064     3.5607     101.5037   4.4728     0.404     
3099.0001  1.878      5.6608     7.849      7.2256     2.9883     8.3541     3.3138     107.7083   4.4179     0.4071    
3099.200101 1.7757     5.2394     7.2463     6.5578     2.6884     8.7031     3.0614     112.3828   4.3585     0.4007    
3099.400101 1.726      4.8715     6.7527     5.9569     2.4649     9.0929     3.2609     112.3793   4.3541     0.4002    
3099.600101 1.6678     4.6733     6.3984     5.5529     2.3673     9.4904     3.1376     105.3416   4.3931     0.397     
3099.800101 1.6033     4.3729     5.9661     5.2254     2.3673     10.0172    2.9847     94.3529    4.4829     0.4019    
3100.000101 1.4942     4.0521     5.73       5.0966     2.49       10.7594    3.3256     86.5384    4.7021     0.3932    
3100.200101 1.463      3.9889     5.8243     5.2341     2.8215     11.7296    4.2702     86.1289    4.9666     0.4059    
3100.400101 1.5858     4.2609     6.1533     5.6199     3.6242     12.7783    5.3243     91.4024    5.4016     0.3962    
3100.600101 1.7266     4.5802     6.4892     6.0186     4.3045     13.2669    6.0167     96.0983    5.765      0.4075    
3100.800101 1.8338     4.8924     6.8068     6.4145     4.9873     13.4185    5.7961     95.9355    6.0595     0.3977    
3101.000101 1.8338     5.1473     7.3026     7.0645     5.5953     13.6759    6.2505     94.5279    6.286      0.4088    
3101.200102 1.997      5.9682     7.8751     7.7485     6.1366     14.1221    9.0448     95.3501    6.4374     0.3991    
3101.400102 2.1399     6.5862     8.3963     8.2389     6.4929     14.1222    8.6661     93.7507    6.5796     0.4135    
3101.600102 2.219      6.8988     8.5523     8.2325     6.5937     13.6829    7.2943     85.5338    6.724      0.4062    
3101.800102 2.2379     6.9302     8.6514     8.2007     6.4261     13.3189    6.5498     75.0438    6.7827     0.4103    
3102.000102 2.256      7.1938     8.7786     8.2135     6.3099     13.2586    6.7816     70.8889    6.7576     0.4062    
3102.200102 2.2918     7.3844     9.0856     8.2954     6.2339     13.2586    6.0602     76.615     6.7508     0.4161    
3102.400102 2.2278     7.3039     9.5185     8.2329     6.1314     13.2586    6.2751     90.7177    6.7464     0.4044    
3102.600102 2.2111     7.5988     9.9555     8.1198     6.0709     13.2294    6.9862     108.731    6.64       0.4078    
3102.800102 2.2648     7.602      10.4237    8.0332     6.022      13.2053    6.1671     120.9367   6.5547     0.4028    
3103.000103 2.2723     7.6333     10.5137    7.83       6.0981     13.2305    5.0882     125.6723   6.423      0.4079    
3103.200103 2.3011     7.7034     10.3692    7.549      6.2826     13.2053    3.9896     127.4527   6.346      0.4081    
3103.400103 2.0512     6.8747     10.1387    7.4682     6.7141     13.2053    4.5079     122.4515   6.3567     0.4012    
3103.600103 1.8876     6.3702     10.4183    7.8953     7.3909     13.2053    5.2538     117.3236   6.4586     0.4028    
3103.800103 1.8347     6.3905     11.1899    8.9043     8.2373     13.2053    6.2522     124.7287   6.5768     0.4013    
3104.000103 1.9864     6.6979     12.2538    10.2089    8.7747     13.2053    7.7889     130.2114   6.623      0.3955    
3104.200103 2.189      7.5846     13.2229    11.131     9.0686     13.2053    8.1205     123.1418   6.6443     0.4007    
3104.400103 2.3038     8.0262     13.8185    11.2024    8.9866     13.2053    6.5562     120.7761   6.6443     0.3964    
3104.600103 2.3457     7.6987     13.5659    10.8347    8.6039     13.2053    5.2605     128.4237   6.6443     0.3969    
3104.800103 2.3726     7.5745     12.7546    10.2908    8.0436     13.2053    4.6368     137.0779   6.6443     0.4022    
3105.000104 2.3726     7.6078     11.8067    9.9577     7.6402     13.2053    4.2552     139.7309   6.6443     0.4022    
3105.200104 2.3726     7.4106     10.9983    9.7955     7.256      13.2053    4.648      130.2188   6.6443     0.4022    
3105.400104 2.3726     7.3844     10.5153    9.7362     7.1062     13.2053    4.0064     114.1491   6.6443     0.4022    
3105.600104 2.3726     7.3844     9.7099     9.1391     6.8829     13.2053    3.6037     109.9305   6.6443     0.4022    
3105.800104 2.3726     7.3606     8.6712     8.2376     6.8695     13.2053    3.4065     120.5212   6.6443     0.4022    
3106.000104 2.3726     7.3719     8.0205     7.6994     7.0106     13.2053    4.1018     131.477    6.6443     0.4022    
3106.200104 2.3726     7.3844     7.776      7.4379     7.4231     13.2053    5.3969     138.5633   6.6443     0.4022    
3106.400104 2.3726     7.3844     7.7228     7.5074     7.9213     13.2053    6.9511     140.2989   6.6443     0.4022    
3106.600104 2.3726     7.3844     7.7228     7.8975     8.5007     13.2053    7.5129     129.5574   6.6443     0.4022    
3106.800104 2.3726     7.3844     7.7228     8.3449     9.0217     13.2053    9.6627     117.3526   6.6443     0.4022    
3107.000104 2.3726     7.3592     7.7228     9.037      9.3863     13.2053    13.5077    122.1846   6.6443     0.4022    
3107.200105 2.3726     7.3844     7.7228     9.6467     9.7498     13.2053    11.6202    133.3587   6.6443     0.4022    
3107.400105 2.3726     7.3844     7.7228     9.9164     10.1069    13.2053    8.0672     129.3926   6.6443     0.4022    
3107.600105 2.3726     7.3844     7.7228     9.9098     10.5944    13.2053    7.6096     113.8659   6.6443     0.4022    
3107.800105 2.3726     7.3844     7.7228     10.0052    11.3574    13.2053    7.5397     100.5503   6.6443     0.4022    
3108.000105 2.3726     7.3844     7.7228     10.2956    12.5219    13.2053    6.9456     94.8293    6.6443     0.4022    
3108.200105 2.3726     7.3844     7.7228     10.4827    14.1012    13.2053    7.2576     96.7328    6.6443     0.4022    
3108.400105 2.3726     7.3717     7.7228     10.5491    16.0871    13.2053    7.9352     103.289    6.6443     0.4022    
3108.600105 2.3726     7.3649     7.7228     10.5477    18.8689    13.2053    8.3243     111.7445   6.6443     0.4022    
3108.800105 2.3726     7.3844     7.7228     10.5683    22.2823    13.2053    8.1963     119.3205   6.6443     0.4022    
3109.000105 2.3726     7.3844     7.7228     10.5683    26.2707    13.2053    7.8981     123.8743   6.6443     0.4022    
