~Version
 VERS              .         2.0                           : CWLS LOG ASCII STANDARD - VERSION 2.0
 WRAP              .         NO                            : ONE LINE PER DEPTH STEP
 DLM               .         SPACE                         : DELIMITING CHARACTER(SPACE TAB OR COMMA)
~Well Information
#_______________________________________________________________________________
#
#PARAMETER_NAME    .UNIT     VALUE                         : DESCRIPTION
#_______________________________________________________________________________
STRT               .m        2898                          : First reference value
STOP               .m        3121.600112                   : Last reference value
STEP               .m        0.2000001                     : Step increment
NULL               .         -9999                         : Missing value
COMP               .                                       : Company
WELL               .         200                           : Well name
FLD                .                                       : Field
LOC                .                                       : Location
CNTY               .                                       : County
STAT               .                                       : State
CTRY               .                                       : Country
SRVC               .                                       : Service Company
DATE               .                                       : Date
API                .                                       : API number
EREF               .m        139.76                        : 
Pad                .         2                             : 
X                  .m        228492                        : 
Y                  .m        241733                        : 
group              .         Pad2                          : 
Интер-р            .         Зайцев                        : 
Куст               .         2                             : 
Статус             .         Не проверено                  : 
Тип                .         Разведка                      : 
~Parameter Information Block
#_______________________________________________________________________________
#
#PARAMETER_NAME    .UNIT     VALUE                         : DESCRIPTION
#_______________________________________________________________________________
SET                .         LAS1                          : 
REAL_CREATION_DATE .         Ср апр 11 2012-13_17_06       : 
TLFamily_DEPTH     .         Measured Depth                : 
TLFamily_GZ1       .         Extra Shallow Resistivity     : 
TLFamily_GZ2       .         Shallow Resistivity           : 
TLFamily_GZ3       .         Medium Resistivity            : 
TLFamily_GZ4       .         Deep Resistivity              : 
TLFamily_GZ5       .         Extra Deep Resistivity        : 
TLFamily_GZr       .         Medium Resistivity Inverted   : 
TLFamily_LLD       .         Lateral Log Resistivity       : 
TLFamily_PS        .         Spontaneous Potential         : 
TLFamily_PZ        .         Potential Resistivity         : 
TLFamily_RS        .         Mud Resistivity               : 
group              .         INI                           : 
~Curve Information
#_______________________________________________________________________________
#
#LOGNAME           .UNIT     LOG_ID                        : DESCRIPTION
#_______________________________________________________________________________
DEPTH              .m                                      : 1 Depth 
GZ1                .ohm.m                                  : 3 Подошвенный градиент-зонд А0.4М0.1N 
GZ2                .ohm.m                                  : 4 Подошвенный градиент-зонд А1.0М0.1N 
GZ3                .ohm.m                                  : 5 Подошвенный градиент-зонд А2.0М0.5N 
GZ4                .ohm.m                                  : 6 Подошвенный градиент-зонд А4.0М0.5N 
GZ5                .ohm.m                                  : 7 Подошвенный градиент-зонд А8.0М1.0N 
GZr                .ohm.m                                  : 8 Кровельный градиент-зонд N0.5M2.0A 
LLD                .ohm.m                                  : 11 Трехэлектродный  бокового каротажа БК-3 
PS                 .mV                                     : 2 Потенциал самопроизвольной поляризации 
PZ                 .ohm.m                                  : 9 Однополюсный потенциал-зонд N6.0М0.5А 
RS                 .ohm.m                                  : 10 УЭС жидкости в стволе скажины 
~Ascii
# ...
2977.20004 2.1571     6.7557     9.9588     9.3411     5.9161     10.027     3.973      37.7687    5.9519     0.4303    
2977.40004 2.1571     6.7114     9.9314     9.2295     5.8631     9.9968     4.0188     38.5006    5.9519     0.4257    
2977.60004 2.1284     6.6821     9.8746     9.1205     5.909      9.9791     3.9718     38.2423    5.9877     0.4255    
2977.80004 2.1032     6.6509     9.8523     9.0697     5.9161     9.9705     4.0327     38.1159    6.0154     0.4223    
2978.00004 2.0686     6.5232     9.8882     9.1043     5.9691     9.9179     4.4564     38.8815    6.0584     0.4198    
2978.20004 2.1336     6.8394     10.0094    9.1718     5.9772     9.6969     4.9934     40.027     6.0584     0.4158    
2978.40004 2.2249     6.9562     10.2359    9.253      6.022      9.3967     4.6256     40.3941    6.014      0.418     
2978.60004 2.2648     7.1204     10.3315    9.253      6.022      9.2385     4.276      39.5582    5.888      0.4134    
2978.80004 2.2904     7.2059     10.31      9.1872     6.022      9.3871     3.6286     38.8634    5.8189     0.4081    
2979.000041 2.1946     7.0707     10.1814    9.0781     6.022      9.5705     3.4899     38.8251    5.6627     0.408     
2979.200041 2.1571     7.0009     10.0401    8.9675     6.022      9.6341     3.6513     38.4797    5.5804     0.4035    
2979.400041 2.1048     6.9015     9.9518     8.9052     5.9825     9.5814     3.6868     37.5733    5.5746     0.4081    
2979.600041 2.0744     6.7238     9.8146     8.7376     5.9691     9.4862     3.6313     37.6163    5.534      0.4105    
2979.800041 2.0493     6.481      9.669      8.5804     5.9161     9.4742     3.6985     39.1676    5.5407     0.4142    
2980.000041 2.0493     6.4153     9.5861     8.4705     5.9102     9.4742     3.6532     40.2015    5.5258     0.4167    
2980.200041 2.0493     6.4098     9.5336     8.3599     5.8631     9.5484     3.5427     39.537     5.4833     0.4198    
2980.400041 2.0493     6.3366     9.4034     8.248      5.8631     9.6595     3.424      38.5942    5.4725     0.4204    
2980.600041 2.0224     6.1898     9.135      8.1098     5.889      9.8556     3.3767     38.8289    5.5343     0.4257    
2980.800041 1.9194     5.9862     8.9262     8.1128     5.9473     9.9929     3.9359     39.4203    5.611      0.4247    
2981.000041 1.9949     6.1945     9.0984     8.3226     5.9691     9.8094     5.3668     39.0735    5.6323     0.4257    
2981.200042 2.1881     6.6698     9.4534     8.4885     5.8765     9.4859     4.5898     38.7948    5.5972     0.4257    
2981.400042 2.2338     6.7069     9.4563     8.3602     5.7649     9.0953     3.9161     39.3782    5.5412     0.4254    
2981.600042 2.133      6.4434     9.1089     7.9957     5.6525     8.7938     3.399      39.113     5.5119     0.4162    
2981.800042 2.0002     6.1602     8.8119     7.7356     5.4875     8.7707     3.2884     37.634     5.4563     0.4088    
2982.000042 1.9675     6.3143     8.7092     7.6986     5.4394     8.9567     3.3247     37.359     5.3757     0.411     
2982.200042 1.9254     6.2959     8.8172     7.8505     5.5107     9.3628     3.3456     38.5303    5.3431     0.4031    
2982.400042 1.9322     6.3526     8.9748     8.0172     5.6225     9.7522     3.5313     38.8648    5.3128     0.4022    
2982.600042 1.9637     6.3751     9.1289     8.1619     5.6513     10.0732    3.6345     38.0837    5.3419     0.4081    
2982.800042 1.9954     6.3327     9.2392     8.1781     5.7042     10.1587    3.7204     37.4776    5.366      0.4139    
2983.000042 1.9954     6.1541     9.2667     8.0735     5.6632     10.0659    3.7061     37.5777    5.4219     0.4139    
2983.200043 1.9954     6.1021     9.2667     8.0429     5.6067     9.968      3.7939     37.6832    5.4725     0.4163    
2983.400043 2.0009     6.127      9.2578     8.013      5.4945     9.8974     3.8597     37.3772    5.4831     0.4201    
2983.600043 2.0493     6.2033     9.165      7.9242     5.4342     9.7675     3.8184     37.3852    5.5258     0.4257    
2983.800043 2.0247     6.2164     8.9608     7.8381     5.1997     9.7369     3.7207     38.0925    5.5079     0.4251    
2984.000043 2.075      6.4379     8.7808     7.7258     5.0502     9.8448     3.636      39.2655    5.4725     0.4242    
2984.200043 2.0126     6.2545     8.5811     7.5353     4.9154     9.8738     3.6117     39.3477    5.4982     0.4193    
2984.400043 1.9415     6.0739     8.4196     7.3633     4.8267     9.8473     3.6206     37.5865    5.5258     0.4186    
2984.600043 1.966      6.1735     8.5167     7.3589     4.6776     9.797      4.0048     36.2553    5.5258     0.4099    
2984.800043 1.9685     6.2341     8.7883     7.4893     4.6043     9.8848     3.8617     36.4667    5.5231     0.4023    
2985.000044 2.0235     6.4248     8.9516     7.4642     4.4941     9.9311     3.8238     36.4777    5.4663     0.4081    
2985.200044 2.0133     6.4261     8.9791     7.3782     4.3299     9.9897     3.6164     35.6558    5.4293     0.4078    
2985.400044 1.9415     6.2079     8.7851     7.0855     4.2142     9.8884     3.4824     35.4055    5.4725     0.4054    
2985.600044 1.9415     6.1248     8.6687     6.9028     4.0526     9.8473     3.6405     36.0928    5.4468     0.4113    
2985.800044 1.9415     6.035      8.5712     6.7248     3.9563     9.9817     3.6103     36.3544    5.4725     0.4124    
2986.000044 1.9246     5.9519     8.4766     6.6035     3.9033     10.2334    3.5612     35.6364    5.4725     0.4196    
2986.200044 1.9129     5.9448     8.4681     6.5697     3.8778     10.456     3.6605     35.0119    5.4725     0.4257    
2986.400044 1.9364     5.9415     8.4173     6.5938     3.9373     10.6455    3.7356     35.3845    5.5238     0.4257    
2986.600044 1.8646     5.7409     8.335      6.6486     4.0486     10.9136    3.602      36.048     5.6109     0.4198    
2986.800044 1.8338     5.7079     8.37       6.8704     4.2557     11.3239    3.5939     36.1872    5.6662     0.4174    
2987.000045 1.8401     5.8002     8.5522     7.2948     4.5759     11.793     3.7534     35.6825    5.7349     0.4136    
2987.200045 1.8876     5.915      8.9139     7.8656     4.9102     12.2981    3.9527     34.532     5.807      0.4052    
2987.400045 1.9507     6.2338     9.3239     8.427      5.1892     12.6067    4.3895     33.2184    5.9068     0.4139    
2987.600045 2.0235     6.4651     9.6131     8.8034     5.4666     12.6442    4.5135     32.5709    6.0179     0.4094    
2987.800045 2.0316     6.3983     9.5973     8.8599     5.6166     12.486     4.2896     33.257     6.1295     0.4075    
2988.000045 2.0157     6.3364     9.5413     8.86       5.6746     12.4334    4.2362     34.4528    6.2918     0.4022    
2988.200045 2.0493     6.4713     9.5329     8.9547     5.7572     12.4219    4.5694     34.0389    6.4087     0.4092    
2988.400045 2.0747     6.5884     9.6089     9.0904     5.8464     12.3098    4.656      32.3767    6.5206     0.4139    
2988.600045 2.0828     6.7815     9.8025     9.2565     5.9161     12.1104    5.0788     31.3525    6.591      0.416     
2988.800045 2.2469     7.2296     10.1711    9.5243     5.9161     11.8543    5.9454     31.3194    6.591      0.4228    
2989.000045 2.3338     7.588      10.4721    9.6213     5.9161     11.4473    5.4904     31.8417    6.5519     0.4316    
2989.200046 2.3905     7.7735     10.6475    9.5671     5.8551     11.1317    4.9147     31.7198    6.4794     0.4312    
2989.400046 2.3474     7.7337     10.7448    9.3638     5.6746     10.8859    4.4933     31.0112    6.3677     0.4257    
2989.600046 2.3304     7.7463     10.8607    9.1311     5.5043     10.679     4.4339     31.5404    6.2574     0.421     
2989.800046 2.3005     7.6606     10.8516    8.8156     5.3085     10.5935    4.0991     33.0168    6.1464     0.4187    
2990.000046 2.1979     7.3725     10.7154    8.4381     5.1455     10.662     3.7981     33.3868    6.1117     0.4139    
2990.200046 2.0841     7.0197     10.5208    8.1656     5.0157     10.885     3.6546     32.6071    6.1117     0.4118    
