~Version
 VERS              .         2.0                           : CWLS LOG ASCII STANDARD - VERSION 2.0
 WRAP              .         NO                            : ONE LINE PER DEPTH STEP
 DLM               .         SPACE                         : DELIMITING CHARACTER(SPACE TAB OR COMMA)
~Well Information
#_______________________________________________________________________________
#
#PARAMETER_NAME    .UNIT     VALUE                         : DESCRIPTION
#_______________________________________________________________________________
STRT               .m        2898                          : First reference value
STOP               .m        3121.600112                   : Last reference value
STEP               .m        0.2000001                     : Step increment
NULL               .         -9999                         : Missing value
COMP               .                                       : Company
WELL               .         200                           : Well name
FLD                .                                       : Field
LOC                .                                       : Location
CNTY               .                                       : County
STAT               .                                       : State
CTRY               .                                       : Country
SRVC               .                                       : Service Company
DATE               .                                       : Date
API                .                                       : API number
EREF               .m        139.76                        : 
Pad                .         2                             : 
X                  .m        228492                        : 
Y                  .m        241733                        : 
group              .         Pad2                          : 
Интер-р            .         Зайцев                        : 
Куст               .         2                             : 
Статус             .         Не проверено                  : 
Тип                .         Разведка                      : 
~Parameter Information Block
#_______________________________________________________________________________
#
#PARAMETER_NAME    .UNIT     VALUE                         : DESCRIPTION
#_______________________________________________________________________________
SET                .         LAS1                          : 
REAL_CREATION_DATE .         Ср апр 11 2012-13_17_06       : 
TLFamily_DEPTH     .         Measured Depth                : 
TLFamily_GZ1       .         Extra Shallow Resistivity     : 
TLFamily_GZ2       .         Shallow Resistivity           : 
TLFamily_GZ3       .         Medium Resistivity            : 
TLFamily_GZ4       .         Deep Resistivity              : 
TLFamily_GZ5       .         Extra Deep Resistivity        : 
TLFamily_GZr       .         Medium Resistivity Inverted   : 
TLFamily_LLD       .         Lateral Log Resistivity       : 
TLFamily_PS        .         Spontaneous Potential         : 
TLFamily_PZ        .         Potential Resistivity         : 
TLFamily_RS        .         Mud Resistivity               : 
group              .         INI                           : 
~Curve Information
#_______________________________________________________________________________
#
#LOGNAME           .UNIT     LOG_ID                        : DESCRIPTION
#_______________________________________________________________________________
DEPTH              .m                                      : 1 Depth 
GZ1                .ohm.m                                  : 3 Подошвенный градиент-зонд А0.4М0.1N 
GZ2                .ohm.m                                  : 4 Подошвенный градиент-зонд А1.0М0.1N 
GZ3                .ohm.m                                  : 5 Подошвенный градиент-зонд А2.0М0.5N 
GZ4                .ohm.m                                  : 6 Подошвенный градиент-зонд А4.0М0.5N 
GZ5                .ohm.m                                  : 7 Подошвенный градиент-зонд А8.0М1.0N 
GZr                .ohm.m                                  : 8 Кровельный градиент-зонд N0.5M2.0A 
LLD                .ohm.m                                  : 11 Трехэлектродный  бокового каротажа БК-3 
PS                 .mV                                     : 2 Потенциал самопроизвольной поляризации 
PZ                 .ohm.m                                  : 9 Однополюсный потенциал-зонд N6.0М0.5А 
RS                 .ohm.m                                  : 10 УЭС жидкости в стволе скажины 
~Ascii
# ...
3016.800059 2.4676     9.2914     19.4885    24.7462    16.7769    18.6164    9.2364     27.3178    9.3479     0.4238    
3017.00006 2.5854     9.372      19.5417    24.6857    17.1814    18.4009    9.2811     28.3032    9.381      0.4257    
3017.20006 2.6862     9.654      19.5287    24.4997    17.3002    18.0699    8.4731     27.8981    9.285      0.4251    
3017.40006 2.7665     9.953      19.1511    23.9414    17.0222    17.9814    7.7722     27.4656    9.1513     0.4197    
3017.60006 2.6984     9.7454     18.313     22.9927    16.6813    18.3121    5.9442     28.3992    9.0548     0.4139    
3017.80006 2.5542     9.348      17.0504    21.7191    16.2872    19.1037    5.7152     29.5634    8.9877     0.4106    
3018.00006 2.4036     8.881      16.0858    20.7691    15.8858    20.5026    5.615      29.4172    9.0025     0.4026    
3018.20006 2.2811     8.5178     15.5267    20.168     15.821     22.0363    6.7977     28.7098    9.0606     0.4129    
3018.40006 2.2897     8.5423     15.3059    19.7569    16.013     23.347     6.885      28.6975    9.2648     0.414     
3018.60006 2.2433     8.1955     15.3632    19.5709    16.2602    24.4279    7.5113     28.6763    9.525      0.42      
3018.80006 2.3147     8.3007     15.6773    19.6744    16.4453    25.1024    10.3889    27.6409    9.7358     0.4257    
3019.000061 2.4078     8.6136     16.1771    19.9587    16.6593    25.1301    9.9579     26.863     9.9538     0.4226    
3019.200061 2.4804     8.8149     16.3866    19.896     16.827     25.1827    8.5962     27.5312    10.1496    0.4198    
3019.400061 2.5184     8.9989     16.3498    19.6931    16.9409    25.4495    8.3403     28.2201    10.2976    0.4193    
3019.600061 2.475      8.8756     16.1737    19.3651    17.0586    25.8522    7.9643     27.897     10.4728    0.4086    
3019.800061 2.4265     8.9128     15.9944    19.1431    17.2275    26.0448    9.1748     26.9217    10.6982    0.4079    
3020.000061 2.4532     9.196      16.0366    19.0674    17.4515    25.7547    9.7821     25.9102    10.9608    0.4024    
3020.200061 2.4265     9.1364     16.2491    19.1703    17.7513    25.0527    10.4504    25.1012    11.2103    0.4113    
3020.400061 2.4673     9.3598     16.6112    19.4255    18.1364    24.1383    11.8029    24.3673    11.4839    0.4139    
3020.600061 2.5101     9.532      17.285     19.9777    18.5755    23.3955    11.5376    23.6249    11.731     0.4196    
3020.800061 2.5773     9.8576     18.1222    20.7361    19.1329    22.782     12.2412    22.7733    11.9351    0.4257    
3021.000061 2.6822     10.2498    19.1368    21.6179    19.6952    21.7188    15.2594    22.5463    12.0532    0.4257    
3021.200062 2.8016     10.7841    20.1785    22.4619    20.1394    20.5016    13.5139    23.0379    12.113     0.4237    
3021.400062 2.8346     11.1525    21.1285    23.1814    20.6958    19.2479    13.9724    23.2839    12.1386    0.4195    
3021.600062 2.9434     11.7358    22.1682    24.1351    21.246     18.2213    14.0301    23.7669    12.0227    0.4173    
3021.800062 3.0264     12.1972    23.6039    25.3729    21.6883    17.1175    15.5974    24.6691    11.8267    0.4135    
3022.000062 3.2003     12.9959    25.2293    26.591     21.7548    15.6662    18.837     24.9281    11.4719    0.4139    
3022.200062 3.3335     13.7073    26.4547    27.3154    21.3899    13.9213    11.1834    25.7206    11.0988    0.4198    
3022.400062 3.2623     13.3186    26.3253    26.6989    20.1092    12.1034    7.1229     28.4994    10.5225    0.4198    
3022.600062 3.0109     12.4575    25.4986    25.879     18.8878    11.5439    6.7829     31.0742    10.1744    0.4226    
3022.800062 2.9206     12.1487    25.0407    25.7112    17.7567    11.0712    8.2717     31.0902    9.8324     0.4202    
3023.000062 2.9654     12.1788    25.1573    26.0241    16.8626    10.4474    8.3738     29.8474    9.494      0.4212    
3023.200063 2.9494     11.9419    25.1064    26.1125    16.0906    9.8631     7.1144     29.8224    9.1964     0.4192    
3023.400063 2.9115     11.5598    24.6036    25.7867    15.3068    9.3461     6.7655     31.0502    8.8561     0.4138    
3023.600063 2.8865     11.1813    23.9495    25.376     14.5293    8.8859     6.1195     31.8703    8.4765     0.4081    
3023.800063 2.8304     10.9285    23.2554    25.0451    13.9205    8.4487     6.0999     31.6975    8.1105     0.4083    
3024.000063 2.7719     10.6568    23.0878    25.4737    13.1287    8.1654     6.4985     31.5429    7.7294     0.4176    
3024.200063 2.8998     11.1762    23.1613    26.0079    12.2195    7.6928     8.8299     32.4539    7.2008     0.4245    
3024.400063 3.0406     11.38      22.2313    25.3547    11.3063    7.1841     4.4644     33.9877    6.7579     0.4257    
3024.600063 2.7138     9.7749     19.5673    22.6417    10.4114    6.847      3.126      35.524     6.402      0.4198    
3024.800063 2.3863     8.6087     17.0462    20.1275    9.197      7.1766     2.9399     36.863     6.0916     0.4196    
3025.000064 2.2074     7.9668     15.4771    18.6657    8.3599     7.7982     3.2345     36.9973    5.8535     0.4136    
3025.200064 2.095      7.4864     14.4047    17.6152    7.9234     8.2582     3.5631     35.6354    5.7522     0.4081    
3025.400064 2.0248     7.0869     13.617     16.8528    7.5814     8.5041     4.0245     33.9488    5.6951     0.4081    
3025.600064 2.0911     6.9117     13.1122    16.4206    7.2404     8.5681     4.3706     33.1472    5.6124     0.4024    
3025.800064 2.218      6.867      12.5382    15.7052    6.8944     8.5935     3.8629     33.5902    5.5487     0.4091    
3026.000064 2.1631     6.5395     11.6117    14.5477    6.5519     8.798      3.1204     34.5655    5.4403     0.4139    
3026.200064 2.0485     6.1404     10.4914    13.1651    6.2662     9.2985     2.952      35.1441    5.3838     0.4143    
3026.400064 1.9503     5.8475     9.6179     12.1381    6.0424     10.073     3.0603     35.6423    5.366      0.4194    
3026.600064 1.8462     5.7089     9.0518     11.5157    6.0114     10.6344    3.8192     36.6428    5.3422     0.4144    
3026.800064 1.9293     5.8578     8.6433     11.0388    6.1259     10.836     3.5184     36.6852    5.3897     0.4146    
3027.000065 1.8961     5.5943     8.2217     10.5685    6.3643     11.0582    3.6555     35.2192    5.4684     0.4081    
3027.200065 1.8876     5.4801     7.9568     10.2111    6.6262     11.4752    3.8982     34.7773    5.5053     0.4079    
3027.400065 1.9395     5.5587     7.8412     9.9012     7.1023     11.8953    3.8074     36.1165    5.5852     0.4024    
3027.600065 1.8799     5.4146     7.728      9.7983     8.3845     13.2968    3.5224     36.892     5.7537     0.4081    
3027.800065 1.8099     5.3719     7.8287     10.2552    9.7146     14.6874    3.446      36.3845    5.9254     0.4081    
3028.000065 1.726      5.2434     8.0356     11.16      11.652     16.0588    4.0192     36.4151    6.1696     0.4086    
3028.200065 1.6854     5.3235     8.565      12.6727    13.7479    17.5862    4.7295     37.4335    6.5133     0.4113    
3028.400065 1.7209     5.7823     9.5637     14.5182    15.5207    18.3929    11.9763    38.0672    6.8209     0.4067    
3028.600065 2.0944     7.1117     10.9414    15.8636    16.4877    17.6269    24.7632    37.8748    6.9567     0.4201    
3028.800065 2.4793     8.0318     11.8238    15.4436    16.6386    15.2453    9.7915     37.8027    7.0701     0.425     
3029.000065 2.4922     7.5731     11.7268    13.9463    15.7033    13.0837    4.852      38.5476    7.148      0.405     
3029.200066 2.3577     7.6108     10.848     12.1173    14.2507    11.5544    4.7196     39.3465    7.0547     0.4016    
3029.400066 2.2108     7.4494     10.3336    10.8303    12.7034    10.7006    4.3429     39.8207    6.9676     0.3972    
3029.600066 2.0589     7.3844     9.9439     9.8923     11.6936    10.2101    4.4191     40.3126    6.879      0.4067    
3029.800066 1.9959     7.3457     9.8833     9.3379     11.0481    10.0274    4.5477     40.5379    6.8573     0.4083    
